~Version ---------------------------------------------------
VERS.   2.0 : CWLS log ASCII Standard -VERSION 2.0
WRAP.    NO : One line per depth step
DLM . SPACE : Column Data Section Delimiter
~Well ------------------------------------------------------
STRT .F                5346.0 : START DEPTH
STOP .F               15814.0 : STOP DEPTH
STEP .F                   0.5 : STEP
NULL .               -9999.25 : NULL VALUE
COMP .                        : COMPANY
WELL .                        : WELL
FLD  .                        : FIELD
LOC  .                        : LOCATION
PROV .                        : PROVINCE
CNTY .                        : COUNTY
STAT .                        : STATE
CTRY .                        : COUNTRY
SRVC .                        : SERVICE COMPANY
DATE .                        : DATE
UWI  .                        : UNIQUE WELL ID
API  .                        : API NUMBER
SLAT .WGS84 5.848151817335399 : SURFACE LATITUDE
SLON .WGS84 4.674330530443001 : SURFACE LONGITUDE
DATUM.F                   nan : DEPTH DATUM ELEV
~Curve Information -----------------------------------------
DEPT  .F     : 
DTCO  .US/F  : COMPRESSIONAL-WAVE INTERVAL TRANSIT TIME ACOUSTIC SLOWNESS
DTSM  .US/F  : SHEAR-WAVE INTERVAL TRANSIT TIME DELTA-T
AT20  .OHMM  : 20-IN. RESISTIVITY, 2-FT RESOLUTION
AT30  .OHMM  : 30-IN. RESISTIVITY, 2-FT RESOLUTION
AT60  .OHMM  : 60-IN. RESISTIVITY, 2-FT RESOLUTION
GRR   .GAPI  : GAMMA RAY FROM RESISTIVITY
SPR   .MV    : SPONTANEOUS POTENTIAL FROM RES.
HCAL  .IN    : HILT CALIPER FROM DENSITY LOG
HDRA  .G/C3  : DELTA RHO HIP TOOL
PEFZ  .B/E   : HILT PHOTOELECTRIC FACTOR
RHOZ  .G/C3  : HILT BULK DENSITY
DPHZ  .DEC   : DENSITY POROSITY LIMESTONE
NPHI  .DEC   : NEUTRON POROSITY LIMESTONE
AF20  .OHMM  : 20-IN. RESISTIVITY, 4-FT RESOLUTION
AF60  .OHMM  : 60-IN. RESISTIVITY, 4-FT RESOLUTION
AFCO60.MMHO  : 60-IN CONDUCTIVITY, 4-FT RESOLUTION
~Params ----------------------------------------------------
~Other -----------------------------------------------------
~ASCII -----------------------------------------------------
# ...
 13838.50000   84.58030  160.69220   14.02740   18.12060   17.40100  140.48520    3.10000   11.11430    0.24520    4.73680    2.48390    0.13510    0.29230   -9999.25   -9999.25   -9999.25
 13839.00000   82.77290  159.18740   12.13000   20.96300   22.49550  142.04550    4.30910   11.97820    0.23700    4.85710    2.42970    0.16750    0.29830   -9999.25   -9999.25   -9999.25
 13839.50000   83.07060  158.88640    7.11530    8.50980    8.34540  144.31820    4.91220   13.34220    0.22350    4.85710    2.41550    0.16700    0.29620   -9999.25   -9999.25   -9999.25
 13840.00000   83.06770  160.39130    8.28900    7.20530    7.41820  148.63640    5.21230   11.90310    0.21300    4.81200    2.46210    0.14330    0.28300   -9999.25   -9999.25   -9999.25
 13840.50000   82.46320  161.89620   11.80560   11.46820   11.97350  151.81820    5.20860   11.52460    0.20400    4.72180    2.50420    0.12340    0.26640   -9999.25   -9999.25   -9999.25
 13841.00000   81.85870  163.70200   16.01800   16.11070   15.80440  152.50000    4.90250   11.29760    0.19810    4.66170    2.50120    0.11710    0.27180   -9999.25   -9999.25   -9999.25
 13841.50000   81.90100  165.20690   10.35330   13.92810   12.22940  150.65470    5.50560   11.66160    0.19660    4.66170    2.46970    0.14900    0.29650   -9999.25   -9999.25   -9999.25
 13842.00000   82.45430  164.90590    7.17230    9.48170    7.68550  146.36360    6.10870   11.32850    0.19890    4.66170    2.41930    0.17760    0.31060   -9999.25   -9999.25   -9999.25
 13842.50000   81.84910  164.30400    6.83370    6.81880    6.83190  145.45450    6.71180   12.76820    0.20200    4.66170    2.38850    0.18540    0.30550   -9999.25   -9999.25   -9999.25
 13843.00000   82.14690  163.70200    8.77240    7.94170    7.90480  145.90910    6.40580   12.07150    0.20500    4.67670    2.43060    0.15140    0.29910   -9999.25   -9999.25   -9999.25
 13843.50000   83.04610  165.82320   10.07870   10.26800   10.14840  148.63640    5.79680   11.90510    0.20660    4.67670    2.48870    0.12670    0.29230   -9999.25   -9999.25   -9999.25
 13844.00000   83.34470  168.53680   12.15500   12.29790   12.67230  152.94440    5.49070   11.45090    0.20110    4.73680    2.49530    0.12970    0.29160   -9999.25   -9999.25   -9999.25
 13844.50000   83.64240  168.81870    9.10910    8.39840    8.83700  157.04550    5.79090   11.69370    0.18450    4.78200    2.41790    0.16320    0.29100   -9999.25   -9999.25   -9999.25
 13845.00000   83.33800  168.41740    6.60780    6.63460    6.60500  155.90910    6.39390   11.86070    0.16070    4.76690    2.38630    0.18720    0.28860   -9999.25   -9999.25   -9999.25
 13845.50000   83.33500  164.90590   11.74850   10.27080   10.96040  147.72730    6.69390   11.70950    0.13460    4.72180    2.43970    0.15140    0.28050   -9999.25   -9999.25   -9999.25
 13846.00000   83.03130  160.09030   14.46650   14.52910   14.46710  140.45450    6.08480   12.45210    0.13090    4.67670    2.51190    0.11770    0.26150   -9999.25   -9999.25   -9999.25
 13846.50000   79.11850  155.57560   10.81540   10.85830    9.34750  138.15120    6.03610   11.19490    0.12860    4.58650    2.57660    0.07700    0.25220   -9999.25   -9999.25   -9999.25
 13847.00000   75.50650  152.86680    8.60570    8.63760    8.54270  140.22730    5.77520   11.83160    0.12270    4.51130    2.56760    0.08390    0.24880   -9999.25   -9999.25   -9999.25
 13847.50000   74.30060  152.26490   14.27620   11.63890   14.17650  141.81820    5.77220   11.43790    0.11290    4.43610    2.57510    0.07820    0.24280   -9999.25   -9999.25   -9999.25
 13848.00000   74.59840  154.67270   16.28870   16.22540   16.17600  142.51440    6.07300   11.36250    0.10170    4.39100    2.56160    0.08360    0.23860   -9999.25   -9999.25   -9999.25
 13848.50000   78.20440  157.32510   11.44130   11.63410   12.61320  144.50220    6.06930   11.16570    0.09800    4.45110    2.53080    0.10620    0.23800   -9999.25   -9999.25   -9999.25
 13849.00000   81.81040  161.59520    9.96690    9.51710    9.68520  150.99390    6.37010   11.02980    0.11230    4.61650    2.52480    0.09900    0.25000   -9999.25   -9999.25   -9999.25
 13849.50000   83.01050  160.69220   14.28780   12.39030   11.84550  153.86360    6.67010   11.33310    0.11010    4.70680    2.53610    0.11320    0.26570   -9999.25   -9999.25   -9999.25
 13850.00000   83.00750  155.13850   14.09410   14.94600   13.05500  152.72730    6.75280   11.62120    0.12590    4.73680    2.51650    0.10080    0.28130   -9999.25   -9999.25   -9999.25
 13850.50000   82.05250  147.14820    8.67770    9.71670    9.62320  151.34510    7.26680   11.04580    0.12000    4.73680    2.48720    0.13140    0.29130   -9999.25   -9999.25   -9999.25
 13851.00000   78.31580  134.50710   17.06560   14.06230   19.18460  151.58640    6.57280   10.98540    0.11780    4.67290    2.48830    0.12790    0.27650   -9999.25   -9999.25   -9999.25
 13851.50000   73.70340  121.26410   26.67620   29.11030   33.08600  147.49310    5.43520   11.50090    0.10800    4.49690    2.53160    0.10130    0.25540   -9999.25   -9999.25   -9999.25
 13852.00000   71.60250  116.14750   19.13000   24.31370   16.08670  136.80910    4.82320   11.13760    0.04790    4.27320    2.60330    0.05410    0.19550   -9999.25   -9999.25   -9999.25
 13852.50000   72.81290  114.94360   16.31300   18.14970   20.94100  132.25040    4.21110   10.83480    0.03810    4.00310    2.64380    0.03810    0.19930   -9999.25   -9999.25   -9999.25
 13853.00000   75.22480  113.73970   24.90030   22.22960   27.44880  131.35010    4.20520   10.89570    0.03360    4.09390    2.60100    0.10790    0.26820   -9999.25   -9999.25   -9999.25
 13853.50000   73.42620  111.63280    9.11690   10.01900    9.90480  135.95450    4.19920   10.82030    0.06830    4.36520    2.45930    0.16660    0.32890   -9999.25   -9999.25   -9999.25
 13854.00000   68.92080  108.32200    6.01610    6.79370    9.37140  142.48140    4.19320   10.85090    0.08260    4.54620    2.30180    0.30000    0.32100   -9999.25   -9999.25   -9999.25
 13854.50000   65.01700  106.51620    8.39170   14.37340   12.71830  143.84330    3.88430   12.13920    0.07130    4.62200    2.19810    0.26920    0.25900   -9999.25   -9999.25   -9999.25
 13855.00000   62.01530  105.59400   17.54300   29.16800   43.28400  127.93150    3.57530   12.89700    0.07290    4.59250    2.36270    0.19670    0.20690   -9999.25   -9999.25   -9999.25
 13855.50000   60.51750  105.31230   32.19350   95.74600  108.87900  110.21090    3.56930   10.94280    0.05850    4.36760    2.57710    0.10460    0.16330   -9999.25   -9999.25   -9999.25
 13856.00000   59.62110  106.51620   71.45760  177.12340  153.45310   91.79060    2.95730   10.65520    0.03160    3.97720    2.67940    0.02210    0.10460   -9999.25   -9999.25   -9999.25
 13856.50000   58.41200  109.22500   44.61110  102.43370  117.10620   89.51620    2.34530   10.53430    0.00900    3.69200    2.66670    0.03020    0.05940   -9999.25   -9999.25   -9999.25
 13857.00000   57.49170  112.83670   27.44360   33.08240   52.05260  101.78620    1.73320   10.48910    0.00300    3.60240    2.64340    0.03990    0.05790   -9999.25   -9999.25   -9999.25
 13857.50000   57.83580  116.74940   25.26390   27.24890   18.64440  107.92030    1.42420   10.45910    0.00760    3.57290    2.64570    0.03570    0.07300   -9999.25   -9999.25   -9999.25
 13858.00000   60.54840  120.66220   24.56840   26.51240   20.40610  107.00900    1.11520   10.45950    0.00460    3.51230    2.66080    0.02890    0.07990   -9999.25   -9999.25   -9999.25
 13858.50000   62.96030  123.37100   23.33900   25.08660   21.13070  102.23400    1.10910   10.45980   -0.00140    3.41970    2.66230    0.03920    0.07840   -9999.25   -9999.25   -9999.25
 13859.00000   63.56770  123.97290   19.70610   27.27120   22.49460  101.30640    1.10180   10.44490   -0.00660    3.34910    2.61420    0.06870    0.08890   -9999.25   -9999.25   -9999.25
 13859.50000   64.17510  122.76900   13.18540   21.10900   17.22700  104.72950    1.40040   10.43000   -0.00810    3.56040    2.53300    0.09910    0.11480   -9999.25   -9999.25   -9999.25
