~Version ---------------------------------------------------
VERS.   2.0 : CWLS log ASCII Standard -VERSION 2.0
WRAP.    NO : One line per depth step
DLM . SPACE : Column Data Section Delimiter
~Well ------------------------------------------------------
STRT .F                5346.0 : START DEPTH
STOP .F               15814.0 : STOP DEPTH
STEP .F                   0.5 : STEP
NULL .               -9999.25 : NULL VALUE
COMP .                        : COMPANY
WELL .                        : WELL
FLD  .                        : FIELD
LOC  .                        : LOCATION
PROV .                        : PROVINCE
CNTY .                        : COUNTY
STAT .                        : STATE
CTRY .                        : COUNTRY
SRVC .                        : SERVICE COMPANY
DATE .                        : DATE
UWI  .                        : UNIQUE WELL ID
API  .                        : API NUMBER
SLAT .WGS84 5.848151817335399 : SURFACE LATITUDE
SLON .WGS84 4.674330530443001 : SURFACE LONGITUDE
DATUM.F                   nan : DEPTH DATUM ELEV
~Curve Information -----------------------------------------
DEPT  .F     : 
DTCO  .US/F  : COMPRESSIONAL-WAVE INTERVAL TRANSIT TIME ACOUSTIC SLOWNESS
DTSM  .US/F  : SHEAR-WAVE INTERVAL TRANSIT TIME DELTA-T
AT20  .OHMM  : 20-IN. RESISTIVITY, 2-FT RESOLUTION
AT30  .OHMM  : 30-IN. RESISTIVITY, 2-FT RESOLUTION
AT60  .OHMM  : 60-IN. RESISTIVITY, 2-FT RESOLUTION
GRR   .GAPI  : GAMMA RAY FROM RESISTIVITY
SPR   .MV    : SPONTANEOUS POTENTIAL FROM RES.
HCAL  .IN    : HILT CALIPER FROM DENSITY LOG
HDRA  .G/C3  : DELTA RHO HIP TOOL
PEFZ  .B/E   : HILT PHOTOELECTRIC FACTOR
RHOZ  .G/C3  : HILT BULK DENSITY
DPHZ  .DEC   : DENSITY POROSITY LIMESTONE
NPHI  .DEC   : NEUTRON POROSITY LIMESTONE
AF20  .OHMM  : 20-IN. RESISTIVITY, 4-FT RESOLUTION
AF60  .OHMM  : 60-IN. RESISTIVITY, 4-FT RESOLUTION
AFCO60.MMHO  : 60-IN CONDUCTIVITY, 4-FT RESOLUTION
~Params ----------------------------------------------------
~Other -----------------------------------------------------
~ASCII -----------------------------------------------------
# ...
 11430.50000   65.17770  117.10150   21.84030   21.71760   21.63160  119.31530    1.74920    9.37390   -0.00850    3.42200    2.65320    0.03370    0.12360   -9999.25   -9999.25   -9999.25
 11431.00000   65.47230  118.29180   21.69260   21.41800   21.78510  117.72120    1.74620    9.37390   -0.00850    3.39220    2.65100    0.03430    0.12540   -9999.25   -9999.25   -9999.25
 11431.50000   66.66850  119.48500   20.08600   17.86330   18.97430  115.90130    2.04550    9.34350   -0.00840    3.36020    2.65550    0.03100    0.12970   -9999.25   -9999.25   -9999.25
 11432.00000   67.56420  120.37180   17.62120   16.92040   17.22670  116.35070    2.64670    9.34350   -0.00760    3.27230    2.66470    0.02670    0.13590   -9999.25   -9999.25   -9999.25
 11432.50000   68.45980  121.26450   17.00370   16.47710   16.52950  116.80120    2.94590    9.37390   -0.00680    3.24250    2.66230    0.03030    0.14750   -9999.25   -9999.25   -9999.25
 11433.00000   69.05490  122.45230   16.05810   15.16660   15.75110  113.39170    2.33790    9.37390   -0.00680    3.22770    2.63530    0.04060    0.15350   -9999.25   -9999.25   -9999.25
 11433.50000   69.04880  123.34180   14.63220   14.75400   14.80310  111.34480    0.82440    9.38910   -0.00600    3.22810    2.62250    0.05170    0.15890   -9999.25   -9999.25   -9999.25
 11434.00000   68.74110  123.32970   14.73630   14.85820   14.70250  109.75190    0.52000    9.37390   -0.00510    3.21320    2.64810    0.04300    0.16140   -9999.25   -9999.25   -9999.25
 11434.50000   67.53310  122.40430   15.04750   14.85980   15.01550  110.88910    1.42270    9.34350   -0.00290    3.19850    2.67830    0.02880    0.15990   -9999.25   -9999.25   -9999.25
 11435.00000   66.32510  120.84430   15.15400   14.96440   15.22790  112.23910    1.72250    9.32830   -0.00360    3.21390    2.68740    0.01520    0.15270   -9999.25   -9999.25   -9999.25
 11435.50000   65.41760  118.38520   15.58150   15.92690   15.87670  110.76490    0.20830    9.29790   -0.00580    3.24430    2.67230    0.01310    0.14300   -9999.25   -9999.25   -9999.25
 11436.00000   64.81060  115.76630   18.78490   19.73640   19.81610  107.79980   -1.30530    9.28270   -0.00800    3.30480    2.65730    0.02460    0.13520   -9999.25   -9999.25   -9999.25
 11436.50000   64.50420  114.85290   22.02880   21.74470   21.09370  105.64360   -1.65100    9.26750   -0.00800    3.33530    2.65280    0.03210    0.13040   -9999.25   -9999.25   -9999.25
 11437.00000   64.19780  114.84110   21.72900   21.00790   19.28300  108.58920   -1.31120    9.28270   -0.00570    3.36570    2.66190    0.03030    0.13280   -9999.25   -9999.25   -9999.25
 11437.50000   64.19180  114.82920   19.58930   18.94010   17.62760  111.53480   -1.31420    9.29790   -0.00490    3.32080    2.66490    0.02660    0.14040   -9999.25   -9999.25   -9999.25
 11438.00000   64.78700  114.81740   19.05710   18.68190   17.14900  114.02650   -0.71290    9.31310   -0.00630    3.27590    2.65840    0.03050    0.14550   -9999.25   -9999.25   -9999.25
 11438.50000   64.78110  114.50500   18.79710   18.68380   17.03430  115.15670   -0.67520    9.32830   -0.00630    3.27620    2.63490    0.04020    0.14540   -9999.25   -9999.25   -9999.25
 11439.00000   65.07570  115.09430   18.67060   19.11110   17.15690  115.38030   -0.41680    9.34350   -0.00550    3.25950    2.64540    0.04440    0.13830   -9999.25   -9999.25   -9999.25
 11439.50000   65.06980  116.28450   19.60000   19.61490   17.40050  113.78620   -0.11760    9.37390    0.00280    3.24670    2.66500    0.03460    0.13590   -9999.25   -9999.25   -9999.25
 11440.00000   65.36440  117.17430   19.74750   19.08170   16.81210  110.60470    0.78570    9.37390    0.00970    3.24700    2.66050    0.02630    0.13590   -9999.25   -9999.25   -9999.25
 11440.50000   65.95950  117.76350   18.54950   18.05670   15.80030  109.46560    1.68910    9.40430    0.01440    3.30760    2.65910    0.03080    0.13680   -9999.25   -9999.25   -9999.25
 11441.00000   66.59500  118.65320   15.82250   15.83530   14.84930  106.96490    2.29040    9.43470    0.02250    3.33800    2.66060    0.02840    0.13860   -9999.25   -9999.25   -9999.25
 11441.50000   68.04990  120.52090   14.66490   14.57580   14.05540  102.87570    1.98450    9.43470    0.02630    3.30820    2.66360    0.03260    0.14440   -9999.25   -9999.25   -9999.25
 11442.00000   69.24610  123.49750   13.97330   13.79280   13.06400  101.05580    2.28370    9.44980    0.02030    3.24820    2.67870    0.01960    0.15040   -9999.25   -9999.25   -9999.25
 11442.50000   70.74280  126.47420   13.40690   13.14250   11.98990  104.22830    3.48920    9.46500    0.01660    3.21830    2.66750    0.02140    0.15520   -9999.25   -9999.25   -9999.25
 11443.00000   71.93900  130.02390   12.86340   12.78520   11.82630  107.40080    3.78910    9.52580    0.04220    3.20360    2.67500    0.02230    0.15160   -9999.25   -9999.25   -9999.25
 11443.50000   72.23510  133.31790   12.68830   12.61090   12.07810  108.98480    2.87900    9.55620    0.07970    3.36960    2.65050    0.03070    0.15500   -9999.25   -9999.25   -9999.25
 11444.00000   72.52970  135.10920   12.16030   10.90760   10.16150  110.80120    3.17820    9.58660    0.11810    3.56570    2.61110    0.05120    0.17230   -9999.25   -9999.25   -9999.25
 11444.50000   71.32020  136.00190    9.78110    8.80400    8.66810  113.63950    3.47730    9.61700    0.14440    3.67140    2.60510    0.06200    0.19680   -9999.25   -9999.25   -9999.25
 11445.00000   70.71330  135.38600    8.61550    8.44710    9.16340  119.24430    2.87010    9.64740    0.14770    3.70180    2.61490    0.05630    0.23000   -9999.25   -9999.25   -9999.25
 11445.50000   70.70730  133.57100   10.60510   11.64110   12.34150  121.22110    2.56500    9.57140    0.11450    3.61000    2.63680    0.04580    0.23300   -9999.25   -9999.25   -9999.25
 11446.00000   70.70140  131.75610   15.41200   14.92730   15.19200  120.30780    2.25980    9.55620    0.03910    3.45830    2.64740    0.03880    0.20380   -9999.25   -9999.25   -9999.25
 11446.50000   70.69550  129.94110   16.29090   15.31430   14.67840  118.71480    2.25620    9.54100    0.01580    3.40150    2.64960    0.03690    0.19180   -9999.25   -9999.25   -9999.25
 11447.00000   70.08860  129.32820   12.96720   12.53330   12.52120  120.97960    1.95110    9.55620    0.01020    3.44700    2.63910    0.04000    0.19510   -9999.25   -9999.25   -9999.25
 11447.50000   70.08260  128.71530   13.51870   14.00100   13.14530  122.11090    1.64600    9.55620    0.02530    3.52260    2.65800    0.03420    0.20230   -9999.25   -9999.25   -9999.25
 11448.00000   70.67780  128.70320   15.31410   15.42570   15.41640  121.65140    1.64310    9.57140    0.03510    3.55310    2.68740    0.01950    0.16890   -9999.25   -9999.25   -9999.25
 11448.50000   70.33060  128.09010   16.75780   15.96950   16.07240  120.74040    1.94220    9.58660    0.03810    3.55340    2.71540   -0.00040    0.16260   -9999.25   -9999.25   -9999.25
 11449.00000   69.46240  126.57320   13.52430   13.06950   13.52260  123.00410    2.54350    9.58660    0.03440    3.55360    2.71330   -0.00400    0.16620   -9999.25   -9999.25   -9999.25
 11449.50000   68.85540  125.05870   13.15180   13.25290   12.70800  125.94960    2.84330    9.61700    0.03520    3.52380    2.69350    0.00870    0.17470   -9999.25   -9999.25   -9999.25
 11450.00000   68.55050  123.24670   14.69930   15.53900   15.64480  126.62600    3.44460    9.58660    0.03210    3.50900    2.68780    0.01320    0.17920   -9999.25   -9999.25   -9999.25
 11450.50000   68.31860  122.81440   17.86850   17.72250   17.97060  123.67140    4.04590    9.57140    0.02160    3.46420    2.68530    0.01500    0.16720   -9999.25   -9999.25   -9999.25
 11451.00000   67.82660  121.22480   19.27220   21.21520   19.26210  114.29360    4.64710    9.51060    0.00960    3.40430    2.70870    0.00500    0.14880   -9999.25   -9999.25   -9999.25
 11451.50000   67.32980  119.92080   22.22270   25.22130   20.64650  101.23960    4.94560    9.49540    0.00690    3.37440    2.72150   -0.00550    0.13170   -9999.25   -9999.25   -9999.25
