~Version ---------------------------------------------------
VERS.   2.0 : CWLS log ASCII Standard -VERSION 2.0
WRAP.    NO : One line per depth step
DLM . SPACE : Column Data Section Delimiter
~Well ------------------------------------------------------
STRT .F                5346.0 : START DEPTH
STOP .F               15814.0 : STOP DEPTH
STEP .F                   0.5 : STEP
NULL .               -9999.25 : NULL VALUE
COMP .                        : COMPANY
WELL .                        : WELL
FLD  .                        : FIELD
LOC  .                        : LOCATION
PROV .                        : PROVINCE
CNTY .                        : COUNTY
STAT .                        : STATE
CTRY .                        : COUNTRY
SRVC .                        : SERVICE COMPANY
DATE .                        : DATE
UWI  .                        : UNIQUE WELL ID
API  .                        : API NUMBER
SLAT .WGS84 5.848151817335399 : SURFACE LATITUDE
SLON .WGS84 4.674330530443001 : SURFACE LONGITUDE
DATUM.F                   nan : DEPTH DATUM ELEV
~Curve Information -----------------------------------------
DEPT  .F     : 
DTCO  .US/F  : COMPRESSIONAL-WAVE INTERVAL TRANSIT TIME ACOUSTIC SLOWNESS
DTSM  .US/F  : SHEAR-WAVE INTERVAL TRANSIT TIME DELTA-T
AT20  .OHMM  : 20-IN. RESISTIVITY, 2-FT RESOLUTION
AT30  .OHMM  : 30-IN. RESISTIVITY, 2-FT RESOLUTION
AT60  .OHMM  : 60-IN. RESISTIVITY, 2-FT RESOLUTION
GRR   .GAPI  : GAMMA RAY FROM RESISTIVITY
SPR   .MV    : SPONTANEOUS POTENTIAL FROM RES.
HCAL  .IN    : HILT CALIPER FROM DENSITY LOG
HDRA  .G/C3  : DELTA RHO HIP TOOL
PEFZ  .B/E   : HILT PHOTOELECTRIC FACTOR
RHOZ  .G/C3  : HILT BULK DENSITY
DPHZ  .DEC   : DENSITY POROSITY LIMESTONE
NPHI  .DEC   : NEUTRON POROSITY LIMESTONE
AF20  .OHMM  : 20-IN. RESISTIVITY, 4-FT RESOLUTION
AF60  .OHMM  : 60-IN. RESISTIVITY, 4-FT RESOLUTION
AFCO60.MMHO  : 60-IN CONDUCTIVITY, 4-FT RESOLUTION
~Params ----------------------------------------------------
~Other -----------------------------------------------------
~ASCII -----------------------------------------------------
# ...
 15773.50000   -9999.25   -9999.25    3.38270    3.38270    3.35930  125.38470   -4.84850    5.93230    0.06180    5.96900    2.68800    0.01330    0.27460   -9999.25   -9999.25   -9999.25
 15774.00000   -9999.25   -9999.25    3.42980    3.38270    3.40610  125.83680   -4.84850    5.90180    0.05660    5.89410    2.68270    0.01690    0.27370   -9999.25   -9999.25   -9999.25
 15774.50000   -9999.25   -9999.25    3.33620    3.35930    3.38270  118.79920   -4.84850    5.97740    0.04910    5.96960    2.67670    0.02050    0.26610   -9999.25   -9999.25   -9999.25
 15775.00000   -9999.25   -9999.25    3.33620    3.35930    3.33620  114.93920   -4.79800    5.84090    0.04540    6.01500    2.68570    0.01720    0.26610   -9999.25   -9999.25   -9999.25
 15775.50000   -9999.25   -9999.25    3.40610    3.38270    3.35930  118.11400   -4.54550    5.81050    0.05070    5.98260    2.70230    0.00550    0.27130   -9999.25   -9999.25   -9999.25
 15776.00000   -9999.25   -9999.25    3.45360    3.45360    3.42980  124.23880   -4.54550    5.93150    0.05530    5.86530    2.70830   -0.00050    0.27180   -9999.25   -9999.25   -9999.25
 15776.50000   -9999.25   -9999.25    3.42980    3.45360    3.45360  127.86740   -4.24240    5.88590    0.05360    5.80540    2.70230    0.00520    0.26580   -9999.25   -9999.25   -9999.25
 15777.00000   -9999.25   -9999.25    3.38270    3.40610    3.42980  128.77350   -4.54550    5.85540    0.04770    5.77560    2.65600    0.02230    0.25860   -9999.25   -9999.25   -9999.25
 15777.50000   -9999.25   -9999.25    3.35930    3.38270    3.40610  123.09740   -4.54550    5.84010    0.02220    5.82110    2.60150    0.05120    0.26280   -9999.25   -9999.25   -9999.25
 15778.00000   -9999.25   -9999.25    3.42980    3.40610    3.42980  116.95410   -4.24240    5.82490   -0.00480    5.97180    2.58270    0.07440    0.26880   -9999.25   -9999.25   -9999.25
 15778.50000   -9999.25   -9999.25    3.50170    3.45360    3.50170  114.01560   -4.24240    5.88530   -0.01000    6.01710    2.59700    0.06900    0.26970   -9999.25   -9999.25   -9999.25
 15779.00000   -9999.25   -9999.25    3.52600    3.47750    3.50170  120.36740   -4.54550    5.91540    0.00500    5.80690    2.61290    0.05960    0.26550   -9999.25   -9999.25   -9999.25
 15779.50000   -9999.25   -9999.25    3.47750    3.50170    3.45360  129.89620   -4.54550    5.91530    0.01180    5.50650    2.61650    0.05690    0.26120   -9999.25   -9999.25   -9999.25
 15780.00000   -9999.25   -9999.25    3.42980    3.45360    3.42980  133.97860   -4.84850    5.88480    0.01480    5.20600    2.61050    0.05930    0.25730   -9999.25   -9999.25   -9999.25
 15780.50000   -9999.25   -9999.25    3.40610    3.38270    3.40610  136.01880   -4.84850    5.88470    0.01930    4.96570    2.62480    0.05300    0.25430   -9999.25   -9999.25   -9999.25
 15781.00000   -9999.25   -9999.25    3.38270    3.35930    3.40610  135.10880   -4.84850    5.85420    0.04070    4.76990    2.64950    0.03940    0.25250   -9999.25   -9999.25   -9999.25
 15781.50000   -9999.25   -9999.25    3.40610    3.35930    3.42980  133.97190   -4.84850    5.80860    0.06810    4.77470    2.68080    0.01780    0.25070   -9999.25   -9999.25   -9999.25
 15782.00000   -9999.25   -9999.25    3.42980    3.38270    3.42980  133.96970   -4.84850    5.76300    0.09280    4.89150    2.70300   -0.00140    0.25010   -9999.25   -9999.25   -9999.25
 15782.50000   -9999.25   -9999.25    3.45360    3.40610    3.42980  134.19440   -4.84850    5.74770    0.10480    5.07220    2.71130   -0.00200    0.25280   -9999.25   -9999.25   -9999.25
 15783.00000   -9999.25   -9999.25    3.45360    3.42980    3.42980  132.14970   -4.84850    5.74750    0.10780    5.17770    2.71280   -0.00170    0.26630   -9999.25   -9999.25   -9999.25
 15783.50000   -9999.25   -9999.25    3.42980    3.42980    3.42980  125.77550   -4.84850    5.74740    0.10110    5.05780    2.70880    0.00100    0.27500   -9999.25   -9999.25   -9999.25
 15784.00000   -9999.25   -9999.25    3.42980    3.40610    3.45360  122.16040   -4.54550    5.76240    0.09430    4.92270    2.70230    0.00290    0.27560   -9999.25   -9999.25   -9999.25
 15784.50000   -9999.25   -9999.25    3.42980    3.40610    3.45360  121.93120   -4.54550    5.79260    0.08910    4.83280    2.69700    0.00340    0.27410   -9999.25   -9999.25   -9999.25
 15785.00000   -9999.25   -9999.25    3.45360    3.40610    3.45360  124.46260   -4.54550    5.82270    0.08540    4.80300    2.68500    0.01280    0.27770   -9999.25   -9999.25   -9999.25
 15785.50000   -9999.25   -9999.25    3.50170    3.45360    3.45360  123.74160   -4.54550    5.88320    0.08840    4.84840    2.68270    0.01510    0.28040   -9999.25   -9999.25   -9999.25
 15786.00000   -9999.25   -9999.25    3.50170    3.47750    3.45360  120.33540   -4.54550    5.91340    0.10040    4.84870    2.68800    0.01240    0.27350   -9999.25   -9999.25   -9999.25
 15786.50000   -9999.25   -9999.25    3.47750    3.47750    3.45360  118.06390   -4.24240    5.89800    0.10640    4.80390    2.69100    0.01000    0.26170   -9999.25   -9999.25   -9999.25
 15787.00000   -9999.25   -9999.25    3.47750    3.45360    3.45360  116.70010   -3.93940    5.86750    0.10790    4.72660    2.69320    0.01060    0.25900   -9999.25   -9999.25   -9999.25
 15787.50000   -9999.25   -9999.25    3.52600    3.45360    3.47750  116.47090   -3.93940    5.76130    0.10560    4.61900    2.68420    0.01550    0.25900   -9999.25   -9999.25   -9999.25
 15788.00000   -9999.25   -9999.25    3.55040    3.45360    3.47750  118.05720   -3.93940    5.68540    0.10650    4.48910    2.67290    0.02210    0.25770   -9999.25   -9999.25   -9999.25
 15788.50000   -9999.25   -9999.25    3.57510    3.45360    3.45360  119.87040   -3.93940    5.65500    0.10800    4.30890    2.64880    0.03230    0.25300   -9999.25   -9999.25   -9999.25
 15789.00000   -9999.25   -9999.25    3.65000    3.45360    3.45360  120.77590   -3.93940    5.68510    0.10870    4.18890    2.64140    0.04040    0.25020   -9999.25   -9999.25   -9999.25
 15789.50000   -9999.25   -9999.25    3.75230    3.42980    3.47750  121.68130   -3.93940    5.62440    0.10730    4.09900    2.66620    0.02810    0.24870   -9999.25   -9999.25   -9999.25
 15790.00000   -9999.25   -9999.25    3.83100    3.45360    3.50170  122.58680   -3.93940    5.73030    0.10730    4.06910    2.68720    0.01520    0.26110   -9999.25   -9999.25   -9999.25
 15790.50000   -9999.25   -9999.25    3.82850    3.47750    3.50170  123.03900   -3.93940    5.86650    0.10800    4.06950    2.69620    0.00880    0.27220   -9999.25   -9999.25   -9999.25
 15791.00000   -9999.25   -9999.25    3.67290    3.45360    3.45360  122.80920   -3.93940    5.80570    0.11180    4.08480    2.69020    0.00990    0.28040   -9999.25   -9999.25   -9999.25
 15791.50000   -9999.25   -9999.25    3.52230    3.45360    3.45360  118.94920   -3.93940    5.80560    0.12010    4.05500    2.68050    0.01790   -9999.25   -9999.25   -9999.25   -9999.25
 15792.00000   -9999.25   -9999.25    3.33620    3.45360    3.42980  106.12090   -3.93940    5.82060    0.12680    3.93500    2.68270   -0.00050   -9999.25   -9999.25   -9999.25   -9999.25
 15792.50000   -9999.25   -9999.25    3.24520    3.45360    3.45360   90.12460   -4.24240    5.82040    0.13670    3.64430    2.71580   -0.00350   -9999.25   -9999.25   -9999.25   -9999.25
 15793.00000   -9999.25   -9999.25    3.17860    3.47750    3.47750   86.26450   -4.54550    5.82030    0.14260    3.42440    2.71350    0.00040   -9999.25   -9999.25   -9999.25   -9999.25
 15793.50000   -9999.25   -9999.25    3.20060    3.47750    3.50170  104.18970   -4.54550    5.82010    0.12760    3.53000    2.68500    0.02240   -9999.25   -9999.25   -9999.25   -9999.25
 15794.00000   -9999.25   -9999.25    3.26770    3.47750    3.47750  112.58380   -4.84850    5.83520    0.10740    3.68070    2.63080    0.05520   -9999.25   -9999.25   -9999.25   -9999.25
 15794.50000   -9999.25   -9999.25    3.35930    3.45360    3.45360  118.70870   -4.84850    5.85020    0.07370    3.83130    2.61050    0.06060   -9999.25   -9999.25   -9999.25   -9999.25
