~Version ---------------------------------------------------
VERS.   2.0 : CWLS log ASCII Standard -VERSION 2.0
WRAP.    NO : One line per depth step
DLM . SPACE : Column Data Section Delimiter
~Well ------------------------------------------------------
STRT .F                5346.0 : START DEPTH
STOP .F               15814.0 : STOP DEPTH
STEP .F                   0.5 : STEP
NULL .               -9999.25 : NULL VALUE
COMP .                        : COMPANY
WELL .                        : WELL
FLD  .                        : FIELD
LOC  .                        : LOCATION
PROV .                        : PROVINCE
CNTY .                        : COUNTY
STAT .                        : STATE
CTRY .                        : COUNTRY
SRVC .                        : SERVICE COMPANY
DATE .                        : DATE
UWI  .                        : UNIQUE WELL ID
API  .                        : API NUMBER
SLAT .WGS84 5.848151817335399 : SURFACE LATITUDE
SLON .WGS84 4.674330530443001 : SURFACE LONGITUDE
DATUM.F                   nan : DEPTH DATUM ELEV
~Curve Information -----------------------------------------
DEPT  .F     : 
DTCO  .US/F  : COMPRESSIONAL-WAVE INTERVAL TRANSIT TIME ACOUSTIC SLOWNESS
DTSM  .US/F  : SHEAR-WAVE INTERVAL TRANSIT TIME DELTA-T
AT20  .OHMM  : 20-IN. RESISTIVITY, 2-FT RESOLUTION
AT30  .OHMM  : 30-IN. RESISTIVITY, 2-FT RESOLUTION
AT60  .OHMM  : 60-IN. RESISTIVITY, 2-FT RESOLUTION
GRR   .GAPI  : GAMMA RAY FROM RESISTIVITY
SPR   .MV    : SPONTANEOUS POTENTIAL FROM RES.
HCAL  .IN    : HILT CALIPER FROM DENSITY LOG
HDRA  .G/C3  : DELTA RHO HIP TOOL
PEFZ  .B/E   : HILT PHOTOELECTRIC FACTOR
RHOZ  .G/C3  : HILT BULK DENSITY
DPHZ  .DEC   : DENSITY POROSITY LIMESTONE
NPHI  .DEC   : NEUTRON POROSITY LIMESTONE
AF20  .OHMM  : 20-IN. RESISTIVITY, 4-FT RESOLUTION
AF60  .OHMM  : 60-IN. RESISTIVITY, 4-FT RESOLUTION
AFCO60.MMHO  : 60-IN CONDUCTIVITY, 4-FT RESOLUTION
~Params ----------------------------------------------------
~Other -----------------------------------------------------
~ASCII -----------------------------------------------------
# ...
 10463.00000   75.20920  148.07840    9.68040   10.12450   10.64990  114.43120    4.62700    9.26310    0.04320    3.70480    2.66440    0.02760    0.22800   -9999.25   -9999.25   -9999.25
 10463.50000   76.36360  150.12960    9.09360    9.77670   10.28750  115.57170    4.60470    9.30800    0.03420    3.64460    2.63710    0.04390    0.23040   -9999.25   -9999.25   -9999.25
 10464.00000   77.56570  151.62630    8.66150    9.44070    9.93740  116.98960    4.58690    9.26130    0.04100    3.64460    2.62280    0.04960    0.23160   -9999.25   -9999.25   -9999.25
 10464.50000   79.06840  152.52200    8.30730    9.05340    9.53290  121.57440    4.56900    9.42770    0.05300    3.68980    2.62750    0.05110    0.23370   -9999.25   -9999.25   -9999.25
 10465.00000   78.46730  152.51610    7.85800    8.68200    9.14490  123.29050    4.55120    9.42700    0.05380    3.73490    2.64330    0.04120    0.23730   -9999.25   -9999.25   -9999.25
 10465.50000   76.36360  151.00750    7.64180    8.38370    8.59240  122.83880    4.53330    9.50220    0.04330    3.75000    2.62830    0.04720    0.24090   -9999.25   -9999.25   -9999.25
 10466.00000   74.86100  149.79950    7.85480    8.62280    9.14490  124.20310    3.60500    9.42550    0.04630    3.75000    2.62450    0.04960    0.24710   -9999.25   -9999.25   -9999.25
 10466.50000   74.56050  149.19260    7.97240    8.67320    9.27250  126.92850    2.37320    9.48550    0.05080    3.73490    2.62300    0.04810    0.24910   -9999.25   -9999.25   -9999.25
 10467.00000   74.86100  148.58560    9.37750    8.91300    9.40180  127.61100    0.83760    9.66730    0.04330    3.70480    2.64710    0.03610    0.23840   -9999.25   -9999.25   -9999.25
 10467.50000   75.16150  147.97860   10.79430   11.12040   11.89780  123.75600    0.51590    9.33190    0.02900    3.67420    2.65540    0.03240    0.23090   -9999.25   -9999.25   -9999.25
 10468.00000   75.46210  147.67220   10.07000   11.58920   12.23200  120.58120    0.80220    9.23990    0.01310    3.62810    2.64330    0.04020    0.23510   -9999.25   -9999.25   -9999.25
 10468.50000   75.46210  147.36580    8.94980   10.51390   10.79840  121.03730    1.39130    9.22400    0.00580    3.59690    2.62450    0.05110    0.23780   -9999.25   -9999.25   -9999.25
 10469.00000   75.16150  147.35990    8.29170    9.40800    9.01910  123.98970    1.36900    9.42080    0.02910    3.58430    2.62130    0.05440    0.23120   -9999.25   -9999.25   -9999.25
 10469.50000   74.26000  144.27230    8.23320    9.08550    8.89510  125.58040    1.35110    9.40490    0.03210    3.61450    2.63360    0.04380    0.22570   -9999.25   -9999.25   -9999.25
 10470.00000   73.61840  139.49570    9.25950   11.57250   12.06370  124.90180    0.72630    9.31300    0.01940    3.62950    2.64180    0.03990    0.22330   -9999.25   -9999.25   -9999.25
 10470.50000   72.75730  137.72380   10.34230   12.39810   12.57550  124.22270   -0.80900    9.20580    0.00810    3.61450    2.63790    0.04260    0.22000   -9999.25   -9999.25   -9999.25
 10471.00000   72.45680  137.11690   10.92920   12.22350   12.57550  124.22550   -1.12590    9.19010    0.00210    3.58430    2.63510    0.04530    0.21240   -9999.25   -9999.25   -9999.25
 10471.50000   72.15630  138.31310   12.03950   12.49240   13.66520  122.63930    0.06580    9.66050   -0.00010    3.58430    2.64560    0.03870    0.19290   -9999.25   -9999.25   -9999.25
 10472.00000   72.45680  141.61290   12.28970   13.30010   15.05640  118.10300    0.65550    9.26420   -0.00080    3.61450    2.63660    0.04230    0.19830   -9999.25   -9999.25   -9999.25
 10472.50000   73.05790  144.31180   10.88700   12.04210   13.95210  112.43200    1.24430    9.29400   -0.00010    3.64460    2.62600    0.04920    0.21090   -9999.25   -9999.25   -9999.25
 10473.00000   74.56050  146.40960    9.69630   10.85030   11.89780  110.15060    1.52960    9.32370    0.00590    3.67470    2.63510    0.04480    0.22050   -9999.25   -9999.25   -9999.25
 10473.50000   75.46210  147.30670    9.97770   10.47750   11.73410  114.74540    1.51140    9.35350    0.01200    3.64460    2.66220    0.02900    0.22500   -9999.25   -9999.25   -9999.25
 10474.00000   74.86100  146.39780   10.04550   10.62000   12.31700  125.27640    1.18970    9.45880    0.01200    3.62950    2.66820    0.02450    0.22350   -9999.25   -9999.25   -9999.25
 10474.50000   74.86100  145.49030   10.04290   10.69110   11.89780  131.78040    1.16810    9.53420    0.00900    3.63080    2.65390    0.03230    0.21600   -9999.25   -9999.25   -9999.25
 10475.00000   75.16150  145.18380    9.63220   10.18090   11.41360  131.95910    0.54330    9.42710    0.00900    3.64460    2.65690    0.02840    0.20690   -9999.25   -9999.25   -9999.25
 10475.50000   75.16150  144.87740    9.76460   10.53600   11.73410  126.96940   -0.68850    9.83650    0.01200    3.67470    2.66820    0.02380    0.20180   -9999.25   -9999.25   -9999.25
 10476.00000   75.16150  144.27040   10.17680   10.92800   12.40260  123.11390   -0.09940    9.68380    0.01580    3.67470    2.66670    0.02410    0.21320   -9999.25   -9999.25   -9999.25
 10476.50000   74.86100  144.57700    9.89670   10.45620   12.06370  123.79690   -0.11720    9.54630    0.01730    3.67470    2.66140    0.02710    0.22560   -9999.25   -9999.25   -9999.25
 10477.00000   75.16150  146.09500    9.49200   10.02720   11.57270  124.02550   -0.13510    9.56070    0.01360    3.65960    2.64280    0.03920    0.23250   -9999.25   -9999.25   -9999.25
 10477.50000   76.11800  147.61310   10.03060   11.19830   12.75090  119.48970   -0.75990    9.65120    0.01210    3.67470    2.63960    0.03980    0.22820   -9999.25   -9999.25   -9999.25
 10478.00000   77.26520  148.75320    9.95940   10.22990   13.20020  117.67600   -1.38470    9.68100    0.02260    3.71990    2.63360    0.04460    0.21260   -9999.25   -9999.25   -9999.25
 10478.50000   77.26520  149.04930    9.47570    9.87840   11.41360  118.81340   -2.00960    9.52810    0.04210    3.76510    2.64410    0.03750    0.21200   -9999.25   -9999.25   -9999.25
 10479.00000   75.16150  146.63770    9.28930    9.87510   11.57270  123.58120   -2.02740    9.70960    0.05570    3.76510    2.65390    0.03380    0.22190   -9999.25   -9999.25   -9999.25
 10479.50000   74.26000  146.03080    9.48230   10.01030   11.73410  126.98740   -1.43830    9.64800    0.04670    3.73490    2.65610    0.03190    0.23240   -9999.25   -9999.25   -9999.25
 10480.00000   75.46210  146.62590   10.01990   10.14560   12.06370  126.76270   -0.80880    9.73850    0.03920    3.70480    2.65310    0.03370    0.23480   -9999.25   -9999.25   -9999.25
 10480.50000   75.46210  147.82210   10.44290   11.56840   12.40260  124.26870    0.34250    9.60090    0.03470    3.70480    2.66220    0.03040    0.23000   -9999.25   -9999.25   -9999.25
 10481.00000   74.86100  147.51570   10.08550   11.97290   12.23200  122.22860    0.93600    9.55460    0.03550    3.70350    2.66740    0.02620    0.22610   -9999.25   -9999.25   -9999.25
 10481.50000   75.16150  146.91020    9.47410   10.27660   11.89780  121.96240    2.12770    9.58430    0.03790    3.67470    2.65610    0.02950    0.22270   -9999.25   -9999.25   -9999.25
 10482.00000   75.46210  147.80440    9.34210    9.71950   11.41360  124.27540    2.72130    9.64430    0.03620    3.64460    2.65540    0.03280    0.22360   -9999.25   -9999.25   -9999.25
 10482.50000   75.16150  147.79850    9.90900   10.26960   11.17890  125.86620    3.30600    9.73480    0.03330    3.62950    2.65610    0.03520    0.22270   -9999.25   -9999.25   -9999.25
 10483.00000   74.86100  145.08780   11.07830   11.64730   12.40260  126.77610    3.28810    9.76460    0.03630    3.64460    2.66220    0.02850    0.21320   -9999.25   -9999.25   -9999.25
 10483.50000   74.26000  143.57930   11.65250   12.55750   14.64510  126.09040    3.57820    9.58110    0.05580    3.67470    2.66740    0.02820    0.20680   -9999.25   -9999.25   -9999.25
 10484.00000   73.60170  143.90220   10.28430   11.30270   11.25660  121.62740    3.25240    9.58040    0.06780    3.68980    2.67120    0.02130    0.20130   -9999.25   -9999.25   -9999.25
