~Version ---------------------------------------------------
VERS.   2.0 : CWLS log ASCII Standard -VERSION 2.0
WRAP.    NO : One line per depth step
DLM . SPACE : Column Data Section Delimiter
~Well ------------------------------------------------------
STRT .F                5346.0 : START DEPTH
STOP .F               15814.0 : STOP DEPTH
STEP .F                   0.5 : STEP
NULL .               -9999.25 : NULL VALUE
COMP .                        : COMPANY
WELL .                        : WELL
FLD  .                        : FIELD
LOC  .                        : LOCATION
PROV .                        : PROVINCE
CNTY .                        : COUNTY
STAT .                        : STATE
CTRY .                        : COUNTRY
SRVC .                        : SERVICE COMPANY
DATE .                        : DATE
UWI  .                        : UNIQUE WELL ID
API  .                        : API NUMBER
SLAT .WGS84 5.848151817335399 : SURFACE LATITUDE
SLON .WGS84 4.674330530443001 : SURFACE LONGITUDE
DATUM.F                   nan : DEPTH DATUM ELEV
~Curve Information -----------------------------------------
DEPT  .F     : 
DTCO  .US/F  : COMPRESSIONAL-WAVE INTERVAL TRANSIT TIME ACOUSTIC SLOWNESS
DTSM  .US/F  : SHEAR-WAVE INTERVAL TRANSIT TIME DELTA-T
AT20  .OHMM  : 20-IN. RESISTIVITY, 2-FT RESOLUTION
AT30  .OHMM  : 30-IN. RESISTIVITY, 2-FT RESOLUTION
AT60  .OHMM  : 60-IN. RESISTIVITY, 2-FT RESOLUTION
GRR   .GAPI  : GAMMA RAY FROM RESISTIVITY
SPR   .MV    : SPONTANEOUS POTENTIAL FROM RES.
HCAL  .IN    : HILT CALIPER FROM DENSITY LOG
HDRA  .G/C3  : DELTA RHO HIP TOOL
PEFZ  .B/E   : HILT PHOTOELECTRIC FACTOR
RHOZ  .G/C3  : HILT BULK DENSITY
DPHZ  .DEC   : DENSITY POROSITY LIMESTONE
NPHI  .DEC   : NEUTRON POROSITY LIMESTONE
AF20  .OHMM  : 20-IN. RESISTIVITY, 4-FT RESOLUTION
AF60  .OHMM  : 60-IN. RESISTIVITY, 4-FT RESOLUTION
AFCO60.MMHO  : 60-IN CONDUCTIVITY, 4-FT RESOLUTION
~Params ----------------------------------------------------
~Other -----------------------------------------------------
~ASCII -----------------------------------------------------
# ...
 9517.00000   84.00570  164.40120    5.40190    5.29070    5.27910  112.57770    7.41550    9.36900    0.10070    3.90570    2.61800    0.05070    0.27410   -9999.25   -9999.25   -9999.25
 9517.50000   84.60130  163.18640    5.25320    5.10960    5.13450  115.76170    7.40360    9.17180    0.12560    3.90660    2.60000    0.05820    0.27590   -9999.25   -9999.25   -9999.25
 9518.00000   84.89620  161.37010    5.10870    4.93470    4.95940  119.17310    7.69520    9.26330    0.14670    3.92110    2.57670    0.07140    0.28620   -9999.25   -9999.25   -9999.25
 9518.50000   84.89020  159.55380    4.96210    4.79890    4.79030  121.67530    7.68330    9.30910    0.16130    3.93630    2.55860    0.08830    0.30420   -9999.25   -9999.25   -9999.25
 9519.00000   84.88420  157.13600    4.68850    4.53930    4.65910  120.54120    8.27830    9.64380    0.16630    3.99670    2.54740    0.09160    0.30900   -9999.25   -9999.25   -9999.25
 9519.50000   84.57740  153.21440    4.63380    4.66590    4.85650  118.95250    8.56990    9.50730    0.16340    4.04200    2.55040    0.09340    0.31200   -9999.25   -9999.25   -9999.25
 9520.00000   84.26950  149.89430    4.82940    4.86290    5.13270  117.59110    8.59940    9.23410    0.16040    4.05720    2.53840    0.09470    0.31440   -9999.25   -9999.25   -9999.25
 9520.50000   84.56430  145.36930    4.96400    5.06810    5.24020  119.63880    7.63570    9.32560    0.16040    3.99720    2.53610    0.10150    0.31170   -9999.25   -9999.25   -9999.25
 9521.00000   84.86060  145.05970    5.03230    5.06540    4.99180  121.00470    7.01680    9.53850    0.16570    3.96720    2.55430    0.09340    0.30300   -9999.25   -9999.25   -9999.25
 9521.50000   84.25170  146.25090    4.99630    4.99640    5.13160  121.00690    7.94870    9.66050    0.17710    3.93720    2.57410    0.08830    0.28590   -9999.25   -9999.25   -9999.25
 9522.00000   84.24580  145.63470    4.96080    5.06500    5.23910  123.05460    9.41790    9.28080    0.18610    3.92110    2.57320    0.07860    0.26630   -9999.25   -9999.25   -9999.25
 9522.50000   84.84290  144.41990    4.95980    4.99410    5.13100  126.46600   10.01600    9.90430    0.19070    3.93750    2.58150    0.08080    0.25910   -9999.25   -9999.25   -9999.25
 9523.00000   84.23400  143.20510    5.02790    4.99310    5.06010  127.38990   10.00110    9.31180    0.18470    3.92090    2.56880    0.07470    0.28020   -9999.25   -9999.25   -9999.25
 9523.50000   84.22800  141.08800    5.02690    4.99210    5.20180  123.97050    9.98920    9.57050    0.16670    3.90770    2.55830    0.08740    0.28890   -9999.25   -9999.25   -9999.25
 9524.00000   84.52440  143.18150    5.02590    5.02600    5.20150  121.23290    9.37030    9.46440    0.16140    3.90790    2.54930    0.08980    0.30600   -9999.25   -9999.25   -9999.25
 9524.50000   85.11850  143.47070    4.94980    4.92140    5.09420  122.68650    8.75140    9.31270    0.16520    3.93810    2.56960    0.09000    0.30360   -9999.25   -9999.25   -9999.25
 9525.00000   85.71400  143.45870    4.81930    4.78600    4.85270  124.43180    8.43600    9.35860    0.16500    3.98350    2.56440    0.08400    0.30000   -9999.25   -9999.25   -9999.25
 9525.50000   86.00900  143.44660    4.68650    4.65430    4.78560  122.84360    8.12060    9.29820    0.16080    4.05890    2.53960    0.08470    0.29550   -9999.25   -9999.25   -9999.25
 9526.00000   86.00290  144.33730    4.68550    4.65330    4.71960  118.98220    8.10870    9.28320    0.16690    4.11930    2.53580    0.09640    0.29330   -9999.25   -9999.25   -9999.25
 9526.50000   85.98980  147.63080    4.68460    4.65240    4.85180  118.30210    8.70410    9.48120    0.18200    4.17970    2.55320    0.09340    0.28910   -9999.25   -9999.25   -9999.25
 9527.00000   85.38950  156.94240    4.81520    4.74910    4.98770  122.85030    9.90590    9.32940    0.17600    4.19490    2.58710    0.08220    0.28200   -9999.25   -9999.25   -9999.25
 9527.50000   85.38350  165.35160    4.91530    4.88360    5.05700  124.44350    9.89380    9.36010    0.15950    4.14980    2.59850    0.06720    0.28230   -9999.25   -9999.25   -9999.25
 9528.00000   85.07550  164.73830    4.81320    4.84680    4.95260  122.85480    9.57810    9.46680    0.15420    4.10360    2.59590    0.06390    0.28920   -9999.25   -9999.25   -9999.25
 9528.50000   85.06960  159.61370    4.74610    4.77890    4.85040  117.17520    9.26020    9.25450    0.15350    4.08990    2.57370    0.07110    0.29310   -9999.25   -9999.25   -9999.25
 9529.00000   85.36590  154.48920    4.81130    4.74520    4.85010  114.22290    8.94480    9.14830    0.15350    4.09010    2.56540    0.08190    0.28350   -9999.25   -9999.25   -9999.25
 9529.50000   85.05780  149.66540    4.94540    4.87720    4.98610  113.77010    9.23940    9.31580    0.15430    4.12040    2.57380    0.08160    0.27110   -9999.25   -9999.25   -9999.25
 9530.00000   84.75110  146.64600    5.01330    4.91040    5.05520  114.90920    9.22450    9.20980    0.15290    4.12050    2.57530    0.07920    0.26870   -9999.25   -9999.25   -9999.25
 9530.50000   84.74520  145.43120    4.94340    4.87530    4.91660  115.59330    9.51910    9.17960    0.13940    4.12060    2.58440    0.07290    0.27210   -9999.25   -9999.25   -9999.25
 9531.00000   84.73930  145.11870    4.80730    4.80720    4.84870  115.82280    9.81070    9.19520    0.11470    4.09070    2.57690    0.07510    0.28180   -9999.25   -9999.25   -9999.25
 9531.50000   84.73330  147.56050    4.90700    4.83990    4.84840  115.82510    9.79580    9.39310    0.10330    4.03050    2.59120    0.07620    0.27890   -9999.25   -9999.25   -9999.25
 9532.00000   84.72740  152.16480    5.00930    4.87230    4.98420  116.73640    9.78390    9.30220    0.10260    3.95540    2.60560    0.06470    0.26330   -9999.25   -9999.25   -9999.25
 9532.50000   84.72150  157.71190    5.00800    4.90520    5.05350  119.93130    9.77200    9.48480    0.10490    3.91040    2.61620    0.05480    0.25550   -9999.25   -9999.25   -9999.25
 9533.00000   84.71560  162.21140    4.93810    4.87030    4.98350  122.68580    9.76010    9.25720    0.10410    3.91130    2.61170    0.05840    0.25580   -9999.25   -9999.25   -9999.25
 9533.50000   84.70960  164.30490    4.86920    4.76910    4.84700  122.56100    9.74810    9.19660    0.10420    3.94080    2.60100    0.06230    0.26090   -9999.25   -9999.25   -9999.25
 9534.00000   84.70370  165.49610    4.86820    4.83490    4.81330  116.98530    9.43250    9.33380    0.10950    3.97110    2.58160    0.07410    0.26930   -9999.25   -9999.25   -9999.25
 9534.50000   84.69770  165.78800    4.93530    4.90110    4.91400  112.88450    9.11440    9.36450    0.12380    4.00140    2.58540    0.07260    0.27770   -9999.25   -9999.25   -9999.25
 9535.00000   85.29340  163.96870    5.00290    4.96840    4.98230  114.93220    8.49550    9.30400    0.14190    4.03160    2.58850    0.07350    0.28290   -9999.25   -9999.25   -9999.25
 9535.50000   85.28720  160.94940    5.03660    4.96740    5.08630  117.66170    8.48360    9.36500    0.16010    4.00170    2.59380    0.06800    0.28320   -9999.25   -9999.25   -9999.25
 9536.00000   85.28010  157.32860    5.03560    4.96640    5.12150  119.02760    7.86480    9.15270    0.14650    3.92650    2.58550    0.07040    0.26990   -9999.25   -9999.25   -9999.25
 9536.50000   84.67260  154.91080    4.99980    4.89700    5.05060  119.25710    7.24590    9.63930    0.12460    3.85140    2.58860    0.07220    0.26750   -9999.25   -9999.25   -9999.25
 9537.00000   84.06520  153.69600    4.91860    4.82850    4.91220  119.25940    7.23400    9.24440    0.11870    3.79130    2.59090    0.07030    0.28530   -9999.25   -9999.25   -9999.25
 9537.50000   84.05930  152.48120    4.79420    4.76110    4.87800  119.26160    7.22210    9.60950    0.14360    3.80650    2.57660    0.08100    0.29640   -9999.25   -9999.25   -9999.25
 9538.00000   84.05340  150.29230    4.79320    4.69490    4.91170  119.26380    7.21020    9.24500    0.16180    3.88240    2.56460    0.09000    0.30270   -9999.25   -9999.25   -9999.25
