~Version ---------------------------------------------------
VERS.   2.0 : CWLS log ASCII Standard -VERSION 2.0
WRAP.    NO : One line per depth step
DLM . SPACE : Column Data Section Delimiter
~Well ------------------------------------------------------
STRT .F                5346.0 : START DEPTH
STOP .F               15814.0 : STOP DEPTH
STEP .F                   0.5 : STEP
NULL .               -9999.25 : NULL VALUE
COMP .                        : COMPANY
WELL .                        : WELL
FLD  .                        : FIELD
LOC  .                        : LOCATION
PROV .                        : PROVINCE
CNTY .                        : COUNTY
STAT .                        : STATE
CTRY .                        : COUNTRY
SRVC .                        : SERVICE COMPANY
DATE .                        : DATE
UWI  .                        : UNIQUE WELL ID
API  .                        : API NUMBER
SLAT .WGS84 5.848151817335399 : SURFACE LATITUDE
SLON .WGS84 4.674330530443001 : SURFACE LONGITUDE
DATUM.F                   nan : DEPTH DATUM ELEV
~Curve Information -----------------------------------------
DEPT  .F     : 
DTCO  .US/F  : COMPRESSIONAL-WAVE INTERVAL TRANSIT TIME ACOUSTIC SLOWNESS
DTSM  .US/F  : SHEAR-WAVE INTERVAL TRANSIT TIME DELTA-T
AT20  .OHMM  : 20-IN. RESISTIVITY, 2-FT RESOLUTION
AT30  .OHMM  : 30-IN. RESISTIVITY, 2-FT RESOLUTION
AT60  .OHMM  : 60-IN. RESISTIVITY, 2-FT RESOLUTION
GRR   .GAPI  : GAMMA RAY FROM RESISTIVITY
SPR   .MV    : SPONTANEOUS POTENTIAL FROM RES.
HCAL  .IN    : HILT CALIPER FROM DENSITY LOG
HDRA  .G/C3  : DELTA RHO HIP TOOL
PEFZ  .B/E   : HILT PHOTOELECTRIC FACTOR
RHOZ  .G/C3  : HILT BULK DENSITY
DPHZ  .DEC   : DENSITY POROSITY LIMESTONE
NPHI  .DEC   : NEUTRON POROSITY LIMESTONE
AF20  .OHMM  : 20-IN. RESISTIVITY, 4-FT RESOLUTION
AF60  .OHMM  : 60-IN. RESISTIVITY, 4-FT RESOLUTION
AFCO60.MMHO  : 60-IN CONDUCTIVITY, 4-FT RESOLUTION
~Params ----------------------------------------------------
~Other -----------------------------------------------------
~ASCII -----------------------------------------------------
# ...
 8549.50000   75.19070  136.84210   -9999.25   -9999.25   -9999.25  110.11460  -27.97890   -9999.25   -9999.25   -9999.25   -9999.25   -9999.25   -9999.25   11.89220   11.86040   83.08650
 8550.00000   74.58620  135.93980   -9999.25   -9999.25   -9999.25  112.08330  -28.27830   -9999.25   -9999.25   -9999.25   -9999.25   -9999.25   -9999.25   12.01050   12.01050   83.83460
 8550.50000   73.98820  136.26230   -9999.25   -9999.25   -9999.25  113.29430  -28.57670   -9999.25   -9999.25   -9999.25   -9999.25   -9999.25   -9999.25   11.90070   11.79140   84.76650
 8551.00000   73.99110  136.88750   -9999.25   -9999.25   -9999.25  111.85020  -28.82640    8.96540   -9999.25   -9999.25   -9999.25   -9999.25   -9999.25   11.69670   11.54750   86.26830
 8551.50000   74.59560  138.04510   -9999.25   -9999.25   -9999.25  111.01950  -29.18770    8.97970    0.00050    3.65850    2.62830   -9999.25   -9999.25   11.40690   11.33160   88.33430
 8552.00000   75.50080  139.24810   -9999.25   -9999.25   -9999.25  112.60900  -29.47430    9.02410    0.00170    3.65860    2.62910   -9999.25   -9999.25   11.23200   11.20980   90.57700
 8552.50000   76.72600  141.05260   -9999.25   -9999.25   -9999.25  114.92610  -29.29480    9.02330    0.00210    3.65880    2.62920   -9999.25   -9999.25   11.02970   11.02970   93.01500
 8553.00000   77.65740  142.85710   -9999.25   -9999.25   -9999.25  116.47050  -28.25970    9.02260    0.00210    3.65900    2.62850   -9999.25   -9999.25   10.86940   10.87210   95.84150
 8553.50000   78.81860  144.66170   -9999.25   -9999.25   -9999.25  115.33280  -28.25680    9.02180    0.00210    3.65920    2.62850   -9999.25   -9999.25   10.63850   10.64030   97.89110
 8554.00000   79.72380  146.46620   -9999.25   -9999.25   -9999.25  114.72890  -28.65720    9.02110    0.00210    3.65940    2.62860   -9999.25   -9999.25   10.50150   10.50150  100.34580
 8554.50000   80.62900  147.96990   -9999.25   -9999.25   -9999.25  116.23980  -30.36520    9.02040    0.00210    3.66820    2.62870   -9999.25   -9999.25   10.35050   10.35050  100.34210
 8555.00000   81.23350  149.17290   -9999.25   -9999.25   -9999.25  119.37500  -33.23120    9.01960    0.00220    3.67480    2.62870   -9999.25   -9999.25   10.27100   10.27370  100.33830
 8555.50000   81.83790  150.07520   -9999.25   -9999.25   -9999.25  121.91950  -34.28710    9.01880    0.00160    3.67500    2.62800   -9999.25   -9999.25   10.19920   10.19920  100.33430
 8556.00000   82.14160  150.67670   -9999.25   -9999.25   -9999.25  118.73630  -33.57910    9.01800    0.00140    3.67520    2.62810   -9999.25   -9999.25   10.19880   10.12350   99.97040
 8556.50000   82.44530  150.97740   -9999.25   -9999.25   -9999.25  117.72550  -33.07310    9.01730    0.00140    3.69730    2.62810   -9999.25   -9999.25   10.19840   10.12310   99.57520
 8557.00000   82.44830  150.97030   -9999.25   -9999.25   -9999.25  117.87280  -33.37160    9.01660    0.00140    3.70560    2.62820   -9999.25   -9999.25   10.19800   10.15970   99.57080
 8557.50000   82.45120  150.67670   -9999.25   -9999.25   -9999.25  118.27840  -33.34460    9.01590    0.00150    3.70590    2.62830   -9999.25   -9999.25   10.28490   10.19770   98.78130
 8558.00000   82.45420  150.97740   -9999.25   -9999.25   -9999.25  117.64110  -32.66160    9.01500    0.00000    3.70600    2.62610   -9999.25   -9999.25   10.34790   10.19720   98.61840
 8558.50000   82.45710  151.27820   -9999.25   -9999.25   -9999.25  114.63980  -31.85160    9.01430   -0.00080    3.72130    2.61630   -9999.25   -9999.25   10.34750   10.27220   98.45550
 8559.00000   82.46010  151.27820   -9999.25   -9999.25   -9999.25  112.26170  -31.97460    9.01360   -0.00080    3.73650    2.60880   -9999.25   -9999.25   10.42410   10.27180   98.29260
 8559.50000   82.76450  151.57890   -9999.25   -9999.25   -9999.25  112.40890  -32.16050    9.01280    0.00090    3.73670    2.61800   -9999.25   -9999.25   10.49740   10.34680   98.12970
 8560.00000   82.76750  151.87970   -9999.25   -9999.25   -9999.25  114.63630  -32.64850    9.01210    0.00390    3.73680    2.62480   -9999.25   -9999.25   10.51700   10.34640   98.04460
 8560.50000   82.77040  152.18050   -9999.25   -9999.25   -9999.25  117.35090  -33.04890    9.14660    0.00530    3.72200    2.62640   -9999.25   -9999.25   10.64720   10.49660   97.28950
 8561.00000   83.07410  152.18050   -9999.25   -9999.25   -9999.25  119.48720  -33.34730    9.07060   -0.00010    3.72330    2.61290   -9999.25   -9999.25   10.64680   10.52910   95.74620
 8561.50000   83.07710  152.18050   -9999.25   -9999.25   -9999.25  120.08750  -33.67240    9.00960   -0.00120    3.73740    2.61140   -9999.25   -9999.25   10.80710   10.65860   94.52190
 8562.00000   83.08000  152.48120   -9999.25   -9999.25   -9999.25  119.29310  -33.99640    9.00890   -0.00310    3.72250    2.61150   -9999.25   -9999.25   11.02250   11.02430   92.32440
 8562.50000   82.78150  152.48120   -9999.25   -9999.25   -9999.25  117.35800  -34.24470    9.02320   -0.00390    3.71410    2.61080   -9999.25   -9999.25   11.36120   11.53030   89.00360
 8563.00000   82.48370  151.87970   -9999.25   -9999.25   -9999.25  115.73480  -34.54380    9.03760   -0.00490    3.67430    2.61390   -9999.25   -9999.25   11.85020   12.22660   84.36940
 8563.50000   82.48730  151.27820   -9999.25   -9999.25   -9999.25  112.57860  -34.56570    9.05190   -0.00620    3.64270    2.61690   -9999.25   -9999.25   12.45910   12.95670   79.12160
 8564.00000   81.88880  150.35920   -9999.25   -9999.25   -9999.25  109.39990  -35.94760    9.05120   -0.00670    3.59260    2.60190   -9999.25   -9999.25   13.55180   13.91680   68.69120
 8564.50000   82.19250  149.47370   -9999.25   -9999.25   -9999.25  110.42880  -36.43570    9.05050   -0.00630    3.60320    2.57260   -9999.25   -9999.25   16.14120   16.51760   58.70590
 8565.00000   83.09770  149.17290   -9999.25   -9999.25   -9999.25  113.17040  -36.64650    9.01960   -0.00490    3.62660    2.55980   -9999.25   -9999.25   19.07750   19.09960   48.84740
 8565.50000   83.78890  150.67670   -9999.25   -9999.25   -9999.25  117.77470  -36.64350    9.00380   -0.00330    3.68920    2.52750   -9999.25   -9999.25   23.85670   24.62440   37.40230
 8566.00000   84.90880  151.27820   -9999.25   -9999.25   -9999.25  121.79120  -36.28850    8.94880   -0.00210    3.75190    2.47860   -9999.25   -9999.25   30.76340   30.16670   30.77910
 8566.50000   86.11480  151.57890   -9999.25   -9999.25   -9999.25  121.43260  -35.42860    8.89690   -0.00090    3.76180    2.44700   -9999.25   -9999.25   36.66310   35.79010   25.06370
 8567.00000   86.71920  151.27820   -9999.25   -9999.25   -9999.25  120.69310  -35.30030    8.82380   -0.00060    3.73140    2.45380   -9999.25   -9999.25   42.56290   41.41350   21.22460
 8567.50000   86.72220  150.67670   -9999.25   -9999.25   -9999.25  119.71340  -34.81870    8.77490   -0.00060    3.72460    2.47350   -9999.25   -9999.25   48.46260   47.03680   18.06510
 8568.00000   86.72510  149.47370   -9999.25   -9999.25   -9999.25  115.07270  -35.01710    8.77420   -0.00260    3.77120    2.48480   -9999.25   -9999.25   54.99020   54.91860   16.02960
 8568.50000   85.52510  147.66920   -9999.25   -9999.25   -9999.25  104.62720  -35.41750    8.77720   -0.00740    3.85930    2.50150   -9999.25   -9999.25   55.67140   55.10120   17.07660
 8569.00000   84.32500  145.26320   -9999.25   -9999.25   -9999.25   95.75240  -35.11160    8.78760   -0.00880    3.86970    2.56410   -9999.25   -9999.25   54.16490   52.65890   19.06340
 8569.50000   81.92200  141.65410   -9999.25   -9999.25   -9999.25  103.93280  -34.17760    8.78090   -0.00660    3.86070    2.58750   -9999.25   -9999.25   39.65690   45.68310   21.49920
 8570.00000   79.51890  138.64660   -9999.25   -9999.25   -9999.25  109.19890  -33.19330    8.77110   -0.00660    3.81450    2.57630   -9999.25   -9999.25   34.73640   38.21500   24.89050
 8570.50000   78.60510  138.04510   -9999.25   -9999.25   -9999.25  113.28120  -32.08120    8.77040   -0.00730    3.74080    2.52730   -9999.25   -9999.25   32.74720   32.40170   28.79300
