~Version ---------------------------------------------------
VERS.   2.0 : CWLS log ASCII Standard -VERSION 2.0
WRAP.    NO : One line per depth step
DLM . SPACE : Column Data Section Delimiter
~Well ------------------------------------------------------
STRT .F                5346.0 : START DEPTH
STOP .F               15814.0 : STOP DEPTH
STEP .F                   0.5 : STEP
NULL .               -9999.25 : NULL VALUE
COMP .                        : COMPANY
WELL .                        : WELL
FLD  .                        : FIELD
LOC  .                        : LOCATION
PROV .                        : PROVINCE
CNTY .                        : COUNTY
STAT .                        : STATE
CTRY .                        : COUNTRY
SRVC .                        : SERVICE COMPANY
DATE .                        : DATE
UWI  .                        : UNIQUE WELL ID
API  .                        : API NUMBER
SLAT .WGS84 5.848151817335399 : SURFACE LATITUDE
SLON .WGS84 4.674330530443001 : SURFACE LONGITUDE
DATUM.F                   nan : DEPTH DATUM ELEV
~Curve Information -----------------------------------------
DEPT  .F     : 
DTCO  .US/F  : COMPRESSIONAL-WAVE INTERVAL TRANSIT TIME ACOUSTIC SLOWNESS
DTSM  .US/F  : SHEAR-WAVE INTERVAL TRANSIT TIME DELTA-T
AT20  .OHMM  : 20-IN. RESISTIVITY, 2-FT RESOLUTION
AT30  .OHMM  : 30-IN. RESISTIVITY, 2-FT RESOLUTION
AT60  .OHMM  : 60-IN. RESISTIVITY, 2-FT RESOLUTION
GRR   .GAPI  : GAMMA RAY FROM RESISTIVITY
SPR   .MV    : SPONTANEOUS POTENTIAL FROM RES.
HCAL  .IN    : HILT CALIPER FROM DENSITY LOG
HDRA  .G/C3  : DELTA RHO HIP TOOL
PEFZ  .B/E   : HILT PHOTOELECTRIC FACTOR
RHOZ  .G/C3  : HILT BULK DENSITY
DPHZ  .DEC   : DENSITY POROSITY LIMESTONE
NPHI  .DEC   : NEUTRON POROSITY LIMESTONE
AF20  .OHMM  : 20-IN. RESISTIVITY, 4-FT RESOLUTION
AF60  .OHMM  : 60-IN. RESISTIVITY, 4-FT RESOLUTION
AFCO60.MMHO  : 60-IN CONDUCTIVITY, 4-FT RESOLUTION
~Params ----------------------------------------------------
~Other -----------------------------------------------------
~ASCII -----------------------------------------------------
# ...
 10957.50000   73.00160  137.54110   12.29570   12.60550   12.88340  114.29650    0.37750    8.64210    0.00140    4.04300    2.64510    0.03720    0.20860   -9999.25   -9999.25   -9999.25
 10958.00000   73.86210  140.48170   10.12840   10.82450   11.29740  112.03490    0.37450    8.67240   -0.00750    3.99820    2.65350    0.03440    0.19350   -9999.25   -9999.25   -9999.25
 10958.50000   75.35890  146.78100    8.11490    9.04030    8.74290  115.68900    0.37150    8.67220   -0.00600    3.87820    2.64000    0.03770    0.19020   -9999.25   -9999.25   -9999.25
 10959.00000   76.55510  150.67610    7.06560    7.19240    7.00470  119.33870    0.36850    8.70240   -0.00300    3.78830    2.62190    0.04530    0.20380   -9999.25   -9999.25   -9999.25
 10959.50000   78.05190  152.17000    6.82590    6.85300    6.90960  123.21570    0.36560    8.88470   -0.00740    3.71340    2.61670    0.05400    0.21970   -9999.25   -9999.25   -9999.25
 10960.00000   79.54860  153.35740    6.68640    6.75700    6.72280  122.54720    0.66470    8.73250   -0.00960    3.68370    2.62950    0.05010    0.22300   -9999.25   -9999.25   -9999.25
 10960.50000   81.04540  153.94970    6.50440    6.65730    6.54070  118.24240    0.62570    8.64120    0.00180    3.71480    2.62960    0.04740    0.21960   -9999.25   -9999.25   -9999.25
 10961.00000   82.54210  153.93500    5.82250    5.99590    5.89600  112.34660    0.00200    8.73220    0.03830    3.77790    2.62660    0.04700    0.21790   -9999.25   -9999.25   -9999.25
 10961.50000   83.13750  153.32220    5.21210    5.19700    5.24140  108.72360    0.35290    8.85370    0.06410    3.84100    2.59500    0.06450    0.23320   -9999.25   -9999.25   -9999.25
 10962.00000   83.73250  151.74270    5.35940    5.49490    5.58090  108.28020    2.16260    8.70150    0.07540    3.92660    2.59800    0.06300    0.25460   -9999.25   -9999.25   -9999.25
 10962.50000   81.81760  148.98990    5.82490    6.05650    6.19440  110.79800    2.76460    8.62540    0.07700    3.94210    2.59130    0.07200    0.25670   -9999.25   -9999.25   -9999.25
 10963.00000   78.15240  144.86940    6.28720    6.58340    6.64160  113.76580    1.85450    8.70120    0.07400    3.92750    2.62180    0.05180    0.24860   -9999.25   -9999.25   -9999.25
 10963.50000   74.99820  140.65030    6.93650    6.96050    6.87780  115.59740    0.64310    8.82260    0.04850    3.85260    2.63280    0.04340    0.23950   -9999.25   -9999.25   -9999.25
 10964.00000   73.79020  136.43120    7.71110    7.67180    7.68710  116.51980   -0.26620    8.71610    0.02150    3.82280    2.66450    0.02740    0.23020   -9999.25   -9999.25   -9999.25
 10964.50000   72.88280  133.71470    8.38600    8.69370    8.71160  114.71490   -0.87340    8.70070    0.00730    3.80820    2.66370    0.02590    0.21900   -9999.25   -9999.25   -9999.25
 10965.00000   72.27580  132.20040    8.47480    8.63530    8.53340  112.22830   -1.17850    8.70060   -0.00090    3.82380    2.66450    0.02560    0.21050   -9999.25   -9999.25   -9999.25
 10965.50000   71.36840  131.28710    8.35900    8.57700    8.53690  110.65070   -1.78580    8.70040   -0.00690    3.85440    2.64650    0.03380    0.20520   -9999.25   -9999.25   -9999.25
 10966.00000   70.76150  128.87110    8.77600    8.82050    8.90200  110.20730   -2.69510    8.73070   -0.00980    3.90000    2.62550    0.05060    0.20000   -9999.25   -9999.25   -9999.25
 10966.50000   69.85400  127.35680    9.73870    9.39060    9.47800  102.95230   -3.30230    8.74580   -0.01130    3.96070    2.61570    0.05630    0.19610   -9999.25   -9999.25   -9999.25
 10967.00000   69.24710  126.14280   11.58260   10.56780   10.81590   97.51110   -3.30530    8.73040   -0.01120    3.99130    2.61350    0.05090    0.18550   -9999.25   -9999.25   -9999.25
 10967.50000   68.94070  125.53020   13.30640   13.19660   13.32120   95.92910   -2.70390    8.73020   -0.00800    3.96160    2.63390    0.04310    0.17380   -9999.25   -9999.25   -9999.25
 10968.00000   69.53590  127.91970   13.77700   13.85590   13.89010   95.49010   -2.40480    8.71490   -0.00210    3.93190    2.65120    0.03310    0.17080   -9999.25   -9999.25   -9999.25
 10968.50000   71.33170  129.71110   13.40260   13.76290   13.70250   99.36930   -3.01210    8.69950    0.00090    3.90220    2.65590    0.03100    0.16710   -9999.25   -9999.25   -9999.25
 10969.00000   73.73010  133.00520   12.85850   13.38690   13.24000  103.01900   -2.41090    8.69940    0.00250    3.87270    2.65130    0.03400    0.16230   -9999.25   -9999.25   -9999.25
 10969.50000   75.82790  136.90030   11.83400   12.46770   12.10180  106.89600   -2.46150    8.69920    0.00250    3.84290    2.64600    0.03610    0.17120   -9999.25   -9999.25   -9999.25
 10970.00000   77.02560  139.29280   10.74120   10.85850   10.61060  113.95700   -3.66610    8.69900    0.00260    3.81320    2.64370    0.03700    0.18280   -9999.25   -9999.25   -9999.25
 10970.50000   78.22180  140.48320   10.02340   10.20950    9.97130  118.97030   -3.93050    8.72930    0.00410    3.78350    2.63180    0.04490    0.19180   -9999.25   -9999.25   -9999.25
 10971.00000   79.11610  140.77240    9.61650    9.73990    9.76860  122.84730   -3.02780    8.78990    0.00870    3.75390    2.61230    0.06050    0.20170   -9999.25   -9999.25   -9999.25
 10971.50000   79.11020  141.06090    9.61780    9.74240    9.83930  124.22430   -3.03070    8.72900    0.01170    3.70920    2.59500    0.06560    0.20440   -9999.25   -9999.25   -9999.25
 10972.00000   77.90220  141.34960    9.75340    9.88050    9.98010  124.68990   -2.73090    8.68320    0.01250    3.69460    2.59280    0.06680    0.20470   -9999.25   -9999.25   -9999.25
 10972.50000   75.78780  139.38270    9.89120    9.95130   10.12230  122.43280   -2.73460    8.69830    0.00880    3.68000    2.60640    0.05800    0.20350   -9999.25   -9999.25   -9999.25
 10973.00000   74.25030  135.01210   10.10040   10.16260   10.26650  121.08020   -3.94600    8.69810    0.00210    3.69550    2.62150    0.04900    0.20230   -9999.25   -9999.25   -9999.25
 10973.50000   71.87260  131.39410   10.31400   10.45070   10.55820  121.77980   -5.45960    8.69800   -0.00100    3.69740    2.63130    0.04510    0.20230   -9999.25   -9999.25   -9999.25
 10974.00000   69.76310  128.67760   10.67910   11.04920   11.31960  122.47280   -5.76470    8.69780   -0.00170    3.74420    2.64110    0.04240    0.20260   -9999.25   -9999.25   -9999.25
 10974.50000   69.45670  127.16330   12.87830   12.17830   12.47720  114.98830   -4.86130    8.69770   -0.00380    3.80230    2.65400    0.03390    0.20200   -9999.25   -9999.25   -9999.25
 10975.00000   69.45080  127.75550   16.18970   16.07530   14.94680  105.91080   -4.56140    8.69750   -0.00450    3.84800    2.67130    0.01770    0.20010   -9999.25   -9999.25   -9999.25
 10975.50000   70.94760  128.94300   20.78020   21.66530   21.44340   95.01500   -5.77360    8.69740   -0.00600    3.89360    2.70000    0.00090    0.19470   -9999.25   -9999.25   -9999.25
 10976.00000   73.64640  131.03490   19.66220   24.21170   24.63910   89.57380   -6.07870    8.69730   -0.00590    3.87890    2.71810   -0.00460    0.16610   -9999.25   -9999.25   -9999.25
 10976.50000   75.74420  133.12690   16.08450   18.86700   18.67630   99.35990   -6.68590    8.69710   -0.00440    3.80410    2.71800    0.00650    0.15920   -9999.25   -9999.25   -9999.25
 10977.00000   77.54150  134.63700   12.62190   14.39870   13.76830  110.51180   -6.68890    8.71210   -0.00130    3.66900    2.70070    0.02790    0.16580   -9999.25   -9999.25   -9999.25
 10977.50000   77.83620  136.10870   12.50370   13.62430   14.06160  119.61600   -6.69190    8.72720    0.00020    3.57910    2.66050    0.04810    0.17420   -9999.25   -9999.25   -9999.25
 10978.00000   76.92860  136.09400   13.07050   14.60580   14.56170  123.03850   -6.09060    8.72700   -0.00270    3.57950    2.62180    0.05440    0.18720   -9999.25   -9999.25   -9999.25
 10978.50000   76.26870  135.78180   13.81750   15.55830   15.72040  122.14270   -6.09370    8.72690   -0.00490    3.61010    2.61590    0.05620    0.20160   -9999.25   -9999.25   -9999.25
