~Version ---------------------------------------------------
VERS.   2.0 : CWLS log ASCII Standard -VERSION 2.0
WRAP.    NO : One line per depth step
DLM . SPACE : Column Data Section Delimiter
~Well ------------------------------------------------------
STRT .F                5346.0 : START DEPTH
STOP .F               15814.0 : STOP DEPTH
STEP .F                   0.5 : STEP
NULL .               -9999.25 : NULL VALUE
COMP .                        : COMPANY
WELL .                        : WELL
FLD  .                        : FIELD
LOC  .                        : LOCATION
PROV .                        : PROVINCE
CNTY .                        : COUNTY
STAT .                        : STATE
CTRY .                        : COUNTRY
SRVC .                        : SERVICE COMPANY
DATE .                        : DATE
UWI  .                        : UNIQUE WELL ID
API  .                        : API NUMBER
SLAT .WGS84 5.848151817335399 : SURFACE LATITUDE
SLON .WGS84 4.674330530443001 : SURFACE LONGITUDE
DATUM.F                   nan : DEPTH DATUM ELEV
~Curve Information -----------------------------------------
DEPT  .F     : 
DTCO  .US/F  : COMPRESSIONAL-WAVE INTERVAL TRANSIT TIME ACOUSTIC SLOWNESS
DTSM  .US/F  : SHEAR-WAVE INTERVAL TRANSIT TIME DELTA-T
AT20  .OHMM  : 20-IN. RESISTIVITY, 2-FT RESOLUTION
AT30  .OHMM  : 30-IN. RESISTIVITY, 2-FT RESOLUTION
AT60  .OHMM  : 60-IN. RESISTIVITY, 2-FT RESOLUTION
GRR   .GAPI  : GAMMA RAY FROM RESISTIVITY
SPR   .MV    : SPONTANEOUS POTENTIAL FROM RES.
HCAL  .IN    : HILT CALIPER FROM DENSITY LOG
HDRA  .G/C3  : DELTA RHO HIP TOOL
PEFZ  .B/E   : HILT PHOTOELECTRIC FACTOR
RHOZ  .G/C3  : HILT BULK DENSITY
DPHZ  .DEC   : DENSITY POROSITY LIMESTONE
NPHI  .DEC   : NEUTRON POROSITY LIMESTONE
AF20  .OHMM  : 20-IN. RESISTIVITY, 4-FT RESOLUTION
AF60  .OHMM  : 60-IN. RESISTIVITY, 4-FT RESOLUTION
AFCO60.MMHO  : 60-IN CONDUCTIVITY, 4-FT RESOLUTION
~Params ----------------------------------------------------
~Other -----------------------------------------------------
~ASCII -----------------------------------------------------
# ...
 12398.00000   70.95420  124.90000   23.53100   27.80240   18.99360  113.08370  -11.32850   10.45510    0.00030    4.35970    2.65340    0.03570    0.17100   -9999.25   -9999.25   -9999.25
 12398.50000   70.65360  124.89390   18.33660   18.42360   17.47890  118.51170  -11.33780   10.43980   -0.00200    4.36000    2.64750    0.03660    0.21470   -9999.25   -9999.25   -9999.25
 12399.00000   69.45150  123.93200   17.57750   18.01620   18.09300  116.42480  -11.34520   10.42450   -0.00570    4.36030    2.65510    0.03270    0.22330   -9999.25   -9999.25   -9999.25
 12399.50000   67.94890  120.66710   21.80830   20.41700   26.08900  107.79590  -11.35270   10.42440   -0.00940    4.37570    2.65890    0.02970    0.20430   -9999.25   -9999.25   -9999.25
 12400.00000   66.60290  117.65140   26.48050   29.49300   33.95700   99.84780  -11.36010   10.40910   -0.00940    4.37600    2.65890    0.03000    0.19030   -9999.25   -9999.25   -9999.25
 12400.50000   65.24840  116.17920   27.41600   27.87750   29.56620  103.01920  -11.36760   10.40890   -0.00710    4.36120    2.65820    0.03000    0.17680   -9999.25   -9999.25   -9999.25
 12401.00000   63.73520  114.62980   25.05570   24.44850   24.52620  104.83040  -10.77080   10.37850   -0.00330    4.33140    2.65970    0.02670    0.17230   -9999.25   -9999.25   -9999.25
 12401.50000   62.83070  114.62390   27.22530   28.66910   31.90020   96.65400  -10.17370   10.36320   -0.00030    4.27160    2.67180    0.01500    0.15610   -9999.25   -9999.25   -9999.25
 12402.00000   63.72930  115.21990   43.02660   46.44260   52.12040   87.72500  -10.18150   10.36300   -0.00100    4.24180    2.68160    0.01260    0.12540   -9999.25   -9999.25   -9999.25
 12402.50000   66.13060  117.01990   63.87400   61.36190   55.46390   75.54390  -10.79320   10.34770   -0.00370    4.22700    2.68690    0.01160    0.09800   -9999.25   -9999.25   -9999.25
 12403.00000   67.32970  118.21790   43.03250   36.03640   28.53860   80.29540   -9.89430   10.34750   -0.00630    4.22740    2.68990    0.02100    0.12330   -9999.25   -9999.25   -9999.25
 12403.50000   67.92790  118.21200   27.81060   24.64060   23.50850   94.14350   -8.69330   10.36260   -0.00850    4.24270    2.67790    0.03030    0.15820   -9999.25   -9999.25   -9999.25
 12404.00000   67.60990  117.30320   21.52180   21.31380   20.75260  101.62770   -7.76230   10.37750   -0.00610    4.30320    2.65760    0.03420    0.19430   -9999.25   -9999.25   -9999.25
 12404.50000   66.67650  116.36080   20.36210   20.45100   20.46530  101.86820   -6.52570   10.39260   -0.00310    4.34930    2.65240    0.03390    0.21560   -9999.25   -9999.25   -9999.25
 12405.00000   64.91300  115.14370   22.59460   23.48830   23.66210   95.39690   -5.91190   10.39240   -0.00010    4.40900    2.65470    0.03240    0.19670   -9999.25   -9999.25   -9999.25
 12405.50000   63.70800  113.67230   32.62520   32.73940   32.07830   87.99820   -5.31720   10.39230    0.00140    4.36430    2.65700    0.03060    0.15510   -9999.25   -9999.25   -9999.25
 12406.00000   62.80350  113.06440   52.74320   52.04100   58.96920   85.49760   -5.31720   10.40870    0.00060    4.27430    2.65550    0.03420    0.12320   -9999.25   -9999.25   -9999.25
 12406.50000   64.30320  114.56340   61.67650   61.02230   42.00570   86.40080   -5.01510   10.42500   -0.00160    4.20330    2.65030    0.03660    0.13450   -9999.25   -9999.25   -9999.25
 12407.00000   65.50310  117.86830   38.49940   33.41910   36.32070   87.53100   -4.10880   10.44140   -0.00530    4.17390    2.64730    0.03940    0.14860   -9999.25   -9999.25   -9999.25
 12407.50000   66.10120  119.96920   43.31320   41.49420   41.13150   87.76430   -5.01510   10.45450   -0.00980    4.12930    2.64510    0.04620    0.14970   -9999.25   -9999.25   -9999.25
 12408.00000   66.39880  121.16720   56.75470   53.76000   46.25840   94.76430   -5.01510   10.45450   -0.00600    4.08400    2.63760    0.05380    0.15450   -9999.25   -9999.25   -9999.25
 12408.50000   67.29670  121.76330   52.95470   47.46850   32.49850  105.40180   -4.10880   10.45450    0.00000    4.05530    2.62460    0.05800    0.16320   -9999.25   -9999.25   -9999.25
 12409.00000   67.59430  121.15540   32.82690   31.38710   24.13110  112.02110   -3.80660   10.45450    0.00380    4.11620    2.61110    0.05430    0.17580   -9999.25   -9999.25   -9999.25
 12409.50000   67.57930  119.94560   24.03200   23.28610   22.98780  110.20120   -4.10880   10.45450    0.00530    4.23710    2.62540    0.04440    0.17640   -9999.25   -9999.25   -9999.25
 12410.00000   66.68670  119.03680   27.03680   25.30070   30.52380  103.72230   -4.71300   10.45450    0.00530    4.35800    2.63370    0.04020    0.16770   -9999.25   -9999.25   -9999.25
 12410.50000   66.08210  118.42890   31.05640   31.13310   33.16210   96.86770   -4.71300   10.45450   -0.00290    4.38860    2.64120    0.03750    0.15560   -9999.25   -9999.25   -9999.25
 12411.00000   65.47810  119.37880   33.13310   33.36200   37.81670   87.49380   -4.71300   10.45450   -0.00890    4.34410    2.64720    0.03630    0.14540   -9999.25   -9999.25   -9999.25
 12411.50000   67.27830  121.83360   43.23150   46.17360   47.51300   87.26350   -4.41090   10.45450   -0.00360    4.22440    2.64870    0.03600    0.13940   -9999.25   -9999.25   -9999.25
 12412.00000   69.67960  123.82730   50.09870   50.86690   51.26390   90.66190   -3.80660   10.46970    0.01140    4.10470    2.64500    0.04140    0.14480   -9999.25   -9999.25   -9999.25
 12412.50000   69.67660  125.02540   35.92170   35.25950   28.72170   93.83440   -3.17600   10.62120    0.03180    4.09020    2.63670    0.04530    0.16480   -9999.25   -9999.25   -9999.25
 12413.00000   69.67370  126.52430   24.36740   20.99190   21.42950   94.28500   -2.59820   10.71210    0.05960    4.13600    2.63370    0.03870    0.18380   -9999.25   -9999.25   -9999.25
 12413.50000   69.97130  127.42140   21.21350   19.72530   21.13280   91.10240   -2.29610   10.59090    0.07390    4.12150    2.65480    0.02840    0.19230   -9999.25   -9999.25   -9999.25
 12414.00000   71.17040  128.31990   22.89400   22.00950   23.60300   89.73640   -2.90030   10.54550    0.03110    4.09200    2.66230    0.02540    0.19290   -9999.25   -9999.25   -9999.25
 12414.50000   73.57170  130.11840   25.40200   25.21830   26.18100   88.82420   -2.29610   10.56060    0.02060    4.06250    2.66610    0.02360    0.18330   -9999.25   -9999.25   -9999.25
 12415.00000   76.30230  133.72420   27.60480   26.92520   27.28720   88.13890   -0.78550   10.59090    0.02450    4.06330    2.66010    0.04650    0.17420   -9999.25   -9999.25   -9999.25
 12415.50000   78.78920  139.13590   33.98430   28.85290   28.05020   90.63070    0.42300   10.62120    0.04030    4.15410    2.61280    0.07990    0.17750   -9999.25   -9999.25   -9999.25
 12416.00000   81.97690  144.24660   28.97700   25.30070   24.93290  105.61450    1.32930   10.63640    0.08760    4.19980    2.55870    0.09250    0.19830   -9999.25   -9999.25   -9999.25
 12416.50000   83.17680  149.35740   11.21280    9.02990    9.39670  123.75260    1.93350   10.65150    0.10560    4.15530    2.53770    0.10070    0.22200   -9999.25   -9999.25   -9999.25
 12417.00000   82.27150  150.25440   10.69730   16.59390   11.88770  129.64830    1.63140   10.95450    0.09140    4.06560    2.53860    0.10000    0.23980   -9999.25   -9999.25   -9999.25
 12417.50000   81.06650  148.92260   21.21350   22.65080   22.93650  127.14770    1.32930   10.77270    0.07790    3.93090    2.54150    0.09910    0.23470   -9999.25   -9999.25   -9999.25
 12418.00000   80.46250  145.12450   20.34950   18.53520   15.67400  120.10840    1.02720   10.74240    0.08090    3.90120    2.52870    0.10700    0.22620   -9999.25   -9999.25   -9999.25
 12418.50000   81.06130  143.91470   15.10550   14.95900   15.13890  113.97680    1.02720   11.34850    0.10050    3.94710    2.53620    0.10240    0.22070   -9999.25   -9999.25   -9999.25
 12419.00000   82.25980  146.31660   15.96660   16.36600   16.67610  111.02230    1.32930   10.87880    0.11250    3.97780    2.55350    0.09130    0.21990   -9999.25   -9999.25   -9999.25
