~Version ---------------------------------------------------
VERS.   2.0 : CWLS log ASCII Standard -VERSION 2.0
WRAP.    NO : One line per depth step
DLM . SPACE : Column Data Section Delimiter
~Well ------------------------------------------------------
STRT .F                5346.0 : START DEPTH
STOP .F               15814.0 : STOP DEPTH
STEP .F                   0.5 : STEP
NULL .               -9999.25 : NULL VALUE
COMP .                        : COMPANY
WELL .                        : WELL
FLD  .                        : FIELD
LOC  .                        : LOCATION
PROV .                        : PROVINCE
CNTY .                        : COUNTY
STAT .                        : STATE
CTRY .                        : COUNTRY
SRVC .                        : SERVICE COMPANY
DATE .                        : DATE
UWI  .                        : UNIQUE WELL ID
API  .                        : API NUMBER
SLAT .WGS84 5.848151817335399 : SURFACE LATITUDE
SLON .WGS84 4.674330530443001 : SURFACE LONGITUDE
DATUM.F                   nan : DEPTH DATUM ELEV
~Curve Information -----------------------------------------
DEPT  .F     : 
DTCO  .US/F  : COMPRESSIONAL-WAVE INTERVAL TRANSIT TIME ACOUSTIC SLOWNESS
DTSM  .US/F  : SHEAR-WAVE INTERVAL TRANSIT TIME DELTA-T
AT20  .OHMM  : 20-IN. RESISTIVITY, 2-FT RESOLUTION
AT30  .OHMM  : 30-IN. RESISTIVITY, 2-FT RESOLUTION
AT60  .OHMM  : 60-IN. RESISTIVITY, 2-FT RESOLUTION
GRR   .GAPI  : GAMMA RAY FROM RESISTIVITY
SPR   .MV    : SPONTANEOUS POTENTIAL FROM RES.
HCAL  .IN    : HILT CALIPER FROM DENSITY LOG
HDRA  .G/C3  : DELTA RHO HIP TOOL
PEFZ  .B/E   : HILT PHOTOELECTRIC FACTOR
RHOZ  .G/C3  : HILT BULK DENSITY
DPHZ  .DEC   : DENSITY POROSITY LIMESTONE
NPHI  .DEC   : NEUTRON POROSITY LIMESTONE
AF20  .OHMM  : 20-IN. RESISTIVITY, 4-FT RESOLUTION
AF60  .OHMM  : 60-IN. RESISTIVITY, 4-FT RESOLUTION
AFCO60.MMHO  : 60-IN CONDUCTIVITY, 4-FT RESOLUTION
~Params ----------------------------------------------------
~Other -----------------------------------------------------
~ASCII -----------------------------------------------------
# ...
 9022.50000   84.37630  157.02250    5.05460    5.70930    5.68230  127.25130    5.82640    9.49390    0.23550    3.94580    2.43100    0.16460    0.29790   -9999.25   -9999.25   -9999.25
 9023.00000   84.67410  159.44640    4.77960    5.39990    5.37410  123.83150    5.49920    9.87410    0.15350    3.91570    2.34160    0.25210    0.30090   -9999.25   -9999.25   -9999.25
 9023.50000   81.36210  157.94620    4.91120    5.36100    5.83740  119.70990    4.84610    9.40330    0.10610    3.85540    2.26730    0.25520    0.28560   -9999.25   -9999.25   -9999.25
 9024.00000   77.14870  149.78530    6.04200    5.66470    7.59150  118.62820    4.54020    9.67730    0.08950    3.82530    2.42460    0.16770    0.28230   -9999.25   -9999.25   -9999.25
 9024.50000   75.94270  148.27710    6.93580    7.16640    7.48330  119.74110    4.51140    8.84170    0.10580    3.82530    2.54740    0.08120    0.28620   -9999.25   -9999.25   -9999.25
 9025.00000   77.74420  153.08170    6.46820    7.21390    6.97980  121.76090    5.10060    9.07000    0.11750    3.87300    2.59790    0.06460    0.28850   -9999.25   -9999.25   -9999.25
 9025.50000   79.54580  158.79010    5.86740    6.53810    6.33230  124.45850    5.68380    8.90310    0.13930    3.91570    2.59540    0.07170    0.27650   -9999.25   -9999.25   -9999.25
 9026.00000   80.74590  164.19770    5.70400    6.14110    5.94730  126.70420    6.26700    9.26820    0.15290    3.96080    2.57490    0.08100    0.26840   -9999.25   -9999.25   -9999.25
 9026.50000   81.96020  166.59780    5.70090    5.93650    5.86370  128.72410    6.54080    9.08590    0.16350    4.00600    2.50300    0.12300    0.26780   -9999.25   -9999.25   -9999.25
 9027.00000   83.14590  166.29120    5.78050    6.01790    6.15190  128.48490    6.51710    9.02550    0.17560    4.03610    2.45330    0.15490    0.28010   -9999.25   -9999.25   -9999.25
 9027.50000   83.74450  162.97700    5.98310    6.14190    6.32270  124.77020    6.18980    9.10180    0.20120    4.03610    2.43980    0.15820    0.29970   -9999.25   -9999.25   -9999.25
 9028.00000   82.23700  159.96360    6.22700    6.26940    6.40830  121.22940    6.16600    9.07170    0.22010    4.03610    2.45330    0.15060    0.30030   -9999.25   -9999.25   -9999.25
 9028.50000   80.42950  157.55160    6.35510    6.44300    6.49510  127.08630    5.53530    9.02640    0.22080    4.06630    2.49550    0.12020    0.29630   -9999.25   -9999.25   -9999.25
 9029.00000   78.92280  157.24500    6.57460    6.44110    6.76660  131.36520    5.51140    9.16350    0.21030    4.09640    2.52560    0.10610    0.28790   -9999.25   -9999.25   -9999.25
 9029.50000   79.52210  156.93830    6.70990    6.66600    7.05080  132.48470    5.82460    8.93580    0.20430    4.14160    2.52180    0.10910    0.27920   -9999.25   -9999.25   -9999.25
 9030.00000   80.12070  156.33080    6.61310    6.99550    6.99930  124.33560    6.07100    9.14890    0.20210    4.17170    2.50380    0.11900    0.27020   -9999.25   -9999.25   -9999.25
 9030.50000   80.71840  155.98140    6.51950    6.80170    6.85260  117.77110    5.73780    8.84530    0.20440    4.20190    2.50230    0.12050    0.26660   -9999.25   -9999.25   -9999.25
 9031.00000   81.31770  155.11460    6.79150    6.84690    7.04230  116.63160    5.10700    8.96720    0.22400    4.15530    2.50750    0.11290    0.27290   -9999.25   -9999.25   -9999.25
 9031.50000   79.50950  153.30420    6.88260    6.99040    7.33810  121.13310    4.17280    8.81550    0.23530    4.09390    2.53390    0.10150    0.28100   -9999.25   -9999.25   -9999.25
 9032.00000   77.70200  151.19300    6.87880    7.19450    7.33510  122.93030    3.54200    8.81580    0.23610    4.00600    2.51360    0.12380    0.28490   -9999.25   -9999.25   -9999.25
 9032.50000   76.49610  149.38260    6.87500    7.38210    7.43520  121.55830    3.51830    9.08960    0.20200    3.94580    2.51510    0.11050    0.28640   -9999.25   -9999.25   -9999.25
 9033.00000   76.39850  148.17370    6.68340    7.27780    7.22770  119.73780    4.10750    8.84680    0.15400    3.90060    2.52120    0.10630    0.28030   -9999.25   -9999.25   -9999.25
 9033.50000   77.09170  149.07010    6.49660    6.97940    6.55720  118.59500    4.07780    9.19660    0.14810    3.94580    2.53180    0.10150    0.26470   -9999.25   -9999.25   -9999.25
 9034.00000   77.99100  150.86870    6.27210    6.69330    6.28780  120.00720    3.75050    8.86260    0.15940    4.03610    2.48720    0.12610    0.26320   -9999.25   -9999.25   -9999.25
 9034.50000   79.50370  153.26880    6.05540    6.55370    6.11350  124.89040    3.11970    9.60770    0.16620    4.02110    2.45330    0.15140    0.27130   -9999.25   -9999.25   -9999.25
 9035.00000   81.35100  155.96960    5.80580    6.28510    5.94410  128.26570    2.79210    9.42560    0.16930    3.91570    2.44650    0.15380    0.29060   -9999.25   -9999.25   -9999.25
 9035.50000   82.79410  159.87350    5.60510    5.98580    5.69990  130.51140    3.11950   10.56570    0.13390    3.87050    2.38500    0.18870    0.29540   -9999.25   -9999.25   -9999.25
 9036.00000   81.28660  162.87510    5.41150    5.66150    5.54190  129.36860    3.95300   10.76360    0.11740    3.85540    2.22290    0.26870    0.30170   -9999.25   -9999.25   -9999.25
 9036.50000   80.68270  163.77150    5.33410    5.42930    5.46350  122.80410    4.54220   11.67580    0.12950    3.79520    2.18070    0.30000    0.32560   -9999.25   -9999.25   -9999.25
 9037.00000   81.88220  162.20440    5.48100    5.35340    6.22870  115.56190    5.12540   10.90100    0.22740    3.65930    2.29820    0.22960    0.36280   -9999.25   -9999.25   -9999.25
 9037.50000   82.78150  160.45110    6.37950    7.25760    7.61090  108.77150    6.31560   10.67320    0.25000    3.35000    2.36600    0.19800    0.37320   -9999.25   -9999.25   -9999.25
 9038.00000   83.08010  161.64700    6.73930    7.77620    7.00120  104.69190    6.28590   12.14780    0.25000    2.95480    2.36520    0.24250    0.36270   -9999.25   -9999.25   -9999.25
 9038.50000   83.37780  162.84410    5.82320    6.44760    5.92670  100.16060    5.65510   13.50070    0.25000    2.81630    2.22340    0.29970    0.35790   -9999.25   -9999.25   -9999.25
 9039.00000   83.07340  164.04120    5.62200    5.69030    5.76310   97.89050    5.02440   14.44320    0.25000    2.92170    2.04220    0.30000    0.35610   -9999.25   -9999.25   -9999.25
 9039.50000   82.46890  164.03530    5.54170    6.22440    6.34660  100.13290    5.60760   14.71710    0.23050    3.11750    2.00000    0.30000    0.35400   -9999.25   -9999.25   -9999.25
 9040.00000   81.26300  161.62340    5.53870    6.67160    6.70540  101.24910    5.58380   14.41330    0.18390    3.40360    2.00000    0.30000    0.34700   -9999.25   -9999.25   -9999.25
 9040.50000   80.05700  158.61000    5.77050    6.38200    6.79690  101.91690    4.95290   13.22830    0.19140    3.61450    2.10770    0.29860    0.32690   -9999.25   -9999.25   -9999.25
 9041.00000   79.71250  155.59650    5.93020    6.21820    6.42670  103.70750    4.62580   10.49300    0.22310    3.79520    2.25230    0.23960    0.30850   -9999.25   -9999.25   -9999.25
 9041.50000   81.55480  156.49290    5.26800    6.04650    6.03590  109.11590    5.50660    9.45980    0.24720    3.94580    2.38630    0.18580    0.29980   -9999.25   -9999.25   -9999.25
 9042.00000   83.65710  158.89300    5.01600    5.60130    5.66890  115.10140    5.48280    9.62730    0.25000    4.06630    2.40360    0.17620    0.30010   -9999.25   -9999.25   -9999.25
 9042.50000   84.87150  160.39100    4.77610    4.97770    4.93370  122.88690    4.85210    9.26290    0.25000    4.14160    2.42770    0.16380    0.31180   -9999.25   -9999.25   -9999.25
 9043.00000   85.45570  158.88120    4.27260    4.42350    4.63420  128.27450    4.52480   10.12960    0.23610    4.18670    2.40510    0.18010    0.31360   -9999.25   -9999.25   -9999.25
 9043.50000   84.14070  154.01990    4.54490    4.73920    5.28320  125.77630    4.19760   10.28180    0.22000    4.15640    2.40360    0.17430    0.30280   -9999.25   -9999.25   -9999.25
