~Version ---------------------------------------------------
VERS.   2.0 : CWLS log ASCII Standard -VERSION 2.0
WRAP.    NO : One line per depth step
DLM . SPACE : Column Data Section Delimiter
~Well ------------------------------------------------------
STRT .F                 3802.0 : START DEPTH
STOP .F                11423.0 : STOP DEPTH
STEP .F                    0.5 : STEP
NULL .                -9999.25 : NULL VALUE
COMP .                         : COMPANY
WELL .                         : WELL
FLD  .                         : FIELD
LOC  .                         : LOCATION
PROV .                         : PROVINCE
CNTY .                         : COUNTY
STAT .                         : STATE
CTRY .                         : COUNTRY
SRVC .                         : SERVICE COMPANY
DATE .                         : DATE
UWI  .                         : UNIQUE WELL ID
API  .                         : API NUMBER
SLAT .WGS84  5.522695814791703 : SURFACE LATITUDE
SLON .WGS84 3.8968884515525986 : SURFACE LONGITUDE
DATUM.F                 1822.0 : DEPTH DATUM ELEV
~Curve Information -----------------------------------------
DEPT.F     : 
GRR .GAPI  : GAMMA RAY FROM RES LOG
SPR .MV    : SPONTANEOUS POTENTIAL
CILD.MMHO  : CONDUCTIVITY INDUCTION LOG DEEP
ILM .OHMM  : INDUCTION LOG MEDIUM
CALD.IN    : CALIPER FROM DENSITY LOG
DRHO.G/C3  : DENSITY CORRECTION
RHOB.G/C3  : BULK DENSITY
NPHI.DEC   : NEUTRON POROSITY LIMESTONE
DPHI.DEC   : DENSITY POROSITY LIMESTONE
DTCO.US/F  : COMPRESSIONAL-WAVE INTERVAL TRANSIT TIME ACAUSTIC SLOWNESS
DTSM.US/F  : SHEAR-WAVE INTERVAL TRANSIT TIME DELTA-T
SFLU.OHMM  : SPHERICALLY FOCUSED LOG UNAVERAGED RESISTIVITY
ILD .OHMM  : INDUCTION LOG DEEP
~Params ----------------------------------------------------
~Other -----------------------------------------------------
~ASCII -----------------------------------------------------
# ...
 8534.00000   73.95580  -48.08110   79.40340   16.67610   10.14930    0.03480    2.43880    0.10390    0.15370   -9999.25   -9999.25   34.33290   12.15440
 8534.50000   74.84640  -47.50000   79.41740   16.03070   10.14930    0.01640    2.45090    0.10470    0.14650   -9999.25   -9999.25   30.53720   12.15440
 8535.00000   74.84380  -47.50000   82.70940   15.08870   10.14930    0.01570    2.45110    0.10660    0.14000   -9999.25   -9999.25   26.60570   11.66690
 8535.50000   74.64390  -48.09520   87.26700   14.28100   10.14930    0.02230    2.46480    0.11090    0.13260   -9999.25   -9999.25   23.81540   11.04720
 8536.00000   73.53000  -48.09520   92.25730   13.92970   10.17910    0.03720    2.48480    0.12150    0.12910   -9999.25   -9999.25   21.60410   10.31860
 8536.50000   71.71210  -48.09520   96.99850   13.09760   10.23880    0.05060    2.49300    0.12650    0.13220   -9999.25   -9999.25   20.16260    9.90480
 8537.00000   69.90990  -48.09520  100.84770   11.65110   10.29850    0.05950    2.49150    0.12610    0.13700   -9999.25   -9999.25   18.93530    9.77050
 8537.50000   65.78710  -48.09520  102.06700   10.77800   10.35820    0.06400    2.47950    0.12100    0.13780   -9999.25   -9999.25   17.80440    9.77050
 8538.00000   62.77680  -48.09520  102.39690   11.16830   10.47760    0.06240    2.47480    0.10690    0.13280   -9999.25   -9999.25   19.62720    9.91240
 8538.50000   65.61900  -48.09520  101.76420   12.04000   10.53730    0.05190    2.48580    0.10390    0.12500   -9999.25   -9999.25   25.77350   10.31860
 8539.00000   69.46830  -48.09520   99.80640   13.21910   10.56720    0.04290    2.50350    0.09990    0.11790   -9999.25   -9999.25   31.18770   10.76150
 8539.50000   73.93040  -48.09520   96.16420   13.95860   10.59700    0.03690    2.51400    0.09390    0.11490   -9999.25   -9999.25   37.22870   11.07980
 8540.00000   80.62460  -48.09520   93.28430   14.14910   10.59700    0.03080    2.51850    0.07950    0.11670   -9999.25   -9999.25   40.95140   11.55050
 8540.50000   85.53310  -48.09520   89.13190   14.34240   10.59700    0.02180    2.51960    0.07270    0.11970   -9999.25   -9999.25   41.51070   12.18090
 8541.00000   90.44170  -48.09520   84.16450   14.73750   10.59700    0.01130    2.51760    0.07660    0.12390   -9999.25   -9999.25   39.84520   12.86910
 8541.50000   87.31450  -48.09520   79.19710   15.14360   10.59700   -0.00070    2.51460    0.08260    0.12810   -9999.25   -9999.25   38.24680   13.59600
 8542.00000   77.49080  -47.88900   74.23090   15.99070   10.59700   -0.00380    2.50870    0.08440    0.13110   -9999.25   -9999.25   36.71260   14.41230
 8542.50000   75.16320  -47.50000   68.91300   16.88520   10.32840   -0.00380    2.49220    0.08080    0.13410   -9999.25   -9999.25   36.21330   15.23230
 8543.00000   80.61140  -47.50000   65.45940   18.07440   10.17910   -0.00240    2.48270    0.07480    0.13290   -9999.25   -9999.25   35.72090   16.16400
 8543.50000   81.94850  -47.50000   62.60950   18.82720   10.11940    0.00060    2.47920    0.07070    0.12640   -9999.25   -9999.25   35.23510   16.93830
 8544.00000   81.94630  -47.50000   59.54070   19.61140   10.05970    0.00200    2.48850    0.07010    0.11440   -9999.25   -9999.25   33.82170   17.89400
 8544.50000   82.83690  -47.50000   56.12680   20.42820   10.00000    0.00350    2.52210    0.08140    0.09710   -9999.25   -9999.25   32.46150   18.64870
 8545.00000   84.17400  -47.50000   53.62220   20.70710    9.97010    0.00190    2.54330    0.10170    0.08750   -9999.25   -9999.25   30.71470   19.27790
 8545.50000   85.95750  -47.50000   49.90540   20.71580    9.94030    0.00190    2.55530    0.12260    0.07770   -9999.25   -9999.25   29.03440   19.86400
 8546.00000   87.74100  -47.80110   47.17100   20.98830    9.88060    0.00190    2.57040    0.14000    0.06800   -9999.25   -9999.25   26.68670   20.54040
 8546.50000   91.31030  -48.09520   46.10310   21.30370    9.82090    0.00170    2.58990    0.15190    0.05390   -9999.25   -9999.25   24.93020   21.11670
 8547.00000   89.43730  -48.09520   45.69320   21.60500    9.76120   -0.00430    2.60700    0.14120    0.03870   -9999.25   -9999.25   22.67870   21.56420
 8547.50000   77.95190  -47.50000   44.59790   21.90940    9.67160   -0.00900    2.62440    0.11900    0.02020   -9999.25   -9999.25   21.51040   22.01510
 8548.00000   61.86580  -47.50000   44.61200   22.52320    9.64180   -0.01330    2.64830    0.10390    0.00780   -9999.25   -9999.25   21.82100   22.63270
 8548.50000   53.11140  -46.90480   44.62210   23.08090    9.64180   -0.01320    2.67740    0.09390    0.00470   -9999.25   -9999.25   24.62600   23.08090
 8549.00000   49.62240  -46.30950   44.63360   23.07910    9.64180   -0.01020    2.69720    0.09030    0.00850   -9999.25   -9999.25   29.37020   23.39800
 8549.50000   46.97340  -45.71430   45.18150   23.39440    9.64180   -0.00740    2.70330    0.09180    0.01710   -9999.25   -9999.25   33.76240   23.39800
 8550.00000   44.86630  -45.71430   46.43640   23.07600    9.67160   -0.00720    2.69800    0.11000    0.01730   -9999.25   -9999.25   35.20440   23.08090
 8550.50000   46.98970  -46.30950   47.72160   22.23290    9.67160   -0.00600    2.68910    0.12980    0.01730   -9999.25   -9999.25   33.59460   21.85490
 8551.00000   50.60690  -46.90480   50.16880   21.20950    9.67160   -0.00940    2.68380    0.17770    0.01860   -9999.25   -9999.25   30.02440   20.41360
 8551.50000   57.18820  -46.90480   51.73220   19.89850    9.67160   -0.01280    2.68380    0.17940    0.02280   -9999.25   -9999.25   24.06950   18.80890
 8552.00000   67.68830  -46.90480   53.63890   18.56880    9.67160   -0.01660    2.68300    0.16820    0.03350   -9999.25   -9999.25   19.56760   17.56850
 8552.50000   73.18640  -46.90480   55.76970   17.44700    9.70150   -0.01820    2.67680    0.15050    0.04680   -9999.25   -9999.25   17.21460   16.63530
 8553.00000   77.13670  -47.50000   57.02420   17.45330    9.70150   -0.01820    2.65610    0.12530    0.05950   -9999.25   -9999.25   16.74440   16.86380
 8553.50000   76.24220  -47.50000   58.47890   18.33150    9.70150   -0.01780    2.62860    0.10050    0.06650   -9999.25   -9999.25   17.71870   17.80980
 8554.00000   73.70260  -47.50000   57.44000   20.12550    9.70150   -0.01240    2.60010    0.09430    0.06820   -9999.25   -9999.25   19.93990   19.86400
 8554.50000   73.41740  -48.09520   54.67590   21.25130    9.70150   -0.00190    2.59260    0.08920    0.07000   -9999.25   -9999.25   23.69860   21.85490
 8555.00000   75.35210  -48.09520   50.95320   22.13650    9.64180    0.01410    2.59560    0.08460    0.07720   -9999.25   -9999.25   26.06830   23.08090
 8555.50000   85.89880  -48.69050   47.43300   23.05850    9.58210    0.02510    2.59410    0.07550    0.09390   -9999.25   -9999.25   28.28700   24.37560
 8556.00000   97.90430  -49.28570   44.79470   23.69380    9.52240    0.03210    2.58660    0.06920    0.09630   -9999.25   -9999.25   29.86940   25.39420
 8556.50000   94.20640  -49.88100   42.47750   23.69230    9.52240    0.03590    2.54470    0.06630    0.08800   -9999.25   -9999.25   29.86740   26.10100
 8557.00000   86.72880  -49.88100   40.00120   24.01580    9.52240    0.03770    2.54170    0.06490    0.07400   -9999.25   -9999.25   29.46130   27.20200
 8557.50000   78.24060  -49.88100   38.12330   24.34360    9.58210    0.03610    2.55820    0.06370    0.06870   -9999.25   -9999.25   29.37280   27.56060
 8558.00000   77.22630  -49.88100   36.57500   24.67580    9.64180    0.03230    2.57760    0.06370    0.06650   -9999.25   -9999.25   29.86160   27.11770
 8558.50000   79.81540  -49.88100   34.16380   25.01270    9.70150    0.02770    2.59400    0.06350    0.06650   -9999.25   -9999.25   31.96440   26.09670
 8559.00000   84.11120  -49.28570   35.45190   24.33860    9.82090    0.02310    2.60150    0.06730    0.06580   -9999.25   -9999.25   33.29580   26.09670
 8559.50000   84.71520  -49.28570   36.70960   23.36230    9.91040    0.02160    2.60150    0.07740    0.06460   -9999.25   -9999.25   34.68260   26.09670
