~Version ---------------------------------------------------
VERS.   2.0 : CWLS log ASCII Standard -VERSION 2.0
WRAP.    NO : One line per depth step
DLM . SPACE : Column Data Section Delimiter
~Well ------------------------------------------------------
STRT .F                 3802.0 : START DEPTH
STOP .F                11423.0 : STOP DEPTH
STEP .F                    0.5 : STEP
NULL .                -9999.25 : NULL VALUE
COMP .                         : COMPANY
WELL .                         : WELL
FLD  .                         : FIELD
LOC  .                         : LOCATION
PROV .                         : PROVINCE
CNTY .                         : COUNTY
STAT .                         : STATE
CTRY .                         : COUNTRY
SRVC .                         : SERVICE COMPANY
DATE .                         : DATE
UWI  .                         : UNIQUE WELL ID
API  .                         : API NUMBER
SLAT .WGS84  5.522695814791703 : SURFACE LATITUDE
SLON .WGS84 3.8968884515525986 : SURFACE LONGITUDE
DATUM.F                 1822.0 : DEPTH DATUM ELEV
~Curve Information -----------------------------------------
DEPT.F     : 
GRR .GAPI  : GAMMA RAY FROM RES LOG
SPR .MV    : SPONTANEOUS POTENTIAL
CILD.MMHO  : CONDUCTIVITY INDUCTION LOG DEEP
ILM .OHMM  : INDUCTION LOG MEDIUM
CALD.IN    : CALIPER FROM DENSITY LOG
DRHO.G/C3  : DENSITY CORRECTION
RHOB.G/C3  : BULK DENSITY
NPHI.DEC   : NEUTRON POROSITY LIMESTONE
DPHI.DEC   : DENSITY POROSITY LIMESTONE
DTCO.US/F  : COMPRESSIONAL-WAVE INTERVAL TRANSIT TIME ACAUSTIC SLOWNESS
DTSM.US/F  : SHEAR-WAVE INTERVAL TRANSIT TIME DELTA-T
SFLU.OHMM  : SPHERICALLY FOCUSED LOG UNAVERAGED RESISTIVITY
ILD .OHMM  : INDUCTION LOG DEEP
~Params ----------------------------------------------------
~Other -----------------------------------------------------
~ASCII -----------------------------------------------------
# ...
 3854.00000   49.07710   -9999.25   -9999.25   -9999.25   -9999.25   -9999.25   -9999.25    0.49140   -9999.25   -9999.25   -9999.25   -9999.25   -9999.25
 3854.50000   50.29450   -9999.25   -9999.25   -9999.25   -9999.25   -9999.25   -9999.25    0.48540   -9999.25   -9999.25   -9999.25   -9999.25   -9999.25
 3855.00000   51.64210   -9999.25   -9999.25   -9999.25   -9999.25   -9999.25   -9999.25    0.48180   -9999.25   -9999.25   -9999.25   -9999.25   -9999.25
 3855.50000   52.28130   -9999.25   -9999.25   -9999.25   -9999.25   -9999.25   -9999.25    0.48440   -9999.25   -9999.25   -9999.25   -9999.25   -9999.25
 3856.00000   53.25440   -9999.25   -9999.25   -9999.25   -9999.25   -9999.25   -9999.25    0.49310   -9999.25   -9999.25   -9999.25   -9999.25   -9999.25
 3856.50000   51.28920   -9999.25   -9999.25   -9999.25   -9999.25   -9999.25   -9999.25    0.50510   -9999.25   -9999.25   -9999.25   -9999.25   -9999.25
 3857.00000   49.02130   -9999.25   -9999.25   -9999.25   -9999.25   -9999.25   -9999.25    0.52130   -9999.25   -9999.25   -9999.25   -9999.25   -9999.25
 3857.50000   48.86070   -9999.25   -9999.25   -9999.25   -9999.25   -9999.25   -9999.25    0.53840   -9999.25   -9999.25   -9999.25   -9999.25   -9999.25
 3858.00000   51.37250   -9999.25   -9999.25   -9999.25   -9999.25   -9999.25   -9999.25    0.55350   -9999.25   -9999.25   -9999.25   -9999.25   -9999.25
 3858.50000   54.14200   -9999.25   -9999.25   -9999.25   -9999.25   -9999.25   -9999.25    0.53990   -9999.25   -9999.25   -9999.25   -9999.25   -9999.25
 3859.00000   55.47340   -9999.25   -9999.25   -9999.25   -9999.25   -9999.25   -9999.25    0.46120   -9999.25   -9999.25   -9999.25   -9999.25   -9999.25
 3859.50000   46.59760 -105.52860 1918.34340   82.92340    9.37320   -0.24550    3.04190    0.35640    0.18610  102.03010  108.73330    4.62440    1.63340
 3860.00000   35.50300 -107.97210 1955.88620  754.22440    9.89390   -0.16620    3.07430    0.26510    0.15930   87.46270  107.40240    6.33940    1.68780
 3860.50000   27.07100 -108.47850 1916.75680  840.54200    9.96370    0.06980    3.19310    0.18750    0.08970   78.89530  103.51890   11.82980    1.38790
 3861.00000   23.52070 -105.74520 1538.64660  494.05480    9.99330    0.10770    3.48400    0.07110    0.01650   70.74630   94.56080   41.76230    1.34930
 3861.50000   19.52660 -102.71240  509.26270   86.14890   10.00480    0.10590    3.80240    0.02280   -0.05790   60.86500   87.39360   68.97530    1.56860
 3862.00000   16.86390  -99.67840  134.03760    9.10470   10.03500    0.06820    3.93470    0.02220   -0.10020   54.74580   82.31610   78.92170   20.16920
 3862.50000   19.97040  -96.82000  147.28690    8.85850   10.05220    0.02920    3.94000    0.02510   -0.10070   49.92490   81.41770   58.59820  369.19360
 3863.00000   22.18930  -94.39950  249.37130    7.66450   10.06560   -0.00560    3.91430    0.04660   -0.10010   47.46270   86.48940   32.25680 1071.70900
 3863.50000   24.85210  -92.57330  368.35360    4.75030   10.11150   -0.01090    3.86540    0.10690   -0.07990   48.77580   99.02380   15.50420 1379.06200
 3864.00000   26.20730  -90.97510  459.40100    3.03490   10.15620   -0.01090    3.81050    0.13620   -0.01380   52.59700  109.17010    5.38130  441.18000
 3864.50000   28.54150  -89.76040  609.96880    1.65330   10.23210   -0.01100    3.68800    0.18810    0.07550   57.32840  123.90140    2.38440   34.67090
 3865.00000   32.74970  -88.27960  741.43610    1.11480   10.32310   -0.01450    3.46870    0.23170    0.18680   63.28360  135.19540    1.74510    2.22910
 3865.50000   40.20270  -86.14410  829.85320    0.89530   10.88530   -0.02240    3.12930    0.28010   -9999.25   72.22390  141.69870    1.65270    1.32670
 3866.00000   54.79110  -85.82790  905.66610    0.80510   12.77240   -0.05660    2.71430    0.39400   -9999.25   72.53700  139.64180    1.81710    1.05730
 3866.50000   65.00130  -85.81900  958.94950    0.75790   13.16600   -0.05380    2.64050    0.43350   -9999.25   65.67160  123.70270    2.16720    0.88680
 3867.00000   67.45560  -85.81010 1161.02270    0.73410   12.48120   -0.03840    2.70730    0.41820   -9999.25   62.08960  119.96980    2.38280    0.78010
 3867.50000   60.74580  -85.20600 1199.77530    0.75170   11.70010   -0.02350    2.80120    0.40070   -9999.25   62.98510  117.26870    2.48140    0.76420
 3868.00000   53.12950  -84.60380 1112.74400    0.79220   11.63960   -0.02340    2.70120    0.39590   -9999.25   65.37310  114.10550    2.58410    0.79160
 3868.50000   51.47930  -84.00150 1087.16150    0.87740   13.30520   -0.02560    2.54790    0.41480   -9999.25   65.97010  113.62150    2.72780    0.87510
 3869.00000   48.92630  -83.39930  996.11470    1.04610   14.19390   -0.02800    2.47990    0.46820   -9999.25   65.67160  115.93430    2.95870    1.00850
 3869.50000   39.49170  -82.79710  950.05540    1.34870   14.25110   -0.02880    2.47980    0.52800   -9999.25   64.17910  119.85250    3.53620    1.09010
 3870.00000   30.50440  -83.38180  868.77330    1.41590   12.00130   -0.02870    2.59820    0.42060   -9999.25   62.08960  124.41730    4.78600    1.14600
 3870.50000   27.06840  -83.96650  821.38390    1.34080   11.07070   -0.02360    3.03080    0.28250    0.18270   58.74620  128.97580    6.68910    1.12710
 3871.00000   30.18500  -83.95770  853.39760    1.13430   10.70650   -0.01620    3.31710    0.18080    0.19300   58.20900  130.91890    5.86480    1.07520
 3871.50000   40.86020  -85.13590  916.06920    0.92070   10.76490    0.00770    3.36180    0.18360    0.27750   58.50750  130.61740    3.35270    1.00390
 3872.00000   50.14790  -85.72110  974.69490    0.80710   10.99100    0.01360    3.00250    0.23990    0.14650   57.79100  122.25630    2.09950    0.93100
 3872.50000   53.69820  -85.11840 1051.67330    0.75420   13.24820    0.01060    2.59980    0.34040    0.10250   56.34330  114.19370    1.66890    0.88720
 3873.00000   55.47340  -84.51610 1088.27710    0.74410   15.84010   -0.02390    2.22560    0.55310    0.17800   53.76090  109.11610    1.70230    0.85250
 3873.50000   53.25440  -83.91390 1072.65410    0.88730   16.97550   -0.02100    2.21170    0.60500    0.20430   51.73110  105.82960    1.83690    0.85260
 3874.00000   40.82840  -83.31160 1056.99330    1.07260   17.40110   -0.01950    2.29740    0.59920    0.22690   51.34330  108.51330    2.58750    0.87610
 3874.50000   34.61540  -83.27210 1031.74680    1.13230   15.62870   -0.03010    2.56680    0.47970    0.29890   55.26840  113.88350   15.61380    0.90030
 3875.00000   30.17750  -82.70030 1009.27600    1.16340   11.72450   -0.03330    2.98900    0.35220    0.29890   59.55120  113.28360   35.96020    0.95070
 3875.50000   30.06190  -82.69140  980.10240    1.17930   10.94330   -0.01370    3.31100    0.23790    0.29490   63.50750  111.40720   33.67230    1.10400
 3876.00000   40.82840  -82.68250  858.85110    1.19540   10.91290   -0.00630    3.29830    0.14230    0.21020   65.37310  107.43780   23.63140    1.28200
 3876.50000   50.14790  -82.67360  651.48500    1.26190   11.09640   -0.00630    3.13880    0.17690    0.26720   62.98510  103.08990    5.82560    1.55060
 3877.00000   55.47340  -82.66470  494.86890    1.54620   11.83600   -0.00640    2.96680    0.33390    0.29890   58.80600   98.55290    2.95230    1.82530
 3877.50000   54.07450  -82.06230  499.91790    1.86900   12.81490   -0.00800    2.86540    0.40350    0.29900   55.22390   96.25410    4.37050    1.92730
 3878.00000   38.60060  -82.05340  516.11930    2.16930   12.95350   -0.00640    2.96490    0.38230    0.29900   53.13430   96.93130  175.72360    1.82550
 3878.50000   24.97790  -81.45100  541.66890    2.41760   12.58540   -0.00500    3.09850    0.29660    0.29820   53.73130   97.63700  781.75720    1.70580
 3879.00000   16.58350  -81.44210  567.62410    2.41760   11.66880   -0.00060    3.57940    0.18150    0.07230   54.92540   99.26540  529.95540    1.63770
 3879.50000   14.20120  -80.62110  521.64830    1.74670   11.05170   -0.00070    3.74100    0.03900    0.00550   55.82090  100.97020   55.81700    1.72930
