~Version ---------------------------------------------------
VERS.   2.0 : CWLS log ASCII Standard -VERSION 2.0
WRAP.    NO : One line per depth step
DLM . SPACE : Column Data Section Delimiter
~Well ------------------------------------------------------
STRT .F                 3802.0 : START DEPTH
STOP .F                11423.0 : STOP DEPTH
STEP .F                    0.5 : STEP
NULL .                -9999.25 : NULL VALUE
COMP .                         : COMPANY
WELL .                         : WELL
FLD  .                         : FIELD
LOC  .                         : LOCATION
PROV .                         : PROVINCE
CNTY .                         : COUNTY
STAT .                         : STATE
CTRY .                         : COUNTRY
SRVC .                         : SERVICE COMPANY
DATE .                         : DATE
UWI  .                         : UNIQUE WELL ID
API  .                         : API NUMBER
SLAT .WGS84  5.522695814791703 : SURFACE LATITUDE
SLON .WGS84 3.8968884515525986 : SURFACE LONGITUDE
DATUM.F                 1822.0 : DEPTH DATUM ELEV
~Curve Information -----------------------------------------
DEPT.F     : 
GRR .GAPI  : GAMMA RAY FROM RES LOG
SPR .MV    : SPONTANEOUS POTENTIAL
CILD.MMHO  : CONDUCTIVITY INDUCTION LOG DEEP
ILM .OHMM  : INDUCTION LOG MEDIUM
CALD.IN    : CALIPER FROM DENSITY LOG
DRHO.G/C3  : DENSITY CORRECTION
RHOB.G/C3  : BULK DENSITY
NPHI.DEC   : NEUTRON POROSITY LIMESTONE
DPHI.DEC   : DENSITY POROSITY LIMESTONE
DTCO.US/F  : COMPRESSIONAL-WAVE INTERVAL TRANSIT TIME ACAUSTIC SLOWNESS
DTSM.US/F  : SHEAR-WAVE INTERVAL TRANSIT TIME DELTA-T
SFLU.OHMM  : SPHERICALLY FOCUSED LOG UNAVERAGED RESISTIVITY
ILD .OHMM  : INDUCTION LOG DEEP
~Params ----------------------------------------------------
~Other -----------------------------------------------------
~ASCII -----------------------------------------------------
# ...
 9002.00000   69.18720  -54.97680   58.49460   13.95840   12.13080   -0.00080    2.58870    0.07860    0.08700   -9999.25   -9999.25   18.09030   16.15070
 9002.50000   67.39930  -54.36450   59.96180   13.05030   12.23380   -0.00380    2.56920    0.08380    0.08940   -9999.25   -9999.25   15.73810   15.28300
 9003.00000   67.39710  -53.75450   64.26290   12.17880   12.32430   -0.00690    2.55810    0.09150    0.08820   -9999.25   -9999.25   13.26810   14.42980
 9003.50000   67.84150  -53.43150   68.51550   11.60280   12.43030   -0.00770    2.55720    0.09910    0.08700   -9999.25   -9999.25   13.11600   13.95510
 9004.00000   67.39260  -52.83330   73.50440   11.21380   12.53530   -0.00550    2.55940    0.10920    0.08530   -9999.25   -9999.25   13.11700   13.10970
 9004.50000   66.05110  -52.83040   78.00560   10.82590   12.63990   -0.00330    2.56090    0.12060    0.08350   -9999.25   -9999.25   12.72630   12.33370
 9005.00000   64.70960  -52.82740   81.55280   10.41380   12.70000   -0.00190    2.56230    0.12890    0.08170   -9999.25   -9999.25   12.46630   11.67430
 9005.50000   63.81460  -52.82440   84.22290    9.99810   12.74300   -0.00040    2.56610    0.13750    0.08060   -9999.25   -9999.25   11.63580   11.04940
 9006.00000   60.68740  -52.82140   86.56590    9.46900   12.79020   -0.00040    2.57210    0.14110    0.08060   -9999.25   -9999.25   10.66930   10.53060
 9006.50000   59.79230  -52.22260   89.07030    8.96800   12.83190   -0.00050    2.57260    0.14200    0.08300   -9999.25   -9999.25    9.86200   10.04090
 9007.00000   63.36150  -52.21970   91.57660    9.09230   12.83160   -0.00050    2.56780    0.13910    0.08900   -9999.25   -9999.25    9.08330    9.90480
 9007.50000   65.59150  -52.21680   94.08500    9.21820   12.83130   -0.00060    2.56260    0.13370    0.09020   -9999.25   -9999.25    9.08400    9.98090
 9008.00000   65.62780  -52.21380   96.57140    9.47410   12.83100   -0.00060    2.55530    0.12950    0.09080   -9999.25   -9999.25    9.25970   10.04090
 9008.50000   62.01560  -51.61560   97.83510    9.60540   12.83070    0.00090    2.55680    0.12500    0.09090   -9999.25   -9999.25    9.51950   10.26140
 9009.00000   57.99550  -51.61270  100.07530    9.34850   12.83040    0.00380    2.55820    0.12360    0.09090   -9999.25   -9999.25    9.65410   10.46040
 9009.50000   58.00740  -51.01450  101.19850    9.22310   12.83010    0.00530    2.55820    0.12780    0.09090   -9999.25   -9999.25    9.72710   10.60410
 9010.00000   62.07950  -51.01160  100.00000    9.22440   12.80000    0.00520    2.55810    0.12540    0.09090   -9999.25   -9999.25    9.72770   10.60410
 9010.50000   66.09340  -50.41340   96.54280    9.48050   12.79970    0.00370    2.55660    0.11920    0.09040   -9999.25   -9999.25    9.93300   10.60410
 9011.00000   68.73090  -50.41040   95.16330    9.74370   12.76950    0.00220    2.55660    0.10900    0.09040   -9999.25   -9999.25   10.07320   10.60410
 9011.50000   69.59160  -50.40750   95.18320   10.01420   12.73940   -0.00390    2.55800    0.10340    0.09040   -9999.25   -9999.25   10.43800   10.60410
 9012.00000   68.15510  -50.40450   95.20610   10.15300   12.67940   -0.01290    2.55950    0.10640    0.09040   -9999.25   -9999.25   10.70430   10.60410
 9012.50000   65.45630  -50.40160   95.22900   10.29360   12.67910   -0.01290    2.56240    0.11350    0.09100   -9999.25   -9999.25   10.76000   10.60410
 9013.00000   64.22770  -50.39870   94.80600   10.43620   12.64890   -0.01300    2.55940    0.11640    0.09290   -9999.25   -9999.25   10.00070   10.60410
 9013.50000   64.29750  -50.39570   92.22250   10.15710   12.61880   -0.01000    2.55330    0.11340    0.09830   -9999.25   -9999.25    9.09160   10.31860
 9014.00000   65.11630  -50.39280   91.06280   10.02100   12.52890   -0.00850    2.54580    0.11180    0.10130   -9999.25   -9999.25    9.60140   10.17880
 9014.50000   64.57810  -50.38980   89.84380    9.87240   12.49880   -0.00710    2.54130    0.11450    0.10130   -9999.25   -9999.25   10.56300   10.04090
 9015.00000   63.48230  -50.38690   89.23660    9.62220   12.52840   -0.01010    2.53980    0.12140    0.10200   -9999.25   -9999.25   11.30840   10.04090
 9015.50000   59.46050  -50.38390   90.23530    9.47300   12.58800   -0.01160    2.53670    0.12990    0.10320   -9999.25   -9999.25   11.78100   10.04090
 9016.00000   53.94110  -50.38100   93.90380    9.09110   12.64720   -0.01170    2.53370    0.13370    0.10440   -9999.25   -9999.25   10.14200   10.04090
 9016.50000   50.33410  -50.37800   95.41670    8.63200   12.64690   -0.01020    2.53210    0.13550    0.10500   -9999.25   -9999.25    9.22000   10.04090
 9017.00000   48.58480  -50.37500   96.43270    8.81000   12.64450   -0.00730    2.53060    0.13700    0.10440   -9999.25   -9999.25    9.60530   10.04090
 9017.50000   50.44360  -50.37200   97.69720    9.15140   12.58390   -0.00580    2.53060    0.13570    0.10430   -9999.25   -9999.25    9.87130   10.04090
 9018.00000   56.28920  -50.36900   98.96150    9.37130   12.55300   -0.00430    2.53200    0.13290    0.10320   -9999.25   -9999.25    9.88540   10.04090
 9018.50000   62.87960  -50.36610  100.22700    9.24550   12.52630   -0.00280    2.53500    0.13050    0.10200   -9999.25   -9999.25    9.73900   10.31860
 9019.00000   65.09420  -50.36310  101.63620    9.24700   12.52600   -0.00130    2.53640    0.13290    0.10150   -9999.25   -9999.25    9.60790   10.60410
 9019.50000   64.30410  -50.36010  102.75430    9.47200   12.49580    0.00150    2.53790    0.13470    0.10610   -9999.25   -9999.25    9.47850   10.74980
 9020.00000   60.98320  -50.35710  103.20610    9.93030   12.49550    0.00320    2.53180    0.13060    0.11180   -9999.25   -9999.25    9.22430   11.04720
 9020.50000   60.17630  -50.48590  102.69830   10.66340   12.48860    0.00470    2.52130    0.12520    0.11230   -9999.25   -9999.25    9.10010   11.19900
 9021.00000   61.01070  -50.94680  100.25660   11.03160   12.39070    0.00620    2.51680    0.11870    0.11160   -9999.25   -9999.25    9.13360   11.66690
 9021.50000   61.71420  -50.94350   92.58850   11.50210   12.23210    0.00740    2.51980    0.12170    0.11040   -9999.25   -9999.25   10.77470   11.82720
 9022.00000   61.29720  -51.53610   86.60330   11.90880   12.12760    0.00730    2.52280    0.12470    0.10720   -9999.25   -9999.25   12.35370   12.32140
 9022.50000   60.39410  -52.12840   83.16800   11.99060   12.10600    0.00870    2.52430    0.12170    0.10300   -9999.25   -9999.25   13.15010   12.49200
 9023.00000   58.59830  -52.12500   80.70730   12.25030   12.13560    0.02410    2.52740    0.11520    0.09350   -9999.25   -9999.25   13.15100   12.84040
 9023.50000   59.08380  -52.12200   78.24580   12.59450   12.14570    0.04970    2.53690    0.09960    0.07770   -9999.25   -9999.25   13.33230   13.01960
 9024.00000   61.34010  -52.34170   75.78700   12.66770   12.16480    0.05510    2.55270    0.08060    0.06320   -9999.25   -9999.25   13.62980   13.19130
 9024.50000   62.13930  -52.71190   72.88200   12.49800   12.17630    0.05260    2.58900    0.08540    0.06100   -9999.25   -9999.25   14.16860   13.38560
 9025.00000   61.49550  -52.70830   74.93640   12.49960   12.19400    0.04050    2.60610    0.10330    0.06280   -9999.25   -9999.25   14.71960   13.75880
 9025.50000   61.49290  -52.70540   76.70890   12.50130   12.20680    0.02590    2.60530    0.13050    0.07060   -9999.25   -9999.25   14.87170   13.95020
 9026.00000   61.49070  -52.70240   77.07940   12.67450   12.22330    0.01530    2.59470    0.13200    0.07040   -9999.25   -9999.25   13.80530   14.33840
 9026.50000   61.04200  -52.69940   75.85810   12.85010   12.19310    0.00370    2.58960    0.12820    0.06670   -9999.25   -9999.25   12.29700   14.71280
 9027.00000   60.14690  -52.69640   74.52130   13.20690   12.17770    0.00100    2.59350    0.11470    0.05990   -9999.25   -9999.25   11.90490   14.91500
 9027.50000   58.35900  -52.69350   73.42240   13.38980   12.11710    0.00310    2.60400    0.09590    0.05180   -9999.25   -9999.25   12.38120   15.15260
