~Version ---------------------------------------------------
VERS.   2.0 : CWLS log ASCII Standard -VERSION 2.0
WRAP.    NO : One line per depth step
DLM . SPACE : Column Data Section Delimiter
~Well ------------------------------------------------------
STRT .F                 3802.0 : START DEPTH
STOP .F                11423.0 : STOP DEPTH
STEP .F                    0.5 : STEP
NULL .                -9999.25 : NULL VALUE
COMP .                         : COMPANY
WELL .                         : WELL
FLD  .                         : FIELD
LOC  .                         : LOCATION
PROV .                         : PROVINCE
CNTY .                         : COUNTY
STAT .                         : STATE
CTRY .                         : COUNTRY
SRVC .                         : SERVICE COMPANY
DATE .                         : DATE
UWI  .                         : UNIQUE WELL ID
API  .                         : API NUMBER
SLAT .WGS84  5.522695814791703 : SURFACE LATITUDE
SLON .WGS84 3.8968884515525986 : SURFACE LONGITUDE
DATUM.F                 1822.0 : DEPTH DATUM ELEV
~Curve Information -----------------------------------------
DEPT.F     : 
GRR .GAPI  : GAMMA RAY FROM RES LOG
SPR .MV    : SPONTANEOUS POTENTIAL
CILD.MMHO  : CONDUCTIVITY INDUCTION LOG DEEP
ILM .OHMM  : INDUCTION LOG MEDIUM
CALD.IN    : CALIPER FROM DENSITY LOG
DRHO.G/C3  : DENSITY CORRECTION
RHOB.G/C3  : BULK DENSITY
NPHI.DEC   : NEUTRON POROSITY LIMESTONE
DPHI.DEC   : DENSITY POROSITY LIMESTONE
DTCO.US/F  : COMPRESSIONAL-WAVE INTERVAL TRANSIT TIME ACAUSTIC SLOWNESS
DTSM.US/F  : SHEAR-WAVE INTERVAL TRANSIT TIME DELTA-T
SFLU.OHMM  : SPHERICALLY FOCUSED LOG UNAVERAGED RESISTIVITY
ILD .OHMM  : INDUCTION LOG DEEP
~Params ----------------------------------------------------
~Other -----------------------------------------------------
~ASCII -----------------------------------------------------
# ...
 10432.00000   63.39290  -33.02690   19.05340   49.07070    9.94140   -0.01190    2.70380    0.10330    0.00830   60.51680  107.77300   70.65770   57.86440
 10432.50000   64.73210  -33.02990   19.71330   47.09650    9.85140   -0.01190    2.69440    0.10630    0.00960   59.88780  110.15660   65.98220   54.78340
 10433.00000   64.73210  -33.03280   20.96360   43.38610    9.76140   -0.01200    2.69330    0.10750    0.00880   58.70600  112.54030   63.32330   51.86650
 10433.50000   65.18910  -33.03580   22.21390   42.79430    9.67140   -0.01200    2.69620    0.10760    0.00850   57.80160  112.53350   61.60450   50.46330
 10434.00000   67.43710  -33.03880   23.68140   45.21780    9.61130   -0.01200    2.69630    0.10580    0.00930   57.53670  110.41700   61.63290   49.09820
 10434.50000   69.67450  -33.04180   24.71670   47.73150    9.52130   -0.01200    2.69390    0.10460    0.01110   59.17470  109.24340   64.29610   47.76990
 10435.00000   71.91720  -33.04480   25.96700   47.68280    9.46110   -0.01210    2.69160    0.10410    0.01290   60.87770  111.96530   70.70010   44.61350
 10435.50000   74.13700  -33.04780   28.11730   45.13370    9.40100   -0.01210    2.68930    0.10550    0.01330   61.11970  113.14080   71.56190   40.54390
 10436.00000   75.96640  -33.05070   31.52090   42.05640    9.37070   -0.01210    2.68930    0.11980    0.01340   60.15390  113.40920   59.39300   36.34620
 10436.50000   77.72080  -33.05370   32.89810   36.15600    9.31060   -0.01210    2.68920    0.14850    0.01340   60.36800  113.40450   48.55130   34.41100
 10437.00000   79.01790  -33.05670   34.02310   31.48180    9.28030   -0.01210    2.68910    0.15410    0.01430   62.55200  113.40000   45.30040   33.02630
 10437.50000   79.51900  -33.05970   33.61910   26.81660    9.22010   -0.01220    2.68670    0.15870    0.02770   63.80440  113.09700   40.44920   32.57430
 10438.00000   80.48370  -32.85580   31.85220   24.33400    9.18980   -0.01370    2.67860    0.16090    0.05680   63.70850  112.32980   33.35040   33.47100
 10438.50000   81.25000  -32.46810   29.13440   22.16150    9.15950   -0.01970    2.63960    0.15420    0.07370   63.30220  110.51310   29.17460   36.32160
 10439.00000   77.07400  -32.47160   25.32090   23.66640    9.15910   -0.02870    2.60520    0.13770    0.07620   62.09220  108.56370   26.00730   44.56520
 10439.50000   70.76770  -32.47460   21.72460   28.54740    9.12880   -0.03320    2.57820    0.10800    0.06950   60.76950  104.87370   31.25390   53.20760
 10440.00000   62.22760  -31.88000   18.93130   40.57790    9.12830   -0.03320    2.58710    0.06430    0.03580   58.53320  101.85410   47.60170   64.39880
 10440.50000   55.51360  -31.88360   15.83410   61.99070    9.09800   -0.02580    2.64240    0.05990    0.01250   55.68920   98.31540   72.82100   76.88760
 10441.00000   54.01790  -31.28960   12.81150   73.63200    9.09760   -0.01980    2.70060    0.05840   -0.00440   53.26650   96.16520  125.50270   93.05940
 10441.50000   54.57330  -30.69550   11.63690   79.06350    9.06730   -0.01530    2.72600    0.05840   -0.00680   50.66070   95.44920  171.30500  108.11520
 10442.00000   56.48460  -30.69850   11.65100   74.85150    9.06650   -0.01390    2.72440    0.05860    0.00180   49.29560   95.84670  197.26500  120.56890
 10442.50000   59.29770  -30.70150   11.66030   65.54790    9.03660   -0.01090    2.71390    0.06150    0.01070   50.79360   96.96220  220.69850  120.65090
 10443.00000   62.44220  -30.10750   12.38910   57.91180    9.00630   -0.01090    2.69890    0.06740    0.01850   54.45050  100.01020  167.77060  108.07130
 10443.50000   65.58460  -30.11040   13.20990   51.88920    8.97600   -0.01090    2.68090    0.08480    0.03820   59.39370  103.62320   93.17130   96.88220
 10444.00000   68.42890  -30.11340   13.36410   46.62260    8.97550   -0.01100    2.64500    0.09610    0.06870   60.32490  106.42800   61.97080   89.25440
 10444.50000   71.43030  -30.42670   14.76090   43.91430    8.97510   -0.01100    2.59410    0.09060    0.07820   59.89660  107.36270   53.57870   82.22710
 10445.00000   72.76790  -30.71640   15.86460   55.00090    8.97460   -0.01100    2.57160    0.08200    0.06510   58.69930  106.50500   67.62080   76.74530
 10445.50000   64.20170  -30.71940   17.92060   68.68320    8.97420   -0.01100    2.58500    0.06580    0.03830   57.20300  103.48720   91.82010   70.65820
 10446.00000   56.68050  -30.72240   19.37400   69.87110    8.97370   -0.01100    2.66270    0.06110    0.01500   56.00570  102.72940  127.96640   65.95760
 10446.50000   51.78570  -30.72540   19.61780   60.92650    8.97330   -0.01110    2.69100    0.06200    0.00790   55.90880  106.03980  145.20820   61.56020
 10447.00000   60.04640  -30.72840   20.92420   51.13380    8.97280   -0.01260    2.69840    0.07460    0.00380   60.48710  110.27110  111.09290   56.72850
 10447.50000   70.83800  -31.32900   22.11830   42.48960    8.97240   -0.01110    2.70730    0.09000    0.00090   64.96990  113.64480   71.32100   55.17040
 10448.00000   77.95630  -31.33190   23.36850   37.98310    8.97190   -0.00950    2.71170    0.10960    0.00050   67.95800  113.89850   53.10750   52.93300
 10448.50000   82.55060  -31.93190   24.01140   35.95250    8.97150   -0.00820    2.70570    0.12140    0.00490   67.05960  109.71410   46.81120   49.33450
 10449.00000   84.11240  -32.53190   24.34280   34.17170    8.97100   -0.00840    2.69520    0.12170    0.00890   63.17170  105.53050   42.69220   44.80680
 10449.50000   87.24160  -32.53480   25.56110   32.79100    8.97060   -0.00970    2.69360    0.12650    0.00840   63.11490  109.70520   42.39870   40.22380
 10450.00000   93.97320  -33.13480   25.57250   32.04630    8.97010   -0.01000    2.69760    0.13040    0.00540   62.86980  108.80520   42.99070   40.66470
 10450.50000  100.94230  -33.13780   25.58400   32.79210    8.96970   -0.01150    2.70150    0.12950    0.00450   61.67250  106.41270   42.68390   44.87730
 10451.00000  109.04110  -33.14080   24.20180   36.63550    8.96930   -0.01460    2.70390    0.12050    0.00610   58.98050  103.42320   47.58180   51.51580
 10451.50000  112.98670  -33.14370   20.91780   45.46340    8.96880   -0.01790    2.70030    0.10400    0.00970   57.18530   99.53820   65.10290   65.36190
 10452.00000  111.39620  -33.14670   16.21570   62.68350    8.96840   -0.02180    2.69210    0.07470    0.01470   55.98800   96.84720  132.21620   77.86650
 10452.50000  101.89820  -33.14960   13.41760   79.98910    8.96790   -0.02330    2.68460    0.04550    0.02160   54.49170   96.84280  293.08340   87.81770
 10453.00000   94.31950  -33.15260   13.42750   90.49990    8.96750   -0.02300    2.67720    0.02480    0.03130   53.89230   97.43530  437.64310   96.97130
 10453.50000   88.83930  -33.15560   12.65260   95.60360    8.96700   -0.02040    2.65940    0.02140    0.03560   54.78770   98.92350  642.71940   88.61440
 10454.00000   87.05360  -33.15850   11.92370   74.73760    8.96660   -0.01800    2.64760    0.03690    0.02860   56.29050  103.39660  366.97710   67.80430
 10454.50000   85.26790  -33.75850   12.14560   59.00640    8.96610   -0.01400    2.65040    0.05960    0.01840   58.68770  109.66090  114.84950   57.92580
 10455.00000   83.03570  -33.76150   13.47400   51.87810    8.96570   -0.01050    2.66610    0.07580    0.01250   59.26760  109.35790   53.42270   51.81860
 10455.50000   79.46430  -34.36150   13.48470   49.88840    8.96520   -0.00850    2.70270    0.09670    0.00650   57.75000  107.56240   42.34250   53.96690
 10456.00000   74.10710  -34.96150   13.49620   55.15270    8.99460   -0.00850    2.71080    0.08840    0.00300   57.44360  104.57290   49.20390   61.66040
 10456.50000   70.08930  -35.56140   12.91970   65.45030    8.99420   -0.00850    2.70840    0.07640    0.00180   57.13610  100.38940   71.15060   76.31010
 10457.00000   66.51790  -36.75840   11.99240   80.96660    8.99360   -0.00910    2.70070    0.05910    0.00660   56.48860   96.50440  135.22320  101.59510
 10457.50000   68.75000  -37.35840   12.00380  102.23370    9.02310   -0.01010    2.68920    0.03710    0.01620   55.57810   95.00740  221.12720  137.80310
