~Version ---------------------------------------------------
VERS.   2.0 : CWLS log ASCII Standard -VERSION 2.0
WRAP.    NO : One line per depth step
DLM . SPACE : Column Data Section Delimiter
~Well ------------------------------------------------------
STRT .F                 3802.0 : START DEPTH
STOP .F                11423.0 : STOP DEPTH
STEP .F                    0.5 : STEP
NULL .                -9999.25 : NULL VALUE
COMP .                         : COMPANY
WELL .                         : WELL
FLD  .                         : FIELD
LOC  .                         : LOCATION
PROV .                         : PROVINCE
CNTY .                         : COUNTY
STAT .                         : STATE
CTRY .                         : COUNTRY
SRVC .                         : SERVICE COMPANY
DATE .                         : DATE
UWI  .                         : UNIQUE WELL ID
API  .                         : API NUMBER
SLAT .WGS84  5.522695814791703 : SURFACE LATITUDE
SLON .WGS84 3.8968884515525986 : SURFACE LONGITUDE
DATUM.F                 1822.0 : DEPTH DATUM ELEV
~Curve Information -----------------------------------------
DEPT.F     : 
GRR .GAPI  : GAMMA RAY FROM RES LOG
SPR .MV    : SPONTANEOUS POTENTIAL
CILD.MMHO  : CONDUCTIVITY INDUCTION LOG DEEP
ILM .OHMM  : INDUCTION LOG MEDIUM
CALD.IN    : CALIPER FROM DENSITY LOG
DRHO.G/C3  : DENSITY CORRECTION
RHOB.G/C3  : BULK DENSITY
NPHI.DEC   : NEUTRON POROSITY LIMESTONE
DPHI.DEC   : DENSITY POROSITY LIMESTONE
DTCO.US/F  : COMPRESSIONAL-WAVE INTERVAL TRANSIT TIME ACAUSTIC SLOWNESS
DTSM.US/F  : SHEAR-WAVE INTERVAL TRANSIT TIME DELTA-T
SFLU.OHMM  : SPHERICALLY FOCUSED LOG UNAVERAGED RESISTIVITY
ILD .OHMM  : INDUCTION LOG DEEP
~Params ----------------------------------------------------
~Other -----------------------------------------------------
~ASCII -----------------------------------------------------
# ...
 11160.00000   96.99590  -31.76120   22.59540   49.20730    8.89550   -0.01500    2.61990    0.05570    0.04660   60.80740  100.95570   50.78990   47.96090
 11160.50000   96.19840  -31.75220   22.59920   44.27490    8.89470   -0.01480    2.60860    0.05560    0.05560   61.40680  103.34670   41.92530   43.59490
 11161.00000   92.41440  -31.74330   22.60310   40.40480    8.89400   -0.01330    2.59970    0.05320    0.06450   61.10930  105.73770   42.08460   40.72260
 11161.50000   88.63730  -31.73430   22.60690   38.43640    8.86340   -0.00880    2.59780    0.05090    0.06340   59.61600  104.24810   52.50470   40.17290
 11162.00000   85.24140  -31.72540   22.61090   39.07020    8.86270   -0.00610    2.61480    0.05030    0.06100   57.22590  104.84810   62.61320   43.01280
 11162.50000   83.77930  -31.71640   22.61450   41.85820    8.86190   -0.00470    2.62370    0.04980    0.05740   57.03930  105.14960   69.83500   47.32700
 11163.00000   87.23440  -31.70750   22.61830   43.37350    8.84650   -0.00620    2.62510    0.04990    0.05380   57.82670  104.25700   74.52570   47.53700
 11163.50000   95.21070  -31.69850   22.62210   44.58980    8.83060   -0.00630    2.62660    0.05100    0.05260   56.33350  103.36440   71.97730   43.02160
 11164.00000  102.35800  -31.68960   22.62600   45.54850    8.81480   -0.00680    2.62650    0.05370    0.05260   55.13910  102.77030   61.02140   40.73880
 11164.50000  107.71960  -31.68060   22.62980   45.55160    8.79900   -0.00780    2.62800    0.06530    0.05080   55.73850  102.17630   53.17870   43.02740
 11165.00000  116.65260  -31.67160   22.63360   45.86860    8.78320   -0.00840    2.64290    0.07370    0.04650   57.23470  101.58220   48.59800   45.44420
 11165.50000  117.29350  -31.66270   22.63740   47.80460    8.76740   -0.01000    2.65480    0.06740    0.04230   59.02990  102.48070   50.00060   47.34620
 11166.00000  111.75080  -31.65370   21.96160   50.19240    8.75160   -0.01150    2.65330    0.06010    0.03820   60.52620  104.27470   57.27850   49.32790
 11166.50000  108.18380  -31.64480   21.11830   54.51770    8.73660   -0.01310    2.63980    0.05270    0.03710   60.82660  104.28000   69.77710   50.69600
 11167.00000  105.50970  -31.63580   21.12210   58.06950    8.73580   -0.01400    2.62480    0.04630    0.04940   60.22070  101.87830   81.20040   52.81790
 11167.50000  102.38910  -31.62690   21.12650   62.22640    8.73510   -0.01400    2.61730    0.04350    0.05260   58.70130   99.77040   91.94060   54.28280
 11168.00000   99.71500  -31.61790   21.12980   65.05040    8.73430   -0.01410    2.61870    0.04210    0.05050   56.90670   98.61480  101.92560   54.28650
 11168.50000  102.39800  -31.60890   21.13360   62.43800    8.73360   -0.01410    2.63510    0.04610    0.04470   56.04930  101.11450  105.03120   53.55410
 11169.00000  111.33100  -31.60000   21.62210   56.73790    8.73280   -0.01500    2.66050    0.06200    0.03630   56.05080  103.50320   87.25670   50.71320
 11169.50000  119.37110  -31.59100   22.66790   50.16620    8.73210   -0.01570    2.66940    0.08450    0.02960   56.47890  105.40340   67.71610   48.68250
 11170.00000  126.51850  -31.58210   22.67200   43.75270    8.72440   -0.01570    2.66950    0.10450    0.02550   58.64790  108.32840   55.84260   45.47500
 11170.50000  132.77290  -31.57310   23.82730   38.68500    8.70070   -0.01430    2.66480    0.11470    0.02520   61.78250  110.62700   46.47100   43.06240
 11171.00000  134.22640  -31.56420   25.06990   35.63780    8.70000   -0.01430    2.65880    0.11560    0.02990   65.05140  110.50850   40.89100   40.22520
 11171.50000  124.74610  -30.95820   26.31250   32.83060    8.69930   -0.01430    2.65430    0.11280    0.03390   66.82060  109.53670   37.52430   38.09110
 11172.00000  114.48270  -30.94930   27.26720   31.51220    8.66870   -0.01440    2.65270    0.10620    0.03540   66.66210  107.95130   35.71800   36.56580
 11172.50000  106.00490  -30.94030   27.27100   30.66340    8.62840   -0.01440    2.66170    0.09690    0.03180   65.75190  106.52690   42.02730   35.58390
 11173.00000   99.31300  -30.80210   27.27480   30.24840    8.59720   -0.01290    2.66760    0.09190    0.02820   64.14990  107.49030   52.13950   35.10390
 11173.50000   95.29950  -30.32540   27.27860   31.09020    8.57690   -0.01150    2.67210    0.08940    0.02540   62.94000  107.90150   59.17200   35.10640
 11174.00000   93.51790  -29.71940   27.28240   32.84180    8.53490   -0.01150    2.67500    0.09000    0.02360   63.24040  107.08800   61.73420   36.08010
 11174.50000   97.09410  -29.71050   26.90400   36.64410    8.51570   -0.01160    2.67790    0.09300    0.02140   62.52680  106.71290   59.29360   38.10660
 11175.00000  100.67000  -29.70150   25.66900   38.70870    8.48510   -0.01160    2.67790    0.09780    0.01960   61.49980  108.03430   55.36140   40.80000
 11175.50000  104.24590  -29.69250   24.24110   40.88950    8.45450   -0.01010    2.67780    0.10550    0.01930   60.28990  108.37830   51.68990   43.11990
 11176.00000  107.82180  -29.68360   23.19570   41.45570    8.44020   -0.01020    2.67780    0.10430    0.01930   59.37920  107.63800   48.57380   45.56420
 11176.50000  107.94840  -29.67460   21.95920   40.89500    8.42310   -0.00870    2.67770    0.09960    0.01930   58.17070  106.13310   45.33880   48.14750
 11177.00000  102.47350  -29.66570   21.19850   41.46140    8.40780   -0.00880    2.67790    0.09420    0.01870   56.81740  104.17680   42.97580   50.84550
 11177.50000   97.56720  -30.25500   21.20230   45.01260    8.39180   -0.00880    2.68060    0.08710    0.01690   56.23810  102.50010   44.61990   53.65800
 11178.00000   95.33930  -30.24480   21.20640   48.86810    8.36120   -0.00880    2.68210    0.08050    0.01810   59.48720  100.72520   48.99160   54.80670
 11178.50000  100.25470  -30.41920   20.07030   53.78480    8.36040   -0.00890    2.68140    0.07220    0.02050   60.08780   99.69540   52.46310   55.95550
 11179.00000  104.27700  -30.82530   19.68700   56.81500    8.32990   -0.00890    2.67350    0.06260    0.02260   59.36950   99.34720   56.95360   56.63080
 11179.50000  105.24060  -30.81490   19.12380   61.68130    8.31180   -0.00890    2.66660    0.05370    0.02470   60.26780  101.96770   62.67920   59.39320
 11180.00000   98.92870  -31.40450   18.16790   64.27080    8.29840   -0.00900    2.66320    0.04650    0.03000   61.46510  102.86620   80.16910   62.38260
 11180.50000   90.00460  -31.39400   18.17180   66.96900    8.26780   -0.00900    2.65630    0.04470    0.03600   62.06450  102.86910  108.30030   65.47860
 11181.00000   86.88400  -31.38510   19.40710   66.97360    8.23720   -0.00910    2.64760    0.04470    0.04380   62.66390  102.95570  117.57010   67.30120
 11181.50000   87.33490  -31.37610   19.70610   66.97820    8.23640   -0.00910    2.62760    0.04530    0.05690   62.96430  102.27800   87.05460   68.23980
 11182.00000   96.71430  -31.96580   20.36910   65.11500    8.20590   -0.00910    2.58880    0.04650    0.07900   62.66680  101.68390   68.08100   67.71260
 11182.50000  110.11160  -32.18000   21.24050   63.41870    8.17530   -0.00920    2.53950    0.04890    0.10110   62.36940  101.08990   55.47070   65.53210
 11183.00000  121.72320  -32.54500   21.15950   61.62790    8.17450   -0.01100    2.53220    0.05070    0.10350   62.07190  100.73980   52.52720   62.91640
 11183.50000  127.53650  -33.13310   19.72200   60.04850    8.17380   -0.01260    2.53360    0.05310    0.10350   61.77440  101.39430   57.80770   59.58650
 11184.00000  129.78190  -33.12240   19.72520   59.23630    8.20290   -0.01380    2.53300    0.05130    0.10410   61.17800  101.09870   64.49450   55.66800
 11184.50000  131.11160  -33.35790   18.22890   59.24070    8.20220   -0.01230    2.53140    0.04890    0.10470   60.88040  100.50460   69.06450   53.44600
 11185.00000  127.89300  -33.70150   16.67940   58.43910    8.20140   -0.01040    2.52980    0.04650    0.10530   60.58300   99.91060   70.02430   52.01770
 11185.50000  121.14440  -33.69250   16.68320   60.06520    8.20070   -0.00590    2.52680    0.04420    0.10650   60.58450   99.31650   70.99730   52.74300
