~Version ---------------------------------------------------
VERS.   2.0 : CWLS log ASCII Standard -VERSION 2.0
WRAP.    NO : One line per depth step
DLM . SPACE : Column Data Section Delimiter
~Well ------------------------------------------------------
STRT .F                 3802.0 : START DEPTH
STOP .F                11423.0 : STOP DEPTH
STEP .F                    0.5 : STEP
NULL .                -9999.25 : NULL VALUE
COMP .                         : COMPANY
WELL .                         : WELL
FLD  .                         : FIELD
LOC  .                         : LOCATION
PROV .                         : PROVINCE
CNTY .                         : COUNTY
STAT .                         : STATE
CTRY .                         : COUNTRY
SRVC .                         : SERVICE COMPANY
DATE .                         : DATE
UWI  .                         : UNIQUE WELL ID
API  .                         : API NUMBER
SLAT .WGS84  5.522695814791703 : SURFACE LATITUDE
SLON .WGS84 3.8968884515525986 : SURFACE LONGITUDE
DATUM.F                 1822.0 : DEPTH DATUM ELEV
~Curve Information -----------------------------------------
DEPT.F     : 
GRR .GAPI  : GAMMA RAY FROM RES LOG
SPR .MV    : SPONTANEOUS POTENTIAL
CILD.MMHO  : CONDUCTIVITY INDUCTION LOG DEEP
ILM .OHMM  : INDUCTION LOG MEDIUM
CALD.IN    : CALIPER FROM DENSITY LOG
DRHO.G/C3  : DENSITY CORRECTION
RHOB.G/C3  : BULK DENSITY
NPHI.DEC   : NEUTRON POROSITY LIMESTONE
DPHI.DEC   : DENSITY POROSITY LIMESTONE
DTCO.US/F  : COMPRESSIONAL-WAVE INTERVAL TRANSIT TIME ACAUSTIC SLOWNESS
DTSM.US/F  : SHEAR-WAVE INTERVAL TRANSIT TIME DELTA-T
SFLU.OHMM  : SPHERICALLY FOCUSED LOG UNAVERAGED RESISTIVITY
ILD .OHMM  : INDUCTION LOG DEEP
~Params ----------------------------------------------------
~Other -----------------------------------------------------
~ASCII -----------------------------------------------------
# ...
 9470.00000   56.78530  -55.29810   49.26210   18.15560   10.74930   -0.00190    2.68580    0.12880    0.01160   -9999.25   -9999.25   24.07160   19.72900
 9470.50000   54.09790  -55.30680   51.76670   17.18920   10.77810   -0.00370    2.69020    0.12400    0.01110   -9999.25   -9999.25   24.03240   19.45490
 9471.00000   51.85700  -55.31560   53.68050   16.82730   10.80690   -0.00700    2.69020    0.11640    0.01220   -9999.25   -9999.25   22.64710   19.71550
 9471.50000   51.40180  -55.32680   54.94130   16.14430   10.83590   -0.01130    2.68420    0.10970    0.01830   -9999.25   -9999.25   18.61390   19.85170
 9472.00000   55.07100  -55.92860   56.20510   16.04690   10.86570   -0.01470    2.67370    0.09580    0.02410   -9999.25   -9999.25   15.48280   19.97270
 9472.50000   59.10780  -55.93860   57.46690   16.71300   10.89550   -0.01900    2.65570    0.08700    0.03550   -9999.25   -9999.25   14.53040   20.40460
 9473.00000   62.08980  -55.94640   57.74810   16.93950   10.92540   -0.02060    2.63320    0.08250    0.04700   -9999.25   -9999.25   16.57270   20.51130
 9473.50000   61.56990  -55.35950   57.07300   17.40330   10.98080   -0.02370    2.63020    0.08890    0.04820   -9999.25   -9999.25   18.31270   20.22520
 9474.00000   60.65210  -55.36900   55.85000   17.88040   10.98510   -0.02490    2.63020    0.09720    0.04620   -9999.25   -9999.25   18.92260   19.67420
 9474.50000   60.18110  -55.37800   54.62810   17.87680   11.00860   -0.02320    2.63460    0.09900    0.04580   -9999.25   -9999.25   19.39370   19.66760
 9475.00000   59.15090  -55.38690   53.24670   17.93470   11.01490   -0.02020    2.63290    0.09890    0.04660   -9999.25   -9999.25   19.59570   19.39450
 9475.50000   57.64790  -55.39580   52.17910   17.86960   11.03640   -0.01730    2.63150    0.09630    0.04700   -9999.25   -9999.25   19.59270   19.38800
 9476.00000   56.08860  -55.40480   51.75570   17.38570   11.03520   -0.01470    2.63500    0.09630    0.04460   -9999.25   -9999.25   19.59010   19.38150
 9476.50000   55.33040  -55.41370   52.28940   17.14700   11.03420   -0.01330    2.64230    0.09810    0.04100   -9999.25   -9999.25   19.58740   19.37500
 9477.00000   55.32140  -54.82570   53.32060   16.91150   11.03310   -0.01340    2.64690    0.10290    0.03780   -9999.25   -9999.25   19.67570   19.36850
 9477.50000   56.58450  -54.83630   53.34050   16.90810   11.03210   -0.01340    2.65110    0.11490    0.03520   -9999.25   -9999.25   19.85120   19.36200
 9478.00000   59.90250  -54.84520   53.35880   16.90470   11.03100   -0.01350    2.65220    0.11610    0.03220   -9999.25   -9999.25   19.74540   19.35550
 9478.50000   61.99110  -54.85420   53.37790   17.13320   11.03000   -0.01360    2.65370    0.11310    0.03010   -9999.25   -9999.25   19.10460   19.34900
 9479.00000   61.27280  -54.26790   53.39690   17.60290   11.02900   -0.01360    2.65700    0.11070    0.02920   -9999.25   -9999.25   18.18040   19.34250
 9479.50000   58.59560  -53.68160   53.41600   17.84080   11.02790   -0.01310    2.65950    0.10770    0.02980   -9999.25   -9999.25   17.89910   19.60160
 9480.00000   57.76750  -53.09700   53.38420   18.08190   11.05670   -0.01230    2.65950    0.10750    0.03070   -9999.25   -9999.25   18.76950   19.59480
 9480.50000   58.82880  -53.10580   51.93110   18.33310   11.05550   -0.01080    2.65940    0.11610    0.03100   -9999.25   -9999.25   19.82990   19.85760
 9481.00000   61.94500  -52.91700   50.93930   18.82860   11.05450   -0.00940    2.65940    0.12810    0.03040   -9999.25   -9999.25   20.37960   20.40010
 9481.50000   66.84690  -54.31380   49.71450   18.84410   11.08330   -0.00800    2.65940    0.13110    0.02760   -9999.25   -9999.25   20.65640   20.67340
 9482.00000   69.51670  -54.32260   48.93130   19.10500   11.08230   -0.00810    2.65930    0.13410    0.02510   -9999.25   -9999.25   21.09580   20.72100
 9482.50000   70.84720  -54.33130   48.79500   19.60230   11.08120   -0.00810    2.66210    0.13890    0.02510   -9999.25   -9999.25   21.51230   21.29630
 9483.00000   71.73130  -54.34010   47.44470   19.59810   11.08020   -0.00820    2.66590    0.14730    0.02570   -9999.25   -9999.25   21.50880   21.59080
 9483.50000   72.61540  -54.34890   46.34780   19.86320   11.07920   -0.00830    2.66670    0.14910    0.02810   -9999.25   -9999.25   21.80150   21.80380
 9484.00000   73.05360  -54.35770   45.12540   19.91350   11.07810   -0.00750    2.66350    0.14430    0.02990   -9999.25   -9999.25   22.09750   22.09590
 9484.50000   73.04430  -54.36640   43.90200   20.12760   11.07710   -0.00690    2.65970    0.13890    0.02870   -9999.25   -9999.25   22.39710   22.08720
 9485.00000   70.80330  -54.37520   42.93890   20.39960   11.07610   -0.00700    2.65990    0.13290    0.02630   -9999.25   -9999.25   22.39410   22.07970
 9485.50000   65.88390  -53.78880   42.95840   20.67520   11.10490   -0.00700    2.66800    0.12510    0.02270   -9999.25   -9999.25   22.69820   21.77300
 9486.00000   54.65230  -53.79760   44.19560   20.03380   11.10390   -0.00710    2.67690    0.11140    0.01740   -9999.25   -9999.25   23.64200   21.76560
 9486.50000   51.13390  -53.80650   45.45740   19.75080   11.10280   -0.00570    2.68130    0.09430    0.01620   -9999.25   -9999.25   24.96290   21.61780
 9487.00000   52.65990  -53.21980   46.71820   19.38180   11.10180   -0.00610    2.68280    0.08520    0.01800   -9999.25   -9999.25   26.00090   21.45600
 9487.50000   56.25260  -53.22920   47.97920   19.03620   11.10070   -0.00730    2.67820    0.08560    0.02340   -9999.25   -9999.25   25.64560   21.44870
 9488.00000   58.25070  -52.64220   49.16030   19.03230   11.09970   -0.00850    2.67070    0.09090    0.02280   -9999.25   -9999.25   24.28200   21.44130
 9488.50000   56.81500  -52.65180   49.18250   19.13930   11.09870   -0.00940    2.67030    0.09860    0.02040   -9999.25   -9999.25   22.67990   21.43260
 9489.00000   55.00440  -52.66070   50.23730   19.55010   11.09760   -0.01300    2.67360    0.10910    0.02040   -9999.25   -9999.25   21.18340   21.42540
 9489.50000   54.65180  -52.66960   50.74430   19.54610   11.09660   -0.01560    2.67510    0.11160    0.02040   -9999.25   -9999.25   20.05710   21.41820
 9490.00000   54.77630  -52.08200   50.76340   19.14720   11.06570   -0.02020    2.66760    0.10930    0.02880   -9999.25   -9999.25   19.25130   21.41100
 9490.50000   55.97470  -52.09230   50.78240   19.01290   11.06460   -0.02270    2.65850    0.10300    0.03710   -9999.25   -9999.25   19.24870   21.11380
 9491.00000   56.41230  -52.69640   50.80300   19.00900   11.06360   -0.02210    2.64950    0.09650    0.03800   -9999.25   -9999.25   20.60290   21.10670
 9491.50000   55.77470  -52.10830   49.67500   19.00510   11.06250   -0.01860    2.64500    0.08770    0.03360   -9999.25   -9999.25   22.66150   21.39020
 9492.00000   54.21390  -52.11900   48.45270   19.00050   11.09130   -0.01410    2.64650    0.08210    0.02940   -9999.25   -9999.25   23.92760   21.38230
 9492.50000   51.51570  -52.12800   47.80530   18.99660   11.09030   -0.00960    2.66140    0.08130    0.02520   -9999.25   -9999.25   24.92250   21.66930
 9493.00000   49.68750  -52.13690   47.53360   19.25330   11.08930   -0.00590    2.67030    0.08480    0.02290   -9999.25   -9999.25   24.23890   21.66150
 9493.50000   52.91640  -52.14580   46.31190   19.51350   11.08820   -0.00360    2.67470    0.10010    0.02170   -9999.25   -9999.25   22.54340   21.65420
 9494.00000   57.20910  -52.15480   45.08630   19.77720   11.08720   -0.00370    2.67620    0.11870    0.01990   -9999.25   -9999.25   20.01240   21.94440
 9494.50000   63.48940  -52.16540   44.82830   19.77320   11.11600   -0.00450    2.67920    0.12210    0.01810   -9999.25   -9999.25   19.49170   21.93700
 9495.00000   66.60560  -52.17410   44.84730   19.76920   11.11470   -0.00680    2.68070    0.12350    0.01690   -9999.25   -9999.25   20.68230   22.53630
 9495.50000   67.93750  -52.18290   44.69690   19.76520   11.11370   -0.00770    2.68200    0.12090    0.01690   -9999.25   -9999.25   21.85570   22.52860
