~Version ---------------------------------------------------
VERS.   2.0 : CWLS log ASCII Standard -VERSION 2.0
WRAP.    NO : One line per depth step
DLM . SPACE : Column Data Section Delimiter
~Well ------------------------------------------------------
STRT .F                 3802.0 : START DEPTH
STOP .F                11423.0 : STOP DEPTH
STEP .F                    0.5 : STEP
NULL .                -9999.25 : NULL VALUE
COMP .                         : COMPANY
WELL .                         : WELL
FLD  .                         : FIELD
LOC  .                         : LOCATION
PROV .                         : PROVINCE
CNTY .                         : COUNTY
STAT .                         : STATE
CTRY .                         : COUNTRY
SRVC .                         : SERVICE COMPANY
DATE .                         : DATE
UWI  .                         : UNIQUE WELL ID
API  .                         : API NUMBER
SLAT .WGS84  5.522695814791703 : SURFACE LATITUDE
SLON .WGS84 3.8968884515525986 : SURFACE LONGITUDE
DATUM.F                 1822.0 : DEPTH DATUM ELEV
~Curve Information -----------------------------------------
DEPT.F     : 
GRR .GAPI  : GAMMA RAY FROM RES LOG
SPR .MV    : SPONTANEOUS POTENTIAL
CILD.MMHO  : CONDUCTIVITY INDUCTION LOG DEEP
ILM .OHMM  : INDUCTION LOG MEDIUM
CALD.IN    : CALIPER FROM DENSITY LOG
DRHO.G/C3  : DENSITY CORRECTION
RHOB.G/C3  : BULK DENSITY
NPHI.DEC   : NEUTRON POROSITY LIMESTONE
DPHI.DEC   : DENSITY POROSITY LIMESTONE
DTCO.US/F  : COMPRESSIONAL-WAVE INTERVAL TRANSIT TIME ACAUSTIC SLOWNESS
DTSM.US/F  : SHEAR-WAVE INTERVAL TRANSIT TIME DELTA-T
SFLU.OHMM  : SPHERICALLY FOCUSED LOG UNAVERAGED RESISTIVITY
ILD .OHMM  : INDUCTION LOG DEEP
~Params ----------------------------------------------------
~Other -----------------------------------------------------
~ASCII -----------------------------------------------------
# ...
 9730.00000   71.86060  -51.22550   52.82440   19.37220   11.89550   -0.01330    2.61050    0.08170    0.07550  113.72170  118.59730   22.05780   18.96350
 9730.50000   73.14320  -51.81060   52.74520   18.40370   11.89480   -0.01180    2.59700    0.07740    0.07470  111.40450  119.19580   19.31030   19.49110
 9731.00000   73.96890  -51.96790   51.33060   18.54250   11.92390   -0.01040    2.58650    0.06280    0.07230  109.11370  119.19730   16.99870   20.87010
 9731.50000   73.44310  -52.55840   50.29420   19.67050   11.95300   -0.00890    2.58200    0.03750    0.07000  106.49320  119.19870   18.30330   21.74510
 9732.00000   71.92650  -52.96900   48.30530   21.57770   11.96730   -0.00740    2.58820    0.01810    0.06840  103.47100  119.20020   25.86580   22.96800
 9732.50000   69.22890  -53.55410   46.31650   22.80380   11.98130   -0.00450    2.59410    0.01640    0.06840  100.53210  118.90320   33.31150   23.93090
 9733.00000   66.53220  -53.73540   45.09130   24.09850   11.98060   -0.00300    2.59540    0.01870    0.06930   98.49280  118.90470   38.81200   24.93430
 9733.50000   65.02930  -54.12740   43.77220   25.34950   12.00970   -0.00300    2.59360    0.02080    0.07280   99.89610  118.90610   43.65210   25.62760
 9734.00000   68.58060  -54.11340   41.49860   25.93630   12.00900   -0.00300    2.58430    0.02470    0.07580  101.10920  119.20610   43.26560   25.63100
 9734.50000   72.06240  -54.31450   39.88890   24.86700   12.00810   -0.00300    2.57520    0.03030    0.08090  101.90770  119.20760   37.22960   24.27290
 9735.00000   74.51640  -54.68870   42.10380   22.06200   12.03730   -0.00310    2.56790    0.04340    0.08570  102.93970  119.20910   29.69200   20.60960
 9735.50000   75.28830  -54.89940   48.60120   19.22750   12.03640   -0.00310    2.56190    0.05730    0.08910  103.85510  119.21050   21.96490   17.49910
 9736.00000   75.15510  -55.26200   56.06110   16.84870   12.06550   -0.00310    2.55580    0.07630    0.09330  107.93710  118.91340   16.79680   15.69160
 9736.50000   73.67000  -55.24780   66.00240   15.09400   12.06480   -0.00310    2.55120    0.09180    0.09810  111.66820  118.61640   14.14820   14.46010
 9737.00000   71.42270  -55.23580   72.11850   14.14770   12.06410   -0.00620    2.54560    0.10240    0.10060  107.05920  117.72240   12.87880   13.69390
 9737.50000   69.47540  -55.82090   75.76240   13.76680   12.06330   -0.00770    2.54060    0.10240    0.10330   92.43000  117.12690   12.35780   13.32700
 9738.00000   69.93540  -55.80900   78.26200   13.21370   12.09240   -0.00920    2.53410    0.10510    0.10690   79.96690  116.22460   11.72770   12.79150
 9738.50000   71.25710  -56.05920   80.85520   12.59870   12.09170   -0.01070    2.52650    0.11110    0.11250   75.62910  115.63730   11.56960   12.10740
 9739.00000   71.08750  -56.38210   85.16270   11.76460   12.09100   -0.01070    2.51940    0.11340    0.11430   75.50970  115.66250   10.95580   11.31880
 9739.50000   69.84260  -56.37020   88.32350   11.29020   12.12010   -0.01080    2.51300    0.11160    0.11140   74.01850  116.26930   10.23390   11.15860
 9740.00000   68.57140  -56.35820   91.29770   11.06320   12.11930   -0.00930    2.52080    0.10700    0.10420   72.22770  116.91610   10.66230   10.85790
 9740.50000   70.20020  -56.34630   93.31710   10.76450   12.11860   -0.00930    2.53790    0.10320    0.10140   68.94220  118.42660   13.08480   10.71050
 9741.00000   72.71090  -56.33430   94.76460   10.55510   12.11790   -0.00930    2.54220    0.10330    0.09820   68.26260  119.28230   14.79550   10.42140
 9741.50000   75.20840  -56.32240   97.45150   10.33220   12.08730   -0.00930    2.53990    0.11470    0.10000   73.73130  119.52690   13.26640   10.27990
 9742.00000   74.65260  -56.31040   98.61010   10.13530   12.05670   -0.00940    2.54210    0.13880    0.09900   76.42490  119.45730   11.41820   10.14030
 9742.50000   72.16170  -56.29850   99.00760    9.86450   11.99620   -0.00940    2.54510    0.14990    0.09740   77.32470  118.85350   10.09930    9.86710
 9743.00000   72.55830  -56.28660   99.59480    9.73260   11.96560   -0.01090    2.54660    0.14700    0.09580   77.38190  118.33710    9.43390    9.61960
 9743.50000   74.35410  -56.27460  100.56490    9.68630   11.90520   -0.01150    2.54650    0.14090    0.09700   77.62950  118.73290    8.69290    9.70780
 9744.00000   75.47580  -56.26270  100.58010   10.56850   11.87460   -0.01250    2.54580    0.13120    0.09650   78.82830  119.53430    8.69350   10.66340
 9744.50000   76.81810  -56.25080   99.35470   11.47390   11.81420   -0.01250    2.54750    0.11220    0.09420   79.72810  119.83430    9.69690   11.42500
 9745.00000   78.16310  -56.23880   95.26480   12.28770   11.78360   -0.01250    2.55620    0.10720    0.09000   80.03000  119.53700   11.26800   12.17120
 9745.50000   79.30330  -56.22690   89.65340   12.80450   11.75300   -0.01250    2.56520    0.10900    0.08440   79.73400  119.11350   12.74120   12.68370
 9746.00000   79.90220  -56.21490   83.85220   13.34310   11.69140   -0.01330    2.58910    0.11370    0.07470   78.24220  117.77770   14.21170   13.08020
 9746.50000   79.00110  -56.20300   78.90380   13.90430   11.60220   -0.01410    2.61450    0.11850    0.06330   73.76080  116.56860   15.21620   13.44860
 9747.00000   76.68310  -55.59170   73.19320   14.29240   11.56990   -0.01560    2.63540    0.12570    0.04810   68.98050  115.36060   15.23770   13.96830
 9747.50000   71.66250  -54.98280   70.05590   14.69140   11.50900   -0.01560    2.64880    0.13640    0.04100   69.28250  115.06720   14.80860   14.35960
 9748.00000   67.64240  -53.77690   67.87790   15.10160   11.44790   -0.01560    2.64730    0.14600    0.04170   68.34850  115.23620   15.01300   14.76130
 9748.50000   63.17590  -53.16800   67.12980   15.31250   11.41680   -0.01570    2.63680    0.16390    0.04330   67.49460  116.14100   15.85630   14.90890
 9749.00000   60.49510  -51.96210   67.33620   15.10770   11.38570   -0.01420    2.63830    0.16390    0.04180   67.49770  117.16150   15.85730   14.84890
 9749.50000   58.26080  -51.35320   68.68820   14.90570   11.32910   -0.01420    2.64430    0.15970    0.03820   67.15930  117.76000   15.85840   14.64730
 9750.00000   55.13360  -50.74430   70.99360   14.70610   11.32340   -0.01420    2.65470    0.15010    0.03490   66.55720  118.05990   15.43250   14.25260
 9750.50000   56.91710  -50.73240   71.77100   14.11860   11.29220   -0.01280    2.65920    0.14420    0.03190   65.54220  117.76290   15.01490   13.86730
 9751.00000   57.36130  -50.12350   71.78630   13.92960   11.26720   -0.01430    2.66070    0.14120    0.03010   63.60200  115.07780   14.60780   13.55970
 9751.50000   56.91260  -49.51460   71.80150   13.93260   11.23660   -0.01280    2.65910    0.14060    0.03110   60.57530  111.79570   14.22230   13.56180
 9752.00000   56.46400  -48.90570   71.81680   13.93540   11.22860   -0.01280    2.65020    0.14480    0.04020   59.44360  112.99120   14.43200   13.63600
 9752.50000   56.46180  -48.89380   70.59330   14.13010   11.20520   -0.01280    2.64420    0.14840    0.04450   59.74590  113.05180   15.03930   13.82750
 9753.00000   56.90600  -48.88200   70.32060   14.13290   11.19620   -0.01290    2.63970    0.14840    0.04510   60.14240  111.50160   15.67290   14.02160
 9753.50000   57.35020  -48.87010   70.33590   14.33030   11.17390   -0.01290    2.63520    0.14060    0.04570   61.55380  110.90600   16.35930   14.13620
 9754.00000   57.79440  -48.85820   70.73340   14.33320   11.16370   -0.01290    2.63370    0.11670    0.04510   64.16000  112.69860   16.98850   14.13820
 9754.50000   57.34570  -48.84630   71.89310   14.14160   11.14250   -0.01290    2.63370    0.11190    0.04510   64.54050  119.26720   16.95520   13.86290
 9755.00000   58.68280  -48.83440   71.91080   13.95250   11.13130   -0.01300    2.63520    0.11490    0.04470   63.82140  120.76120   16.19910   13.48860
 9755.50000   60.46630  -48.82260   72.97300   13.76590   11.11120   -0.01300    2.63670    0.13460    0.04350   62.92000  120.46420   14.91680   13.04030
