~Version ---------------------------------------------------
VERS.   2.0 : CWLS log ASCII Standard -VERSION 2.0
WRAP.    NO : One line per depth step
DLM . SPACE : Column Data Section Delimiter
~Well ------------------------------------------------------
STRT .F                 3802.0 : START DEPTH
STOP .F                11423.0 : STOP DEPTH
STEP .F                    0.5 : STEP
NULL .                -9999.25 : NULL VALUE
COMP .                         : COMPANY
WELL .                         : WELL
FLD  .                         : FIELD
LOC  .                         : LOCATION
PROV .                         : PROVINCE
CNTY .                         : COUNTY
STAT .                         : STATE
CTRY .                         : COUNTRY
SRVC .                         : SERVICE COMPANY
DATE .                         : DATE
UWI  .                         : UNIQUE WELL ID
API  .                         : API NUMBER
SLAT .WGS84  5.522695814791703 : SURFACE LATITUDE
SLON .WGS84 3.8968884515525986 : SURFACE LONGITUDE
DATUM.F                 1822.0 : DEPTH DATUM ELEV
~Curve Information -----------------------------------------
DEPT.F     : 
GRR .GAPI  : GAMMA RAY FROM RES LOG
SPR .MV    : SPONTANEOUS POTENTIAL
CILD.MMHO  : CONDUCTIVITY INDUCTION LOG DEEP
ILM .OHMM  : INDUCTION LOG MEDIUM
CALD.IN    : CALIPER FROM DENSITY LOG
DRHO.G/C3  : DENSITY CORRECTION
RHOB.G/C3  : BULK DENSITY
NPHI.DEC   : NEUTRON POROSITY LIMESTONE
DPHI.DEC   : DENSITY POROSITY LIMESTONE
DTCO.US/F  : COMPRESSIONAL-WAVE INTERVAL TRANSIT TIME ACAUSTIC SLOWNESS
DTSM.US/F  : SHEAR-WAVE INTERVAL TRANSIT TIME DELTA-T
SFLU.OHMM  : SPHERICALLY FOCUSED LOG UNAVERAGED RESISTIVITY
ILD .OHMM  : INDUCTION LOG DEEP
~Params ----------------------------------------------------
~Other -----------------------------------------------------
~ASCII -----------------------------------------------------
# ...
 8768.00000   71.83260  -51.85690   74.32560   13.05300   10.77610   -0.01800    2.61080    0.12790    0.07670   -9999.25   -9999.25   14.22660   12.49070
 8768.50000   71.56920  -51.85400   83.01020   11.08490   10.80600   -0.02150    2.50170    0.15470    0.17760   -9999.25   -9999.25   14.82010   12.26840
 8769.00000   72.67160  -51.25590   87.15540    9.54280   10.83580   -0.03400    2.22960    0.19410    0.28450   -9999.25   -9999.25   14.61260   11.93360
 8769.50000   75.36470  -51.84820   90.63550    7.88610   10.87200   -0.05990    2.12500    0.19000    0.29890   -9999.25   -9999.25   12.53940   11.76740
 8770.00000   76.02680  -51.84520   93.58560    8.10450   10.89550   -0.05610    2.08760    0.18810    0.29890   -9999.25   -9999.25   10.64850   11.44650
 8770.50000   76.27610  -52.43750   97.14840   10.21760   10.76870   -0.04760    2.08760    0.19770    0.29890   -9999.25   -9999.25   10.74130   11.13420
 8771.00000   76.46880  -52.43450   99.87930   10.88700   10.79230   -0.04610    2.05170    0.26400    0.29890   -9999.25   -9999.25   12.45640   10.97910
 8771.50000   76.46610  -52.49080   99.89310    9.94420   10.90410   -0.04020    2.03190    0.27180    0.29890   -9999.25   -9999.25   12.93250   10.74980
 8772.00000   75.57110  -53.02400   91.56110   10.08130   10.87720   -0.00580    2.09500    0.24730    0.27020   -9999.25   -9999.25   12.21730   10.90090
 8772.50000   72.44390  -53.12040   80.82880   13.98170   10.67770    0.01140    2.39100    0.21690    0.12220   -9999.25   -9999.25   10.45820   11.44870
 8773.00000   68.42380  -53.61340   72.69030   16.69210   10.47670    0.01350    2.58680    0.17800    0.05180   -9999.25   -9999.25    9.98290   12.80970
 8773.50000   63.95730  -54.20570   66.36680   16.69320   10.28540    0.00900    2.65850    0.12910    0.01770   -9999.25   -9999.25   10.83800   14.31010
 8774.00000   56.36580  -54.36060   59.11160   17.15550   10.11510    0.00590    2.68840    0.10700    0.00270   -9999.25   -9999.25   12.86900   17.09550
 8774.50000   44.31010  -54.79510   50.76680   18.36620   10.00000    0.00130    2.70780    0.08790   -0.00380   -9999.25   -9999.25   17.82520   19.86400
 8775.00000   38.95070  -55.38740   43.38320   21.33720   10.00000   -0.00470    2.71970    0.06700   -0.00670   -9999.25   -9999.25   22.34100   22.45950
 8775.50000   35.37710  -54.78870   38.59820   25.17100   10.01300   -0.01060    2.71970    0.04430   -0.00070   -9999.25   -9999.25   29.11550   26.45520
 8776.00000   36.26770  -54.54710   37.43440   26.90220   10.08680   -0.01220    2.69730    0.04250    0.03480   -9999.25   -9999.25   40.22180   27.50590
 8776.50000   40.28340  -54.18750   48.14020   25.71320   10.30900   -0.01520    2.60610    0.05510    0.09850   -9999.25   -9999.25   54.30710   24.04530
 8777.00000   44.74550  -54.18450   58.28230   22.68700   10.75850   -0.01850    2.39810    0.10050    0.21290   -9999.25   -9999.25   61.23530   20.97830
 8777.50000   53.22540  -54.47920   67.79030   18.00120   11.55650   -0.02400    2.29520    0.18460    0.27310   -9999.25   -9999.25   54.26700   18.30250
 8778.00000   66.24940  -55.68680   73.92450   13.08480   12.80930   -0.04750    2.19490    0.26110    0.29960   -9999.25   -9999.25   36.60890   14.51350
 8778.50000   79.30790  -56.29910   77.35610   11.14090   12.86570   -0.05240    2.19540    0.26150    0.28630   -9999.25   -9999.25   20.24180   11.82720
 8779.00000   88.23150  -55.95770   78.74980   10.31010   12.76830   -0.04850    2.20930    0.24610    0.25690   -9999.25   -9999.25   10.25860   11.98970
 8779.50000   92.63990  -55.95480   79.86420    9.68730   12.13270   -0.03870    2.23940    0.19000    0.18830   -9999.25   -9999.25   12.43030   13.19130
 8780.00000   94.28590  -55.35670   81.93380   10.75400   11.37310   -0.00650    2.30700    0.13810    0.13170   -9999.25   -9999.25   13.28970   13.01260
 8780.50000   92.27540  -55.35370   81.79170   12.36310   10.89550    0.02110    2.47450    0.10880    0.11160   -9999.25   -9999.25   14.22660   13.19130
 8781.00000   89.55650  -55.94640   77.61150   13.31380   10.29850    0.02810    2.51420    0.08910    0.09380   -9999.25   -9999.25   16.52680   13.74250
 8781.50000   86.08630  -55.34790   71.19140   13.68700   10.17910    0.02990    2.54760    0.08140    0.08280   -9999.25   -9999.25   21.12020   15.76220
 8782.00000   79.96980  -54.74970   67.63490   13.81030   10.08960    0.02930    2.56800    0.07900    0.07940   -9999.25   -9999.25   23.87550   17.33980
 8782.50000   72.71890  -54.74680   63.93380   13.81120   10.32840    0.02910    2.57300    0.07890    0.08490   -9999.25   -9999.25   25.21280   17.56850
 8783.00000   72.39770  -54.14860   62.07630   13.81210   10.47760    0.02700    2.56840    0.08920    0.09130   -9999.25   -9999.25   21.12020   17.28610
 8783.50000   72.84190  -54.14570   62.74970   13.89920   10.56720    0.01640    2.56210    0.10110    0.09190   -9999.25   -9999.25   18.43010   16.60780
 8784.00000   72.22630  -54.14280   65.24260   14.00350   10.62690    0.00430    2.54860    0.10290    0.09200   -9999.25   -9999.25   15.86490   16.18740
 8784.50000   70.87240  -53.54460   68.23200   14.39580   10.68660   -0.00080    2.54750    0.10170    0.09320   -9999.25   -9999.25   14.22660   16.22540
 8785.00000   67.79120  -53.54170   68.24430   14.89820   10.65670   -0.00150    2.54750    0.09690    0.09380   -9999.25   -9999.25   14.22660   16.45460
 8785.50000   65.72520  -54.13400   67.55550   15.43440   10.65670   -0.00150    2.54900    0.09220    0.09320   -9999.25   -9999.25   14.82010   16.63530
 8786.00000   66.34380  -54.13100   65.91450   16.09160   10.62690   -0.00150    2.55110    0.08680    0.09200   -9999.25   -9999.25   16.30320   16.57820
 8786.50000   69.72440  -54.12800   63.57930   16.72300   10.59700    0.00000    2.55350    0.08320    0.09080   -9999.25   -9999.25   18.68290   16.00520
 8787.00000   72.03220  -54.04500   62.20040   16.27450   10.56720    0.00150    2.55560    0.08340    0.08720   -9999.25   -9999.25   20.83440   14.93290
 8787.50000   74.23740  -53.52680   62.21370   15.62380   10.56720    0.00150    2.55860    0.09860    0.07830   -9999.25   -9999.25   22.91930   13.80630
 8788.00000   76.39240  -52.92860   71.75220   14.20350   10.56720    0.00300    2.57040    0.12410    0.06460   -9999.25   -9999.25   24.20310   12.82410
 8788.50000   77.72950  -52.33040   86.12740   12.73760   10.62690    0.00300    2.60200    0.14370    0.05440   -9999.25   -9999.25   19.35870   11.96560
 8789.00000   78.17410  -52.16740   99.55510   11.11590   10.71640    0.00150    2.61700    0.15860    0.05140   -9999.25   -9999.25   15.76610   10.86510
 8789.50000   77.27870  -51.72920  112.65730   10.10540   10.80600   -0.00150    2.61770    0.16860    0.06160   -9999.25   -9999.25   12.82060   10.05860
 8790.00000   74.15150  -51.52780  119.69800    9.06250   10.86570   -0.00600    2.59940    0.17480    0.07770   -9999.25   -9999.25    9.35360    9.57720
 8790.50000   67.45290  -51.12800  124.49670    7.90870   10.95520   -0.01350    2.56930    0.18010    0.09150   -9999.25   -9999.25    8.05110    9.12900
 8791.00000   66.01950  -51.72080  128.82350    7.38830   10.98520   -0.01650    2.52790    0.18170    0.10400   -9999.25   -9999.25    6.98730    8.75620
 8791.50000   69.68060  -52.57100  133.17940    7.49020   11.01490   -0.01650    2.52440    0.17930    0.10530   -9999.25   -9999.25    6.91020    8.39860
 8792.00000   72.35700  -53.50000  135.65300    7.50010   11.01620   -0.01650    2.54730    0.17620    0.09570   -9999.25   -9999.25    8.13460    8.00880
 8792.50000   73.24760  -53.49700  136.90900    7.28980   11.04480   -0.01650    2.56230    0.18210    0.08430   -9999.25   -9999.25    8.65720    7.64280
 8793.00000   72.35260  -53.49400  134.27290    7.29030   11.04480   -0.01800    2.56970    0.18530    0.08140   -9999.25   -9999.25    8.86620    7.64280
 8793.50000   71.45750  -53.49110  131.25650    7.29080   11.04190   -0.01950    2.56970    0.18290    0.08260   -9999.25   -9999.25    8.63600    7.74780
