~Version ---------------------------------------------------
VERS.   2.0 : CWLS log ASCII Standard -VERSION 2.0
WRAP.    NO : One line per depth step
DLM . SPACE : Column Data Section Delimiter
~Well ------------------------------------------------------
STRT .F                 3802.0 : START DEPTH
STOP .F                11423.0 : STOP DEPTH
STEP .F                    0.5 : STEP
NULL .                -9999.25 : NULL VALUE
COMP .                         : COMPANY
WELL .                         : WELL
FLD  .                         : FIELD
LOC  .                         : LOCATION
PROV .                         : PROVINCE
CNTY .                         : COUNTY
STAT .                         : STATE
CTRY .                         : COUNTRY
SRVC .                         : SERVICE COMPANY
DATE .                         : DATE
UWI  .                         : UNIQUE WELL ID
API  .                         : API NUMBER
SLAT .WGS84  5.522695814791703 : SURFACE LATITUDE
SLON .WGS84 3.8968884515525986 : SURFACE LONGITUDE
DATUM.F                 1822.0 : DEPTH DATUM ELEV
~Curve Information -----------------------------------------
DEPT.F     : 
GRR .GAPI  : GAMMA RAY FROM RES LOG
SPR .MV    : SPONTANEOUS POTENTIAL
CILD.MMHO  : CONDUCTIVITY INDUCTION LOG DEEP
ILM .OHMM  : INDUCTION LOG MEDIUM
CALD.IN    : CALIPER FROM DENSITY LOG
DRHO.G/C3  : DENSITY CORRECTION
RHOB.G/C3  : BULK DENSITY
NPHI.DEC   : NEUTRON POROSITY LIMESTONE
DPHI.DEC   : DENSITY POROSITY LIMESTONE
DTCO.US/F  : COMPRESSIONAL-WAVE INTERVAL TRANSIT TIME ACAUSTIC SLOWNESS
DTSM.US/F  : SHEAR-WAVE INTERVAL TRANSIT TIME DELTA-T
SFLU.OHMM  : SPHERICALLY FOCUSED LOG UNAVERAGED RESISTIVITY
ILD .OHMM  : INDUCTION LOG DEEP
~Params ----------------------------------------------------
~Other -----------------------------------------------------
~ASCII -----------------------------------------------------
# ...
 4088.00000   57.85190  -49.36890 1253.75780    0.85580   15.95430    0.00160    2.55130    0.49790   -9999.25   65.44430  117.57590    0.83500    0.89560
 4088.50000   61.84350  -47.36640 1479.76590    0.77730   18.68650    0.00570    2.52650    0.50090   -9999.25   67.23240  119.52490    0.82000    0.79240
 4089.00000   64.55800  -45.53680 1491.46450    0.71640   19.73690    0.00560    2.44440    0.49140   -9999.25   68.12490  126.86570    0.90540    0.74020
 4089.50000   66.26430  -43.95920 1459.58250    0.68700   19.62560    0.00590    2.41170    0.47590   -9999.25   68.12200  129.81910    1.22010    0.70090
 4090.00000   65.36980  -42.74980 1422.55290    0.66230   17.31140    0.00730    2.49820    0.47290   -9999.25   66.02940  126.95570    1.51550    0.67280
 4090.50000   64.91940  -41.84270 1394.34400    0.66870   16.47650    0.01000    2.71680    0.45860   -9999.25   63.04140  122.14570    1.51840    0.67260
 4091.00000   64.27390  -41.51720 1366.83020    0.70690   15.00600    0.00960    2.81710    0.42650   -9999.25   59.75490  116.86550    1.43490    0.68240
 4091.50000   62.57030  -40.06880 1333.00480    0.74070   15.01860    0.00610    2.88690    0.35260   -9999.25   59.38620  113.44300    1.41530    0.71060
 4092.00000   61.65690  -39.47830 1290.34410    0.78600   15.15550    0.00150    2.94670    0.36570   -9999.25   62.73400  113.65170    1.43430    0.74040
 4092.50000   63.02870  -39.48120 1245.69810    0.83040   15.27480   -0.00620    3.00210    0.40890   -9999.25   65.11910  116.91390    1.41400    0.76400
 4093.00000   72.76440  -38.89060 1169.89900    0.86690   15.33510   -0.01030    3.15320    0.46480   -9999.25   65.11610  121.00580    1.35480    0.84120
 4093.50000   77.88690  -38.89350 1055.12100    0.90220   15.01670   -0.01130    3.19810    0.45010   -9999.25   63.91910  121.47310    1.26170    0.90150
 4094.00000   77.77800  -38.30270  945.67350    0.96620   14.35540   -0.00870    3.23850    0.37850    0.23730   62.72210  121.32350    1.14240    0.97590
 4094.50000   70.53140  -37.71220  834.87230    1.05080   13.75430   -0.00210    3.30880    0.32420    0.14560   61.22670  119.50570    0.99090    1.04530
 4095.00000   58.79350  -37.71530  691.32560    1.13530   13.36330    0.00630    3.50640    0.15360    0.07530   61.18430  112.83850    1.04800    1.11420
 4095.50000   45.76870  -38.31170  572.56920    1.52900   13.00230    0.01160    3.63510    0.16620    0.01070   62.11620  110.76070    1.67750    1.30730
 4096.00000   45.31840  -39.50150  466.64690    2.00430   12.76150    0.01390    3.70690    0.18410    0.00770   62.71040  111.49880    3.99600    2.05100
 4096.50000   45.31190  -41.30260  350.53200    2.55690   12.76090   -0.00120    3.70530    0.15870    0.03820   63.00580  111.63130    4.49610    3.25720
 4097.00000   35.98580  -42.56020  234.36760    3.39730   12.76030   -0.01840    3.61400    0.08040    0.04620   62.70440  111.45770    4.73760    4.72650
 4097.50000   23.99710  -44.25820  118.71190    5.83870   12.75970   -0.01290    3.64840    0.00640    0.01040   62.70140  111.03760    6.39410    7.08360
 4098.00000   15.11480  -45.54280   72.64230   11.64650   12.72910   -0.00880    3.80550   -0.01170   -0.05560   61.80290  110.14360   43.51000   11.69430
 4098.50000   12.00180  -46.63800   65.03080   15.06080   12.72850   -0.01180    3.94020   -0.01230   -0.09940   60.90440  104.17490  821.23600   14.41600
 4099.00000    8.44500  -46.78750   80.88850   18.20050   12.72790   -0.01040    3.99260   -0.01210   -0.09940   58.51340   96.71370 1463.85930   15.88160
 4099.50000    7.55090  -47.40920  133.92720   20.83490   12.72730   -0.00990    4.00000   -0.00430   -0.09940   55.22680   91.93910 1819.13500   14.83570
 4100.00000    7.98820  -47.83660  222.76590   20.27270   12.75680   -0.01260    4.00150    0.04430   -0.09940   52.53730   88.65340 1607.44530   11.64390
 4100.50000   11.93730  -47.85690  327.90840   11.95980   12.84800   -0.01500    3.92910    0.15760   -0.09880   54.34940   87.76360 1291.00990    5.50550
 4101.00000   16.57460  -47.87710  416.84490    3.93400   13.03650   -0.03600    3.67620    0.34660    0.13160   55.24880   88.63900  638.78850    3.53560
 4101.50000   28.08550  -47.89730  491.38560    2.73450   13.74600   -0.04050    3.21240    0.41170    0.23460   55.90690   94.36920  102.39840    2.23960
 4102.00000   52.01180  -47.91760  578.83060    1.91880   14.30400   -0.06150    2.99980    0.40450    0.30010   58.57730  110.03610    6.58830    1.63930
 4102.50000   63.82810  -47.94160  683.71910    1.58140   14.53890   -0.05100    2.63010    0.42010    0.30010   65.91700  133.62360    1.53480    1.29210
 4103.00000   73.58620  -47.36500  786.96900    1.19790   14.71590   -0.00760    2.77420    0.45890    0.30010   74.62000  147.54480    1.52260    1.10620
 4103.50000   77.72100  -46.79230  939.27590    1.06170   14.86730    0.03580    3.00330    0.51820    0.30010   85.96010  157.38150    1.74880    1.03340
 4104.00000   68.23480  -46.81520  977.11460    1.02250   15.12180    0.05520    3.00010    0.51310    0.30010   90.01330  160.14310    2.02970    0.99190
 4104.50000   61.12120  -46.24190  988.89790    1.01300   15.66330    0.05520    2.92810    0.48030    0.30010   90.18900  156.26780    2.35570    0.99170
 4105.00000   57.55790  -45.66770  947.55650    1.03820   17.91370    0.05220    2.88110    0.42800    0.30010   87.38630  147.56860    2.73400    1.03280
 4105.50000   53.10700  -45.09500  863.66310    1.11180   19.30000    0.04620    2.87990    0.33590    0.30020   81.65000  137.34680    3.35010    1.04670
 4106.00000   50.87500  -44.51390  874.06710    1.16660   18.93930    0.04160    2.93560    0.30250    0.30020   76.10120  133.46920    3.73310    1.09000
 4106.50000   51.74960  -43.90780  857.28230    1.16550   16.42610    0.04010    3.00170    0.32310    0.28500   73.49030  130.48710    3.88710    1.11980
 4107.00000   59.27880  -43.30180  832.65890    1.14880   13.74350    0.03860    3.25110    0.39410    0.27140   75.47000  132.28110    4.10270    1.15060
 4107.50000   67.69780  -42.80230  809.40470    1.11140   13.70370    0.03700    3.24630    0.49300    0.26570   84.60450  149.00040    4.38950    1.19900
 4108.00000   72.56640  -43.56020  794.45000    1.09600   14.37350    0.03020    3.19390    0.53480    0.30080   99.32950  172.28700    3.34560    1.21770
 4108.50000   73.01180  -44.03260  788.08690    1.11060   15.84470   -0.00190    2.96950    0.56360    0.30060  105.31390  182.80940    2.68620    1.26710
 4109.00000   64.55220  -44.64690  757.58860    1.12540   17.07560   -0.00020    2.57730    0.58260    0.30030  104.27150  182.44210    2.40400    1.30630
 4109.50000   51.66940  -44.66760  713.23390    1.14040   16.95520    0.00280    2.46800    0.56160    0.30030  100.80860  180.95250    2.04980    1.38070
 4110.00000   40.56170  -45.24380  659.35850    1.20350   16.11410    0.00550    2.45000    0.44080    0.30030   89.82620  177.07490    1.73880    1.47170
 4110.50000   36.11080  -46.48960  600.69470    1.28740   16.00930    0.00490    2.49790    0.28040    0.30030   75.35100  165.13750    1.71890    1.66930
 4111.00000   30.71450  -45.82160  542.29500    1.49370   15.86010   -0.00240    2.68950    0.13440    0.30030   62.21940  141.55840    1.89890    2.14520
 4111.50000   25.74610  -43.56750  361.72890    1.78070   15.04120   -0.01850    2.84210    0.01520    0.17340   50.55160  123.35240    2.47930    3.30030
 4112.00000   21.71010  -42.40070  243.67010    3.41030   13.50060   -0.01320    3.43340    0.00180   -0.04620   50.55600  113.20610    9.03640    5.44890
 4112.50000   18.60120  -41.23400  152.27290    7.33260   12.80930   -0.00800    3.91840    0.00030   -0.09840   50.26190  111.67930   33.24910    8.29480
 4113.00000   16.51770  -40.06720   90.53780   10.46860   12.83910   -0.01150    3.95130    0.00670   -0.09840   49.07230  113.51050   43.98850   12.31380
 4113.50000   17.06400  -40.08740   80.16690   14.91210   12.86880   -0.01260    3.95280    0.02710   -0.09840   47.88270  111.10650   39.02030   11.55150
