~Version ---------------------------------------------------
VERS.   2.0 : CWLS log ASCII Standard -VERSION 2.0
WRAP.    NO : One line per depth step
DLM . SPACE : Column Data Section Delimiter
~Well ------------------------------------------------------
STRT .F                 3802.0 : START DEPTH
STOP .F                11423.0 : STOP DEPTH
STEP .F                    0.5 : STEP
NULL .                -9999.25 : NULL VALUE
COMP .                         : COMPANY
WELL .                         : WELL
FLD  .                         : FIELD
LOC  .                         : LOCATION
PROV .                         : PROVINCE
CNTY .                         : COUNTY
STAT .                         : STATE
CTRY .                         : COUNTRY
SRVC .                         : SERVICE COMPANY
DATE .                         : DATE
UWI  .                         : UNIQUE WELL ID
API  .                         : API NUMBER
SLAT .WGS84  5.522695814791703 : SURFACE LATITUDE
SLON .WGS84 3.8968884515525986 : SURFACE LONGITUDE
DATUM.F                 1822.0 : DEPTH DATUM ELEV
~Curve Information -----------------------------------------
DEPT.F     : 
GRR .GAPI  : GAMMA RAY FROM RES LOG
SPR .MV    : SPONTANEOUS POTENTIAL
CILD.MMHO  : CONDUCTIVITY INDUCTION LOG DEEP
ILM .OHMM  : INDUCTION LOG MEDIUM
CALD.IN    : CALIPER FROM DENSITY LOG
DRHO.G/C3  : DENSITY CORRECTION
RHOB.G/C3  : BULK DENSITY
NPHI.DEC   : NEUTRON POROSITY LIMESTONE
DPHI.DEC   : DENSITY POROSITY LIMESTONE
DTCO.US/F  : COMPRESSIONAL-WAVE INTERVAL TRANSIT TIME ACAUSTIC SLOWNESS
DTSM.US/F  : SHEAR-WAVE INTERVAL TRANSIT TIME DELTA-T
SFLU.OHMM  : SPHERICALLY FOCUSED LOG UNAVERAGED RESISTIVITY
ILD .OHMM  : INDUCTION LOG DEEP
~Params ----------------------------------------------------
~Other -----------------------------------------------------
~ASCII -----------------------------------------------------
# ...
 11394.00000   -9999.25    0.52540   44.09280   23.82880    7.65240   -0.01770    2.66390    0.13280    0.03720   -9999.25   -9999.25   33.78160   26.41180
 11394.50000   -9999.25    0.53130   41.82640   26.62650    7.62170   -0.01920    2.64730    0.12380    0.04080   -9999.25   -9999.25   39.54970   27.66980
 11395.00000   -9999.25    0.53730   40.21700   29.73090    7.62080   -0.01770    2.63850    0.11190    0.03960   -9999.25   -9999.25   44.81590   29.64690
 11395.50000   -9999.25    0.54330   37.86600   33.65320    7.61990   -0.01480    2.64030    0.09760    0.03600   -9999.25   -9999.25   46.75020   31.95700
 11396.00000   -9999.25    0.54930   34.44160   37.65580    7.58920   -0.01330    2.65070    0.08800    0.03360   -9999.25   -9999.25   47.08610   34.72700
 11396.50000   -9999.25    0.55520   31.95440   42.33040    7.58830   -0.01180    2.65340    0.07010    0.03600   -9999.25   -9999.25   61.06260   37.98860
 11397.00000   -9999.25    0.69520   29.52090   45.33950    7.58740   -0.01180    2.64690    0.04920    0.04380   -9999.25   -9999.25   87.84600   41.27670
 11397.50000   -9999.25    1.16420   27.99640   47.25510    7.58650   -0.01190    2.63900    0.04920    0.04630   -9999.25   -9999.25  109.66270   44.22430
 11398.00000   -9999.25    1.17010   26.12990   50.95890    7.58560   -0.01190    2.63540    0.05760    0.04440   -9999.25   -9999.25   90.70560   46.74430
 11398.50000   -9999.25    1.17610   24.02540   56.89940    7.58470   -0.01190    2.63500    0.07370    0.04800   -9999.25   -9999.25   67.52580   49.81170
 11399.00000   -9999.25    1.18210   22.86940   63.52840    7.58390   -0.01190    2.63150    0.09400    0.05340   -9999.25   -9999.25   66.26250   54.23310
 11399.50000   -9999.25    1.18810   22.88820   69.35910    7.58300   -0.01200    2.62390    0.09220    0.05700   -9999.25   -9999.25  105.95930   58.06820
 11400.00000   -9999.25    1.19400   21.88220   74.28940    7.58210   -0.01350    2.61730    0.07190    0.05640   -9999.25   -9999.25  227.71680   62.17440
 11400.50000   -9999.25    1.20000   20.65980   78.88200    7.58120   -0.01350    2.62080    0.05270    0.05280   -9999.25   -9999.25  279.46520   64.77620
 11401.00000   -9999.25    1.20600   19.43820   82.49800    7.58030   -0.01510    2.62330    0.04270    0.05050   -9999.25   -9999.25  307.45580   68.41550
 11401.50000   -9999.25    1.21190   18.36460   80.29640    7.57940   -0.01810    2.62330    0.04470    0.04990   -9999.25   -9999.25  224.48950   70.31110
 11402.00000   -9999.25    1.21790   18.38340   68.78980    7.57850   -0.02120    2.62040    0.05070    0.05340   -9999.25   -9999.25  168.45300   68.41550
 11402.50000   -9999.25    1.22390   18.39700   56.36040    7.57760   -0.02280    2.61360    0.05970    0.06440   -9999.25   -9999.25  131.69390   63.02990
 11403.00000   -9999.25    1.22990   19.22390   45.73950    7.57670   -0.02240    2.60070    0.06590    0.06670   -9999.25   -9999.25   97.47960   52.05470
 11403.50000   -9999.25    1.23580   22.04470   39.00230    7.57580   -0.02060    2.59250    0.07540    0.06560   -9999.25   -9999.25   65.57210   43.58220
 11404.00000   -9999.25    1.24180   27.24800   34.19670    7.57490   -0.01630    2.59340    0.08840    0.05860   -9999.25   -9999.25   49.20410   38.01560
 11404.50000   -9999.25    1.24780   33.72590   30.45700    7.57400   -0.01330    2.60270    0.10660    0.04830   -9999.25   -9999.25   41.18720   32.70990
 11405.00000   -9999.25    1.25370   37.28990   28.60520    7.57310   -0.00990    2.62910    0.12270    0.04560   -9999.25   -9999.25   38.98840   29.32260
 11405.50000   -9999.25    1.25970   39.23110   28.56240    7.57220   -0.00430    2.63800    0.11980    0.04670   -9999.25   -9999.25   37.41470   28.14480
 11406.00000   -9999.25    1.26570   39.27150   35.62860    7.57130   -0.00130    2.63910    0.11430    0.05220   -9999.25   -9999.25   37.40720   31.82810
 11406.50000   -9999.25    1.27160   38.05000   42.53510    7.57040    0.00120    2.62550    0.10880    0.05540   -9999.25   -9999.25   41.72000   37.52470
 11407.00000   -9999.25    1.27760   36.80170   47.43150    7.56960    0.00120    2.61550    0.10480    0.05460   -9999.25   -9999.25   64.59030   41.26390
 11407.50000   -9999.25    1.28470   34.33940   41.37330    7.56870    0.00060    2.61850    0.10540    0.05340   -9999.25   -9999.25  105.61580   37.26980
 11408.00000   -9999.25    1.29070   33.83210   29.81330    7.56780   -0.00250    2.61850    0.10460    0.05240   -9999.25   -9999.25  182.40190   30.74750
 11408.50000   -9999.25    1.29660   33.84730   23.96110    7.56690   -0.00490    2.61550    0.10340    0.05620   -9999.25   -9999.25  214.86110   26.03970
 11409.00000   -9999.25    1.30250   34.26180   21.77400    7.56600   -0.00640    2.61100    0.10240    0.05660   -9999.25   -9999.25  108.91770   23.15240
 11409.50000   -9999.25    1.30840   35.62680   20.61320    7.59490   -0.00420    2.61700    0.10240    0.05170   -9999.25   -9999.25   52.04900   21.95570
 11410.00000   -9999.25    1.31430   38.47550   20.32980    7.59400   -0.00270    2.63030    0.10220    0.04280   -9999.25   -9999.25   33.28560   21.41430
 11410.50000   -9999.25    1.91720   40.60470   23.29720    7.63860   -0.00050    2.64460    0.10100    0.03790   -9999.25   -9999.25   28.63560   21.91360
 11411.00000   -9999.25    1.92320   42.32790   25.97900    7.69820   -0.00280    2.64520    0.09980    0.03840   -9999.25   -9999.25   25.38900   24.05550
 11411.50000   -9999.25    1.92910   43.58240   29.36760    7.75780   -0.00540    2.64220    0.09950    0.04020   -9999.25   -9999.25   24.43480   25.77620
 11412.00000   -9999.25    2.53200   44.63880   31.86670    7.82910   -0.01070    2.64020    0.09950    0.04120   -9999.25   -9999.25   35.07720   27.73930
 11412.50000   -9999.25    2.53790   41.60420   31.89690    7.85820   -0.01400    2.63860    0.09950    0.04210   -9999.25   -9999.25   60.29180   29.59550
 11413.00000   -9999.25    3.14090   39.33310   28.95200    7.88720   -0.01060    2.63710    0.09980    0.04540   -9999.25   -9999.25   94.41890   30.13500
 11413.50000   -9999.25    3.74380   36.87470   26.30930    7.91610   -0.00560    2.63400    0.10010    0.05050   -9999.25   -9999.25  114.10940   29.97760
 11414.00000   -9999.25    3.74970   35.54200   24.90680    7.94510    0.00050    2.62250    0.10010    0.05950   -9999.25   -9999.25  122.42350   29.72600
 11414.50000   -9999.25    3.75560   35.27950   24.56430    7.94410    0.00440    2.59280    0.09890    0.06760   -9999.25   -9999.25   58.59550   29.90620
 11415.00000   -9999.25    3.76150   34.04600   26.72640    7.94320    0.00530    2.59280    0.09770    0.06930   -9999.25   -9999.25   33.50570   30.74650
 11415.50000   -9999.25    3.76750   34.06110   31.99780    7.94230    0.00530    2.59120    0.09650    0.06930   -9999.25   -9999.25   30.42210   31.39610
 11416.00000   -9999.25    3.77340   34.07630   38.15830    7.91160    0.00240    2.58940    0.09830    0.06990   -9999.25   -9999.25   37.96920   32.05480
 11416.50000   -9999.25    3.77930   34.09160   42.60710    7.85100   -0.00290    2.58670    0.10070    0.07230   -9999.25   -9999.25   63.58910   32.50820
 11417.00000   -9999.25    3.78520   34.10690   46.21060    7.82020   -0.00900    2.58390    0.10250    0.07650   -9999.25   -9999.25   86.45440   32.70990
 11417.50000   -9999.25    3.79110   34.12210   48.53710    7.81930   -0.00730    2.57720    0.10490    0.07650   -9999.25   -9999.25  115.81070   32.70990
 11418.00000   -9999.25    3.79700   34.14010   43.10630    7.81850   -0.00060    2.57830    0.10730    0.07120   -9999.25   -9999.25  135.92630   31.82810
 11418.50000   -9999.25    3.80300   34.15270   40.63050    7.81760    0.00540    2.59490    0.10910    0.06580   -9999.25   -9999.25  116.54560   31.39610
 11419.00000   -9999.25    3.80900   34.16790   40.07260    7.81670    0.00960    2.60280    0.10970    0.06220   -9999.25   -9999.25   74.42460   31.39610
 11419.50000   -9999.25    3.81490   34.62360   41.45100    7.78600    0.01110    2.60390    0.10910    0.06110   -9999.25   -9999.25   53.58250   31.39610
