~Version ---------------------------------------------------
VERS.   2.0 : CWLS log ASCII Standard -VERSION 2.0
WRAP.    NO : One line per depth step
DLM . SPACE : Column Data Section Delimiter
~Well ------------------------------------------------------
STRT .F                 3802.0 : START DEPTH
STOP .F                11423.0 : STOP DEPTH
STEP .F                    0.5 : STEP
NULL .                -9999.25 : NULL VALUE
COMP .                         : COMPANY
WELL .                         : WELL
FLD  .                         : FIELD
LOC  .                         : LOCATION
PROV .                         : PROVINCE
CNTY .                         : COUNTY
STAT .                         : STATE
CTRY .                         : COUNTRY
SRVC .                         : SERVICE COMPANY
DATE .                         : DATE
UWI  .                         : UNIQUE WELL ID
API  .                         : API NUMBER
SLAT .WGS84  5.522695814791703 : SURFACE LATITUDE
SLON .WGS84 3.8968884515525986 : SURFACE LONGITUDE
DATUM.F                 1822.0 : DEPTH DATUM ELEV
~Curve Information -----------------------------------------
DEPT.F     : 
GRR .GAPI  : GAMMA RAY FROM RES LOG
SPR .MV    : SPONTANEOUS POTENTIAL
CILD.MMHO  : CONDUCTIVITY INDUCTION LOG DEEP
ILM .OHMM  : INDUCTION LOG MEDIUM
CALD.IN    : CALIPER FROM DENSITY LOG
DRHO.G/C3  : DENSITY CORRECTION
RHOB.G/C3  : BULK DENSITY
NPHI.DEC   : NEUTRON POROSITY LIMESTONE
DPHI.DEC   : DENSITY POROSITY LIMESTONE
DTCO.US/F  : COMPRESSIONAL-WAVE INTERVAL TRANSIT TIME ACAUSTIC SLOWNESS
DTSM.US/F  : SHEAR-WAVE INTERVAL TRANSIT TIME DELTA-T
SFLU.OHMM  : SPHERICALLY FOCUSED LOG UNAVERAGED RESISTIVITY
ILD .OHMM  : INDUCTION LOG DEEP
~Params ----------------------------------------------------
~Other -----------------------------------------------------
~ASCII -----------------------------------------------------
# ...
 9236.00000   91.51790  -47.66670   42.35030   27.27690   10.15630   -0.01910    2.28210    0.15500    0.12850   -9999.25   -9999.25   30.50230   19.76650
 9236.50000   88.83930  -47.66070   61.22400   22.76800   10.39860   -0.02760    2.08330    0.27980    0.28510   -9999.25   -9999.25   31.78440   17.01050
 9237.00000   85.71430  -47.65480   85.38440   14.46490   10.80690   -0.05220    1.66250    0.43740    0.29940   -9999.25   -9999.25   29.38700   14.24460
 9237.50000   82.14290  -47.64880   79.00750    7.38290   11.69010   -0.05430    1.75970    0.47450    0.29940   -9999.25   -9999.25   22.63780   13.12400
 9238.00000   80.23540  -47.64290   69.22550    5.73980   12.18210   -0.04680    1.98910    0.42080    0.29940   -9999.25   -9999.25   12.21830   13.12310
 9238.50000   83.48210  -47.63690   61.04780   10.03550   11.16630   -0.03630    2.06890    0.28990    0.29940   -9999.25   -9999.25    8.09260   13.67050
 9239.00000   84.82140  -47.63100   57.97380   36.12280   10.00140   -0.02780    2.41800    0.21940    0.25370   -9999.25   -9999.25    7.79770   14.43640
 9239.50000   85.26790  -47.62500   57.99730   73.36730    9.61260   -0.02030    2.58510    0.12860    0.14630   -9999.25   -9999.25    8.67070   15.88220
 9240.00000   83.92860  -47.61900   66.21770   80.73310    9.52230   -0.01440    2.60000    0.07020    0.06840   -9999.25   -9999.25   12.70930   17.71280
 9240.50000   83.92860  -47.61310   65.17360   44.93070    9.52160   -0.00750    2.59100    0.05520    0.06920   -9999.25   -9999.25   23.49310   31.41580
 9241.00000   83.92860  -47.60710   50.59460   35.40300    9.49100   -0.00300    2.58490    0.05130    0.07090   -9999.25   -9999.25   34.40410   56.48500
 9241.50000   85.71430  -47.60120   22.57180   33.29780    9.46040   -0.00010    2.58480    0.05190    0.07180   -9999.25   -9999.25   49.13080  215.10210
 9242.00000   88.39290  -47.59520    0.78880   45.65340    9.42980    0.00290    2.58780    0.05200    0.07270   -9999.25   -9999.25   60.45220 1623.02250
 9242.50000   90.17860  -47.58930    0.00040   55.54810    9.38730    0.00590    2.59070    0.05160    0.07070   -9999.25   -9999.25   64.55140 1934.90700
 9243.00000   89.73210  -46.98810    0.00040   62.59770    9.36180    0.00810    2.59210    0.05100    0.06920   -9999.25   -9999.25   65.43690  894.88440
 9243.50000   88.83930  -46.98210    4.37930   66.72890    9.33640    0.00880    2.59360    0.05020    0.06920   -9999.25   -9999.25   65.43690  325.13710
 9244.00000   87.05360  -46.97620   10.91240   66.73350    9.30740    0.00950    2.59350    0.04900    0.06930   -9999.25   -9999.25   65.43690  183.53600
 9244.50000   91.07140  -46.97020   15.85220   67.18130    9.30660    0.01100    2.59490    0.05200    0.06850   -9999.25   -9999.25   65.43690   77.40520
 9245.00000  103.57140  -46.96430   19.23960   66.74250    9.27600    0.01090    2.60080    0.06820    0.06580   -9999.25   -9999.25   65.43690   66.37680
 9245.50000  112.05360  -46.95720   21.82390   64.05230    9.30510    0.01090    2.62770    0.09570    0.05220   -9999.25   -9999.25   64.55140   63.69310
 9246.00000  118.30360  -46.95130   26.18640   56.18350    9.33430    0.00920    2.66200    0.12490    0.03250   -9999.25   -9999.25   57.10200   57.11010
 9246.50000  114.52120  -46.94540   28.27510   48.99540    9.36340    0.00400    2.66940    0.15600    0.02770   -9999.25   -9999.25   47.83310   44.97050
 9247.00000  103.67650  -46.93950   31.52850   41.55730    9.39250   -0.00300    2.64990    0.18530    0.02860   -9999.25   -9999.25   35.44470   38.82270
 9247.50000   94.02950  -46.93370   35.27430   33.67540    9.42160   -0.01030    2.62440    0.21100    0.03590   -9999.25   -9999.25   31.78440   36.01690
 9248.00000   90.17860  -46.33250   38.65780   26.43740    9.42090   -0.01330    2.60940    0.20920    0.04970   -9999.25   -9999.25   31.78440   32.25570
 9248.50000   91.71550  -46.32670   40.02060   26.08110    9.45000   -0.01330    2.59440    0.20140    0.05910   -9999.25   -9999.25   33.56460   29.49650
 9249.00000   95.76770  -46.32080   42.32100   25.38200    9.44920   -0.01190    2.56290    0.19790    0.06870   -9999.25   -9999.25   34.96500   26.38510
 9249.50000   98.21430  -46.31490   43.11070   23.39120    9.50820   -0.01190    2.51350    0.20920    0.08570   -9999.25   -9999.25   35.93090   23.88370
 9250.00000   91.87850  -46.30900   41.98590   18.81080    9.53730   -0.01200    2.46560    0.23550    0.11380   -9999.25   -9999.25   35.93090   25.57420
 9250.50000   81.20080  -46.30320   39.80850   15.33490    9.53590   -0.01200    2.47360    0.23640    0.13470   -9999.25   -9999.25   26.99030   27.03040
 9251.00000   75.69950  -46.29730   38.58770   14.72150    9.47470   -0.01210    2.53160    0.21230    0.13630   -9999.25   -9999.25   19.46240   27.88810
 9251.50000   69.69400  -46.29140   38.60690   17.81670    9.44340   -0.01060    2.61770    0.16040    0.10690   -9999.25   -9999.25   16.98340   28.90330
 9252.00000   67.08910  -46.28550   39.58800   22.15800    9.41490   -0.00920    2.70460    0.10430    0.03300   -9999.25   -9999.25   19.19900   29.29800
 9252.50000   67.98420  -46.27960   40.17180   25.39400    9.41770   -0.01070    2.70420    0.10010    0.00500   -9999.25   -9999.25   33.56460   29.12400
 9253.00000   76.31650  -46.27380   39.79760   26.45530    9.47730   -0.01230    2.69320    0.10310    0.00820   -9999.25   -9999.25   44.07830   27.94650
 9253.50000   81.19900  -46.26790   38.24630   26.45710    9.53690   -0.01380    2.68320    0.11150    0.01720   -9999.25   -9999.25   51.90760   27.01080
 9254.00000   83.62270  -46.26190   32.59810   26.82180    9.59660   -0.01380    2.68030    0.11870    0.01780   -9999.25   -9999.25   51.20520   26.08520
 9254.50000   83.92860  -46.25600   30.47860   27.19160    9.65630   -0.01240    2.67740    0.11810    0.02080   -9999.25   -9999.25   39.52650   25.03050
 9255.00000   79.26220  -46.25000   30.36290   27.56650    9.68610   -0.01240    2.66320    0.11570    0.02620   -9999.25   -9999.25   34.47720   24.86270
 9255.50000   75.23650  -46.30970   32.12110   26.82730    9.74570   -0.01250    2.65570    0.11510    0.02980   -9999.25   -9999.25   33.08230   24.52410
 9256.00000   72.35310  -46.83370   34.19850   25.75460    9.76730   -0.01250    2.64930    0.11930    0.03520   -9999.25   -9999.25   31.28500   24.71610
 9256.50000   66.77100  -46.82740   34.21870   25.06390    9.75730   -0.01260    2.64020    0.11730    0.04180   -9999.25   -9999.25   29.60260   25.06010
 9257.00000   62.31120  -46.82140   34.23660   25.06560    9.72610   -0.01110    2.62190    0.10640    0.04780   -9999.25   -9999.25   27.66840   26.24990
 9257.50000   64.77630  -46.81550   33.36740   26.11320    9.66500   -0.00370    2.58570    0.08370    0.06330   -9999.25   -9999.25   26.99030   28.87890
 9258.00000   73.88480  -46.80950   32.14470   29.52180    9.53290    0.00530    2.57370    0.05770    0.07770   -9999.25   -9999.25   27.23000   33.09860
 9258.50000   82.10400  -46.80360   30.60450   32.47830    9.46490    0.01120    2.58380    0.03740    0.07960   -9999.25   -9999.25   34.75560   36.41350
 9259.00000   86.60010  -46.96530   28.20560   35.73080    9.49400    0.01130    2.59330    0.03640    0.07120   -9999.25   -9999.25   50.07180   38.98190
 9259.50000   89.51600  -47.38780   28.22520   36.72030    9.56620    0.01110    2.59890    0.03930    0.06760   -9999.25   -9999.25   61.07330   40.05760
 9260.00000   90.11860  -47.38100   27.25150   36.22580    9.69950    0.01110    2.58980    0.04590    0.06880   -9999.25   -9999.25   68.73810   40.05490
 9260.50000   86.26480  -47.37500   26.73660   34.27100    9.81960    0.00800    2.56220    0.05720    0.08020   -9999.25   -9999.25   66.63670   36.40360
 9261.00000   81.57290  -47.36900   27.17980   29.88290    9.95500    0.00500    2.55230    0.08080    0.09280   -9999.25   -9999.25   48.90480   32.63680
 9261.50000   79.12200  -47.36310   28.57820   26.77650   10.05960    0.00350    2.55230    0.07880    0.09340   -9999.25   -9999.25   40.35790   31.32570
