~Version ---------------------------------------------------
VERS.   2.0 : CWLS log ASCII Standard -VERSION 2.0
WRAP.    NO : One line per depth step
DLM . SPACE : Column Data Section Delimiter
~Well ------------------------------------------------------
STRT .F                 3802.0 : START DEPTH
STOP .F                11423.0 : STOP DEPTH
STEP .F                    0.5 : STEP
NULL .                -9999.25 : NULL VALUE
COMP .                         : COMPANY
WELL .                         : WELL
FLD  .                         : FIELD
LOC  .                         : LOCATION
PROV .                         : PROVINCE
CNTY .                         : COUNTY
STAT .                         : STATE
CTRY .                         : COUNTRY
SRVC .                         : SERVICE COMPANY
DATE .                         : DATE
UWI  .                         : UNIQUE WELL ID
API  .                         : API NUMBER
SLAT .WGS84  5.522695814791703 : SURFACE LATITUDE
SLON .WGS84 3.8968884515525986 : SURFACE LONGITUDE
DATUM.F                 1822.0 : DEPTH DATUM ELEV
~Curve Information -----------------------------------------
DEPT.F     : 
GRR .GAPI  : GAMMA RAY FROM RES LOG
SPR .MV    : SPONTANEOUS POTENTIAL
CILD.MMHO  : CONDUCTIVITY INDUCTION LOG DEEP
ILM .OHMM  : INDUCTION LOG MEDIUM
CALD.IN    : CALIPER FROM DENSITY LOG
DRHO.G/C3  : DENSITY CORRECTION
RHOB.G/C3  : BULK DENSITY
NPHI.DEC   : NEUTRON POROSITY LIMESTONE
DPHI.DEC   : DENSITY POROSITY LIMESTONE
DTCO.US/F  : COMPRESSIONAL-WAVE INTERVAL TRANSIT TIME ACAUSTIC SLOWNESS
DTSM.US/F  : SHEAR-WAVE INTERVAL TRANSIT TIME DELTA-T
SFLU.OHMM  : SPHERICALLY FOCUSED LOG UNAVERAGED RESISTIVITY
ILD .OHMM  : INDUCTION LOG DEEP
~Params ----------------------------------------------------
~Other -----------------------------------------------------
~ASCII -----------------------------------------------------
# ...
 9964.00000   64.07030  -57.40850   47.93380   20.08930   12.68420   -0.00910    2.55930    0.10810    0.08410   62.67280  107.43960   20.73470   22.03240
 9964.50000   62.27120  -56.19660   45.71250   21.23850   12.65480   -0.00760    2.55970    0.10510    0.07910   62.40190  103.86190   22.21240   23.07390
 9965.00000   61.00450  -55.58180   43.23670   22.75950   12.62540   -0.00700    2.56350    0.09860    0.07240   63.00450  105.95590   24.45680   24.61110
 9965.50000   61.00710  -54.96700   41.17600   24.27340   12.59600   -0.00600    2.58000    0.09740    0.06340   63.00900  107.45280   26.22290   25.65900
 9966.00000   60.11650  -54.35210   39.81670   25.36560   12.56660   -0.00450    2.59030    0.10040    0.05800   62.95770  108.05430   28.11130   26.81870
 9966.50000   59.22580  -53.73730   37.02170   26.08480   12.56700   -0.00300    2.59970    0.11050    0.05720   62.35620  106.56620   29.67450   27.72510
 9967.00000   57.44230  -52.52540   35.94590   27.47540   12.53760   -0.00300    2.61070    0.11000    0.06060   61.68240  105.61230   30.83050   28.50380
 9967.50000   56.55170  -51.89870   34.71090   28.24430   12.50820   -0.00300    2.61340    0.10520    0.06420   60.85470  105.67950   29.41580   29.50660
 9968.00000   54.76820  -51.29550   33.98470   27.65810   12.44900   -0.00290    2.60960    0.09510    0.06460   60.55230  105.38540   26.29060   30.12640
 9968.50000   53.87750  -50.68060   33.76750   26.64770   12.38970   -0.00140    2.60170    0.08610    0.05850   60.04560  105.38990   23.39970   31.39700
 9969.00000   52.98690  -50.06570   32.46980   27.63190   12.36030   -0.00140    2.59850    0.07360    0.04120   60.15480  104.79730   25.06010   32.27780
 9969.50000   53.43550  -49.45080   31.29930   29.88910   12.33090   -0.00290    2.60680    0.07120    0.03880   61.06370  104.50320   31.59990   33.36200
 9970.00000   54.77700  -49.39300   30.06480   32.42740   12.27160   -0.00430    2.62840    0.07250    0.04240   61.55460  104.20910   38.19130   34.28500
 9970.50000   57.01140  -48.81790   28.82880   33.16000   12.24220   -0.00580    2.63990    0.07490    0.04780   61.43140  104.21350   46.14970   34.75600
 9971.00000   58.35290  -48.20300   27.91220   31.22190   12.18300   -0.00730    2.64490    0.07600    0.05200   61.26460  104.81500   47.76680   35.71760
 9971.50000   58.35510  -47.58810   27.91790   30.44550   12.15360   -0.00880    2.63510    0.07410    0.05620   61.41260  106.01340   42.63690   36.70570
 9972.00000   56.57160  -47.50670   27.92370   34.47130   12.09400   -0.00870    2.62430    0.07250    0.05920   62.62410  104.80740   38.39100   37.72120
 9972.50000   54.78810  -46.88500   28.91570   37.98070   12.03440   -0.00870    2.61830    0.07520    0.06160   64.12880  103.63420   38.92240   39.29740
 9973.00000   56.57600  -46.34030   29.46180   37.80710   11.97480   -0.00870    2.61220    0.07950    0.06460   64.57100  105.72820   37.97530   39.29740
 9973.50000   58.81030  -46.32240   29.46760   31.80900   11.91500   -0.00870    2.60620    0.09140    0.06640   64.10160  104.83710   36.35670   38.76480
 9974.00000   61.04470  -45.70750   29.60170   29.69680   11.85730   -0.00860    2.59800    0.09880    0.06640   63.38500  105.21140   35.64550   37.72120
 9974.50000   62.38620  -45.59590   31.00650   29.14800   11.82580   -0.00710    2.59340    0.09660    0.06520   63.08970  106.38130   34.45120   35.23350
 9975.00000   62.83480  -44.97590   29.92990   30.62350   11.76620   -0.00710    2.59420    0.09210    0.05990   62.49700  106.64180   32.59840   34.67840
 9975.50000   62.39060  -44.35430   28.69560   34.54770   11.73640   -0.00710    2.59870    0.08450    0.05270   61.00670  105.52420   34.24100   36.70570
 9976.00000   62.37350  -43.84480   27.46140   38.01560   11.67680   -0.00710    2.60780    0.07400    0.04260   59.51630  102.26040   36.91880   39.83720
 9976.50000   62.39510  -43.22980   26.00670   41.83160   11.61710   -0.00550    2.62370    0.06080    0.03720   57.42810   98.45570   40.51730   45.04250
 9977.00000   62.87900  -42.61490   23.40110   46.03070   11.56150   -0.00550    2.63560    0.05170    0.03420   56.53560   98.67790   47.55660   50.98700
 9977.50000   63.82710  -41.86890   22.22870   49.28580   11.49800   -0.00550    2.64230    0.04970    0.03190   56.24070   98.90300   57.10490   54.65030
 9978.00000   65.13330  -41.25110   20.10470   52.05470   11.43840   -0.00550    2.64810    0.04930    0.03190   56.54450   98.24230   62.84140   58.57670
 9978.50000   66.48510  -40.17310   18.23440   55.73580   11.37390   -0.00550    2.65260    0.04930    0.03310   57.44580   96.82170   66.37650   61.94440
 9979.00000   66.28000  -39.41070   16.99930   58.86710   11.28400   -0.00540    2.65410    0.04960    0.03250   58.94500   99.33950   68.22020   65.36970
 9979.50000   64.84880  -38.94330   15.79570   61.33060   11.19450   -0.00540    2.65410    0.05140    0.03110   58.97750  101.46170   68.22480   67.82670
 9980.00000   63.21530  -38.32840   15.80150   60.49820   11.11040   -0.00540    2.65260    0.05350    0.02810   58.95370  102.92510   74.05930   68.94890
 9980.50000   62.76060  -37.71340   15.80730   58.86710   11.02100   -0.00390    2.65410    0.05680    0.02520   58.65920  102.00700   78.22550   70.66070
 9981.00000   62.30800  -37.69550   15.81300   57.28000   10.96140   -0.00380    2.66010    0.06200    0.02240   58.36470  100.29350   83.76280   69.22100
 9981.50000   61.85500  -37.49970   15.81870   59.67710   10.93160   -0.00230    2.66460    0.06710    0.02240   58.06550  100.27320   81.51000   67.82670
 9982.00000   61.52650  -37.06270   15.82440   61.33060   10.90920   -0.00230    2.66760    0.07130    0.02240   57.45320  101.02930   78.24080   70.66070
 9982.50000   61.97540  -37.04480   15.83090   60.49820   10.87980   -0.00230    2.67060    0.07530    0.02170   56.56440  102.24200   81.52100   70.33390
 9983.00000   62.71000  -37.02690   16.91840   58.86710   10.87220   -0.00380    2.67210    0.08010    0.02050   55.66480  102.53430   80.42000   67.48740
 9983.50000   64.22090  -37.60900   17.36830   56.50260   10.85080   -0.00530    2.67360    0.08590    0.02010   54.72670  102.53880   78.25720   64.75610
 9984.00000   65.87350  -37.58810   17.88290   53.49700   10.82140   -0.00680    2.67520    0.08650    0.02130   53.90700  102.71860   73.09370   62.62930
 9984.50000   67.51090  -37.57020   19.12940   52.77100   10.81280   -0.00830    2.67520    0.08710    0.02330   54.66570  103.74270   72.10640   60.81250
 9985.00000   68.86230  -37.55220   20.43920   49.95320   10.79250   -0.00980    2.67370    0.09070    0.02250   57.02450  104.34410   71.13260   60.41350
 9985.50000   69.76620  -38.13470   20.44470   48.56500   10.76310   -0.01110    2.67070    0.09610    0.01850   57.80720  104.94550   68.28010   59.57060
 9986.00000   70.66910  -38.34520   21.34120   47.26800   10.73370   -0.01110    2.67050    0.09680    0.01660   57.81170  105.24850   64.62490   58.37340
 9986.50000   71.36830  -38.69610   21.98280   46.66410   10.70420   -0.00960    2.67670    0.09370    0.01750   58.36420  105.25290   61.21740   57.58230
 9987.00000   71.15610  -38.67460   21.98850   47.37270   10.67480   -0.00960    2.68120    0.09310    0.02010   59.79870  104.66030   64.76750   57.58230
 9987.50000   70.70310  -38.65670   21.96280   48.04050   10.64540   -0.01100    2.67970    0.09670    0.02310   60.91430  104.36620   69.39770   57.58230
 9988.00000   71.39260  -38.63880   20.72770   48.61680   10.60460   -0.01140    2.67530    0.10270    0.02790   61.11810  103.77360   73.24040   59.17540
 9988.50000   73.19810  -38.62090   20.47900   48.61680   10.57480   -0.01290    2.66930    0.10870    0.03220   60.29450  103.18110   74.14440   60.81250
 9989.00000   75.70260  -38.60300   19.78570   47.83400   10.52750   -0.01440    2.66040    0.10750    0.03310   58.24110  103.18550   69.91490   63.35350
 9989.50000   75.77360  -38.58510   18.96370   46.39550   10.48540   -0.01690    2.65290    0.09920    0.03240   56.48000  103.48840   67.38980   64.22390
