~Version ---------------------------------------------------
VERS.   2.0 : CWLS log ASCII Standard -VERSION 2.0
WRAP.    NO : One line per depth step
DLM . SPACE : Column Data Section Delimiter
~Well ------------------------------------------------------
STRT .F                 3802.0 : START DEPTH
STOP .F                11423.0 : STOP DEPTH
STEP .F                    0.5 : STEP
NULL .                -9999.25 : NULL VALUE
COMP .                         : COMPANY
WELL .                         : WELL
FLD  .                         : FIELD
LOC  .                         : LOCATION
PROV .                         : PROVINCE
CNTY .                         : COUNTY
STAT .                         : STATE
CTRY .                         : COUNTRY
SRVC .                         : SERVICE COMPANY
DATE .                         : DATE
UWI  .                         : UNIQUE WELL ID
API  .                         : API NUMBER
SLAT .WGS84  5.522695814791703 : SURFACE LATITUDE
SLON .WGS84 3.8968884515525986 : SURFACE LONGITUDE
DATUM.F                 1822.0 : DEPTH DATUM ELEV
~Curve Information -----------------------------------------
DEPT.F     : 
GRR .GAPI  : GAMMA RAY FROM RES LOG
SPR .MV    : SPONTANEOUS POTENTIAL
CILD.MMHO  : CONDUCTIVITY INDUCTION LOG DEEP
ILM .OHMM  : INDUCTION LOG MEDIUM
CALD.IN    : CALIPER FROM DENSITY LOG
DRHO.G/C3  : DENSITY CORRECTION
RHOB.G/C3  : BULK DENSITY
NPHI.DEC   : NEUTRON POROSITY LIMESTONE
DPHI.DEC   : DENSITY POROSITY LIMESTONE
DTCO.US/F  : COMPRESSIONAL-WAVE INTERVAL TRANSIT TIME ACAUSTIC SLOWNESS
DTSM.US/F  : SHEAR-WAVE INTERVAL TRANSIT TIME DELTA-T
SFLU.OHMM  : SPHERICALLY FOCUSED LOG UNAVERAGED RESISTIVITY
ILD .OHMM  : INDUCTION LOG DEEP
~Params ----------------------------------------------------
~Other -----------------------------------------------------
~ASCII -----------------------------------------------------
# ...
 10666.00000  127.51730  -52.71740   16.79390   67.15460    8.47760   -0.00950    2.55910    0.03860    0.08850   82.93140  159.09910   99.79290   67.99380
 10666.50000  126.59730  -53.32920   16.79390   73.92330    8.47760   -0.00950    2.56200    0.03860    0.08710   84.34370  162.08860  106.74820   74.73640
 10667.00000  126.32590  -53.34410   16.79390   79.27220    8.50750   -0.00950    2.55600    0.04120    0.09090   82.65710  157.01840  112.57320   81.30600
 10667.50000  126.30580  -53.95590   15.73710   80.93790    8.50750   -0.01100    2.54700    0.04580    0.09530   79.58070  148.96310  109.19530   86.88360
 10668.00000  127.84030  -53.97070   14.49290   78.20630    8.50750   -0.01250    2.53950    0.05240    0.10030   74.36040  134.34060   93.63970   89.05620
 10668.50000  130.75100  -54.58260   13.74050   72.99370    8.50750   -0.01550    2.53800    0.06550    0.10120   64.80680  131.59900   89.01380   87.83150
 10669.00000  134.33050  -55.19450   13.74050   66.71420    8.50750   -0.01400    2.53800    0.07870    0.10060   62.83370  133.45390   88.98940   84.29160
 10669.50000  137.92080  -56.40330   13.74050   57.68500    8.53730   -0.01110    2.53500    0.09480    0.10020   64.63040  133.15980   88.44580   74.53540
 10670.00000  142.64940  -56.41820   13.74050   49.86790    8.53840   -0.00810    2.52600    0.09570    0.10980   63.08210  126.89550   76.53430   63.26500
 10670.50000  146.16730  -57.03000   15.51800   43.49900    8.59700   -0.00810    2.49310    0.08350    0.12470   61.15210  117.20500   56.68640   53.69880
 10671.00000  141.78620  -57.64190   17.40070   39.69100    8.59830   -0.00660    2.48410    0.06980    0.13020   60.34760  108.52430   45.31270   46.84000
 10671.50000  129.71270  -58.25370   18.64390   37.56950    8.62830   -0.00660    2.49160    0.06510    0.12170   59.74440  105.41620   39.61330   43.14920
 10672.00000  121.65710  -58.86570   19.92990   36.54670    8.65670   -0.00810    2.51550    0.06150    0.11400   59.14050  105.12210   35.12450   40.29540
 10672.50000  117.17290  -58.88060   22.90080   36.04100    8.68830   -0.00970    2.51240    0.05970    0.11530   58.40500  104.77860   32.77130   38.67130
 10673.00000  113.58160  -59.49250   24.90400   35.87490    8.71830   -0.01120    2.50350    0.06030    0.11920   57.91640  104.11550   30.43900   37.62260
 10673.50000  123.82950  -59.50710   27.39340   36.02290    8.77610   -0.01420    2.50190    0.06150    0.11710   58.67330  103.20500   29.75190   37.61500
 10674.00000  140.32750  -58.88790   29.44520   36.50860    8.80820   -0.01870    2.50490    0.06750    0.10460   59.27650  101.45830   38.75540   38.64780
 10674.50000  145.66470  -57.70410   30.53440   38.02460    8.83820   -0.01870    2.51830    0.07650    0.08730   58.18340   97.08860   50.76300   39.17080
 10675.00000  151.18970  -56.56650   30.53440   39.60510    8.86820   -0.01720    2.55870    0.08140    0.07300   56.36770   89.41990   65.17160   40.24630
 10675.50000  153.21650  -55.92870   28.30130   40.69140    8.89550   -0.01570    2.58410    0.08260    0.07480   56.06340   83.95890   73.67200   41.91950
 10676.00000  147.91720  -54.74280   26.64710   42.96590    8.89550   -0.01420    2.58700    0.08310    0.07900   59.28900   92.32480   66.45610   43.66220
 10676.50000  137.69020  -54.22300   25.40230   46.62460    8.92540   -0.01280    2.57650    0.08320    0.07920   58.69410   97.15160   58.12970   45.47740
 10677.00000  133.30250  -53.64080   24.42750   49.23070    8.92540   -0.01130    2.57350    0.08250    0.07660   59.29490   99.03830   54.55390   48.01870
 10677.50000  130.21010  -53.65670   24.42750   47.89050    8.92540   -0.00980    2.57500    0.08060    0.07310   60.19470   99.94780   54.15900   50.01500
 10678.00000  131.31140  -53.76290   23.19490   42.33690    8.92540   -0.00980    2.57950    0.07820    0.07070   59.89870   99.94210   56.45770   52.09430
 10678.50000  136.13380  -54.38230   22.90080   37.42740    8.92540   -0.00980    2.58540    0.07580    0.07010   59.00480   98.70430   59.56300   54.26000
 10679.00000  128.58560  -54.29720   22.90080   35.91430    8.92540   -0.00990    2.58990    0.07340    0.07370   58.40980   95.63370   54.69090   56.51570
 10679.50000  121.58790  -54.91040   22.90080   38.97250    8.92150   -0.01140    2.58990    0.07100    0.07970   57.51590   93.84710   47.92320   58.06750
 10680.00000  114.90650  -55.52240   22.79870   40.59240    8.89550   -0.01140    2.58540    0.07020    0.09040   56.62200   93.55220   41.71520   58.05570
 10680.50000  107.67330  -55.53730   21.37400   41.70610    8.89960   -0.01140    2.57040    0.07730    0.10120   56.02710   96.84100   40.02880   54.15930
 10681.00000  115.33260  -54.95360   20.31090   37.89100    8.92540   -0.01120    2.53750    0.10300    0.11970   56.62790  103.41250   38.41060   47.13630
 10681.50000  135.92680  -54.82910   19.84730   27.66430    8.92540   -0.00790    2.53150    0.12210    0.14060   58.42460  113.26770   36.35750   37.30900
 10682.00000  152.50570  -54.38620   21.84080   17.36320    8.93000   -0.00370    2.53000    0.17710    0.16870   61.71600  118.04820   34.88770   29.13020
 10682.50000  169.89650  -53.65140   28.33420   11.49790    8.98510   -0.00220    2.51650    0.26720    0.20990   65.30640  121.93320   38.37940   23.21960
 10683.00000  179.25160  -52.46640   42.74810    9.63460    9.01980   -0.00280    2.49100    0.45780    0.23740   64.69020  123.72870   45.20610   24.35170
 10683.50000  196.64240  -51.87620   47.46440    9.85270    9.08470   -0.00840    2.25890    0.50370    0.27340   63.45840  124.06100   54.72240   28.80240
 10684.00000  220.28320  -51.46050   42.58550  913.27120    9.25480   -0.02620    1.99170    0.49190    0.29950   61.64290  120.15540   47.72000   34.83640
 10684.50000  230.97760  -51.47760   35.71740 1472.98130    9.68740   -0.05790    1.56720    0.40990    0.29950   59.45440  113.89110   44.55630   38.48340
 10685.00000  226.93980  -51.49250   31.40090 1492.88720    9.79100   -0.05520    1.57760    0.26510    0.29960   56.77510  108.82090   52.48180   34.58880
 10685.50000  198.79490  -51.70250   29.00760  172.27060    9.24250   -0.04430    1.85120    0.11730    0.29960   55.45860  105.50370   62.66740   31.34790
 10686.00000  170.65000  -52.11940   30.53440   57.71870    9.08120   -0.02990    1.99600    0.06940    0.28930   55.88420  102.77920   72.81260   40.38020
 10686.50000  152.32650  -52.13430   32.55700   45.74130    8.85370   -0.01570    2.20520    0.05950    0.11840   57.39860  100.32750   81.20200   62.04140
 10687.00000  145.20440  -52.74630   27.03430   50.31920    8.77610   -0.00570    2.53580    0.05520    0.08050   58.45740   97.97220   86.92060  118.72060
 10687.50000  134.41320  -53.35820   15.84330   59.26970    8.74630   -0.00060    2.57310    0.05190    0.08130   58.75930   96.55470   87.04910  266.00300
 10688.00000  126.46150  -53.60490    5.94420   67.93010    8.74630    0.00040    2.57090    0.05040    0.08450   59.15740   96.25030   83.38410  864.99830
 10688.50000  121.04520  -54.22250    4.58020   73.71450    8.74630   -0.00020    2.56570    0.04950    0.08950   59.66220   96.01590   77.85600  459.85810
 10689.00000  117.23750  -54.59700    5.70510   71.70770    8.74630   -0.00380    2.55900    0.05130    0.09460   59.66520   95.56300   75.66810   87.77700
 10689.50000  115.59660  -54.61190    8.63760   69.75560    8.75310   -0.00570    2.54620    0.05490    0.09630   59.36860   94.65300   77.81430   57.49470
 10690.00000  114.23740  -55.22390   12.92980   67.85650    8.77610   -0.00630    2.54590    0.05280    0.09520   58.64500   93.14350   77.79270   47.14690
 10690.50000  111.09250  -55.23880   17.34820   66.91750    8.77610   -0.00660    2.55190    0.05110    0.09280   58.04180   91.01180   69.71780   42.81770
 10691.00000  107.50120  -55.25370   19.84730   65.98430    8.77610   -0.00570    2.55570    0.04930    0.09100   57.43790   89.35200   59.15740   47.17020
 10691.50000  104.35630  -54.67160   21.08520   62.43070    8.77610   -0.00570    2.55720    0.04810    0.08940   57.74290   90.12170   52.95010   51.92600
