~Version ---------------------------------------------------
VERS.   2.0 : CWLS log ASCII Standard -VERSION 2.0
WRAP.    NO : One line per depth step
DLM . SPACE : Column Data Section Delimiter
~Well ------------------------------------------------------
STRT .F                 3802.0 : START DEPTH
STOP .F                11423.0 : STOP DEPTH
STEP .F                    0.5 : STEP
NULL .                -9999.25 : NULL VALUE
COMP .                         : COMPANY
WELL .                         : WELL
FLD  .                         : FIELD
LOC  .                         : LOCATION
PROV .                         : PROVINCE
CNTY .                         : COUNTY
STAT .                         : STATE
CTRY .                         : COUNTRY
SRVC .                         : SERVICE COMPANY
DATE .                         : DATE
UWI  .                         : UNIQUE WELL ID
API  .                         : API NUMBER
SLAT .WGS84  5.522695814791703 : SURFACE LATITUDE
SLON .WGS84 3.8968884515525986 : SURFACE LONGITUDE
DATUM.F                 1822.0 : DEPTH DATUM ELEV
~Curve Information -----------------------------------------
DEPT.F     : 
GRR .GAPI  : GAMMA RAY FROM RES LOG
SPR .MV    : SPONTANEOUS POTENTIAL
CILD.MMHO  : CONDUCTIVITY INDUCTION LOG DEEP
ILM .OHMM  : INDUCTION LOG MEDIUM
CALD.IN    : CALIPER FROM DENSITY LOG
DRHO.G/C3  : DENSITY CORRECTION
RHOB.G/C3  : BULK DENSITY
NPHI.DEC   : NEUTRON POROSITY LIMESTONE
DPHI.DEC   : DENSITY POROSITY LIMESTONE
DTCO.US/F  : COMPRESSIONAL-WAVE INTERVAL TRANSIT TIME ACAUSTIC SLOWNESS
DTSM.US/F  : SHEAR-WAVE INTERVAL TRANSIT TIME DELTA-T
SFLU.OHMM  : SPHERICALLY FOCUSED LOG UNAVERAGED RESISTIVITY
ILD .OHMM  : INDUCTION LOG DEEP
~Params ----------------------------------------------------
~Other -----------------------------------------------------
~ASCII -----------------------------------------------------
# ...
 4322.00000   43.32150  -40.37980  580.86630    1.34930   21.78620   -0.03000    2.16230    0.51940   -9999.25  125.24390  188.65670    1.30820    1.66380
 4322.50000   42.17030  -41.62180  601.59780    1.24210   21.81530   -0.02290    2.13800    0.49620   -9999.25  123.79490  188.65670    1.33520    1.56670
 4323.00000   44.20780  -42.80710  620.45620    1.18180   21.81440   -0.02040    2.14640    0.49080   -9999.25  121.21530  188.48980    1.40950    1.53140
 4323.50000   44.66720  -43.43320  640.07060    1.18120   21.81330   -0.02090    2.16850    0.47470   -9999.25  118.94640  188.35820    1.38710    1.51030
 4324.00000   45.08880  -42.66670  666.95320    1.20660   21.81250   -0.02200    2.18750    0.45090   -9999.25  117.15410  188.05970    1.39730    1.53960
 4324.50000   46.24470  -40.99930  524.32220    1.33130   21.69150   -0.02050    2.21630    0.42760   -9999.25  118.57830  187.16420    1.45470    1.58210
 4325.00000   49.88900  -39.22820  427.25360    1.51610   20.09900   -0.01780    2.25550    0.40730   -9999.25  121.11910  184.47760    1.55600    1.64800
 4325.50000   55.22510  -37.88040  360.42920    1.86390   17.27530   -0.01180    2.38620    0.40140   -9999.25  122.98510  178.20900    1.98540    1.75290
 4326.00000   58.30970  -36.28130  334.27280    2.00600   15.93840   -0.00440    2.63460    0.40860   -9999.25  122.08960  175.52240    2.56790    2.00110
 4326.50000   59.61930  -35.10410  317.25200    2.09810   16.10230    0.00770    2.63600    0.43960   -9999.25  117.91040  179.70150    2.33420    2.29620
 4327.00000   60.48820  -34.15970  295.55130    2.26750   18.08340    0.02140    2.64350    0.43610   -9999.25  116.11940  182.98510    2.06500    2.70200
 4327.50000   57.80040  -33.34290  285.15970    2.56340   18.41290    0.03660    2.68980    0.42470   -9999.25  116.11940  183.88060    2.06400    3.17930
 4328.00000   55.11590  -32.16610  267.91400    2.76730   18.08170    0.04580    2.73770    0.42120   -9999.25  113.73130  183.88060    2.17800    3.69050
 4328.50000   53.76270  -31.58280  251.27340    3.00300   16.21510    0.04790    2.78400    0.41940   -9999.25  108.65670  183.28360    2.42660    3.94850
 4329.00000   55.51600  -30.40610  241.21260    3.23860   16.09790    0.04340    2.79440    0.40690   -9999.25  102.68660  181.19400    2.77780    4.05590
 4329.50000   59.04440  -31.36850  234.68530    3.41930   16.22480    0.02230    2.81380    0.36510   -9999.25   93.73130  175.52240    3.26730    4.16620
 4330.00000   60.79770  -31.99400  228.15470    3.46620   16.51660    0.00580    3.00620    0.30010   -9999.25   85.67160  171.34330    3.94870    4.16490
 4330.50000   61.22040  -32.61950  221.77820    3.43990   15.76480    0.00280    3.14900    0.27980   -9999.25   82.08960  169.55220    4.28150    3.99720
 4331.00000   57.20370  -33.83850  223.52500    3.00960   14.02220   -0.00180    3.15800    0.34490   -9999.25   78.80600  168.65670    3.63670    3.78450
 4331.50000   51.85640  -35.05740  239.17480    2.35250   14.14140   -0.00630    2.98120    0.44520   -9999.25   76.41790  168.05260    2.76640    3.30270
 4332.00000   46.44720  -36.27640  271.88760    1.53440   15.32670   -0.04530    2.70120    0.48760   -9999.25   75.52240  165.30220    1.96070    2.69290
 4332.50000   41.97220  -37.49540  481.52850    1.28590   17.46470   -0.03780    2.23560    0.52760   -9999.25   74.62690  161.35190    1.45220    2.05160
 4333.00000   39.32350  -38.71440  599.86710    1.18490   21.68130   -0.03340    2.09930    0.53180   -9999.25   74.32840  156.87330    1.22330    1.74240
 4333.50000   38.89790  -39.33990  671.50050    1.16840   21.76550   -0.03200    2.09930    0.52350   -9999.25   74.62920  153.92340    1.12630    1.49910
 4334.00000   39.01280  -39.96530  732.13690    1.10620   21.75960   -0.03200    2.10670    0.50320   -9999.25   76.15720  152.83580    1.06980    1.32480
 4334.50000   41.31820  -40.59080  775.65760    1.06150   21.66100   -0.03210    2.14260    0.47040   -9999.25   80.88020  153.18630    1.13700    1.23700
 4335.00000   47.88280  -40.02020  783.98790    1.04670   21.37250   -0.03360    2.18290    0.42800   -9999.25   90.95510  154.68660    1.19130    1.18950
 4335.50000   58.21160  -38.80930  786.98260    1.10440   19.92740   -0.03670    2.26970    0.35700   -9999.25  102.71250  159.51820    1.26890    1.26000
 4336.00000   68.31240  -37.07210  737.78510    1.18110   17.23250   -0.03500    2.68130    0.29910   -9999.25  107.20430  167.69380    1.40770    1.33400
 4336.50000   74.07140  -35.89540  637.42130    1.37020   13.45670   -0.01610    3.01210    0.25080   -9999.25  107.02260  169.55220    1.87450    1.46840
 4337.00000   75.13690  -34.71830  529.95970    1.61110   13.08050    0.01510    3.39680    0.22450    0.20260  103.84990  169.07050    2.45810    1.67120
 4337.50000   66.84540  -33.54060  467.67130    2.08290   13.08330    0.02940    3.40720    0.22930    0.18070   99.08080  167.76060    3.04460    1.92460
 4338.00000   62.30280  -32.36380  438.62130    3.34440   13.27910    0.03220    3.29780    0.24550    0.22090   91.19460  165.30240    3.38010    2.32960
 4338.50000   60.67080  -30.59350  376.91520    4.26540   14.91610    0.03340    3.25140    0.25270    0.26020   82.59200  159.03060    3.79020    3.15820
 4339.00000   58.44340  -30.19660  281.89400    5.01550   15.85750    0.03370    3.23330    0.25090    0.27060   77.44320  152.16670    4.03690    4.56360
 4339.50000   55.71480  -30.23440  186.87270    5.22080   16.55930    0.04110    3.30660    0.24310    0.24560   77.70400  153.79340    4.29660    5.61820
 4340.00000   51.89400  -30.86050  146.75350    5.28910   16.28810    0.04220    3.31860    0.21390    0.22920   78.40760  155.95980    4.39150    6.08450
 4340.50000   49.18010  -30.89320  140.33830    5.21330   14.09270    0.02900    3.31250    0.19540    0.23230   79.61770  155.08080    4.35780    6.13210
 4341.00000   46.99260  -30.92580  142.63660    5.07300   14.03430    0.01970    3.31250    0.17160    0.21610   80.94040  151.59210    4.41520    6.04730
 4341.50000   47.85840  -30.65230  150.25700    5.13950   14.18350    0.02420    3.45760    0.13880    0.16800   82.21170  147.21430    4.41310    5.76550
 4342.00000   51.83060  -30.39760  163.81590    5.21380   14.00230    0.03170    3.54440    0.11190    0.10480   82.81600  144.09280    4.48060    5.45650
 4342.50000   52.69970  -29.83680  174.84430    5.28380   13.44110    0.03870    3.55480    0.11850    0.09470   82.41280  141.49250    4.71780    5.57630
 4343.00000   50.01180  -28.68840  177.78740    5.58840   12.88970    0.03630    3.53950    0.13220    0.09950   80.76130  137.31340    5.25620    5.71970
 4343.50000   48.21480  -29.31390  171.93160    5.79340   12.46670    0.02480    3.53220    0.13820    0.10420   78.64960  130.14920    6.26680    5.79590
 4344.00000   48.63670  -29.93940  162.19930    5.86930   12.25710    0.01410    3.54290    0.14240    0.09590   76.37780  128.05970    7.07720    5.79360
 4344.50000   49.50440  -29.97140  152.77740    5.88380   12.26740    0.00570    3.59280    0.14010    0.07330   73.79510  125.07460    7.67370    5.95120
 4345.00000   49.48060  -30.59690  146.76820    6.12650   12.34040    0.00590    3.64920    0.14310    0.05610   70.94570  122.38810    6.78870    6.03060
 4345.50000   48.12740  -30.62900  141.98520    6.25610   12.38820    0.01340    3.66290    0.14550    0.03290   68.65670  122.98510    6.42710    6.11100
 4346.00000   48.54940  -30.66100  137.20130    6.55320   12.37360    0.01910    3.66740    0.15030    0.02810   67.46270  128.95520    6.60080    6.27720
 4346.50000   49.85890  -30.69300  132.42000    6.82350   12.38890    0.02210    3.66960    0.16640    0.02700   66.56720  131.64180    7.15710    6.71620
 4347.00000   52.49980  -30.72510  127.63520    7.04320   12.41930    0.01600    3.66910    0.22440    0.02520   65.67160  131.34330    7.86630    7.08880
 4347.50000   52.92170  -30.75710  122.85030    7.37460   12.52090    0.01000    3.66540    0.27030    0.02460   64.47760  127.76120    8.18920    7.38120
