~Version ---------------------------------------------------
VERS.   2.0 : CWLS log ASCII Standard -VERSION 2.0
WRAP.    NO : One line per depth step
DLM . SPACE : Column Data Section Delimiter
~Well ------------------------------------------------------
STRT .F                 3802.0 : START DEPTH
STOP .F                11423.0 : STOP DEPTH
STEP .F                    0.5 : STEP
NULL .                -9999.25 : NULL VALUE
COMP .                         : COMPANY
WELL .                         : WELL
FLD  .                         : FIELD
LOC  .                         : LOCATION
PROV .                         : PROVINCE
CNTY .                         : COUNTY
STAT .                         : STATE
CTRY .                         : COUNTRY
SRVC .                         : SERVICE COMPANY
DATE .                         : DATE
UWI  .                         : UNIQUE WELL ID
API  .                         : API NUMBER
SLAT .WGS84  5.522695814791703 : SURFACE LATITUDE
SLON .WGS84 3.8968884515525986 : SURFACE LONGITUDE
DATUM.F                 1822.0 : DEPTH DATUM ELEV
~Curve Information -----------------------------------------
DEPT.F     : 
GRR .GAPI  : GAMMA RAY FROM RES LOG
SPR .MV    : SPONTANEOUS POTENTIAL
CILD.MMHO  : CONDUCTIVITY INDUCTION LOG DEEP
ILM .OHMM  : INDUCTION LOG MEDIUM
CALD.IN    : CALIPER FROM DENSITY LOG
DRHO.G/C3  : DENSITY CORRECTION
RHOB.G/C3  : BULK DENSITY
NPHI.DEC   : NEUTRON POROSITY LIMESTONE
DPHI.DEC   : DENSITY POROSITY LIMESTONE
DTCO.US/F  : COMPRESSIONAL-WAVE INTERVAL TRANSIT TIME ACAUSTIC SLOWNESS
DTSM.US/F  : SHEAR-WAVE INTERVAL TRANSIT TIME DELTA-T
SFLU.OHMM  : SPHERICALLY FOCUSED LOG UNAVERAGED RESISTIVITY
ILD .OHMM  : INDUCTION LOG DEEP
~Params ----------------------------------------------------
~Other -----------------------------------------------------
~ASCII -----------------------------------------------------
# ...
 10198.00000   51.13780  -38.82960   22.87790   36.48860   10.68600   -0.01510    2.68320    0.12130    0.01330   83.33060  151.91300   46.94180   43.81810
 10198.50000   51.47240  -38.82370   22.53280   36.48860   10.68610   -0.01500    2.67420    0.12560    0.02110   65.99570  130.72580   45.29780   44.42310
 10199.00000   51.47910  -38.81780   21.36230   37.49960   10.71610   -0.01500    2.66220    0.12500    0.02590   59.72210  111.58700   42.40720   45.03640
 10199.50000   50.89700  -38.81190   21.36930   38.53860   10.71630   -0.01650    2.65770    0.12330    0.02890   58.53060  103.27840   42.20100   45.03950
 10200.00000   49.52700  -38.80600   21.37640   39.06890   10.71640   -0.01830    2.65920    0.10120    0.03070   57.63830  101.49280   44.93750   46.28860
 10200.50000   48.48240  -38.84710   21.60910   40.91150   10.72470   -0.02100    2.65770    0.10040    0.02910   55.54560  101.19550   49.04350   47.43180
 10201.00000   47.45830  -38.88830   22.92420   42.06730   10.73300   -0.02090    2.66470    0.10540    0.02650   54.05080  102.39130   53.14950   48.57500
 10201.50000   48.40080  -38.92940   22.93510   43.01710   10.74140   -0.02090    2.67140    0.11020    0.02240   54.94770  108.95990   57.30450   49.71820
 10202.00000   49.72440  -38.97060   22.94660   43.02590   10.74330   -0.01940    2.68190    0.11800    0.01750   58.23620  120.60320   58.90020   51.05320
 10202.50000   51.11500  -39.01170   22.95800   43.03480   10.74250   -0.01780    2.68520    0.12810    0.01500   59.73090  120.30610   57.32000   53.07400
 10203.00000   52.47330  -39.05290   22.96950   43.04360   10.72760   -0.01620    2.68440    0.13110    0.01440   58.53510  117.91950   54.27820   53.07760
 10203.50000   53.71580  -39.09400   22.98090   43.05240   10.69640   -0.01340    2.68210    0.13170    0.01950   56.14350  113.74190   50.70030   53.08120
 10204.00000   53.71340  -39.13520   22.99450   43.06120   10.68060   -0.01190    2.67820    0.13050    0.02140   56.09960  105.08670   50.01850   51.65550
 10204.50000   53.63720  -39.17630   23.00380   43.39330   10.63380   -0.01160    2.67130    0.12760    0.02410   56.18120  107.47620   51.41180   51.65930
 10205.00000   53.17980  -39.21750   23.01530   44.01120   10.60250   -0.01040    2.66370    0.12520    0.02810   56.14350  108.37320   54.30760   53.09210
 10205.50000   52.72090  -39.25860   22.58500   44.64040   10.58880   -0.01040    2.65430    0.12220    0.03030   55.84450  107.77770   56.58780   53.98820
 10206.00000   52.36120  -39.29980   21.51000   45.51960   10.58790   -0.01040    2.65720    0.12280    0.02790   55.54560  105.68960   57.37420   55.50060
 10206.50000   52.35900  -39.34090   21.52410   46.79030   10.58720   -0.01040    2.67070    0.12520    0.02440   55.84450  104.79550   56.60310   56.08190
 10207.00000   52.91910  -39.38210   21.53440   48.09650   10.55660   -0.01000    2.67810    0.12580    0.02140   56.74140  105.39400   56.63560   56.85620
 10207.50000   53.94460  -40.00000   21.54580   50.11930   10.55590   -0.00840    2.67960    0.12530    0.01900   58.24560  105.39550   59.90830   57.64130
 10208.00000   55.43170  -40.00000   21.00720   50.81920   10.55510   -0.00740    2.67050    0.12530    0.01960   59.13300  104.76210   64.20710   57.39510
 10208.50000   57.10720  -40.00000   20.04200   50.82950   10.52450   -0.00740    2.66600    0.12590    0.02440   58.81520  103.85150   69.69400   56.60590
 10209.00000   57.27350  -40.00000   20.05360   48.13550   10.52380   -0.00740    2.66600    0.12840    0.02560   58.53510  102.97760   73.43390   56.10030
 10209.50000   56.82310  -40.00000   20.06490   46.84720   10.52310   -0.00790    2.66450    0.13280    0.02570   58.83410  103.60930   72.03300   56.39730
 10210.00000   57.43260  -40.00000   20.07630   46.72760   10.52230   -0.01030    2.65990    0.14080    0.02810   59.13300  108.23820   66.16370   56.87950
 10210.50000   59.12800  -40.00000   20.08780   48.16470   10.49170   -0.01090    2.65390    0.15130    0.03290   59.13300  109.28510   59.23200   57.99680
 10211.00000   61.20730  -39.40300   20.47300   47.52070   10.49100   -0.01180    2.64790    0.15340    0.03760   59.13300  108.98790   55.90280   58.81530
 10211.50000   62.37670  -39.40300   21.63740   47.53030   10.49020   -0.01330    2.63740    0.14800    0.04190   59.55300  108.24860   58.64170   59.26830
 10212.00000   61.59570  -39.40300   21.65060   49.52940   10.48950   -0.01400    2.64040    0.13590    0.04010   60.83260  106.80320   61.98530   58.08850
 10212.50000   59.33060  -39.40300   21.66030   53.77230   10.45890   -0.01480    2.64930    0.11760    0.03770   62.19700  104.42760   66.97510   56.51340
 10213.00000   56.59420  -39.40300   22.43750   55.27340   10.45820   -0.01400    2.66270    0.10930    0.03410   62.42150  104.87860   73.15180   55.34630
 10213.50000   55.90970  -39.40300   23.20990   53.79410   10.45740   -0.01250    2.67320    0.11630    0.02990   62.12260  108.40670   79.14940   53.49010
 10214.00000   57.72330  -39.40300   23.42040   51.64390   10.45670   -0.01090    2.68220    0.13320    0.02450   61.72790  109.29550   83.15770   50.94780
 10214.50000   60.20130  -39.40300   24.76030   49.56900   10.42610   -0.01030    2.68500    0.15080    0.01730   58.79630  106.26730   81.86180   48.87830
 10215.00000   62.66360  -39.40300   24.77100   45.64220   10.42540   -0.01030    2.68490    0.16230    0.01510   55.84450  105.49250   71.14170   46.38410
 10215.50000   64.21430  -39.40300   25.65620   42.58260   10.42460   -0.01020    2.68160    0.17470    0.01720   59.41540  109.02640   59.58710   45.13850
 10216.00000   66.01190  -39.40300   26.32060   40.28730   10.42140   -0.01320    2.67350    0.17600    0.02380   62.01900  111.96800   49.30620   43.33100
 10216.50000   67.53760  -39.40300   26.64030   37.64950   10.39330   -0.01620    2.66000    0.17280    0.03080   62.49740  112.28810   42.63310   41.59580
 10217.00000   66.19210  -39.40300   27.87020   35.69180   10.38880   -0.01920    2.65020    0.17000    0.03190   60.51550  112.13500   38.70490   39.93020
 10217.50000   63.95110  -39.40300   27.88170   35.27460   10.36190   -0.02070    2.64890    0.16700    0.03070   59.73090  111.83090   38.48250   38.33120
 10218.00000   61.71010  -39.40300   26.91170   36.34680   10.36120   -0.01920    2.66190    0.16310    0.02580   60.02990  110.88880   39.87890   36.79630
 10218.50000   61.26010  -39.40300   27.07450   37.37160   10.36040   -0.01770    2.66720    0.15800    0.02470   60.48720  108.72500   42.15170   37.30440
 10219.00000   61.12250  -39.40300   27.91600   38.42950   10.35320   -0.01620    2.66820    0.15110    0.02690   60.92680  106.92270   45.02410   38.33900
 10219.50000   62.59890  -39.40300   27.92750   38.19320   10.32910   -0.01320    2.66220    0.14880    0.02830   61.39820  109.31220   48.21440   38.34160
 10220.00000   64.83550  -39.40300   27.94030   37.16120   10.32840   -0.01170    2.66670    0.15720    0.02680   61.52470  110.20920   50.23890   39.40500
 10220.50000   66.17660  -39.40300   27.95040   35.52600   10.31900   -0.01020    2.67260    0.15840    0.02440   61.52470  109.61370   50.24560   39.94910
 10221.00000   67.51790  -39.40300   27.96180   34.37230   10.29700   -0.00870    2.67140    0.15720    0.02240   61.22570  109.31640   47.57930   40.50070
 10221.50000   66.17210  -39.40300   27.97330   34.85350   10.29630   -0.00720    2.66590    0.15780    0.02590   60.92680  110.21360   44.44300   40.50340
 10222.00000   66.16990  -39.40300   27.98470   34.86070   10.28480   -0.00570    2.66570    0.16440    0.02600   60.32880  111.70760   40.95000   40.50610
 10222.50000   67.51100  -39.40300   27.99660   34.21560   10.26490   -0.00710    2.67020    0.16920    0.02490   59.73090  111.41060   42.66940   39.95990
 10223.00000   69.74760  -39.40300   28.00760   33.28920   10.26420   -0.00860    2.67240    0.17340    0.02310   59.73090  111.41210   43.26230   38.35970
 10223.50000   71.53640  -40.00000   28.93410   32.83350   10.25060   -0.00860    2.66860    0.17400    0.02370   59.73090  111.41360   42.10160   37.32960
