~Version ---------------------------------------------------
VERS.   2.0 : CWLS log ASCII Standard -VERSION 2.0
WRAP.    NO : One line per depth step
DLM . SPACE : Column Data Section Delimiter
~Well ------------------------------------------------------
STRT .F                 3802.0 : START DEPTH
STOP .F                11423.0 : STOP DEPTH
STEP .F                    0.5 : STEP
NULL .                -9999.25 : NULL VALUE
COMP .                         : COMPANY
WELL .                         : WELL
FLD  .                         : FIELD
LOC  .                         : LOCATION
PROV .                         : PROVINCE
CNTY .                         : COUNTY
STAT .                         : STATE
CTRY .                         : COUNTRY
SRVC .                         : SERVICE COMPANY
DATE .                         : DATE
UWI  .                         : UNIQUE WELL ID
API  .                         : API NUMBER
SLAT .WGS84  5.522695814791703 : SURFACE LATITUDE
SLON .WGS84 3.8968884515525986 : SURFACE LONGITUDE
DATUM.F                 1822.0 : DEPTH DATUM ELEV
~Curve Information -----------------------------------------
DEPT.F     : 
GRR .GAPI  : GAMMA RAY FROM RES LOG
SPR .MV    : SPONTANEOUS POTENTIAL
CILD.MMHO  : CONDUCTIVITY INDUCTION LOG DEEP
ILM .OHMM  : INDUCTION LOG MEDIUM
CALD.IN    : CALIPER FROM DENSITY LOG
DRHO.G/C3  : DENSITY CORRECTION
RHOB.G/C3  : BULK DENSITY
NPHI.DEC   : NEUTRON POROSITY LIMESTONE
DPHI.DEC   : DENSITY POROSITY LIMESTONE
DTCO.US/F  : COMPRESSIONAL-WAVE INTERVAL TRANSIT TIME ACAUSTIC SLOWNESS
DTSM.US/F  : SHEAR-WAVE INTERVAL TRANSIT TIME DELTA-T
SFLU.OHMM  : SPHERICALLY FOCUSED LOG UNAVERAGED RESISTIVITY
ILD .OHMM  : INDUCTION LOG DEEP
~Params ----------------------------------------------------
~Other -----------------------------------------------------
~ASCII -----------------------------------------------------
# ...
 10926.00000  125.66020  -52.53730    5.88560   38.17970    8.74630   -0.00720    2.50370    0.08670    0.11700   60.78380   99.85680   36.10230   54.49320
 10926.50000  125.20940  -52.31940   13.48470   42.30770    8.77610   -0.00420    2.51570    0.08670    0.11110   58.69410   97.47170   37.86710   60.76210
 10927.00000  127.43710  -51.70010   22.16930   46.69610    8.83590   -0.00270    2.52320    0.08560    0.10930   56.60440   95.05810   41.94930   60.78580
 10927.50000  131.89700  -50.74630   31.09150   49.99650    8.86710   -0.00280    2.52310    0.08140    0.11410   53.91670   91.44820   48.65830   51.55710
 10928.00000  137.24980  -49.57590   43.72570   47.32680    8.92820   -0.00570    2.51860    0.07120    0.11470   50.93010   88.80380   67.06700   33.23400
 10928.50000  143.49540  -47.73980   49.11740   28.91220    8.95940   -0.00750    2.51570    0.06290    0.11280   49.13940   88.52820   79.51560   23.56730
 10929.00000  147.95530  -45.63850   52.15760   15.83090    9.02030   -0.01050    2.51570    0.05750    0.11170   49.01200   89.83160   75.74880   19.47410
 10929.50000  149.29020  -43.58210   50.38060   10.64350    9.05150   -0.01360    2.51200    0.08500    0.12140   51.83590   92.06670   37.15020   18.25790
 10930.00000  146.01790  -41.19400   45.26650    8.54930    9.11250   -0.01550    2.43670    0.18590    0.18150   55.12730   96.34830   14.58460   20.63210
 10930.50000  142.44080  -40.00000   55.95820   11.08660    9.17340   -0.04150    2.18980    0.24740    0.29860   55.13030  101.17710    8.73720   21.20330
 10931.00000  140.08500  -38.80600   61.80500   26.25330    9.24490   -0.04480    2.21230    0.24800    0.28780   55.73110  104.32420   12.51960   17.46510
 10931.50000  134.76430  -38.20900   61.83500   39.57590    9.32530   -0.03590    2.36870    0.22890    0.21740   57.82670  106.37410   23.15790   17.26950
 10932.00000  129.32500  -37.01490   56.37660   32.22700    9.38630   -0.02230    2.54090    0.14430    0.05740   63.21090  108.27190   29.71920   19.74560
 10932.50000  126.01890  -36.41790   47.07910   27.71930    9.44720   -0.01790    2.64520    0.11250    0.02400   62.01800  110.04480   35.08720   24.72830
 10933.00000  124.25890  -35.22390   36.02090   24.17060    9.52240   -0.01860    2.67990    0.11130    0.01860   60.82510  110.34580   37.20270   31.28230
 10933.50000  126.34970  -34.62690   29.83070   22.26220    9.58210   -0.02160    2.68090    0.11330    0.02100   60.52910  109.75170   34.22560   39.91030
 10934.00000  126.92940  -34.02990   29.47800   26.35240    9.64180   -0.02320    2.67420    0.12450    0.02220   60.53210  109.45620   34.34660   49.40390
 10934.50000  123.03380  -34.02990   30.72260   30.96750    9.70150   -0.02400    2.67120    0.12230    0.02160   60.53510  113.21050   36.46980   47.49360
 10935.00000  120.69990  -34.02990   32.36820   31.76320    9.79100   -0.02400    2.67200    0.11790    0.02100   60.51330  114.36270   35.96750   36.24040
 10935.50000  120.45000  -33.43280   34.73600   30.26850    9.88060   -0.02400    2.67260    0.11280    0.02100   60.21010  114.67240   34.04740   32.11530
 10936.00000  122.97470  -33.43280   36.15320   27.63310    9.97010   -0.02410    2.67260    0.10930    0.02280   59.90700  113.98640   32.67320   30.14910
 10936.50000  126.87950  -32.83580   37.22350   26.14640   10.02990   -0.02260    2.66970    0.10840    0.02580   59.65000  110.53770   31.78590   28.90850
 10937.00000  131.81170  -32.83580   39.24520   25.35250   10.08960   -0.02110    2.66070    0.12320    0.03130   59.70780  108.57910   30.92270   27.92720
 10937.50000  135.37870  -32.71210   41.72820   24.30840   10.14930   -0.01970    2.64720    0.12830    0.03600   60.14300  109.36750   29.27190   26.78880
 10938.00000  142.07080  -32.23880   44.00750   23.39630   10.17910   -0.01670    2.64420    0.13880    0.03720   62.19030  111.21970   27.70920   25.55970
 10938.50000  150.10270  -31.64180   45.33230   22.13820   10.17910   -0.01520    2.64420    0.14990    0.03910   63.48270  114.60300   26.59090   24.52790
 10939.00000  151.80210  -31.64180   46.49480   21.52940   10.17910   -0.01520    2.64280    0.16240    0.04410   64.14950  120.23340   25.17130   23.21880
 10939.50000  157.43500  -31.64180   47.73740   20.93540   10.17910   -0.01520    2.64130    0.18190    0.05280   64.54360  129.19160   24.15540   21.97960
 10940.00000  162.20000  -31.64180   47.22890   20.75280   10.17910   -0.01530    2.62330    0.19070    0.05390   65.25240  131.58260   25.16110   21.38220
 10940.50000  166.09760  -31.38020   45.04930   20.87250   10.14930   -0.01530    2.61730    0.19180    0.05180   66.97850  131.58550   27.30560   21.67010
 10941.00000  167.93750  -31.04480   43.80020   21.61670   10.11940   -0.01530    2.62340    0.18980    0.04610   69.17390  131.58850   28.44250   23.19390
 10941.50000  164.80730  -31.04480   41.32650   21.91160   10.11150   -0.01530    2.63550    0.18820    0.03920   70.14350  131.29250   28.05070   24.15650
 10942.00000  162.12430  -31.04480   39.81410   21.90860   10.08960   -0.01540    2.64910    0.18640    0.03400   69.58860  130.40030   28.04500   25.15910
 10942.50000  158.54850  -31.04480   38.57830   21.90560   10.05970   -0.01540    2.65660    0.18550    0.03100   69.25260  128.61230   28.45290   26.56330
 10943.00000  150.95480  -31.04480   36.95370   22.74350   10.05970   -0.01540    2.65920    0.18520    0.03010   69.25560  126.22710   28.89260   28.04590
 10943.50000  144.82590  -30.44780   34.37740   25.45680   10.05970   -0.01540    2.65740    0.18240    0.03250   69.10680  122.94650   30.53300   29.61120
 10944.00000  131.63260  -29.85070   30.10740   28.78970   10.02990   -0.01690    2.65440    0.17400    0.03250   68.96260  118.77030   33.38590   32.12880
 10944.50000  120.44960  -29.85070   29.99440   32.55890   10.02990   -0.01700    2.65170    0.15570    0.02980   67.86590  114.59420   37.82060   35.83090
 10945.00000  108.52590  -29.85070   25.75450   36.82160   10.01290   -0.01700    2.65900    0.14020    0.02530   65.23170  109.52250   42.99190   38.92230
 10945.50000   99.59300  -29.85070   19.43140   42.21630   10.00000   -0.01700    2.67070    0.12290    0.01910   61.19940  106.24190   52.71120   42.28730
 10946.00000   92.44570  -29.85070   10.93640   49.06820    9.97010   -0.01700    2.68590    0.10500    0.01070   57.31590  102.96120   67.12280   45.87670
 10946.50000   87.08420  -29.85070    5.04520   55.49240    9.94030   -0.01710    2.69930    0.09010    0.00590   56.12260  100.87460   80.02150   48.48400
 10947.00000   82.61550  -29.85070    6.48140   61.90460    9.88060   -0.01710    2.70470    0.08650    0.00220   56.12600  100.27590   90.25670   50.32110
 10947.50000   82.43020  -29.85070   14.98050   68.11920    9.82090   -0.01860    2.70770    0.08770    0.00150   56.12900   99.98500  103.12560   47.36100
 10948.00000   87.07110  -29.85070   25.89600   61.88790    9.79100   -0.01860    2.70620    0.10440    0.00370   55.83260   99.98810  113.96780   38.05270
 10948.50000   99.56670  -29.85070   33.19530   45.16960    9.73130   -0.01710    2.68940    0.13730    0.01140   55.53660  100.28960   88.69900   32.30240
 10949.00000  121.88380  -29.85070   36.25430   34.34920    9.67160   -0.01570    2.68370    0.13850    0.01580   56.73570  100.36120   52.94420   27.45180
 10949.50000  148.66440  -29.85070   38.51430   29.14310    9.61190   -0.01500    2.68160    0.14330    0.01670   57.93450  101.65950   32.55960   24.41560
 10950.00000  158.92780  -29.85070   39.31300   24.39000    9.55220   -0.01420    2.68010    0.15400    0.02060   60.03010  106.26510   25.24490   22.46370
 10950.50000  163.83420  -30.44780   38.84420   21.56060    9.49120   -0.01270    2.66520    0.15940    0.02900   62.72370  116.22700   20.80090   20.94940
 10951.00000  167.40120  -30.44780   34.74090   24.15330    9.43020   -0.01280    2.64130    0.15580    0.04030   67.50990  118.87680   23.51510   20.12700
 10951.50000  159.80760  -30.61600   29.18270   28.56130    9.36920   -0.01430    2.61290    0.14390    0.05410   69.30660  118.59900   40.73260   21.75520
