~Version ---------------------------------------------------
VERS.   2.0 : CWLS log ASCII Standard -VERSION 2.0
WRAP.    NO : One line per depth step
DLM . SPACE : Column Data Section Delimiter
~Well ------------------------------------------------------
STRT .F                12861.0 : START DEPTH
STOP .F                18356.0 : STOP DEPTH
STEP .F                    0.5 : STEP
NULL .                -9999.25 : NULL VALUE
COMP .                         : COMPANY
WELL .                         : WELL
FLD  .                         : FIELD
LOC  .                         : LOCATION
PROV .                         : PROVINCE
CNTY .                         : COUNTY
STAT .                         : STATE
CTRY .                         : COUNTRY
SRVC .                         : SERVICE COMPANY
DATE .                         : DATE
UWI  .                         : UNIQUE WELL ID
API  .                         : API NUMBER
SLAT .WGS84  5.027106254005496 : SURFACE LATITUDE
SLON .WGS84 2.6071148984420063 : SURFACE LONGITUDE
DATUM.F                    nan : DEPTH DATUM ELEV
~Curve Information -----------------------------------------
DEPT   .F     : 1 MEASURED DEPTH
NPHI_LS.DEC   : NEUTRON POROSITY LIMESTONE
DPHI_LS.DEC   : DENSITY POROSITY LIMESTONE
CALD   .IN    : CALIPER FROM DENSITY LOG
RHOB   .G/C3  : BULK DENSITY
GRR    .GAPI  : GAMMA RAY FROM RESISTIVITY LOG
IDPH   .OHMM  : INDUCTION DEEP PHASOR RESISTIVITY
ILD    .OHMM  : INDUCTION DEEP RESISTIVITY
IMPH   .OHMM  : INDUCTION MEDIUM PHASOR RESISTIVITY
DTSM   .US/F  : DELTA-T SHEAR
DTCO   .US/F  : DELTA-T COMPRESSIONAL
~Params ----------------------------------------------------
~Other -----------------------------------------------------
~ASCII -----------------------------------------------------
# ...
 14016.00000    0.17350   -9999.25    9.30390    2.63460  113.51550   -9999.25   -9999.25   -9999.25  127.97180   72.33250
 14016.50000    0.17110   -9999.25    9.30240    2.64450  113.16120   -9999.25   -9999.25   -9999.25  126.82120   72.27440
 14017.00000    0.16890   -9999.25    9.30110    2.65120  112.75420   -9999.25   -9999.25   -9999.25  125.10870   72.15850
 14017.50000    0.16550   -9999.25    9.30130    2.65050  112.85310   -9999.25   -9999.25   -9999.25  124.95940   72.16870
 14018.00000    0.16300   -9999.25    9.30150    2.64230  112.95200   -9999.25   -9999.25   -9999.25  125.97700   72.15440
 14018.50000    0.16060   -9999.25    9.30160    2.63720  113.05090   -9999.25   -9999.25   -9999.25  127.78590   72.07340
 14019.00000    0.15860   -9999.25    9.30180    2.63670  113.14980   -9999.25   -9999.25   -9999.25  128.05890   72.07820
 14019.50000    0.15670   -9999.25    9.30130    2.63650  113.35170   -9999.25   -9999.25   -9999.25  128.16080   72.08300
 14020.00000    0.15480   -9999.25    9.29840    2.64270  113.58310   -9999.25   -9999.25   -9999.25  128.17030   72.08780
 14020.50000    0.15450   -9999.25    9.29560    2.64440  113.81460   -9999.25   -9999.25   -9999.25  128.18360   72.09260
 14021.00000    0.15630   -9999.25    9.29270    2.64610  114.04600   -9999.25   -9999.25   -9999.25  128.19980   72.09740
 14021.50000    0.15780   -9999.25    9.28990    2.64640  114.27740   -9999.25   -9999.25   -9999.25  128.27000   72.10220
 14022.00000    0.16200   -9999.25    9.28700    2.64530  114.50890   -9999.25   -9999.25   -9999.25  131.26860   73.54330
 14022.50000    0.16690   -9999.25    9.28420    2.64090  114.74030   -9999.25   -9999.25   -9999.25  133.68260   74.61220
 14023.00000    0.17000   -9999.25    9.28130    2.63650  114.97170   -9999.25   -9999.25   -9999.25  135.07750   73.56010
 14023.50000    0.17040   -9999.25    9.27850    2.63200  115.20310   -9999.25   -9999.25   -9999.25  130.29160   70.88620
 14024.00000    0.16400   -9999.25    9.27560    2.63000  115.43460   -9999.25   -9999.25   -9999.25  123.33380   69.53670
 14024.50000    0.15880   -9999.25    9.27280    2.63060  115.27900   -9999.25   -9999.25   -9999.25  119.36320   70.42290
 14025.00000    0.16030   -9999.25    9.26990    2.63120  115.06340   -9999.25   -9999.25   -9999.25  118.56730   72.06690
 14025.50000    0.16190   -9999.25    9.26710    2.62960  115.07290   -9999.25   -9999.25   -9999.25  118.39870   72.10850
 14026.00000    0.16270   -9999.25    9.26420    2.63080  115.08230   -9999.25   -9999.25   -9999.25  118.37680   72.14270
 14026.50000    0.16080   -9999.25    9.26140    2.63340  114.94150   -9999.25   -9999.25   -9999.25  118.35490   72.18100
 14027.00000    0.15860   -9999.25    9.25850    2.63610  113.58410   -9999.25   -9999.25   -9999.25  118.35840   72.22320
 14027.50000    0.15630   -9999.25    9.25570    2.63900  111.33650   -9999.25   -9999.25   -9999.25  118.36340   72.21100
 14028.00000    0.15370   -9999.25    9.25280    2.64190  109.08890   -9999.25   -9999.25   -9999.25  118.36830   72.19000
 14028.50000    0.15310   -9999.25    9.25000    2.64480  107.54560   -9999.25   -9999.25   -9999.25  118.37320   72.16550
 14029.00000    0.15480   -9999.25    9.24710    2.64640  106.54590   -9999.25   -9999.25   -9999.25  118.37810   72.13940
 14029.50000    0.15680   -9999.25    9.24430    2.64520  105.54620   -9999.25   -9999.25   -9999.25  118.38300   72.11320
 14030.00000    0.15880   -9999.25    9.24140    2.64150  104.98200   -9999.25   -9999.25   -9999.25  118.38790   72.08710
 14030.50000    0.15610   -9999.25    9.23860    2.63580  104.74340   -9999.25   -9999.25   -9999.25  118.39280   72.06100
 14031.00000    0.14450   -9999.25    9.24400    2.63340  104.93910   -9999.25   -9999.25   -9999.25  118.39780   72.03490
 14031.50000    0.14610   -9999.25    9.24960    2.63300  105.18170   -9999.25   -9999.25   -9999.25  118.40270   72.00870
 14032.00000    0.15080   -9999.25    9.25530    2.63260  106.36430   -9999.25   -9999.25   -9999.25  118.40320   71.98240
 14032.50000    0.15540   -9999.25    9.26090    2.63220  108.60490   -9999.25   -9999.25   -9999.25  118.38290   71.89940
 14033.00000    0.16050   -9999.25    9.26310    2.63190  110.84750   -9999.25   -9999.25   -9999.25  118.36260   71.81640
 14033.50000    0.16620   -9999.25    9.26070    2.63150  113.04420   -9999.25   -9999.25   -9999.25  118.34240   71.72590
 14034.00000    0.17170   -9999.25    9.25830    2.63260  114.55380   -9999.25   -9999.25   -9999.25  118.32210   71.29340
 14034.50000    0.18390   -9999.25    9.25590    2.63760  115.97820   -9999.25   -9999.25   -9999.25  118.45970   71.06670
 14035.00000    0.19390   -9999.25    9.25350    2.64260  117.02810   -9999.25   -9999.25   -9999.25  118.89770   71.36310
 14035.50000    0.19970   -9999.25    9.25110    2.64760  118.15240   -9999.25   -9999.25   -9999.25  119.21460   71.69530
 14036.00000    0.20350   -9999.25    9.24870    2.66100  119.55470   -9999.25   -9999.25   -9999.25  119.20370   71.97130
 14036.50000    0.20400   -9999.25    9.24630    2.67520  120.95710   -9999.25   -9999.25   -9999.25  121.24610   71.78780
 14037.00000    0.19380   -9999.25    9.24380    2.67290  121.34090   -9999.25   -9999.25   -9999.25  124.76700   71.74980
 14037.50000    0.17220   -9999.25    9.24140    2.66570  119.73880   -9999.25   -9999.25   -9999.25  127.04850   71.77460
 14038.00000    0.14650   -9999.25    9.23900    2.65860  114.75380   -9999.25   -9999.25   -9999.25  127.83240   71.78690
 14038.50000    0.13470   -9999.25    9.23660    2.65690  105.78540   -9999.25   -9999.25   -9999.25  125.71600   69.66690
 14039.00000    0.13190   -9999.25    9.23420    2.65580   98.66080   -9999.25   -9999.25   -9999.25  121.98270   68.52080
 14039.50000    0.12910   -9999.25    9.23180    2.65460   95.17760   -9999.25   -9999.25   -9999.25  121.01190   68.12420
 14040.00000    0.12440   -9999.25    9.22940    2.65350   94.85190   -9999.25   -9999.25   -9999.25  119.22690   67.97870
 14040.50000    0.11860   -9999.25    9.22700    2.65440   94.86190   -9999.25   -9999.25   -9999.25  116.83210   67.87340
 14041.00000    0.11320   -9999.25    9.22460    2.65580   95.09630   -9999.25   -9999.25   -9999.25  113.37940   66.27960
 14041.50000    0.11020   -9999.25    9.22210    2.65720   97.10190   -9999.25   -9999.25   -9999.25  112.34920   65.67710
 14042.00000    0.10770   -9999.25    9.21970    2.65850   99.29450   -9999.25   -9999.25   -9999.25  112.06780   66.82310
 14042.50000    0.10580   -9999.25    9.21730    2.65390  101.49640   -9999.25   -9999.25   -9999.25  112.13570   68.06180
 14043.00000    0.10530   -9999.25    9.21490    2.64580  100.86810   -9999.25   -9999.25   -9999.25  113.79260   68.45060
 14043.50000    0.10860   -9999.25    9.21250    2.64280   99.38470   -9999.25   -9999.25   -9999.25  115.44950   68.69700
 14044.00000    0.11430   -9999.25    9.21010    2.66110   99.35970   -9999.25   -9999.25   -9999.25  117.61150   68.62580
 14044.50000    0.12410   -9999.25    9.20770    2.69240   99.59400   -9999.25   -9999.25   -9999.25  118.16710   68.37800
 14045.00000    0.13160   -9999.25    9.20530    2.67610   99.93030   -9999.25   -9999.25   -9999.25  118.18540   68.24580
 14045.50000    0.13130   -9999.25    9.20290    2.65420  100.28510   -9999.25   -9999.25   -9999.25  118.20370   68.10450
 14046.00000    0.13110   -9999.25    9.20040    2.64130  100.67370   -9999.25   -9999.25   -9999.25  118.22200   68.06520
 14046.50000    0.12980   -9999.25    9.19800    2.64260  101.50610   -9999.25   -9999.25   -9999.25  118.32400   68.61680
 14047.00000    0.12780   -9999.25    9.19560    2.65050  102.47220   -9999.25   -9999.25   -9999.25  119.27760   69.63000
 14047.50000    0.12580   -9999.25    9.19320    2.65490  103.06650   -9999.25   -9999.25   -9999.25  119.68050   69.62640
 14048.00000    0.12370   -9999.25    9.19080    2.65930  103.07010   -9999.25   -9999.25   -9999.25  118.65700   68.86660
 14048.50000    0.12300   -9999.25    9.18930    2.65420  102.62260   -9999.25   -9999.25   -9999.25  118.24800   68.59890
