~Version ---------------------------------------------------
VERS.   2.0 : CWLS log ASCII Standard -VERSION 2.0
WRAP.    NO : One line per depth step
DLM . SPACE : Column Data Section Delimiter
~Well ------------------------------------------------------
STRT .F                12861.0 : START DEPTH
STOP .F                18356.0 : STOP DEPTH
STEP .F                    0.5 : STEP
NULL .                -9999.25 : NULL VALUE
COMP .                         : COMPANY
WELL .                         : WELL
FLD  .                         : FIELD
LOC  .                         : LOCATION
PROV .                         : PROVINCE
CNTY .                         : COUNTY
STAT .                         : STATE
CTRY .                         : COUNTRY
SRVC .                         : SERVICE COMPANY
DATE .                         : DATE
UWI  .                         : UNIQUE WELL ID
API  .                         : API NUMBER
SLAT .WGS84  5.027106254005496 : SURFACE LATITUDE
SLON .WGS84 2.6071148984420063 : SURFACE LONGITUDE
DATUM.F                    nan : DEPTH DATUM ELEV
~Curve Information -----------------------------------------
DEPT   .F     : 1 MEASURED DEPTH
NPHI_LS.DEC   : NEUTRON POROSITY LIMESTONE
DPHI_LS.DEC   : DENSITY POROSITY LIMESTONE
CALD   .IN    : CALIPER FROM DENSITY LOG
RHOB   .G/C3  : BULK DENSITY
GRR    .GAPI  : GAMMA RAY FROM RESISTIVITY LOG
IDPH   .OHMM  : INDUCTION DEEP PHASOR RESISTIVITY
ILD    .OHMM  : INDUCTION DEEP RESISTIVITY
IMPH   .OHMM  : INDUCTION MEDIUM PHASOR RESISTIVITY
DTSM   .US/F  : DELTA-T SHEAR
DTCO   .US/F  : DELTA-T COMPRESSIONAL
~Params ----------------------------------------------------
~Other -----------------------------------------------------
~ASCII -----------------------------------------------------
# ...
 16524.00000    0.24890   -9999.25   -9999.25   -9999.25  113.16600    3.71910    3.66320    3.97180   80.23150   78.17460
 16524.50000    0.24710   -9999.25   -9999.25   -9999.25  112.42480    3.74410    3.68610    4.04670   80.19520   78.09310
 16525.00000    0.24740   -9999.25   -9999.25   -9999.25  110.52210    3.77100    3.71810    4.11820   80.15900   78.01160
 16525.50000    0.24710   -9999.25   -9999.25   -9999.25  109.36020    3.80040    3.74760    4.19030   80.11620   77.99620
 16526.00000    0.24450   -9999.25   -9999.25   -9999.25  109.23910    3.82200    3.76890    4.21190   80.04500   77.98820
 16526.50000    0.24200   -9999.25   -9999.25   -9999.25  110.43840    3.84370    3.79030    4.22280   80.09790   77.95530
 16527.00000    0.24150   -9999.25   -9999.25   -9999.25  111.62270    3.86550    3.81180    4.23380   79.28130   77.92250
 16527.50000    0.24220   -9999.25   -9999.25   -9999.25  111.61130    3.88740    3.83350    4.22200   80.30100   77.88960
 16528.00000    0.24530   -9999.25   -9999.25   -9999.25  110.22660    3.89840    3.84470    4.20390   81.10960   77.85680
 16528.50000    0.24790   -9999.25   -9999.25   -9999.25  108.72370    3.89350    3.83980    4.18590   79.19070   77.82390
 16529.00000    0.24650   -9999.25   -9999.25   -9999.25  108.38850    3.88750    3.83400    4.08740   81.30880   77.79100
 16529.50000    0.24500   -9999.25   -9999.25   -9999.25  110.50310    3.88160    3.82810    4.03120   81.30880   77.80130
 16530.00000    0.24350   -9999.25   -9999.25    2.66190  114.22170    3.87570    3.82230    4.15870   81.30130   77.81930
 16530.50000    0.24040   -9999.25   11.04740    2.66200  117.07920    3.86970    3.81640    4.20650   81.25130   77.83730
 16531.00000    0.23910   -9999.25   11.04880    2.66200  117.05310    3.87890    3.82520    4.22460   80.54930   77.85530
 16531.50000    0.23830   -9999.25   11.05020    2.66200  114.35190    3.89670    3.84260    4.23640   79.23220   77.87340
 16532.00000    0.23740   -9999.25   11.05150    2.66470  111.51650    3.90680    3.85290    4.22430   78.70850   77.89140
 16532.50000    0.23760   -9999.25   11.05290    2.66960  109.41670    3.91170    3.85750    4.21250   79.13740   77.90940
 16533.00000    0.24060   -9999.25   11.05420    2.67530  111.10120    3.92640    3.86850    4.20090   79.62050   77.92740
 16533.50000    0.24670   -9999.25   11.05560    2.67680  113.25600    3.85500    3.79900    4.18930   80.38030   77.94540
 16534.00000    0.24870   -9999.25   11.06470    2.67460  113.71280    3.79540    3.74040    4.16720   80.84650   77.96340
 16534.50000    0.24590   -9999.25   11.08380    2.67230  112.39520    3.73680    3.68260    4.12120   80.10810   77.98150
 16535.00000    0.24170   -9999.25   11.07870    2.67190  110.89660    3.67910    3.62580    4.04010   79.91510   78.35630
 16535.50000    0.24340   -9999.25   11.06590    2.67720  110.71270    3.63660    3.56980    3.97300   79.81840   78.75030
 16536.00000    0.24730   -9999.25   11.06010    2.68240  109.38970    3.60800    3.52440    3.90720   79.37260   78.62070
 16536.50000    0.24670   -9999.25   11.07850    2.67930  107.99450    3.57950    3.52500    3.91320   79.50490   77.62720
 16537.00000    0.24380   -9999.25   11.09460    2.67180  106.38250    3.58230    3.52550    3.93570   79.59310   77.26780
 16537.50000    0.23150   -9999.25   11.08940    2.66290  105.42440    3.63640    3.54320    4.01240   79.53140   78.01860
 16538.00000    0.23170   -9999.25   11.08410    2.65410  104.69260    3.69140    3.58530    4.06700   76.24340   77.82300
 16538.50000    0.23500   -9999.25   11.07200    2.65810  105.58280    3.74700    3.63210    4.15370   75.18290   76.89760
 16539.00000    0.24010   -9999.25   11.05900    2.66410  106.63730    3.80270    3.68250    4.25180   76.57540   75.97220
 16539.50000    0.24380   -9999.25   11.05910    2.66730  106.79880    3.78820    3.73370    4.34010   75.36740   75.04680
 16540.00000    0.24600   -9999.25   11.08590    2.66070  106.96920    3.83970    3.78450    4.32250   73.70040   75.19270
 16540.50000    0.24890   -9999.25   11.08810    2.65550  107.05830    3.91830    3.86340    4.30500   72.03330   74.42370
 16541.00000    0.24940   -9999.25   11.08130    2.66070  107.94130    3.95050    3.89520    4.31940   71.83210   69.77200
 16541.50000    0.24990   -9999.25   11.07450    2.66830  108.22940    3.97160    3.91670    4.38100   72.34090   60.40220
 16542.00000    0.25100   -9999.25   11.08590    2.66380  110.18380    3.98480    3.92970    4.44340   72.44170   52.64230
 16542.50000    0.25500   -9999.25   11.13680    2.64830  111.71480    3.99800    3.94280    4.50650   72.30580   49.62300
 16543.00000    0.26140   -9999.25   11.18770    2.64040  110.39640    4.03480    3.97740    4.57050   72.17240   49.44720
 16543.50000    0.26580   -9999.25   11.23860    2.63450  104.46460    4.08200    4.02390    4.60420   72.12550   49.52650
 16544.00000    0.26760   -9999.25   11.28540    2.63990  101.98920    4.11900    4.06150    4.63420   72.49020   51.44830
 16544.50000    0.26570   -9999.25   11.26180    2.64530  101.13530    4.14630    4.08860    4.66450   74.34180   51.79380
 16545.00000    0.26270   -9999.25   11.23810    2.65710   99.89770    4.19160    4.13190    4.69660   76.15640   49.71960
 16545.50000    0.26340   -9999.25   11.21450    2.67340   97.54930    4.24280    4.18240    4.73660   76.29020   48.38750
 16546.00000    0.26570   -9999.25   11.19090    2.67360   96.12770    4.29470    4.23350    4.77690   76.00450   49.53580
 16546.50000    0.26610   -9999.25   11.16140    2.65900   95.84530    4.34710    4.28530    4.81750   75.71870   51.29490
 16547.00000    0.26570   -9999.25   11.12890    2.65110   95.65620    4.40030    4.33760    4.85850   75.43300   53.06100
 16547.50000    0.26540   -9999.25   11.09730    2.65670   95.35840    4.42190    4.36090    4.87630   74.93670   58.44070
 16548.00000    0.26450   -9999.25   11.06730    2.66470   94.84070    4.43610    4.37480    4.89290   74.80460   64.32720
 16548.50000    0.26350   -9999.25   11.02770    2.67170   95.39560    4.44230    4.38100    4.88500   76.66920   66.18380
 16549.00000    0.26240   -9999.25   10.98820    2.67060   96.62950    4.40630    4.34260    4.83660   81.20110   68.31330
 16549.50000    0.26130   -9999.25   10.94860    2.66770   97.35810    4.32900    4.26460    4.72660   81.14360   70.83590
 16550.00000    0.26020   -9999.25   10.90790    2.66480   97.95280    4.21180    4.14420    4.61920   81.02360   71.28200
 16550.50000    0.25900   -9999.25   10.86320    2.66400   98.41740    4.09290    4.02720    4.51420   80.90350   70.21880
 16551.00000    0.25740   -9999.25   10.80060    2.66680   98.97150    3.99790    3.93830    4.40730   80.89080   68.34280
 16551.50000    0.25620   -9999.25   10.74750    2.66970  100.49600    3.92170    3.86520    4.26490   80.97430   62.61090
 16552.00000    0.25590   -9999.25   10.71810    2.66920  102.38110    3.86490    3.81030    4.03800   81.05770   58.72890
 16552.50000    0.25550   -9999.25   10.68870    2.66680  102.57780    3.87210    3.78320    3.95030   81.13280   58.06880
 16553.00000    0.25500   -9999.25   10.65920    2.66460  102.00600    3.91730    3.78000    3.98080   82.15480   58.00930
 16553.50000    0.26130   -9999.25   10.62980    2.66340  100.74350    3.98570    3.84350    4.08570   83.39690   57.97310
 16554.00000    0.27210   -9999.25   10.57520    2.66540   99.54260    4.20720    4.04630    4.32960   84.42700   58.00140
 16554.50000    0.26830   -9999.25   10.50570    2.67020   98.16350    4.48830    4.39660    4.82780   85.45710   58.04670
 16555.00000    0.25980   -9999.25   10.42740    2.67640   94.98100    5.16700    4.86990    5.40100   86.98970   58.20940
 16555.50000    0.25160   -9999.25   10.32120    2.68260   86.47060    6.00130    5.62820    6.40800   89.67340   57.59360
 16556.00000    0.25450   -9999.25   10.20530    2.68540   76.12230    7.35170    6.82810    7.63680   89.84490   56.34220
 16556.50000    0.25530   -9999.25   10.09320    2.67600   62.58700    9.07970    8.42260    9.95540   89.68490   55.16820
