~Version ---------------------------------------------------
VERS.   2.0 : CWLS log ASCII Standard -VERSION 2.0
WRAP.    NO : One line per depth step
DLM . SPACE : Column Data Section Delimiter
~Well ------------------------------------------------------
STRT .F                12861.0 : START DEPTH
STOP .F                18356.0 : STOP DEPTH
STEP .F                    0.5 : STEP
NULL .                -9999.25 : NULL VALUE
COMP .                         : COMPANY
WELL .                         : WELL
FLD  .                         : FIELD
LOC  .                         : LOCATION
PROV .                         : PROVINCE
CNTY .                         : COUNTY
STAT .                         : STATE
CTRY .                         : COUNTRY
SRVC .                         : SERVICE COMPANY
DATE .                         : DATE
UWI  .                         : UNIQUE WELL ID
API  .                         : API NUMBER
SLAT .WGS84  5.027106254005496 : SURFACE LATITUDE
SLON .WGS84 2.6071148984420063 : SURFACE LONGITUDE
DATUM.F                    nan : DEPTH DATUM ELEV
~Curve Information -----------------------------------------
DEPT   .F     : 1 MEASURED DEPTH
NPHI_LS.DEC   : NEUTRON POROSITY LIMESTONE
DPHI_LS.DEC   : DENSITY POROSITY LIMESTONE
CALD   .IN    : CALIPER FROM DENSITY LOG
RHOB   .G/C3  : BULK DENSITY
GRR    .GAPI  : GAMMA RAY FROM RESISTIVITY LOG
IDPH   .OHMM  : INDUCTION DEEP PHASOR RESISTIVITY
ILD    .OHMM  : INDUCTION DEEP RESISTIVITY
IMPH   .OHMM  : INDUCTION MEDIUM PHASOR RESISTIVITY
DTSM   .US/F  : DELTA-T SHEAR
DTCO   .US/F  : DELTA-T COMPRESSIONAL
~Params ----------------------------------------------------
~Other -----------------------------------------------------
~ASCII -----------------------------------------------------
# ...
 14742.00000    0.23650   -9999.25    9.60160    2.69180  121.09820    8.37160    8.14910    9.21230  142.03770   74.99370
 14742.50000    0.24780   -9999.25    9.60200    2.70810  121.08230    8.12200    7.90720    8.88080  142.24450   74.74320
 14743.00000    0.24900   -9999.25    9.60070    2.72000  118.70790    7.89600    7.70340    8.70120  142.43480   74.94790
 14743.50000    0.25010   -9999.25    9.59900    2.72750  116.44100    7.75310    7.57330    8.58500  142.61860   75.42600
 14744.00000    0.24740   -9999.25    9.57590    2.71590  116.78570    7.55610    7.38110    8.47040  140.92820   75.45090
 14744.50000    0.24460   -9999.25    9.58170    2.70280  119.35040    7.43290    7.26060    8.35730  141.88870   75.44720
 14745.00000    0.24370   -9999.25    9.60160    2.69870  120.51600    7.38590    7.20380    8.24570  143.74960   75.36440
 14745.50000    0.24340   -9999.25    9.61280    2.69860  121.78070    7.30690    7.09530    8.11040  144.98270   75.37720
 14746.00000    0.24430   -9999.25    9.62360    2.69620  123.12130    7.14770    6.98840    7.96050  145.22920   75.45430
 14746.50000    0.24860   -9999.25    9.60780    2.70070  123.56250    7.05210    6.89190    7.75540  145.38290   75.45430
 14747.00000    0.24660   -9999.25    9.60590    2.70980  122.73260    6.93570    6.78160    7.50000  145.53660   75.45430
 14747.50000    0.24470   -9999.25    9.60440    2.71840  122.04650    6.90740    6.71860    7.22620  145.69040   75.48860
 14748.00000    0.24390   -9999.25    9.59620    2.72700  121.94860    6.90640    6.63790    7.14700  145.84410   75.59050
 14748.50000    0.24450   -9999.25    9.58810    2.73430  122.69660    6.89550    6.59930    7.10460  145.90540   75.78420
 14749.00000    0.24560   -9999.25    9.57730    2.72350  123.47620    6.84450    6.56430    7.06860  145.66470   75.90130
 14749.50000    0.24520   -9999.25    9.57010    2.71520  124.18800    6.81760    6.62780    7.03280  145.25410   75.76760
 14750.00000    0.23940   -9999.25    9.57610    2.70700  122.41010    6.92220    6.70980    7.07870  142.77070   75.48630
 14750.50000    0.23150   -9999.25    9.58220    2.69890  118.71050    7.04330    6.86430    7.21240  140.06490   74.05940
 14751.00000    0.21470   -9999.25    9.58830    2.69850  108.61980    7.18940    7.05170    7.35450  138.01160   72.50960
 14751.50000    0.20720   -9999.25    9.59440    2.69630  105.59220    7.33740    7.18850    7.49940  135.98340   72.59780
 14752.00000    0.20550   -9999.25    9.59770    2.69360  107.07580    7.37630    7.21660    7.67700  135.21280   72.77380
 14752.50000    0.21120   -9999.25    9.60370    2.68890  112.28500    7.41540    7.24120    7.83170  136.36590   74.00140
 14753.00000    0.21800   -9999.25    9.61220    2.68130  118.24190    7.44690    7.28340    7.88170  138.01020   75.25350
 14753.50000    0.22380   -9999.25    9.61990    2.67360  119.42250    7.45850    7.29480    7.91100  139.06940   75.32580
 14754.00000    0.22750   -9999.25    9.61520    2.66520  119.11110    7.47010    7.30620    7.94040  135.21160   75.40730
 14754.50000    0.21970   -9999.25    9.61060    2.66810  117.16530    7.52100    7.35170    7.96990  135.15420   75.15840
 14755.00000    0.20590   -9999.25    9.60590    2.67420  116.00560    7.56040    7.39450    8.00710  134.32250   74.46380
 14755.50000    0.19220   -9999.25    9.60470    2.67770  114.29660    7.52630    7.35960    8.04670  135.19270   73.76920
 14756.00000    0.19370   -9999.25    9.62910    2.67930  112.38780    7.48030    7.31520    8.08030  135.39600   72.41420
 14756.50000    0.20380   -9999.25    9.65570    2.68120  111.78970    7.44630    7.28280    8.06640  136.20350   72.10250
 14757.00000    0.21590   -9999.25    9.69000    2.68320  111.19160    7.43150    7.26840    8.05260  138.90230   73.29850
 14757.50000    0.22490   -9999.25    9.69220    2.68550  110.76770    7.41710    7.25440    8.06970  140.40680   74.70360
 14758.00000    0.22870   -9999.25    9.69430    2.68390  110.50760    7.40890    7.24630    8.07770  141.64270   75.26810
 14758.50000    0.22830   -9999.25    9.69550    2.68120  111.11350    7.29900    7.11710    7.85600  143.33650   75.45760
 14759.00000    0.22750   -9999.25    9.69640    2.68000  112.24480    7.16860    7.00330    7.78040  144.82440   75.32720
 14759.50000    0.22730   -9999.25    9.69640    2.67910  112.96590    7.05890    6.89620    7.53340  145.14590   75.45320
 14760.00000    0.22670   -9999.25    9.69440    2.67920  114.14890    6.98470    6.83120    7.29440  145.44960   75.53310
 14760.50000    0.22560   -9999.25    9.69240    2.68070  115.10190    6.96140    6.80830    7.16760  145.61990   75.62470
 14761.00000    0.22340   -9999.25    9.69530    2.68050  116.03570    6.93810    6.78560    7.17140  145.63680   76.01440
 14761.50000    0.22110   -9999.25    9.69820    2.67970  116.76320    6.91490    6.76290    7.19710  144.64350   76.77550
 14762.00000    0.22030   -9999.25    9.69840    2.67940  118.79750    6.92430    6.76910    7.23350  142.41950   76.85890
 14762.50000    0.22170   -9999.25    9.69620    2.67900  120.68390    6.99130    6.83470    7.26510  142.05590   76.69010
 14763.00000    0.22550   -9999.25    9.68860    2.67900  121.67670    7.08060    6.91830    7.41250  141.65590   75.93020
 14763.50000    0.22910   -9999.25    9.64630    2.68140  122.08340    7.17370    7.10350    7.55520  140.97280   75.35660
 14764.00000    0.22980   -9999.25    9.60400    2.69620  120.45480    7.55950    7.35520    7.70060  139.34420   75.03660
 14764.50000    0.22870   -9999.25    9.56710    2.69730  117.56880    7.84350    7.62530    8.06180  138.02160   74.51330
 14765.00000    0.22710   -9999.25    9.55510    2.68990  115.85540    8.19210    7.92930    8.47220  136.69900   73.92970
 14765.50000    0.22510   -9999.25    9.54310    2.68840  116.20840    8.61870    8.34210    8.90350  135.07170   72.79120
 14766.00000    0.22280   -9999.25    9.53110    2.68760  120.15070    8.90960    8.69030    9.56270  135.08150   72.40730
 14766.50000    0.21930   -9999.25    9.51910    2.68680  123.92720    9.14140    8.93620   10.03070  135.09140   72.34620
 14767.00000    0.21790   -9999.25    9.50710    2.68570  124.92500    9.29920    9.10300   10.39930  135.10120   72.33370
 14767.50000    0.21710   -9999.25    9.49500    2.68460  124.71880    9.61920    9.30970   10.78140  135.12340   72.36440
 14768.00000    0.21720   -9999.25    9.48300    2.68350  123.25960    9.90660    9.52110   10.84260  135.57400   72.41240
 14768.50000    0.21830   -9999.25    9.47100    2.68240  120.70030    9.90490    9.47640   10.64900  136.47960   72.36380
 14769.00000    0.22000   -9999.25    9.45900    2.68120  120.52820    9.69130    9.34400   10.45880  137.63110   72.36660
 14769.50000    0.22190   -9999.25    9.45410    2.67920  120.37500    9.45710    9.16850   10.27210  138.38580   72.36950
 14770.00000    0.22320   -9999.25    9.45270    2.67100  120.31730    9.26250    9.00940   10.06830  138.26420   72.42200
 14770.50000    0.22440   -9999.25    9.45130    2.66340  120.28770    9.28720    9.06110    9.77990  137.08330   72.42710
 14771.00000    0.22560   -9999.25    9.44990    2.65590  120.25810    9.31200    9.12280    9.57730  135.48670   72.38510
 14771.50000    0.22800   -9999.25    9.44890    2.64950  120.81500    9.33310    9.09450    9.52420  135.46660   72.57340
 14772.00000    0.23080   -9999.25    9.44930    2.66240  121.81720    9.30810    9.06090    9.56560  136.27940   72.69830
 14772.50000    0.23260   -9999.25    9.44970    2.67810  122.83630    9.23720    9.02540    9.84450  136.17600   72.66130
 14773.00000    0.23400   -9999.25    9.45010    2.67560  121.73750    9.18180    8.98030   10.22550  134.91950   72.42590
 14773.50000    0.23420   -9999.25    9.45050    2.67550  119.99650    9.20210    8.99870   10.32460  135.84100   72.34360
 14774.00000    0.23180   -9999.25    9.45090    2.67770  117.74180    9.27070    9.06240   10.30360  136.84100   72.33520
 14774.50000    0.23430   -9999.25    9.45130    2.68170  116.43990    9.30600    9.10050   10.25720  137.63690   72.71630
