~Version ---------------------------------------------------
VERS.   2.0 : CWLS log ASCII Standard -VERSION 2.0
WRAP.    NO : One line per depth step
DLM . SPACE : Column Data Section Delimiter
~Well ------------------------------------------------------
STRT .F                12861.0 : START DEPTH
STOP .F                18356.0 : STOP DEPTH
STEP .F                    0.5 : STEP
NULL .                -9999.25 : NULL VALUE
COMP .                         : COMPANY
WELL .                         : WELL
FLD  .                         : FIELD
LOC  .                         : LOCATION
PROV .                         : PROVINCE
CNTY .                         : COUNTY
STAT .                         : STATE
CTRY .                         : COUNTRY
SRVC .                         : SERVICE COMPANY
DATE .                         : DATE
UWI  .                         : UNIQUE WELL ID
API  .                         : API NUMBER
SLAT .WGS84  5.027106254005496 : SURFACE LATITUDE
SLON .WGS84 2.6071148984420063 : SURFACE LONGITUDE
DATUM.F                    nan : DEPTH DATUM ELEV
~Curve Information -----------------------------------------
DEPT   .F     : 1 MEASURED DEPTH
NPHI_LS.DEC   : NEUTRON POROSITY LIMESTONE
DPHI_LS.DEC   : DENSITY POROSITY LIMESTONE
CALD   .IN    : CALIPER FROM DENSITY LOG
RHOB   .G/C3  : BULK DENSITY
GRR    .GAPI  : GAMMA RAY FROM RESISTIVITY LOG
IDPH   .OHMM  : INDUCTION DEEP PHASOR RESISTIVITY
ILD    .OHMM  : INDUCTION DEEP RESISTIVITY
IMPH   .OHMM  : INDUCTION MEDIUM PHASOR RESISTIVITY
DTSM   .US/F  : DELTA-T SHEAR
DTCO   .US/F  : DELTA-T COMPRESSIONAL
~Params ----------------------------------------------------
~Other -----------------------------------------------------
~ASCII -----------------------------------------------------
# ...
 15105.00000    0.16110   -9999.25    9.35610    2.61910   63.73340    6.59180    6.44710    5.45830  100.43530   61.47490
 15105.50000    0.11730   -9999.25    9.34070    2.63160   54.15500    6.55040    6.40660    4.95380  104.61200   61.50170
 15106.00000    0.06190   -9999.25    9.34010    2.65370   47.90790    6.50840    6.34870    4.61980  112.08140   59.96290
 15106.50000    0.03050   -9999.25    9.33950    2.67560   50.75130    6.42450    6.28350    4.51110  125.34000   66.46640
 15107.00000    0.01380   -9999.25    9.33890    2.68610   62.16350    6.39860    6.25200    4.65800  133.48960   70.21420
 15107.50000    0.01380   -9999.25    9.33820    2.68070   74.95740    6.33930    6.20660    4.80980  135.86790   71.37170
 15108.00000    0.02730   -9999.25    9.34390    2.66930   86.67150    6.23060    6.02840    4.93740  139.55740   72.02010
 15108.50000    0.15280   -9999.25    9.36220    2.65120   93.32340    5.98300    5.70170    4.98280  143.30770   72.17970
 15109.00000    0.17870   -9999.25    9.38050    2.64790   99.39190    5.46550    5.30180    5.02030  145.21150   72.23000
 15109.50000    0.18850   -9999.25    9.39890    2.63860   99.46230    5.09460    4.88880    5.05800  144.29690   72.47920
 15110.00000    0.19190   -9999.25    9.41720    2.62860   97.06490    4.76260    4.64900    5.06450  144.78580   75.28690
 15110.50000    0.19520   -9999.25    9.43390    2.61560   94.32000    4.56990    4.48530    4.99190  145.28850   74.71720
 15111.00000    0.19860   -9999.25    9.42710    2.60750   93.10920    4.54590    4.51920    4.92030  143.00390   71.72940
 15111.50000    0.19870   -9999.25    9.42040    2.60740   93.01730    4.78830    4.69250    4.90960  141.06150   72.47330
 15112.00000    0.19580   -9999.25    9.41360    2.60850   92.92530    5.05820    4.90990    5.20270  144.00660   73.91760
 15112.50000    0.19170   -9999.25    9.36670    2.60890   92.52550    5.31680    5.12380    5.65060  147.78460   74.92420
 15113.00000    0.18720   -9999.25    9.31040    2.61100   85.74290    5.98060    5.60450    6.14890  149.86450   75.37690
 15113.50000    0.18140   -9999.25    9.25850    2.61680   78.76950    6.37600    6.02610    6.74830  151.36610   76.07810
 15114.00000    0.17230   -9999.25    9.20680    2.62260   71.86000    6.71610    6.47930    7.68790  152.07600   77.27050
 15114.50000    0.15720   -9999.25    9.13320    2.62840   65.18930    6.98230    6.60000    8.90730  152.21310   77.08280
 15115.00000    0.14110   -9999.25    9.05950    2.63480   59.76490    7.01630    6.44260    9.22990  150.46260   74.42050
 15115.50000    0.12500   -9999.25    8.98580    2.64120   64.57100    6.63560    6.16310    9.01240  147.11320   71.77280
 15116.00000    0.10890   -9999.25    8.96870    2.63730   73.42800    5.83050    5.68810    7.64240  146.90320   71.90740
 15116.50000    0.10370   -9999.25    9.01570    2.62300   84.50870    5.36340    5.14850    6.07300  148.90000   72.97580
 15117.00000    0.13650   -9999.25    9.11150    2.61100   89.19760    4.87430    4.67690    5.13870  149.68510   74.54730
 15117.50000    0.17950   -9999.25    9.21580    2.60480   90.47810    4.30890    4.14770    4.56780  150.60420   76.11880
 15118.00000    0.19610   -9999.25    9.32010    2.61250   91.75850    3.90070    3.83080    4.06030  154.27810   77.56520
 15118.50000    0.20220   -9999.25    9.42440    2.61760   92.49290    3.80070    3.72470    3.91830  157.50130   78.15150
 15119.00000    0.21060   -9999.25    9.52860    2.61250   91.18470    3.78370    3.69970    3.87340  157.80660   78.86640
 15119.50000    0.21950   -9999.25    9.53780    2.60850   89.05640    3.90550    3.78290    3.95760  152.35200   77.83500
 15120.00000    0.22770   -9999.25    9.53130    2.60470   86.75550    4.06540    3.89790    4.18250  138.45670   75.70100
 15120.50000    0.22720   -9999.25    9.52350    2.61210   84.04650    4.27270    4.12050    4.55220  136.86230   73.44690
 15121.00000    0.22080   -9999.25    9.50820    2.62340   80.94790    4.45030    4.36260    4.95460  132.17210   71.00910
 15121.50000    0.20530   -9999.25    9.49280    2.63370   77.84940    4.58930    4.53980    5.28300  132.12400   69.51490
 15122.00000    0.18880   -9999.25    9.47750    2.64470   76.39320    4.70890    4.61540    5.49680  132.34510   68.16780
 15122.50000    0.17180   -9999.25    9.46220    2.65180   78.32840    4.71490    4.64040    5.32660  132.94290   67.83750
 15123.00000    0.15510   -9999.25    9.47100    2.65860   80.78180    4.69510    4.61850    5.14310  136.38130   69.53370
 15123.50000    0.15980   -9999.25    9.48610    2.66540   84.79950    4.64140    4.55260    4.91550  140.90060   71.55580
 15124.00000    0.17180   -9999.25    9.50120    2.67160   88.87880    4.57020    4.44280    4.65500  153.19480   76.10830
 15124.50000    0.18640   -9999.25    9.51630    2.65800   89.05730    4.46510    4.36440    4.53290  151.88200   78.15150
 15125.00000    0.20540   -9999.25    9.53130    2.63990   89.23580    4.48370    4.37300    4.55830  149.85920   77.23610
 15125.50000    0.22310   -9999.25    9.54230    2.61180   89.41420    4.58370    4.47390    4.65780  139.19630   74.79820
 15126.00000    0.22590   -9999.25    9.55170    2.58940   89.59270    4.84380    4.63560    5.01390  130.14170   71.05890
 15126.50000    0.20670   -9999.25    9.53610    2.57790   89.77120    5.35830    5.08220    5.54670  122.03350   69.42030
 15127.00000    0.18540   -9999.25    9.50700    2.57020   89.94970    6.02700    5.89060    6.28770  116.05000   67.78170
 15127.50000    0.16400   -9999.25    9.44160    2.56580   84.74040    6.84820    6.56130    7.19750  109.30640   66.05360
 15128.00000    0.13840   -9999.25    9.37620    2.56890   77.95190    8.02560    7.41730    8.91500  104.06310   64.16560
 15128.50000    0.12150   -9999.25    9.31090    2.57880   73.52640    9.65890    9.06100   11.73320  101.93760   63.60940
 15129.00000    0.10740   -9999.25    9.24550    2.59900   70.49290   11.54930   10.69230   15.33540  107.26610   63.09180
 15129.50000    0.09320   -9999.25    9.18010    2.62220   66.82380   14.08600   13.15550   19.51050  108.85920   61.85010
 15130.00000    0.08610   -9999.25    9.10710    2.64420   63.17400   16.84120   15.25600   22.73260  104.47620   60.12910
 15130.50000    0.08120   -9999.25    9.03270    2.66650   59.42280   19.44070   17.27590   23.77950   98.98960   59.36530
 15131.00000    0.07630   -9999.25    8.96810    2.66770   57.51720   20.02170   17.71360   24.87470  100.96760   59.36530
 15131.50000    0.06710   -9999.25    8.95710    2.66900   57.42220   19.95740   17.57900   25.72000  101.30860   60.01830
 15132.00000    0.05880   -9999.25    8.94610    2.67040   60.18060   19.82680   16.93630   24.93460   99.70050   60.79110
 15132.50000    0.05780   -9999.25    8.93520    2.66790   64.17010   19.35050   16.31700   22.94200  102.56720   61.50200
 15133.00000    0.05850   -9999.25    8.92420    2.66430   68.34670   18.45950   15.86010   21.59340  108.20500   62.16520
 15133.50000    0.06550   -9999.25    8.91330    2.66450   69.18980   17.60940   15.37410   19.31730  108.34960   62.28880
 15134.00000    0.07180   -9999.25    8.90600    2.66050   68.83920   16.53470   14.69470   17.34830  105.10680   62.56360
 15134.50000    0.07530   -9999.25    8.90530    2.64740   68.48170   15.26620   13.71940   15.74230  105.37810   64.14670
 15135.00000    0.07910   -9999.25    8.90470    2.64030   67.90170   13.87620   12.77120   14.29990  112.14500   65.09020
 15135.50000    0.08460   -9999.25    8.90410    2.64170   65.98540   12.52940   11.88860   13.10070  119.27670   65.64400
 15136.00000    0.09070   -9999.25    8.90340    2.64300   64.14830   11.70810   11.63920   12.14070  119.57580   67.14460
 15136.50000    0.09620   -9999.25    8.90280    2.64230   62.34110   12.07420   11.78340   12.27440  110.40400   67.67860
 15137.00000    0.10030   -9999.25    8.90150    2.63720   60.47860   12.68620   12.29590   13.00470  104.29900   65.47610
 15137.50000    0.10040   -9999.25    8.89740    2.63210   57.76000   13.61080   12.86970   14.30790   99.71460   63.27630
