~Version ---------------------------------------------------
VERS.   2.0 : CWLS log ASCII Standard -VERSION 2.0
WRAP.    NO : One line per depth step
DLM . SPACE : Column Data Section Delimiter
~Well ------------------------------------------------------
STRT .F                12861.0 : START DEPTH
STOP .F                18356.0 : STOP DEPTH
STEP .F                    0.5 : STEP
NULL .                -9999.25 : NULL VALUE
COMP .                         : COMPANY
WELL .                         : WELL
FLD  .                         : FIELD
LOC  .                         : LOCATION
PROV .                         : PROVINCE
CNTY .                         : COUNTY
STAT .                         : STATE
CTRY .                         : COUNTRY
SRVC .                         : SERVICE COMPANY
DATE .                         : DATE
UWI  .                         : UNIQUE WELL ID
API  .                         : API NUMBER
SLAT .WGS84  5.027106254005496 : SURFACE LATITUDE
SLON .WGS84 2.6071148984420063 : SURFACE LONGITUDE
DATUM.F                    nan : DEPTH DATUM ELEV
~Curve Information -----------------------------------------
DEPT   .F     : 1 MEASURED DEPTH
NPHI_LS.DEC   : NEUTRON POROSITY LIMESTONE
DPHI_LS.DEC   : DENSITY POROSITY LIMESTONE
CALD   .IN    : CALIPER FROM DENSITY LOG
RHOB   .G/C3  : BULK DENSITY
GRR    .GAPI  : GAMMA RAY FROM RESISTIVITY LOG
IDPH   .OHMM  : INDUCTION DEEP PHASOR RESISTIVITY
ILD    .OHMM  : INDUCTION DEEP RESISTIVITY
IMPH   .OHMM  : INDUCTION MEDIUM PHASOR RESISTIVITY
DTSM   .US/F  : DELTA-T SHEAR
DTCO   .US/F  : DELTA-T COMPRESSIONAL
~Params ----------------------------------------------------
~Other -----------------------------------------------------
~ASCII -----------------------------------------------------
# ...
 16161.00000    0.21110   -9999.25   11.64170    2.67680  114.52510    6.12210    6.01600    7.17940  140.77460   72.06900
 16161.50000    0.21560   -9999.25   11.66690    2.67820  116.93820    6.05480    5.96800    6.99930  138.26530   72.58940
 16162.00000    0.22660   -9999.25   11.66880    2.67950  118.76590    5.95260    5.85830    6.73260  141.54490   73.68150
 16162.50000    0.23520   -9999.25   11.66080    2.68150  119.91430    5.81390    5.75010    6.47960  143.60010   74.62580
 16163.00000    0.23940   -9999.25   11.65270    2.68380  119.91210    5.67130    5.58580    6.23610  142.10460   74.04130
 16163.50000    0.24040   -9999.25   11.64460    2.68600  118.40460    5.50860    5.41440    6.00180  142.63350   72.97320
 16164.00000    0.24130   -9999.25   11.64270    2.68830  117.04330    5.35180    5.26700    5.77970  144.55440   72.90290
 16164.50000    0.24020   -9999.25   11.66160    2.68720  116.02500    5.21540    5.13370    5.58600  145.51010   73.48930
 16165.00000    0.24020   -9999.25   11.68040    2.68490  115.44270    5.05300    5.00430    5.39880  145.63490   74.08770
 16165.50000    0.23990   -9999.25   11.69930    2.68700  115.15230    5.10670    5.03730    5.34590  145.77440   73.96390
 16166.00000    0.23480   -9999.25   11.71740    2.68700  112.46550    5.16560    5.12330    5.36710  145.41110   72.92080
 16166.50000    0.22740   -9999.25   11.75090    2.68700  108.67740    5.31870    5.24240    5.43350  139.46470   71.77540
 16167.00000    0.22050   -9999.25   11.82470    2.68790  108.07770    5.38900    5.31180    5.50060  136.92680   71.13010
 16167.50000    0.22180   -9999.25   11.88520    2.68940  110.10200    5.46030    5.38220    5.57340  140.11410   72.36370
 16168.00000    0.23020   -9999.25   11.94120    2.69090  112.84390    5.53260    5.45340    5.64770  141.22370   72.34390
 16168.50000    0.23760   -9999.25   11.99550    2.69240  113.78740    5.60580    5.52560    5.72310  140.45300   72.10090
 16169.00000    0.23870   -9999.25   12.04140    2.69260  114.73100    5.67990    5.59880    5.77130  139.66690   71.85790
 16169.50000    0.23230   -9999.25   12.08730    2.69210  114.81240    5.71260    5.63390    5.78260  139.02170   71.71760
 16170.00000    0.22570   -9999.25   12.13320    2.69160  113.47480    5.68270    5.60310    5.81060  138.37650   74.57960
 16170.50000    0.23110   -9999.25   12.17900    2.69080  111.74190    5.63180    5.55290    5.88950  138.21780   75.48270
 16171.00000    0.23980   -9999.25   12.22490    2.68880  111.26240    5.58130    5.50310    5.97660  139.08090   75.26710
 16171.50000    0.24780   -9999.25   12.07750    2.68670  112.60760    5.55910    5.47840    6.06250  139.01600   74.79740
 16172.00000    0.25150   -9999.25   12.03160    2.68510  114.18220    5.61660    5.53930    6.09200  136.76740   74.05680
 16172.50000    0.24850   -9999.25   12.13790    2.68500  114.93860    5.62950    5.55200    6.10230  135.82850   73.22510
 16173.00000    0.24620   -9999.25   12.24420    2.68320  115.40770    5.61740    5.53970    6.13260  135.82360   72.59200
 16173.50000    0.24390   -9999.25   12.34990    2.67990  115.42120    5.61230    5.53430    6.16400  137.96530   71.86590
 16174.00000    0.24250   -9999.25   12.37250    2.67640  115.66260    5.67190    5.59070    6.23740  137.88410   71.77690
 16174.50000    0.24130   -9999.25   12.39500    2.67620  115.96870    5.74880    5.66650    6.31160  136.61790   72.37470
 16175.00000    0.24100   -9999.25   12.41750    2.67640  116.40530    5.80740    5.72750    6.38790  137.40250   74.02610
 16175.50000    0.24090   -9999.25   12.55570    2.67520  118.96500    5.82200    5.74080    6.46590  139.56570   72.77850
 16176.00000    0.24110   -9999.25   12.69690    2.66660  120.21780    5.88390    5.80940    6.54490  139.90300   71.67990
 16176.50000    0.24310   -9999.25   12.83810    2.66150  117.74780    5.96680    5.88110    6.62480  138.56420   70.61820
 16177.00000    0.24550   -9999.25   12.94680    2.66130  115.08400    6.07510    5.98520    6.70570  139.10240   69.72610
 16177.50000    0.24970   -9999.25   12.96840    2.66280  112.42010    6.18870    6.09710    6.78760  141.77760   70.31560
 16178.00000    0.25230   -9999.25   12.99000    2.66440  111.21360    6.30440    6.21100    6.87050  145.19700   71.62240
 16178.50000    0.25130   -9999.25   13.00970    2.66590  110.08190    6.42230    6.32710    6.95440  145.87340   70.73620
 16179.00000    0.24080   -9999.25   13.11680    2.66790  108.95020    6.54230    6.44540    7.03940  144.82490   68.88880
 16179.50000    0.23370   -9999.25   13.35310    2.67230  107.82700    6.66470    6.56580    7.12540  140.18980   67.08660
 16180.00000    0.23480   -9999.25   13.51240    2.67830  106.71480    6.76030    6.66630    7.21240  144.08170   65.64660
 16180.50000    0.24100   -9999.25   13.66540    2.68860   -9999.25    6.80710    6.71320    7.30050  147.64400   64.95460
 16181.00000    0.24800   -9999.25   13.81850    2.68880   -9999.25    6.88580    6.80150    7.38970  150.29390   64.25440
 16181.50000    0.25560   -9999.25   13.75420    2.68630   -9999.25    6.97630    6.89100    7.47520  151.17880   65.49130
 16182.00000    0.26520   -9999.25   13.61890    2.67940   -9999.25    7.06800    6.98060    7.55370  149.64690   67.36090
 16182.50000    0.26930   -9999.25   13.53660    2.66830   -9999.25    7.05580    6.98550    7.63300  147.98410   70.60280
 16183.00000    0.26950   -9999.25   13.50720    2.66110   -9999.25    7.03430    6.97260    7.71310  144.42070   72.32220
 16183.50000    0.26840   -9999.25   13.48540    2.65600   -9999.25    7.03600    6.95480    7.79400  140.85730   73.15350
 16184.00000    0.26350   -9999.25   13.46490    2.66350   -9999.25    7.04090    6.94400    7.86480  135.09530   73.29130
 16184.50000    0.25860   -9999.25   13.44710    2.67310   -9999.25    7.03880    6.94100    7.89140  129.13380   73.26060
 16185.00000    0.25120   -9999.25   13.43000    2.68020   -9999.25    6.99540    6.89740    7.91210  123.17230   72.98810
 16185.50000    0.24380   -9999.25   13.41300    2.68720   -9999.25    6.95230    6.85140    7.93290  117.21080   70.47160
 16186.00000    0.23650   -9999.25   13.43730    2.68400   -9999.25    6.90940    6.80580    7.95370  107.89570   65.21080
 16186.50000    0.23740   -9999.25   13.50970    2.67310   94.44060    6.86680    6.76050    7.97460   95.95600   60.85140
 16187.00000    0.24240   -9999.25   13.58220    2.64630   93.87280    6.82240    6.71550    7.99560   91.63480   62.26220
 16187.50000    0.25660   -9999.25   13.69070    2.62480   93.51280    6.77280    6.67090    8.01660   91.47180   64.77800
 16188.00000    0.27270   -9999.25   13.87110    2.60690   93.15290    6.72350    6.62640    8.06200  100.90290   70.06220
 16188.50000    0.29170   -9999.25   14.18610    2.63180   93.41410    6.67460    6.58230    8.11810  111.94180   74.29450
 16189.00000    0.28760   -9999.25   14.47000    2.65330   95.81940    6.62610    6.53750    8.17450  107.38430   68.81820
 16189.50000    0.28010   -9999.25   14.75920    2.65740   99.63160    6.59740    6.49240    8.22850   98.90700   62.19080
 16190.00000    0.27480   -9999.25   15.02870    2.65100  102.08950    6.57550    6.44920    8.32470   86.51130   56.23550
 16190.50000    0.28700   -9999.25   14.91340    2.65950  103.26790    6.55400    6.40630    8.29840   85.30870   54.96430
 16191.00000    0.31010   -9999.25   14.69190    2.67280  105.20450    6.53250    6.34400    8.11700   84.39980   54.08720
 16191.50000    0.30560   -9999.25   14.47030    2.68600  107.71370    6.45890    6.27080    7.80760   81.68280   52.13620
 16192.00000    0.29810   -9999.25   14.24870    2.69100  109.25020    6.30630    6.19850    7.57650   79.22180   51.26280
 16192.50000    0.28750   -9999.25   14.02710    2.68540  109.43860    6.09900    5.99620    7.38940   79.35390   51.23920
 16193.00000    0.28000   -9999.25   13.92340    2.68320  109.92820    5.89730    5.79710    7.20680   79.55120   51.25040
 16193.50000    0.27330   -9999.25   13.82060    2.68090  111.83410    5.70140    5.60470    6.91530   81.24020   51.26170
