~Version ---------------------------------------------------
VERS.   2.0 : CWLS log ASCII Standard -VERSION 2.0
WRAP.    NO : One line per depth step
DLM . SPACE : Column Data Section Delimiter
~Well ------------------------------------------------------
STRT .F                12861.0 : START DEPTH
STOP .F                18356.0 : STOP DEPTH
STEP .F                    0.5 : STEP
NULL .                -9999.25 : NULL VALUE
COMP .                         : COMPANY
WELL .                         : WELL
FLD  .                         : FIELD
LOC  .                         : LOCATION
PROV .                         : PROVINCE
CNTY .                         : COUNTY
STAT .                         : STATE
CTRY .                         : COUNTRY
SRVC .                         : SERVICE COMPANY
DATE .                         : DATE
UWI  .                         : UNIQUE WELL ID
API  .                         : API NUMBER
SLAT .WGS84  5.027106254005496 : SURFACE LATITUDE
SLON .WGS84 2.6071148984420063 : SURFACE LONGITUDE
DATUM.F                    nan : DEPTH DATUM ELEV
~Curve Information -----------------------------------------
DEPT   .F     : 1 MEASURED DEPTH
NPHI_LS.DEC   : NEUTRON POROSITY LIMESTONE
DPHI_LS.DEC   : DENSITY POROSITY LIMESTONE
CALD   .IN    : CALIPER FROM DENSITY LOG
RHOB   .G/C3  : BULK DENSITY
GRR    .GAPI  : GAMMA RAY FROM RESISTIVITY LOG
IDPH   .OHMM  : INDUCTION DEEP PHASOR RESISTIVITY
ILD    .OHMM  : INDUCTION DEEP RESISTIVITY
IMPH   .OHMM  : INDUCTION MEDIUM PHASOR RESISTIVITY
DTSM   .US/F  : DELTA-T SHEAR
DTCO   .US/F  : DELTA-T COMPRESSIONAL
~Params ----------------------------------------------------
~Other -----------------------------------------------------
~ASCII -----------------------------------------------------
# ...
 17976.00000    0.25780   -9999.25    9.06910    2.58320   99.86170    3.00470    2.95270    3.30160   77.84670   71.11680
 17976.50000    0.25770   -9999.25    9.11310    2.58730   99.78360    2.89750    2.84730    3.11480   80.74680   72.41990
 17977.00000    0.26210   -9999.25    9.15300    2.59650   99.83890    2.79410    2.74570    2.96440   81.98560   72.17020
 17977.50000    0.26280   -9999.25    9.15360    2.60440  100.29900    2.69370    2.64690    2.89120   81.06430   68.01940
 17978.00000    0.26220   -9999.25    9.15430    2.60760  101.59400    2.64090    2.57530    2.81980   81.57030   63.47950
 17978.50000    0.26090   -9999.25    9.15490    2.60280  103.46290    2.60850    2.55430    2.79140   82.76390   59.42310
 17979.00000    0.26060   -9999.25    9.15560    2.59800  104.14890    2.57650    2.53350    2.77790   84.79040   58.35480
 17979.50000    0.26250   -9999.25    9.15570    2.59740  103.22500    2.55020    2.51490    2.76510   85.23670   58.34560
 17980.00000    0.27140   -9999.25    9.13740    2.60070  102.26040    2.53510    2.49990    2.76200   85.59640   58.34020
 17980.50000    0.27600   -9999.25    9.11920    2.60570  101.70180    2.52250    2.48770    2.74990   89.15970   58.34940
 17981.00000    0.27830   -9999.25    9.10090    2.60880  102.55350    2.52770    2.49290    2.73780   87.35410   58.35870
 17981.50000    0.28060   -9999.25    9.08270    2.61180  103.52520    2.54110    2.49800    2.73110   86.54610   58.36790
 17982.00000    0.28140   -9999.25    9.06450    2.61480  103.86550    2.55730    2.50320    2.73850   87.03010   58.37720
 17982.50000    0.27970   -9999.25    9.01140    2.61780  104.00600    2.57200    2.50600    2.74590   85.07660   58.38640
 17983.00000    0.27640   -9999.25    8.94800    2.62080  104.11350    2.57180    2.50480    2.76730   85.14320   58.39570
 17983.50000    0.27400   -9999.25    8.88450    2.62370  104.48010    2.55400    2.50330    2.78900   85.20970   58.40490
 17984.00000    0.27200   -9999.25    8.83220    2.62560  104.73180    2.53240    2.49010    2.79170   85.26960   58.41420
 17984.50000    0.27230   -9999.25    8.78440    2.62140  104.05890    2.51090    2.47540    2.77890   85.30950   58.42340
 17985.00000    0.27270   -9999.25    8.77240    2.61980  103.40830    2.49530    2.46070    2.75880   85.30840   58.43370
 17985.50000   -9999.25   -9999.25    8.76040    2.62380  103.26620    2.47380    2.43830    2.68360   85.28890   58.44490
 17986.00000   -9999.25   -9999.25    8.74840    2.62790  103.61700    2.41020    2.36620    2.61890   85.27130   58.45620
 17986.50000   -9999.25   -9999.25    8.73640    2.63190  103.90620    2.34920    2.31350    2.57080   85.26640   58.46740
 17987.00000   -9999.25   -9999.25    8.72440    2.63020  104.73120    2.31520    2.26850    2.52360   85.35490   58.47870
 17987.50000   -9999.25   -9999.25    8.71260    2.62610  105.37900    2.28590    2.22500    2.48750   85.36120   58.48990
 17988.00000   -9999.25   -9999.25    8.72900    2.62390  104.73600    2.25700    2.18230    2.45670   85.60930   58.50110
 17988.50000   -9999.25   -9999.25    8.73210    2.62250  103.20600    2.22840    2.15170    2.42620   86.14620   58.51240
 17989.00000   -9999.25   -9999.25    8.73520    2.62100   99.48350    2.20020    2.12870    2.39120   85.02280   58.52360
 17989.50000   -9999.25   -9999.25    8.73830    2.61550   96.99350    2.17240    2.10590    2.38100   86.25670   58.53490
 17990.00000   -9999.25   -9999.25    8.74140    2.61380   96.28370    2.14490    2.08710    2.37120   84.77400   58.54610
 17990.50000   -9999.25   -9999.25    8.74450    2.61370   96.08960    2.14170    2.07780    2.36150   85.80810   58.55730
 17991.00000   -9999.25   -9999.25    8.74580    2.61530   96.87640    2.14060    2.08870    2.35190   86.17250   58.56860
 17991.50000   -9999.25   -9999.25    8.74260    2.61680  100.00020    2.13950    2.09970    2.35160   85.11470   58.57980
 17992.00000   -9999.25   -9999.25    8.73930    2.61690  102.67590    2.13460    2.10510    2.34800   84.96100   58.53390
 17992.50000   -9999.25   -9999.25    8.73610    2.61700  103.52160    2.11990    2.09020    2.33420   84.99100   58.47300
 17993.00000   -9999.25   -9999.25    8.73290    2.61700  103.74770    2.11910    2.08980    2.32050   85.02100   58.41220
 17993.50000   -9999.25   -9999.25    8.72960    2.61710  104.58950    2.12280    2.09350    2.30680   85.05090   58.35130
 17994.00000   -9999.25   -9999.25    8.72640    2.61710  105.55550    2.11610    2.08670    2.29330   85.73090   58.29040
 17994.50000   -9999.25   -9999.25    8.72540    2.61720  105.22290    2.10390    2.07470    2.27980   88.52360   58.22950
 17995.00000   -9999.25   -9999.25    8.72510    2.61720  103.66640    2.08100    2.05150    2.26640   88.80870   58.17380
 17995.50000   -9999.25   -9999.25    8.72480    2.61730  102.25210    2.07090    2.04250    2.25660   89.24260   58.16570
 17996.00000   -9999.25   -9999.25    8.72450    2.61730  102.23160    2.06520    2.03700    2.24870   91.25720   58.15750
 17996.50000   -9999.25   -9999.25    8.72420    2.61730  102.23950    2.05950    2.03160    2.24100   92.35130   58.14930
 17997.00000   -9999.25   -9999.25    8.72390    2.61740  101.75050    2.05390    2.02610    2.23120   92.43410   58.14120
 17997.50000   -9999.25   -9999.25    8.72360    2.61740  101.17310    2.04820    2.02070    2.22130   91.54860   58.13300
 17998.00000   -9999.25   -9999.25    8.72330    2.61750  101.06800    2.04260    2.01530    2.21820   89.02760   58.12480
 17998.50000   -9999.25   -9999.25    8.72300    2.61750  101.54830    2.03700    2.00990    2.21760   89.07620   58.12150
 17999.00000   -9999.25   -9999.25    8.72270    2.61730  102.23090    2.03420    2.00450    2.21700   89.53530   58.11880
 17999.50000   -9999.25   -9999.25    8.72240    2.61720  102.24950    2.04140    1.99910    2.21900   88.41450   58.11610
 18000.00000   -9999.25   -9999.25    8.72210    2.61810  101.37720    2.04870    1.99380    2.21840   88.27890   58.11340
 18000.50000   -9999.25   -9999.25    8.72170    2.62100  100.42530    2.05600    1.98840    2.21520   88.21500   58.11080
 18001.00000   -9999.25   -9999.25    8.72510    2.62030   98.95990    2.05950    1.98310    2.20100   88.15110   58.10810
 18001.50000   -9999.25   -9999.25    8.72910    2.61960   97.76200    2.03620    1.97780    2.18700   88.08720   58.10540
 18002.00000   -9999.25   -9999.25    8.72860    2.61960   97.62890    2.00560    1.97130    2.17310   88.02330   58.10270
 18002.50000   -9999.25   -9999.25    8.71590    2.61860   98.59840    1.97030    1.94310    2.15900   87.95940   58.10010
 18003.00000   -9999.25   -9999.25    8.70320    2.61750   99.99000    1.96460    1.93750    2.14130   87.92080   58.09740
 18003.50000   -9999.25   -9999.25    8.69050    2.61750  100.70870    1.96430    1.93180    2.12370   87.93170   58.09470
 18004.00000   -9999.25   -9999.25    8.67780    2.61680  100.05010    1.96680    1.92620    2.10630   89.36220   58.09200
 18004.50000   -9999.25   -9999.25   11.85970    2.61720   98.56870    1.96930    1.92060    2.09580   89.50610   58.08940
 18005.00000   -9999.25   -9999.25   11.89750    2.62290   96.71250    1.96660    1.91500    2.10010   88.89360   58.08670
 18005.50000   -9999.25   -9999.25   12.02840    2.60860   96.22820    1.96280    1.90950    2.11410   89.82640   58.08400
 18006.00000   -9999.25   -9999.25   12.14040    2.59070   97.27240    1.95910    1.91090    2.12810   91.22150   58.08410
 18006.50000   -9999.25   -9999.25   12.24070    2.59090   98.85590    1.96900    1.91860    2.13950   92.14560   58.09280
 18007.00000   -9999.25   -9999.25   12.27610    2.59140   98.66480    1.97880    1.92630    2.14000   92.10660   58.10160
 18007.50000   -9999.25   -9999.25   12.26650    2.59120   97.33910    1.98320    1.93410    2.13990   90.85990   58.11030
 18008.00000   -9999.25   -9999.25   12.25260    2.58990   97.33340    1.97740    1.93350    2.13980   92.39180   58.11910
 18008.50000   -9999.25   -9999.25   12.22180    2.58860   98.34590    1.95780    1.92080    2.13970   92.25450   58.12790
