~Version ---------------------------------------------------
VERS.   2.0 : CWLS log ASCII Standard -VERSION 2.0
WRAP.    NO : One line per depth step
DLM . SPACE : Column Data Section Delimiter
~Well ------------------------------------------------------
STRT .F                12861.0 : START DEPTH
STOP .F                18356.0 : STOP DEPTH
STEP .F                    0.5 : STEP
NULL .                -9999.25 : NULL VALUE
COMP .                         : COMPANY
WELL .                         : WELL
FLD  .                         : FIELD
LOC  .                         : LOCATION
PROV .                         : PROVINCE
CNTY .                         : COUNTY
STAT .                         : STATE
CTRY .                         : COUNTRY
SRVC .                         : SERVICE COMPANY
DATE .                         : DATE
UWI  .                         : UNIQUE WELL ID
API  .                         : API NUMBER
SLAT .WGS84  5.027106254005496 : SURFACE LATITUDE
SLON .WGS84 2.6071148984420063 : SURFACE LONGITUDE
DATUM.F                    nan : DEPTH DATUM ELEV
~Curve Information -----------------------------------------
DEPT   .F     : 1 MEASURED DEPTH
NPHI_LS.DEC   : NEUTRON POROSITY LIMESTONE
DPHI_LS.DEC   : DENSITY POROSITY LIMESTONE
CALD   .IN    : CALIPER FROM DENSITY LOG
RHOB   .G/C3  : BULK DENSITY
GRR    .GAPI  : GAMMA RAY FROM RESISTIVITY LOG
IDPH   .OHMM  : INDUCTION DEEP PHASOR RESISTIVITY
ILD    .OHMM  : INDUCTION DEEP RESISTIVITY
IMPH   .OHMM  : INDUCTION MEDIUM PHASOR RESISTIVITY
DTSM   .US/F  : DELTA-T SHEAR
DTCO   .US/F  : DELTA-T COMPRESSIONAL
~Params ----------------------------------------------------
~Other -----------------------------------------------------
~ASCII -----------------------------------------------------
# ...
 15798.00000    0.17980   -9999.25   10.57510    2.63130   98.52700    4.96830    4.85740    5.23910  144.31610   75.20970
 15798.50000    0.18000   -9999.25   10.58430    2.62770  101.47140    4.85210    4.74220    5.12050  147.01340   75.57340
 15799.00000    0.18080   -9999.25   10.60160    2.62480  103.98480    4.79780    4.69030    5.00460  148.29070   76.00540
 15799.50000    0.18280   -9999.25   10.61580    2.62210  106.89070    4.74770    4.64120    4.95000  148.06210   76.13390
 15800.00000    0.18950   -9999.25   10.62580    2.62570  109.79660    4.69810    4.59270    4.94940  147.46420   76.12830
 15800.50000    0.19610   -9999.25   10.63580    2.63190  112.25490    4.64900    4.54460    4.94880  146.73040   76.14620
 15801.00000    0.20010   -9999.25   10.65520    2.63610  112.02080    4.62590    4.52440    4.99180  146.73790   76.23720
 15801.50000    0.20300   -9999.25   10.67680    2.63910  111.78670    4.62590    4.52450    5.06240  147.44880   76.11740
 15802.00000    0.20580   -9999.25   10.67770    2.63590  111.55260    4.71180    4.61250    5.13390  148.48140   76.08150
 15802.50000    0.20650   -9999.25   10.67840    2.63540  111.31850    4.84110    4.80060    5.20660  149.96890   76.14270
 15803.00000    0.20780   -9999.25   10.67900    2.63500  111.01260    5.01600    4.94750    5.28060  151.45130   76.02270
 15803.50000    0.21080   -9999.25   10.68470    2.63460  110.08500    5.17970    5.09070    5.35570  150.54020   75.90260
 15804.00000    0.21330   -9999.25   10.69700    2.63420  109.68150    5.34400    5.23800    5.43130  149.10170   75.78260
 15804.50000    0.21570   -9999.25   10.71040    2.63510  109.25940    5.41900    5.32020    5.50210  148.46270   75.59150
 15805.00000    0.21880   -9999.25   10.72190    2.63610  108.42330    5.49750    5.43870    5.58550  145.27250   75.35470
 15805.50000    0.22090   -9999.25   10.72250    2.63620  107.58730    5.60470    5.53710    5.69420  145.31600   75.31380
 15806.00000    0.22120   -9999.25   10.72300    2.63620  106.75120    5.71390    5.60770    5.80500  144.11730   75.31180
 15806.50000    0.22150   -9999.25   10.73480    2.63580  104.82480    5.70920    5.57780    5.79350  142.74250   75.22890
 15807.00000    0.22080   -9999.25   10.75010    2.63620  102.81320    5.64420    5.41170    5.74920  142.44380   74.95060
 15807.50000    0.21870   -9999.25   10.76540    2.64150  102.05430    5.44330    5.25060    5.54440  141.13640   74.67230
 15808.00000    0.21500   -9999.25   10.77860    2.65010  103.48510    5.24950    5.09420    5.34690  142.88740   74.39410
 15808.50000    0.21090   -9999.25   10.76060    2.65910  104.99890    5.07460    4.94250    5.16320  144.21550   74.52680
 15809.00000    0.21010   -9999.25   10.75500    2.66140  106.10410    4.88870    4.77350    4.98870  144.35850   74.92790
 15809.50000    0.21340   -9999.25   10.79420    2.66370  107.12530    4.67110    4.51760    4.84250  145.36450   75.16140
 15810.00000    0.21490   -9999.25   10.80240    2.66350  106.52340    4.48020    4.36140    4.78060  148.59920   75.31780
 15810.50000    0.21630   -9999.25   10.80610    2.65850  105.68500    4.30790    4.19490    4.60110  149.35790   75.39080
 15811.00000    0.21760   -9999.25   10.80970    2.65440  104.81010    4.16330    4.08650    4.32880  149.05780   75.34660
 15811.50000    0.21890   -9999.25   10.81050    2.65330  104.28080    4.08420    3.92450    4.14560  148.72670   75.30230
 15812.00000    0.22120   -9999.25   10.81060    2.65160  105.54820    4.04380    3.93230    4.10460  148.37410   75.27600
 15812.50000    0.22490   -9999.25   10.81220    2.65130  106.36640    4.00790    3.94090    4.07310  148.31160   75.32700
 15813.00000    0.22820   -9999.25   10.81520    2.65610  104.88420    4.09360    4.03030    4.16020  147.84660   75.29870
 15813.50000    0.22250   -9999.25   10.81810    2.66070  101.48610    4.28600    4.19980    4.38300  145.97620   75.23770
 15814.00000    0.21270   -9999.25   10.83460    2.66530   97.63520    4.52190    4.40400    4.62410  145.75660   75.22540
 15814.50000    0.21170   -9999.25   10.83610    2.66920   96.65720    4.79580    4.64950    4.91260  145.42500   75.20740
 15815.00000    0.21030   -9999.25   10.83680    2.67090   96.06040    5.00700    4.90870    5.13820  141.17260   75.13270
 15815.50000    0.20860   -9999.25   10.83750    2.67380   95.76860    4.98380    4.91790    5.36330  139.13460   73.02620
 15816.00000    0.20720   -9999.25   10.84540    2.67820   94.85400    4.96070    4.88050    5.46260  134.94170   71.31780
 15816.50000    0.20650   -9999.25   10.86040    2.68380   92.97020    4.93770    4.85300    5.47350  132.14520   70.87490
 15817.00000    0.20580   -9999.25   10.87260    2.68950   89.80970    4.92130    4.84350    5.48440  136.00030   71.38250
 15817.50000    0.20340   -9999.25   10.86990    2.69520   92.11730    4.92090    4.83010    5.49530  139.07140   72.73400
 15818.00000    0.19500   -9999.25   10.87620    2.69620  100.70110    4.89230    4.78170    5.42860  141.92540   73.70020
 15818.50000    0.18850   -9999.25   10.88130    2.69850  107.82330    4.84960    4.73090    5.20770  145.82260   72.09150
 15819.00000    0.19370   -9999.25   10.90950    2.70870  112.66250    4.79920    4.70450    4.99580  148.78280   72.49410
 15819.50000    0.21010   -9999.25   10.94760    2.71720  111.66900    4.68330    4.58940    4.87370  151.66940   74.78970
 15820.00000    0.24570   -9999.25   11.01240    2.70780  110.04820    4.58240    4.50900    4.95410  153.10870   75.97320
 15820.50000    0.25940   -9999.25   11.07720    2.69510  110.49940    4.61630    4.52030    5.14420  150.34230   76.02100
 15821.00000    0.26080   -9999.25   11.14200    2.68490  110.95070    4.64630    4.54370    5.26220  149.24650   75.06250
 15821.50000    0.24850   -9999.25   11.20690    2.68620  111.40650    4.68490    4.57440    5.29720  148.80470   74.95420
 15822.00000    0.24380   -9999.25   11.27170    2.69830  111.88250    4.77360    4.66110    5.29730  145.92670   75.04320
 15822.50000    0.24620   -9999.25   11.32670    2.69250  112.31540    4.87740    4.75950    5.29740  144.80490   75.09070
 15823.00000    0.25100   -9999.25   11.37850    2.68500  113.41520    4.94070    4.83070    5.29740  146.85750   74.34550
 15823.50000    0.25100   -9999.25   11.43410    2.68030  114.73330    4.97300    4.86360    5.37730  148.09950   74.02430
 15824.00000    0.24910   -9999.25   11.49620    2.67570  114.80990    4.97820    4.86510    5.48570  145.63660   72.43460
 15824.50000    0.24710   -9999.25   11.54260    2.68190  114.88660    5.00700    4.89690    5.59630  146.09610   72.22860
 15825.00000    0.25460   -9999.25   11.56280    2.69210  115.11420    5.02460    4.91240    5.69690  144.98260   72.13780
 15825.50000    0.26320   -9999.25   11.58300    2.69620  116.67140    5.06670    4.95420    5.72660  142.80230   70.51630
 15826.00000    0.26670   -9999.25   11.59830    2.69780  116.35180    5.10790    4.99370    5.75640  140.52160   71.63980
 15826.50000    0.26290   -9999.25   11.61350    2.69870  114.87000    5.15700    5.04170    5.78640  141.03450   72.00570
 15827.00000    0.25560   -9999.25   11.62880    2.69530  114.27510    5.18250    5.06900    5.81650  142.06970   71.10250
 15827.50000    0.24910   -9999.25   11.64560    2.68730  114.29490    5.18560    5.03970    5.84680  142.60300   69.74850
 15828.00000    0.24910   -9999.25   11.66230    2.68140  114.11190    5.19600    5.06640    5.87720  142.91630   69.08620
 15828.50000    0.25170   -9999.25   11.67830    2.68420  111.39370    5.22470    5.10420    5.90710  143.19830   69.25440
 15829.00000    0.26830   -9999.25   11.69410    2.68960  109.00380    5.30650    5.18410    5.91700  147.77930   71.20770
 15829.50000    0.29370   -9999.25   11.72820    2.69310  109.60380    5.34470    5.22660    5.93960  155.19930   73.04960
 15830.00000    0.30000   -9999.25   11.79350    2.68710  110.88510    5.37630    5.25860    5.96560  157.24580   74.24220
 15830.50000    0.30070   -9999.25   11.85880    2.67190  112.16640    5.38420    5.26620    5.99180  155.98840   75.60280
