~Version ---------------------------------------------------
VERS.   2.0 : CWLS log ASCII Standard -VERSION 2.0
WRAP.    NO : One line per depth step
DLM . SPACE : Column Data Section Delimiter
~Well ------------------------------------------------------
STRT .F                12861.0 : START DEPTH
STOP .F                18356.0 : STOP DEPTH
STEP .F                    0.5 : STEP
NULL .                -9999.25 : NULL VALUE
COMP .                         : COMPANY
WELL .                         : WELL
FLD  .                         : FIELD
LOC  .                         : LOCATION
PROV .                         : PROVINCE
CNTY .                         : COUNTY
STAT .                         : STATE
CTRY .                         : COUNTRY
SRVC .                         : SERVICE COMPANY
DATE .                         : DATE
UWI  .                         : UNIQUE WELL ID
API  .                         : API NUMBER
SLAT .WGS84  5.027106254005496 : SURFACE LATITUDE
SLON .WGS84 2.6071148984420063 : SURFACE LONGITUDE
DATUM.F                    nan : DEPTH DATUM ELEV
~Curve Information -----------------------------------------
DEPT   .F     : 1 MEASURED DEPTH
NPHI_LS.DEC   : NEUTRON POROSITY LIMESTONE
DPHI_LS.DEC   : DENSITY POROSITY LIMESTONE
CALD   .IN    : CALIPER FROM DENSITY LOG
RHOB   .G/C3  : BULK DENSITY
GRR    .GAPI  : GAMMA RAY FROM RESISTIVITY LOG
IDPH   .OHMM  : INDUCTION DEEP PHASOR RESISTIVITY
ILD    .OHMM  : INDUCTION DEEP RESISTIVITY
IMPH   .OHMM  : INDUCTION MEDIUM PHASOR RESISTIVITY
DTSM   .US/F  : DELTA-T SHEAR
DTCO   .US/F  : DELTA-T COMPRESSIONAL
~Params ----------------------------------------------------
~Other -----------------------------------------------------
~ASCII -----------------------------------------------------
# ...
 16887.00000    0.03000   -9999.25    8.73650    2.65640   44.75800  119.21950  108.91570  188.62720   90.13600   58.84170
 16887.50000    0.03020   -9999.25    8.73670    2.65670   44.63450  119.21950  108.49920  187.68310   90.13260   60.04380
 16888.00000    0.03020   -9999.25    8.73690    2.65730   44.34200  119.21950  108.08440  187.20910   90.12920   60.04800
 16888.50000    0.03050   -9999.25    8.73710    2.65430   43.78290  119.21950  107.93280  187.20910   90.12580   59.96670
 16889.00000    0.03150   -9999.25    8.73730    2.64820   43.59760  119.40600  107.72490  187.56700   90.12120   58.92300
 16889.50000    0.03290   -9999.25    8.73760    2.64850   43.41220  120.19170  107.40160  188.16740   90.11330   57.82630
 16890.00000    0.03370   -9999.25    8.73780    2.64880   43.26300  120.98260  107.12210  188.76980   89.14010   58.22280
 16890.50000    0.03240   -9999.25    8.73800    2.65880   43.26640  121.73610  107.06080  189.37410   88.45300   58.77540
 16891.00000    0.03160   -9999.25    8.73820    2.65570   43.56200  122.38300  107.74540  191.35820   88.33710   57.64790
 16891.50000    0.03280   -9999.25    8.73840    2.65160   43.85760  123.03330  107.77360  193.09050   88.45230   50.28890
 16892.00000    0.03490   -9999.25    8.73860    2.64650   43.92890  123.68710  107.80170  194.83850   88.69690   46.61110
 16892.50000    0.03710   -9999.25    8.73880    2.64120   43.80540  124.97630  109.09830  197.78750   89.49690   45.27550
 16893.00000    0.03900   -9999.25    8.73910    2.64100   43.60180  126.68310  110.05190  202.73070   91.34770   45.27190
 16893.50000    0.04080   -9999.25    8.73930    2.64080   43.25780  128.41340  111.79980  208.45340   92.42850   45.35410
 16894.00000    0.04440   -9999.25    8.73950    2.64060   42.76980  130.16730  113.06380  214.33770   90.74870   45.43640
 16894.50000    0.04860   -9999.25    8.73970    2.64040   42.39040  131.94500  114.15370  216.32880   91.07560   45.51860
 16895.00000    0.05020   -9999.25    8.73990    2.64020   42.24560  133.74710  114.85980  217.79010   92.05540   45.50750
 16895.50000    0.04790   -9999.25    8.74010    2.64000   42.62680  135.98050  114.79880  218.70940   90.88810   45.46520
 16896.00000    0.04540   -9999.25    8.74040    2.63980   43.74020  138.84830  114.11630  219.63230   90.28950   45.42430
 16896.50000    0.04020   -9999.25    8.74060    2.63970   45.19160  138.08450  112.01060  218.49090   90.53690   45.41830
 16897.00000    0.03950   -9999.25    8.74090    2.63940   45.52500  136.73310  110.30220  217.22800   90.78430   45.41230
 16897.50000    0.04080   -9999.25    8.74120    2.63750   44.93800  135.39510  109.70090  215.97240   91.03170   45.40630
 16898.00000    0.04220   -9999.25    8.74150    2.63640   44.23040  134.07010  108.28990  214.72400   90.90470   45.40030
 16898.50000    0.04270   -9999.25    8.74170    2.63630   44.07470  133.95170  107.82580  212.65740   90.65050   45.39430
 16899.00000    0.04310   -9999.25    8.74200    2.63620   44.81870  136.80290  107.82620  202.87070   90.68660   45.38830
 16899.50000    0.04280   -9999.25    8.74230    2.63610   45.28110  139.18180  108.08920  193.53430   91.38270   45.38230
 16900.00000    0.03910   -9999.25    8.74260    2.64200   45.74350  141.60220  108.84020  184.62770   91.81230   45.37630
 16900.50000    0.03440   -9999.25    8.73240    2.64960   46.20600  143.79040  109.59640  176.13090   90.71840   45.37030
 16901.00000    0.03390   -9999.25    8.72140   -9999.25   46.66840  143.56350  110.35790  168.33650   89.89600   45.36430
 16901.50000    0.03560   -9999.25    8.71050   -9999.25   46.90530  141.71240  111.12470  162.36940   89.37930   45.35820
 16902.00000    0.03400   -9999.25    8.69950   -9999.25   46.90590  139.88530  111.89670  159.70370   88.82160   45.35220
 16902.50000    0.03150   -9999.25    8.68850   -9999.25   46.80130  137.96430  112.70340  164.14040   88.49910   45.34620
 16903.00000    0.02910   -9999.25    8.69500   -9999.25   46.60620  136.63760  113.64000  171.81530   88.45150   45.34020
 16903.50000    0.02730   -9999.25    8.70690   -9999.25   46.17990  135.32370  114.58440  179.84910   88.48880   45.33420
 16904.00000    0.02750   -9999.25    8.71890   -9999.25   45.75350  135.23310  115.66890  187.90110   88.48530   45.32820
 16904.50000    0.02810   -9999.25    8.73080   -9999.25   45.07130  136.78310  118.06210  193.97150   88.42830   45.32220
 16905.00000    0.02630   -9999.25    8.74270   -9999.25   44.20830  139.11160  120.50490  200.23780   88.41110   45.31620
 16905.50000    0.02280   -9999.25    8.75470   -9999.25   43.34080  140.50810  121.17630  206.70660   88.41320   45.31020
 16906.00000    0.01940   -9999.25    8.76660   -9999.25   42.34710  141.89090  120.59340  213.38440   88.38100   45.30420
 16906.50000    0.01660   -9999.25    8.77860   -9999.25   41.86220  143.28740  120.01340  219.93900   87.88790   45.30150
 16907.00000    0.01370   -9999.25    8.79050   -9999.25   41.86280  142.76420  117.57860  221.15670   87.05170   45.30580
 16907.50000    0.01090   -9999.25    8.80240   -9999.25   42.05300  141.85710  114.85930  216.91880   86.44170   45.31010
 16908.00000    0.01090   -9999.25    8.81110   -9999.25   42.28350  141.58470  112.20290  209.46790   86.33040   45.31440
 16908.50000    0.01230   -9999.25    8.80770    2.68060   42.87570  141.84350  107.06030  198.24760   84.42160   45.31600
 16909.00000    0.01510   -9999.25    8.80420    2.67320   43.68120  142.19780  100.05540  184.70230   87.86330   45.31600
 16909.50000    0.01970   -9999.25    8.80080    2.66710   44.45340  142.72650   93.50880  170.39010   88.36190   45.31610
 16910.00000    0.02490   -9999.25    8.79730    2.66020   45.87580  143.13550   87.39050  156.84450   88.39120   45.77470
 16910.50000    0.02760   -9999.25    8.79390   -9999.25   47.45840  137.45500   81.67260  145.18050   88.74580   52.42970
 16911.00000    0.02750   -9999.25    8.79040   -9999.25   48.93600  129.30070   77.54310  141.83280   89.08670   52.39650
 16911.50000    0.02770   -9999.25    8.78700   -9999.25   49.10370  120.91250   72.56970  139.50360   89.41330   51.45390
 16912.00000    0.02850   -9999.25    8.78360   -9999.25   49.18960  113.06860   67.23690  137.21270   89.10950   50.15500
 16912.50000    0.03150   -9999.25    8.78010   -9999.25   49.43540   96.94370   61.72720  130.80720   90.25800   49.04600
 16913.00000    0.03430   -9999.25    8.79130   -9999.25   49.71750   82.02090   56.96090  122.64480   91.42830   47.89440
 16913.50000    0.03710   -9999.25    8.81900   -9999.25   51.70390   69.39520   50.56830  111.71550   92.43260   49.02330
 16914.00000    0.03980   -9999.25    8.84400   -9999.25   54.94780   58.68480   42.98310  101.76020   92.42270   50.86590
 16914.50000    0.04190   -9999.25    8.85800   -9999.25   58.03250   48.81630   37.01610   86.16490   89.10490   50.86590
 16915.00000    0.04510   -9999.25    8.86970   -9999.25   61.00760   41.47090   31.87740   69.47140   86.27750   50.93320
 16915.50000    0.05580   -9999.25    8.88130   -9999.25   63.86030   35.23080   27.45210   55.16990   89.42360   53.95950
 16916.00000    0.07050   -9999.25    8.89300   -9999.25   65.56600   29.92960   23.64110   43.50390   94.05700   56.61210
 16916.50000    0.08660   -9999.25    8.90470   -9999.25   66.72250   25.42610   20.35910   33.89980  100.59270   56.19900
 16917.00000    0.09580   -9999.25    8.91640   -9999.25   68.23800   21.60020   17.82000   26.41600  103.21270   55.33250
 16917.50000    0.09910   -9999.25    8.92810   -9999.25   70.65990   18.35000   15.97240   20.58430  105.86890   57.97600
 16918.00000    0.10770   -9999.25    8.93970   -9999.25   73.20470   15.58890   14.31630   17.97370  110.33980   60.90690
 16918.50000    0.11950   -9999.25    8.95140    2.66170   77.44740   13.32380   13.04690   15.71540  113.47660   63.83070
 16919.00000    0.13720   -9999.25    8.96310    2.66200   81.60940   12.62970   12.36720   13.97910  115.62940   66.38010
 16919.50000    0.14540   -9999.25    8.97470    2.66240   82.40080   11.89480   11.60570   12.48580  117.78690   67.96180
