~Version ---------------------------------------------------
VERS.   2.0 : CWLS log ASCII Standard -VERSION 2.0
WRAP.    NO : One line per depth step
DLM . SPACE : Column Data Section Delimiter
~Well ------------------------------------------------------
STRT .F                12861.0 : START DEPTH
STOP .F                18356.0 : STOP DEPTH
STEP .F                    0.5 : STEP
NULL .                -9999.25 : NULL VALUE
COMP .                         : COMPANY
WELL .                         : WELL
FLD  .                         : FIELD
LOC  .                         : LOCATION
PROV .                         : PROVINCE
CNTY .                         : COUNTY
STAT .                         : STATE
CTRY .                         : COUNTRY
SRVC .                         : SERVICE COMPANY
DATE .                         : DATE
UWI  .                         : UNIQUE WELL ID
API  .                         : API NUMBER
SLAT .WGS84  5.027106254005496 : SURFACE LATITUDE
SLON .WGS84 2.6071148984420063 : SURFACE LONGITUDE
DATUM.F                    nan : DEPTH DATUM ELEV
~Curve Information -----------------------------------------
DEPT   .F     : 1 MEASURED DEPTH
NPHI_LS.DEC   : NEUTRON POROSITY LIMESTONE
DPHI_LS.DEC   : DENSITY POROSITY LIMESTONE
CALD   .IN    : CALIPER FROM DENSITY LOG
RHOB   .G/C3  : BULK DENSITY
GRR    .GAPI  : GAMMA RAY FROM RESISTIVITY LOG
IDPH   .OHMM  : INDUCTION DEEP PHASOR RESISTIVITY
ILD    .OHMM  : INDUCTION DEEP RESISTIVITY
IMPH   .OHMM  : INDUCTION MEDIUM PHASOR RESISTIVITY
DTSM   .US/F  : DELTA-T SHEAR
DTCO   .US/F  : DELTA-T COMPRESSIONAL
~Params ----------------------------------------------------
~Other -----------------------------------------------------
~ASCII -----------------------------------------------------
# ...
 18339.00000   -9999.25    0.06220    8.34650   -9999.25  111.49030    2.37150    2.33880    2.47140   -9999.25   -9999.25
 18339.50000   -9999.25    0.05920    8.34390   -9999.25  111.48080    2.38240    2.34930    2.46960   -9999.25   -9999.25
 18340.00000   -9999.25    0.06290    8.34080   -9999.25  111.49140    2.38460    2.35160    2.46990   -9999.25   -9999.25
 18340.50000   -9999.25    0.06670    8.33770   -9999.25  111.50200    2.37820    2.34500    2.47010   -9999.25   -9999.25
 18341.00000   -9999.25    0.07070    8.33460   -9999.25  111.51260    2.38410    2.35100    2.47030   -9999.25   -9999.25
 18341.50000   -9999.25    0.07380    8.33150   -9999.25  111.52330    2.35680    2.32450    2.47050   -9999.25   -9999.25
 18342.00000   -9999.25    0.07540    8.32840   -9999.25  111.53390    2.31450    2.28740    2.47080   -9999.25   -9999.25
 18342.50000   -9999.25    0.07710    8.32530   -9999.25  111.54450    2.30010    2.27270    2.46960   -9999.25   -9999.25
 18343.00000   -9999.25    0.07880    8.32220   -9999.25  111.55510    2.32490    2.26160    2.45070   -9999.25   -9999.25
 18343.50000   -9999.25    0.07970    8.31910   -9999.25  111.56580    2.34800    2.25040    2.43200   -9999.25   -9999.25
 18344.00000   -9999.25    0.08000    8.31600   -9999.25  111.57640    2.34130    2.23940    2.41330   -9999.25   -9999.25
 18344.50000   -9999.25    0.08010    8.31180    2.59800  111.58700    2.33470    2.22840    2.35690   -9999.25   -9999.25
 18345.00000   -9999.25   -9999.25    8.30720    2.59460  111.59760    2.31960    2.21740    2.36820   -9999.25   -9999.25
 18345.50000   -9999.25   -9999.25    8.30250    2.59120  111.60830    2.30190    2.20650    2.38920   -9999.25   -9999.25
 18346.00000   -9999.25   -9999.25    8.29780    2.58830  111.61890    2.28300    2.19560    2.39540   -9999.25   -9999.25
 18346.50000   -9999.25   -9999.25    8.29320    2.59650  111.62950    2.24980    2.18480    2.39520   -9999.25   -9999.25
 18347.00000   -9999.25   -9999.25    8.28850    2.60770  111.64010    2.21720    2.17810    2.39110   -9999.25   -9999.25
 18347.50000   -9999.25   -9999.25    8.28390    2.62210  111.65080    2.20220    2.16950    2.35840   -9999.25   -9999.25
 18348.00000   -9999.25   -9999.25    8.27920    2.62340  111.66140    2.19580    2.15770    2.31550   -9999.25   -9999.25
 18348.50000   -9999.25    0.05080    8.27460    2.60940  111.67200    2.18950    2.14580    2.27350   -9999.25   -9999.25
 18349.00000   -9999.25    0.05630    8.26990    2.59620  111.68260    2.18310    2.13410    2.23220   -9999.25   -9999.25
 18349.50000   -9999.25    0.06630    8.26520    2.58200  111.69330    2.17680    2.12240    2.24190   -9999.25   -9999.25
 18350.00000   -9999.25    0.07590    8.25490    2.58940  111.70390    2.17050    2.12230    2.26280   -9999.25   -9999.25
 18350.50000   -9999.25    0.07090    8.23760    2.59970  111.71500    2.16420    2.12250    2.29550   -9999.25   -9999.25
 18351.00000   -9999.25    0.06420    8.22040    2.61820  111.75580    2.15960    2.12270    2.32870   -9999.25   -9999.25
 18351.50000   -9999.25    0.05810    8.20310    2.62240  111.79650    2.17170    2.12290    2.35100   -9999.25   -9999.25
 18352.00000   -9999.25    0.05190    8.18580    2.61750  111.83730    2.19370    2.12830    2.35120   -9999.25   -9999.25
 18352.50000   -9999.25    0.05930    8.16810    2.60450  111.87800    2.20020    2.13960    2.34710   -9999.25   -9999.25
 18353.00000   -9999.25    0.06290    8.15890    2.60330  111.91880    2.20630    2.15050    2.33170   -9999.25   -9999.25
 18353.50000   -9999.25    0.05760    8.16060    2.61880   -9999.25   -9999.25   -9999.25   -9999.25   -9999.25   -9999.25
 18354.00000   -9999.25    0.05230    8.16230    2.61440   -9999.25   -9999.25   -9999.25   -9999.25   -9999.25   -9999.25
 18354.50000   -9999.25    0.05730    8.16400    2.60270   -9999.25   -9999.25   -9999.25   -9999.25   -9999.25   -9999.25
 18355.00000   -9999.25    0.06390    8.16570    2.59030   -9999.25   -9999.25   -9999.25   -9999.25   -9999.25   -9999.25
 18355.50000   -9999.25    0.07070    8.16740    2.58610   -9999.25   -9999.25   -9999.25   -9999.25   -9999.25   -9999.25
 18356.00000   -9999.25    0.07150    8.16910    2.58730   -9999.25   -9999.25   -9999.25   -9999.25   -9999.25   -9999.25
