~Version ---------------------------------------------------
VERS.   2.0 : CWLS log ASCII Standard -VERSION 2.0
WRAP.    NO : One line per depth step
DLM . SPACE : Column Data Section Delimiter
~Well ------------------------------------------------------
STRT .F                12861.0 : START DEPTH
STOP .F                18356.0 : STOP DEPTH
STEP .F                    0.5 : STEP
NULL .                -9999.25 : NULL VALUE
COMP .                         : COMPANY
WELL .                         : WELL
FLD  .                         : FIELD
LOC  .                         : LOCATION
PROV .                         : PROVINCE
CNTY .                         : COUNTY
STAT .                         : STATE
CTRY .                         : COUNTRY
SRVC .                         : SERVICE COMPANY
DATE .                         : DATE
UWI  .                         : UNIQUE WELL ID
API  .                         : API NUMBER
SLAT .WGS84  5.027106254005496 : SURFACE LATITUDE
SLON .WGS84 2.6071148984420063 : SURFACE LONGITUDE
DATUM.F                    nan : DEPTH DATUM ELEV
~Curve Information -----------------------------------------
DEPT   .F     : 1 MEASURED DEPTH
NPHI_LS.DEC   : NEUTRON POROSITY LIMESTONE
DPHI_LS.DEC   : DENSITY POROSITY LIMESTONE
CALD   .IN    : CALIPER FROM DENSITY LOG
RHOB   .G/C3  : BULK DENSITY
GRR    .GAPI  : GAMMA RAY FROM RESISTIVITY LOG
IDPH   .OHMM  : INDUCTION DEEP PHASOR RESISTIVITY
ILD    .OHMM  : INDUCTION DEEP RESISTIVITY
IMPH   .OHMM  : INDUCTION MEDIUM PHASOR RESISTIVITY
DTSM   .US/F  : DELTA-T SHEAR
DTCO   .US/F  : DELTA-T COMPRESSIONAL
~Params ----------------------------------------------------
~Other -----------------------------------------------------
~ASCII -----------------------------------------------------
# ...
 12894.00000    0.30920    0.11010   12.54200    2.55910   96.01240    9.45470    7.64020    6.60160   84.31630   56.67000
 12894.50000    0.30930    0.12520   12.83740    2.52390   97.82170    8.96930    7.32190    6.29360   79.47760   52.29170
 12895.00000    0.30580    0.13430   13.20630    2.49960  100.03340    8.60290    7.33770    6.43080   77.60100   51.10750
 12895.50000    0.30240    0.12500   12.70000    2.48740  101.52250    8.56120    7.36160    7.12520   76.44840   49.92330
 12896.00000    0.29100    0.09600   12.12030    2.50750  103.20460    8.52570    7.38550    7.99770   76.71020   49.38190
 12896.50000    0.27640    0.08470   11.66830    2.55750  103.23160    8.49130    7.45370    8.98870   77.70430   49.58630
 12897.00000    0.26520    0.09180   11.32750    2.57220  101.50200    8.45710    7.52770    9.87140   78.09330   49.63480
 12897.50000    0.26730    0.10280   11.15280    2.55830   98.41900    8.42310    7.60660    9.44030   78.87500   48.50990
 12898.00000    0.27080    0.12080   11.13950    2.53120   94.87080    8.38920    7.68910    8.95420   82.52270   47.21000
 12898.50000    0.27150    0.13000   12.00500    2.50090   92.99770    8.37170    7.77240    8.83300   90.35070   46.56670
 12899.00000    0.27150    0.11860   11.96140    2.50130   92.21620    8.30210    7.85660    8.91250  101.35150   49.55670
 12899.50000    0.26890    0.09820   11.52590    2.53640   94.65200    8.22600    7.94180    8.99270  112.91340   58.25730
 12900.00000    0.26390    0.07470   11.34940    2.58890   97.08780    8.17270    7.88430    9.07360  128.32530   67.69990
 12900.50000    0.25850   -9999.25   12.35540    2.61450   98.45070    8.11970    7.83580    9.14050  143.50290   71.10470
 12901.00000    0.25280   -9999.25   13.34290    2.62850   99.09120    8.06180    7.78770    9.09870  152.04280   73.74150
 12901.50000    0.24700   -9999.25   13.70400    2.64490   99.73180    7.99200    7.71570    9.01640  157.41280   76.34590
 12902.00000    0.23760   -9999.25   14.00050    2.65760  100.47760    7.92350    7.63160   -9999.25  155.63070   77.83580
 12902.50000    0.22990   -9999.25   14.12550    2.65550  101.28750    7.86260    7.55930   -9999.25  149.54320   76.56460
 12903.00000    0.22420   -9999.25   13.84230    2.65190  102.09740    7.80220    7.53430   -9999.25  146.29900   75.29340
 12903.50000    0.22360   -9999.25   13.53620    2.64090  102.90730    7.74230    7.53430   -9999.25  145.17140   74.63640
 12904.00000    0.23650   -9999.25   13.48880    2.61570  103.55950    7.72500    7.53430   -9999.25  146.43150   75.06010
 12904.50000    0.25530   -9999.25   13.45500    2.59230  104.08490    7.73690    7.58700   -9999.25  147.69150   75.80520
 12905.00000    0.26110   -9999.25   13.44730    2.60480  104.77100    7.79950    7.61930   -9999.25  149.16660   76.51190
 12905.50000    0.25310   -9999.25   13.43950    2.62410  105.18440    7.88370    7.75020   -9999.25  150.57040   77.28210
 12906.00000    0.24340   -9999.25   13.43180    2.64760  105.00520    8.06990    7.94700   -9999.25  151.43170   77.94500
 12906.50000    0.22570   -9999.25   13.37100    2.65320  103.04320    8.59780    8.45660   -9999.25  146.20960   78.28040
 12907.00000    0.20390   -9999.25   13.26920    2.64810   98.20860    9.16020    8.99880   -9999.25  138.47940   76.05410
 12907.50000    0.18450   -9999.25   13.16530    2.64620   92.91110    9.75950    9.57590   -9999.25  122.53940   70.31070
 12908.00000    0.15720   -9999.25   13.06140    2.64670   85.29500    9.92920    9.81680   -9999.25  112.13560   64.18980
 12908.50000    0.11800   -9999.25   13.04010    2.65320   76.53010    9.95410    9.83360   -9999.25  113.87950   62.52880
 12909.00000    0.08330   -9999.25   13.02560    2.67020   67.93550    9.97900    9.85050   -9999.25  115.52590   63.81610
 12909.50000    0.05560   -9999.25   12.99100    2.69500   63.59390   10.00400    9.86740   -9999.25  113.24760   63.33900
 12910.00000    0.03100   -9999.25   12.56840    2.72600   66.55640   10.02900    9.88430   -9999.25  111.13730   59.58600
 12910.50000    0.03640   -9999.25   11.28430    2.74920   77.76020   10.31290   10.15750   -9999.25  111.36580   63.16110
 12911.00000    0.06520   -9999.25   10.45330    2.74220   87.61700   11.08360   10.91080   -9999.25  113.46080   63.21100
 12911.50000    0.08430   -9999.25   10.01770    2.72250   93.70350   11.91190   11.70210   -9999.25  115.49120   63.09830
 12912.00000    0.10340   -9999.25   10.01190    2.69300   99.10860   12.80210   12.55080   -9999.25  124.09100   63.26680
 12912.50000    0.12260   -9999.25   10.01520    2.66160  103.30070   12.84840   12.67080   -9999.25  131.50610   68.65470
 12913.00000    0.14170   -9999.25   10.06300    2.64290  107.10170   11.68410   11.20740   -9999.25  133.78160   72.59370
 12913.50000    0.16080   -9999.25   10.14760    2.62920  110.29760   10.69710   10.27790   -9999.25  135.11380   74.87010
 12914.00000    0.18600   -9999.25   10.23220    2.63150  113.32800    9.79360    9.47840   -9999.25  136.44600   75.63790
 12914.50000    0.22010   -9999.25   10.29200    2.64840  114.63570    9.20800    8.88100   -9999.25  136.97190   74.12180
 12915.00000    0.22460   -9999.25   10.24750    2.65830  114.67360    8.92020    8.78480   -9999.25  134.39000   74.68100
 12915.50000    0.21510   -9999.25   10.17960    2.66350  114.71140    8.84370    8.68960   -9999.25  129.77930   74.44310
 12916.00000    0.20240   -9999.25   10.12230    2.66870  115.41940    8.78950    8.59550   -9999.25  128.67930   72.75140
 12916.50000    0.19360   -9999.25   10.12310    2.67050  116.43790    8.79040    8.55660   -9999.25  131.68140   71.07560
 12917.00000    0.18640   -9999.25   10.12390    2.66910  118.06130    8.84810    8.58820    9.93340  134.59510   72.43440
 12917.50000    0.18190   -9999.25   10.12600    2.67000  119.60840    8.90610    8.61740    9.94750  136.74190   74.08160
 12918.00000    0.18330   -9999.25   10.13260    2.67130  120.33500    8.88450    8.64660   10.07420  136.85070   74.42890
 12918.50000    0.19280   -9999.25   10.13930    2.67260  122.30330    8.86050    8.67380   10.03220  135.38180   72.82150
 12919.00000    0.20290   -9999.25   10.08230    2.67600  123.39710    8.83650    8.67380    9.90290  132.97810   71.41420
 12919.50000    0.20590   -9999.25   10.02110    2.67960  122.66410    8.86050    8.67380    9.77420  130.19940   71.42330
 12920.00000    0.19730   -9999.25   10.00950    2.68120  120.57700    8.86970    8.67380    9.69680  127.45470   71.83960
 12920.50000    0.15840   -9999.25   10.00960    2.67780  116.10180    8.87200    8.68630    9.74970  124.72070   72.11370
 12921.00000    0.15600   -9999.25   10.00970    2.67360  111.62550    8.96820    8.80790    9.80290  121.90480   70.54310
 12921.50000    0.15520   -9999.25   10.01460    2.67070  111.09270    9.15050    8.96770    9.85640  120.58310   69.07790
 12922.00000    0.15550   -9999.25   10.02050    2.66790  113.56170    9.39230    9.17890    9.91020  121.30450   68.83090
 12922.50000    0.15700   -9999.25   10.02390    2.66660  116.06420    9.64060    9.45320    9.90000  121.60230   69.64830
 12923.00000    0.15950   -9999.25   10.02720    2.67080  116.37610    9.80390    9.69400    9.89880  121.30150   68.54060
 12923.50000    0.16210   -9999.25   10.02950    2.67450  116.55380    9.84590    9.67590   10.01040  120.79320   67.88350
 12924.00000    0.16390   -9999.25   10.02470    2.67650  116.73930    9.88810    9.65930   10.12330  121.43080   68.34340
 12924.50000    0.16510   -9999.25   10.02990    2.67660  116.73310    9.92020    9.66150   10.33120  123.66100   68.48600
 12925.00000    0.16460   -9999.25   10.01890    2.67510  115.49620    9.88990    9.65690   10.66860  122.78700   68.24280
 12925.50000    0.16300   -9999.25   10.02080    2.67250  113.72310    9.85980    9.59970   10.75020  118.44170   65.56440
 12926.00000    0.16200   -9999.25   10.01870    2.67130  114.01570    9.76130    9.45260   10.53800  113.38130   64.64280
 12926.50000    0.16300   -9999.25   10.03920    2.67060  117.31920    9.55080    9.30030   10.32990  109.01870   65.98220
