~Version ---------------------------------------------------
VERS.   2.0 : CWLS log ASCII Standard -VERSION 2.0
WRAP.    NO : One line per depth step
DLM . SPACE : Column Data Section Delimiter
~Well ------------------------------------------------------
STRT .F                12861.0 : START DEPTH
STOP .F                18356.0 : STOP DEPTH
STEP .F                    0.5 : STEP
NULL .                -9999.25 : NULL VALUE
COMP .                         : COMPANY
WELL .                         : WELL
FLD  .                         : FIELD
LOC  .                         : LOCATION
PROV .                         : PROVINCE
CNTY .                         : COUNTY
STAT .                         : STATE
CTRY .                         : COUNTRY
SRVC .                         : SERVICE COMPANY
DATE .                         : DATE
UWI  .                         : UNIQUE WELL ID
API  .                         : API NUMBER
SLAT .WGS84  5.027106254005496 : SURFACE LATITUDE
SLON .WGS84 2.6071148984420063 : SURFACE LONGITUDE
DATUM.F                    nan : DEPTH DATUM ELEV
~Curve Information -----------------------------------------
DEPT   .F     : 1 MEASURED DEPTH
NPHI_LS.DEC   : NEUTRON POROSITY LIMESTONE
DPHI_LS.DEC   : DENSITY POROSITY LIMESTONE
CALD   .IN    : CALIPER FROM DENSITY LOG
RHOB   .G/C3  : BULK DENSITY
GRR    .GAPI  : GAMMA RAY FROM RESISTIVITY LOG
IDPH   .OHMM  : INDUCTION DEEP PHASOR RESISTIVITY
ILD    .OHMM  : INDUCTION DEEP RESISTIVITY
IMPH   .OHMM  : INDUCTION MEDIUM PHASOR RESISTIVITY
DTSM   .US/F  : DELTA-T SHEAR
DTCO   .US/F  : DELTA-T COMPRESSIONAL
~Params ----------------------------------------------------
~Other -----------------------------------------------------
~ASCII -----------------------------------------------------
# ...
 17250.00000    0.29520   -9999.25    9.35960    2.61340   94.72760    2.43210    2.39800    2.67610   86.42920   55.15800
 17250.50000    0.29500   -9999.25    9.33790    2.61380   96.22350    2.45690    2.42240    2.69020   85.73000   54.88480
 17251.00000    0.28700   -9999.25    9.31720    2.61610   96.91270    2.50760    2.47290    2.70560   85.18080   54.53850
 17251.50000    0.27660   -9999.25    9.29660    2.61650   95.99600    2.51590    2.48110    2.71690   85.17990   54.19220
 17252.00000    0.27080   -9999.25    9.27590    2.61640   93.60370    2.51060    2.47580    2.72730   85.17900   54.04210
 17252.50000    0.26720   -9999.25    9.26150    2.61680   91.41330    2.50060    2.46610    2.73790   85.17820   54.04700
 17253.00000    0.26620   -9999.25    9.26000    2.61760   91.43370    2.49580    2.46130    2.74840   85.17730   54.14830
 17253.50000    0.26780   -9999.25    9.25800    2.61840   92.90200    2.50270    2.46820    2.72860   85.15010   54.35380
 17254.00000    0.27280   -9999.25    9.23700    2.61920   94.77230    2.54650    2.50900    2.68290   86.01690   54.80780
 17254.50000    0.28300   -9999.25    9.21600    2.61590   96.07970    2.59110    2.55290    2.64120   94.53150   60.05280
 17255.00000    0.28660   -9999.25    9.19490    2.60820   96.54610    2.68270    2.63030    2.71030  108.13660   68.02640
 17255.50000    0.27700   -9999.25    9.17390    2.60000   96.07940    2.85340    2.78000    2.89750  116.22500   74.04760
 17256.00000    0.23700   -9999.25    9.15260    2.59140   93.89900    3.07620    2.99670    3.15050  117.03690   72.70980
 17256.50000    0.19170   -9999.25    9.06770    2.59200   88.73220    3.33300    3.23110    3.44190  114.20370   68.89550
 17257.00000    0.14250   -9999.25    8.97720    2.60200   80.98380    3.66030    3.54840    3.97970  108.96020   65.57340
 17257.50000    0.11760   -9999.25    8.87910    2.61200   73.78290    4.01980    3.89690    4.80300  100.04670   62.77320
 17258.00000    0.11770   -9999.25    8.78090    2.62960   71.59170    4.33030    4.25480    5.50340  100.14030   62.65730
 17258.50000    0.13190   -9999.25    8.68090    2.64920   74.14670    4.70280    4.56310    6.30600  102.03520   66.69170
 17259.00000    0.15820   -9999.25    8.68310    2.66270   79.33520    5.15120    4.99800    6.82240  103.77380   70.61680
 17259.50000    0.17280   -9999.25    8.67800    2.65560   82.51900    5.49000    5.41440    7.10090  105.21820   72.60060
 17260.00000    0.17280   -9999.25    8.66430    2.63760   83.10310    5.46090    5.38190    6.61370  102.46320   70.88710
 17260.50000    0.17240   -9999.25    8.66450    2.61870   82.88890    5.23910    5.10440    5.93140  100.29040   69.67080
 17261.00000    0.17220   -9999.25    8.66470    2.62280   82.88750    4.85880    4.73380    5.49720  100.12540   69.73090
 17261.50000    0.18580   -9999.25    8.66490    2.63130   85.34920    4.50610    4.39010    5.09480   99.91030   69.70430
 17262.00000    0.20510   -9999.25    8.66610    2.64140   87.99370    4.10690    4.02910    4.72190   99.69520   69.62260
 17262.50000    0.23160   -9999.25    8.70000    2.64830   92.84300    3.86380    3.80360    4.37620   99.14410   69.58770
 17263.00000    0.24100   -9999.25    8.76490    2.63690   96.11940    3.78350    3.71100    3.97530   95.29520   69.40600
 17263.50000    0.25140   -9999.25    8.79340    2.62130   98.98760    3.62670    3.56750    3.71560   89.13350   69.09370
 17264.00000    0.25470   -9999.25    8.80970    2.60000  101.23390    3.42630    3.35970    3.52640   79.43710   68.38870
 17264.50000    0.25340   -9999.25    8.82590    2.60010  102.74300    3.26560    3.20200    3.42810   77.92010   69.72900
 17265.00000    0.25120   -9999.25    8.82810    2.60030  102.71170    3.11230    3.05170    3.37940   80.14740   71.80930
 17265.50000    0.24740   -9999.25    8.81820    2.60040  101.90450    3.05190    3.00970    3.33350   81.24640   72.62860
 17266.00000    0.24270   -9999.25    8.80830    2.60060  100.78580    3.06100    3.01230    3.28820   83.13220   73.08700
 17266.50000    0.23920   -9999.25    8.79840    2.60070  100.70540    3.09020    3.01480    3.27710   82.24980   73.54460
 17267.00000    0.24050   -9999.25    8.78850    2.60090  102.36200    3.11960    3.02210    3.27670   82.83460   74.00220
 17267.50000    0.25380   -9999.25    8.77860    2.60110  104.24960    3.18320    3.05750    3.29800   85.08320   74.77110
 17268.00000    0.25640   -9999.25    8.76870    2.60120  104.63290    3.28940    3.19510    3.39810   84.23420   75.63110
 17268.50000    0.20570   -9999.25    8.75880    2.59910  103.35050    3.46680    3.33610    3.70390   83.12640   74.08820
 17269.00000    0.15130   -9999.25    8.73200    2.59960   95.42430    3.84380    3.71940    4.07650   83.48980   69.58550
 17269.50000    0.06020   -9999.25    8.67960    2.60190   88.05940    4.40420    4.18580    4.77570   83.87570   61.89170
 17270.00000    0.02080   -9999.25    8.62980    2.60430   67.87120    5.28390    4.86690    5.85330   86.08500   55.66250
 17270.50000    0.01000   -9999.25    8.58000    2.61160   48.82360    7.35280    6.39760    9.35680   93.94960   56.72940
 17271.00000    0.03870   -9999.25    8.53010    2.65200   37.03080   10.31920    9.37960   12.43910   99.06700   57.70650
 17271.50000    0.07100   -9999.25    8.48030    2.64710   28.48490   14.15100   12.89840   22.73190  100.65890   56.54790
 17272.00000    0.10880   -9999.25    8.44960    2.64210   23.35760   19.14790   17.48840   44.06040  100.03180   55.71900
 17272.50000    0.13540   -9999.25    8.44440    2.63490   23.59170   24.00390   22.61510   89.34160  106.29230   58.69380
 17273.00000    0.14480   -9999.25    8.43920    2.61800   25.93020   24.16510   23.63620   92.60670  115.93420   64.24500
 17273.50000    0.15130   -9999.25    8.43390    2.62480   34.36390   21.56120   19.60010   78.51200  124.90100   70.01440
 17274.00000    0.15820   -9999.25    8.45140    2.64060   46.03220   16.44290   15.06980   48.42650  133.90730   74.90160
 17274.50000    0.17000   -9999.25    8.48910    2.65630   60.12080   12.71060   11.59430   20.17670  137.32910   76.52340
 17275.00000    0.17080   -9999.25    8.52690    2.64960   75.86450   10.79890    9.97780   12.28640  136.13050   74.03640
 17275.50000    0.16950   -9999.25    8.55930    2.63470   81.96980    9.17480    8.58670    9.87370  129.78360   71.07990
 17276.00000    0.16760   -9999.25    8.58220    2.61910   81.83780    7.79490    7.41180    8.18890  127.37440   69.46430
 17276.50000    0.16820   -9999.25    8.60510    2.61220   78.84960    6.93160    6.73690    7.25280  128.00710   68.04150
 17277.00000    0.17860   -9999.25    8.61230    2.61140   74.42820    6.37250    6.19420    6.63420  130.39790   67.76800
 17277.50000    0.18960   -9999.25    8.61450    2.61060   74.67030    5.85850    5.69520    6.35160  133.67450   68.80720
 17278.00000    0.19790   -9999.25    8.61660    2.60980   77.63120    5.42520    5.33490    6.09220  136.11650   70.92240
 17278.50000    0.20340   -9999.25    8.61880    2.60900   80.59210    5.34800    5.27210    5.85270  135.64760   71.71640
 17279.00000    0.20380   -9999.25    8.59740    2.60820   83.77190    5.34260    5.26880    5.71370  134.31370   71.47300
 17279.50000    0.19080   -9999.25    8.57360    2.60740   86.12740    5.34190    5.26800    5.61930  132.97980   70.00070
 17280.00000    0.17750   -9999.25    8.59200    2.60660   85.94790    5.36720    5.28390    5.57330  127.34770   67.69370
 17280.50000    0.15710   -9999.25    8.61050    2.60620   83.15440    5.56290    5.39490    5.87890  119.28830   66.94380
 17281.00000    0.13050   -9999.25    8.62890    2.61240   75.48670    6.23400    6.00980    6.37590  111.27080   65.56560
 17281.50000    0.10390   -9999.25    8.62920    2.62090   68.23240    7.08250    6.73470    7.40190  104.29890   63.54160
 17282.00000    0.07230   -9999.25    8.62410    2.62950   60.97810    8.78600    8.31180    9.47480   98.21260   58.10480
 17282.50000    0.04500   -9999.25    8.61900    2.63800   53.35780   10.92380   10.13190   12.10830   92.14520   52.95360
