~Version ---------------------------------------------------
VERS.   2.0 : CWLS log ASCII Standard -VERSION 2.0
WRAP.    NO : One line per depth step
DLM . SPACE : Column Data Section Delimiter
~Well ------------------------------------------------------
STRT .F                12861.0 : START DEPTH
STOP .F                18356.0 : STOP DEPTH
STEP .F                    0.5 : STEP
NULL .                -9999.25 : NULL VALUE
COMP .                         : COMPANY
WELL .                         : WELL
FLD  .                         : FIELD
LOC  .                         : LOCATION
PROV .                         : PROVINCE
CNTY .                         : COUNTY
STAT .                         : STATE
CTRY .                         : COUNTRY
SRVC .                         : SERVICE COMPANY
DATE .                         : DATE
UWI  .                         : UNIQUE WELL ID
API  .                         : API NUMBER
SLAT .WGS84  5.027106254005496 : SURFACE LATITUDE
SLON .WGS84 2.6071148984420063 : SURFACE LONGITUDE
DATUM.F                    nan : DEPTH DATUM ELEV
~Curve Information -----------------------------------------
DEPT   .F     : 1 MEASURED DEPTH
NPHI_LS.DEC   : NEUTRON POROSITY LIMESTONE
DPHI_LS.DEC   : DENSITY POROSITY LIMESTONE
CALD   .IN    : CALIPER FROM DENSITY LOG
RHOB   .G/C3  : BULK DENSITY
GRR    .GAPI  : GAMMA RAY FROM RESISTIVITY LOG
IDPH   .OHMM  : INDUCTION DEEP PHASOR RESISTIVITY
ILD    .OHMM  : INDUCTION DEEP RESISTIVITY
IMPH   .OHMM  : INDUCTION MEDIUM PHASOR RESISTIVITY
DTSM   .US/F  : DELTA-T SHEAR
DTCO   .US/F  : DELTA-T COMPRESSIONAL
~Params ----------------------------------------------------
~Other -----------------------------------------------------
~ASCII -----------------------------------------------------
# ...
 13257.00000    0.19390   -9999.25    9.72780    2.65080  121.63370    7.86400    7.75510    9.14320  134.48900   71.38840
 13257.50000    0.18330   -9999.25    9.75140    2.65040  119.61790    7.90590    7.81160    9.13040  135.83610   71.48180
 13258.00000    0.18620   -9999.25    9.77500    2.64990  119.12770    7.94980    7.86680    9.11770  137.14040   71.91440
 13258.50000    0.19260   -9999.25    9.79850    2.64950  119.35610    7.99400    7.89540    9.10500  137.32780   72.16600
 13259.00000    0.19930   -9999.25    9.82210    2.64940  119.58450    8.01970    7.90730    9.09240  134.52680   71.60720
 13259.50000    0.19380   -9999.25    9.84560    2.65010  119.92380    8.00700    7.86660    9.07970  132.66730   71.13210
 13260.00000    0.18590   -9999.25    9.86920    2.64980  120.54920    7.96320    7.82610    9.06710  135.28560   71.57250
 13260.50000    0.18750   -9999.25    9.89270    2.64960  121.06770    7.92290    7.81260    8.94350  138.13660   71.91080
 13261.00000    0.20000   -9999.25    9.87450    2.64950  121.33930    7.91000    7.81310    8.77570  138.22190   72.24920
 13261.50000    0.21810   -9999.25    9.81910    2.64930  121.19010    7.89710    7.81360    8.61110  135.98010   72.24020
 13262.00000    0.21790   -9999.25    9.76370    2.64910  120.28420    7.74750    7.66910    8.44960  132.85290   71.44300
 13262.50000    0.20970   -9999.25    9.69360    2.64900  120.35860    7.58250    7.50290    8.29110  133.31650   71.09290
 13263.00000    0.20080   -9999.25    9.69250    2.64880  121.74500    7.42110    7.33770    8.13560  135.00580   72.06680
 13263.50000    0.19430   -9999.25    9.72780    2.64880  123.35170    7.23600    7.16590    7.98300  137.49890   71.13930
 13264.00000    0.20110   -9999.25    9.76300    2.65090  125.32910    7.03030    6.99810    7.83330  142.19700   71.90650
 13264.50000    0.21050   -9999.25    9.76960    2.65360  128.48210    6.83040    6.80890    7.68630  147.92790   73.00820
 13265.00000    0.22990   -9999.25    9.76540    2.65640  130.79210    6.60230    6.49480    7.54220  151.74100   73.65640
 13265.50000    0.24110   -9999.25    9.76110    2.65610  131.74030    6.36820    6.24020    7.40050  152.47780   74.54630
 13266.00000    0.24340   -9999.25    9.75950    2.64970  131.04700    6.17080    6.04880    7.26140  153.57150   75.58700
 13266.50000    0.24290   -9999.25    9.79090    2.64840  129.99570    6.03260    5.86450    7.12500  155.01700   76.89850
 13267.00000    0.24290   -9999.25    9.82820    2.65190  128.82230    5.89760    5.77730    6.90130  154.54460   78.07090
 13267.50000    0.24610   -9999.25    9.83770    2.65600  128.51650    5.76900    5.69130    6.62100  152.91150   79.10420
 13268.00000    0.25040   -9999.25    9.84070    2.65590  129.55480    5.66020    5.61110    6.35200  151.41960   78.32850
 13268.50000    0.25440   -9999.25    9.84980    2.65050  131.19530    5.62950    5.54360    6.09450  152.71770   77.92830
 13269.00000    0.25160   -9999.25    9.87940    2.64840  131.83650    5.59960    5.48610    5.97360  155.42860   78.29390
 13269.50000    0.25050   -9999.25    9.89310    2.65340  131.72430    5.56990    5.48140    5.97900  156.35340   79.14840
 13270.00000    0.25180   -9999.25    9.86930    2.66840  131.32460    5.53700    5.45190    5.98440  158.97960   80.01720
 13270.50000    0.25380   -9999.25    9.84560    2.68250  130.59390    5.50010    5.41390    5.98980  160.37370   79.48490
 13271.00000    0.25280   -9999.25    9.83350    2.68330  128.23130    5.46150    5.37490    5.99520  160.40080   78.55590
 13271.50000    0.25040   -9999.25    9.83380    2.66540  124.24590    5.42320    5.33550    5.98100  161.22830   78.99690
 13272.00000    0.24840   -9999.25    9.83450    2.65050  122.09480    5.38520    5.29010    5.86670  162.30680   79.60650
 13272.50000    0.25160   -9999.25    9.83600    2.64490  122.81270    5.34620    5.24190    5.80970  162.74610   79.73150
 13273.00000    0.25770   -9999.25    9.83650    2.65270  124.02740    5.30000    5.19490    5.79950  160.80110   78.34720
 13273.50000    0.26390   -9999.25    9.83510    2.65880  124.00570    5.25720    5.18090    5.78940  160.30310   77.25080
 13274.00000    0.26920   -9999.25    9.81980    2.65620  123.80190    5.24920    5.16690    5.77930  160.87940   77.77540
 13274.50000    0.27340   -9999.25    9.79520    2.64660  123.83720    5.24130    5.15300    5.74400  160.57230   79.31760
 13275.00000    0.27000   -9999.25    9.76870    2.63500  123.95340    5.26970    5.17770    5.70070  156.82230   78.30880
 13275.50000    0.26290   -9999.25    9.74220    2.63600  123.48600    5.31520    5.21520    5.63050  153.13080   75.18640
 13276.00000    0.25740   -9999.25    9.75050    2.65060  123.33520    5.37750    5.25290    5.58570  150.58100   73.80750
 13276.50000    0.25360   -9999.25    9.74240    2.67500  124.04360    5.37810    5.29080    5.75170  152.15790   74.32950
 13277.00000    0.24930   -9999.25    9.75300    2.68710  125.83820    5.41510    5.30290    5.92280  155.15930   75.48380
 13277.50000    0.24800   -9999.25    9.75630    2.67250  127.94940    5.44590    5.31430    5.91910  155.85360   76.91190
 13278.00000    0.24980   -9999.25    9.74470    2.64650  130.06060    5.47340    5.33430    5.91530  147.96530   77.92620
 13278.50000    0.25200   -9999.25    9.74680    2.62970  132.17180    5.47520    5.33650    5.90500  145.42980   78.37880
 13279.00000    0.25060   -9999.25    9.74890    2.61930  134.28300    5.47700    5.33820    5.79660  146.55210   78.96760
 13279.50000    0.24280   -9999.25    9.75090    2.61190  134.49780    5.50850    5.36590    5.69020  147.69720   79.55640
 13280.00000    0.23630   -9999.25    9.75300    2.60950  132.94870    5.56140    5.39410    5.64020  148.47470   79.58550
 13280.50000    0.23140   -9999.25    9.73040    2.60830  129.65530    5.64200    5.41160    5.73270  149.69370   78.14050
 13281.00000    0.23460   -9999.25    9.70020    2.60820  126.02070    5.77110    5.55170    5.90520  149.86510   76.40310
 13281.50000    0.23640   -9999.25    9.62840    2.60700  122.38610    6.00620    5.74750    6.16010  149.55540   74.72080
 13282.00000    0.22260   -9999.25    9.55660    2.59870  118.75150    6.45660    6.17000    6.52550  144.02510   70.39850
 13282.50000    0.19320   -9999.25    9.48480    2.58640  116.28920    7.04670    6.62350    7.14580  131.49060   64.20200
 13283.00000    0.15130   -9999.25    9.34790    2.59820  113.70070    7.81730    7.13210    8.21140  120.83370   60.66950
 13283.50000    0.12590   -9999.25    9.26570    2.62990  104.96000    8.86560    8.13280    9.48160  115.02540   62.71340
 13284.00000    0.11630   -9999.25    9.16520    2.65650   90.85540   10.15520    9.27400   10.98260  111.64510   66.62210
 13284.50000    0.10780   -9999.25    9.18630    2.67970   79.10640   12.23210   10.74630   12.89230  105.37420   65.02650
 13285.00000    0.09330   -9999.25    9.17710    2.69410   70.87670   14.84530   13.46820   16.32510   99.94960   61.48510
 13285.50000    0.06130   -9999.25    9.17760    2.71080   63.85530   17.74240   16.87940   19.90190   99.63230   59.81230
 13286.00000    0.03450   -9999.25    9.17810    2.72830   57.43390   21.79570   19.52590   23.57130  100.08640   58.31550
 13286.50000    0.01120   -9999.25    9.17860    2.73700   51.54900   24.42890   22.63220   25.05170   99.16460   56.51560
 13287.00000   -0.00480   -9999.25    9.17910    2.74450   50.43490   26.22960   24.58970   26.69130   97.52040   56.06580
 13287.50000   -0.01470   -9999.25    9.17960    2.73700   50.43490   28.16300   26.71650   28.43820   97.46020   57.27610
 13288.00000   -0.02180   -9999.25    9.18010    2.71360   50.43490   30.23890   29.02720   30.29940   99.58070   58.82960
 13288.50000   -0.01970   -9999.25    9.18140    2.68390   59.62640   32.46790   31.11680   32.28170  100.53630   60.18190
 13289.00000    0.00110   -9999.25    9.18750    2.66430   69.98700   34.86110   31.04630   34.34700   98.54340   59.27920
 13289.50000    0.02410   -9999.25    9.19360    2.65470   74.19600   35.76780   29.49350   36.54440   95.99060   57.31240
