~Version ---------------------------------------------------
VERS.   2.0 : CWLS log ASCII Standard -VERSION 2.0
WRAP.    NO : One line per depth step
DLM . SPACE : Column Data Section Delimiter
~Well ------------------------------------------------------
STRT .F                12861.0 : START DEPTH
STOP .F                18356.0 : STOP DEPTH
STEP .F                    0.5 : STEP
NULL .                -9999.25 : NULL VALUE
COMP .                         : COMPANY
WELL .                         : WELL
FLD  .                         : FIELD
LOC  .                         : LOCATION
PROV .                         : PROVINCE
CNTY .                         : COUNTY
STAT .                         : STATE
CTRY .                         : COUNTRY
SRVC .                         : SERVICE COMPANY
DATE .                         : DATE
UWI  .                         : UNIQUE WELL ID
API  .                         : API NUMBER
SLAT .WGS84  5.027106254005496 : SURFACE LATITUDE
SLON .WGS84 2.6071148984420063 : SURFACE LONGITUDE
DATUM.F                    nan : DEPTH DATUM ELEV
~Curve Information -----------------------------------------
DEPT   .F     : 1 MEASURED DEPTH
NPHI_LS.DEC   : NEUTRON POROSITY LIMESTONE
DPHI_LS.DEC   : DENSITY POROSITY LIMESTONE
CALD   .IN    : CALIPER FROM DENSITY LOG
RHOB   .G/C3  : BULK DENSITY
GRR    .GAPI  : GAMMA RAY FROM RESISTIVITY LOG
IDPH   .OHMM  : INDUCTION DEEP PHASOR RESISTIVITY
ILD    .OHMM  : INDUCTION DEEP RESISTIVITY
IMPH   .OHMM  : INDUCTION MEDIUM PHASOR RESISTIVITY
DTSM   .US/F  : DELTA-T SHEAR
DTCO   .US/F  : DELTA-T COMPRESSIONAL
~Params ----------------------------------------------------
~Other -----------------------------------------------------
~ASCII -----------------------------------------------------
# ...
 13620.00000    0.21290   -9999.25    9.37910    2.71920  109.22710   20.40310   19.85390   20.62810  112.19500   62.29200
 13620.50000    0.22380   -9999.25    9.38340    2.71650  109.95660   19.29660   18.77950   19.78760  112.20620   62.89060
 13621.00000    0.22570   -9999.25    9.38470    2.70480  111.20680   18.22840   18.01520   18.88810  112.21730   63.72990
 13621.50000    0.22350   -9999.25    9.38780    2.70530  112.97380   17.64730   17.46250   18.02950  112.22850   63.85260
 13622.00000    0.22110   -9999.25    9.39100    2.70680  114.86320   17.26220   16.90840   17.62910  112.23470   63.84240
 13622.50000    0.22450   -9999.25    9.39410    2.70830  116.70520   16.78690   16.28650   16.94790  112.23470   63.75820
 13623.00000    0.22800   -9999.25    9.39730    2.70980  117.34170   16.07260   15.68740   16.29290  112.23470   62.86470
 13623.50000    0.23210   -9999.25    9.39670    2.71130  117.56300   15.38870   15.11040   15.66330  112.23470   62.33160
 13624.00000    0.23190   -9999.25    9.39520    2.71310  118.69840   14.99820   14.75950   15.24250  112.23470   62.29330
 13624.50000    0.23050   -9999.25    9.39010    2.71500  120.84610   14.79830   14.63640   15.20350  112.25850   62.29600
 13625.00000    0.22750   -9999.25    9.38480    2.71560  122.91180   14.65910   14.41000   15.31790  112.28230   62.29030
 13625.50000    0.22330   -9999.25    9.37950    2.71570  125.28780   14.37520   14.14500   14.89980  112.30100   62.29660
 13626.00000    0.22030   -9999.25    9.37420    2.71670  125.67490   14.00420   13.76320   14.41000  112.27580   62.27910
 13626.50000    0.22620   -9999.25    9.36900    2.71740  125.74260   13.59910   13.14500   13.86180  112.25060   62.17920
 13627.00000    0.23200   -9999.25    9.36370    2.71170  126.04320   12.87730   12.50190   13.17960  112.22540   62.06140
 13627.50000    0.23080   -9999.25    9.35840    2.70590  128.36010   12.19380   11.89020   12.53100  112.20020   61.94300
 13628.00000    0.20840   -9999.25    9.32880    2.69860  134.80600   11.63860   11.43560   11.91440  112.17500   62.23330
 13628.50000    0.17140   -9999.25    9.29420    2.68430  133.72220   11.54340   11.35110   11.77230  112.14980   63.53920
 13629.00000    0.13410   -9999.25    9.25950    2.65030  123.58930   11.76710   11.50970   11.82210  112.12460   63.82320
 13629.50000    0.12130   -9999.25    9.22480    2.65040  111.40850   12.06340   11.86200   12.35300  112.09940   63.23570
 13630.00000    0.11980   -9999.25    9.19010    2.65050  106.27950   12.50440   12.22500   12.95930  112.07420   62.49620
 13630.50000    0.11940   -9999.25    9.17470    2.65050  110.78440   13.88230   13.46760   14.30550  112.04900   61.82930
 13631.00000    0.11090   -9999.25    9.17500   -9999.25  114.29560   15.75390   15.11990   16.46960  112.02380   61.87030
 13631.50000    0.09220   -9999.25    9.17940   -9999.25  115.92010   17.99120   17.37000   18.96120  111.99860   62.19260
 13632.00000    0.08290   -9999.25    9.18380   -9999.25  118.19350   20.79700   19.98500   24.79060  112.00730   62.98790
 13632.50000    0.07360   -9999.25    9.21230   -9999.25  118.35870   24.17080   23.41340   27.24600  112.02710   63.93500
 13633.00000    0.07690   -9999.25    9.27320   -9999.25  116.64410   26.05620   25.41850   29.94460  112.04680   64.01340
 13633.50000    0.08600   -9999.25    9.27550   -9999.25  114.57930   27.67120   27.45710   32.91060  112.25360   64.03130
 13634.00000    0.11370   -9999.25    9.27780   -9999.25  112.82800   27.04510   27.11340   35.35370  112.50740   64.04560
 13634.50000    0.14010   -9999.25    9.28010   -9999.25  113.83480   25.29240   24.77310   32.17130  112.95150   63.95230
 13635.00000    0.16290   -9999.25    9.28240   -9999.25  115.14160   23.32610   22.61100   28.21650  113.91680   63.66250
 13635.50000    0.18060   -9999.25    9.28470   -9999.25  116.11450   21.51600   20.63760   25.14510  116.19840   63.98690
 13636.00000    0.18570   -9999.25    9.28700   -9999.25  116.16800   19.96500   19.38050   22.40810  117.96900   64.84470
 13636.50000    0.17400   -9999.25    9.28920   -9999.25  114.47690   18.93250   18.64690   19.96900  111.67650   64.94500
 13637.00000    0.15900   -9999.25    9.29150   -9999.25  109.00930   18.40470   18.09100   19.85490  111.93500   64.96480
 13637.50000    0.14420   -9999.25    9.29380   -9999.25  102.77530   17.98880   17.62380   19.96170  114.64320   64.74590
 13638.00000    0.14990   -9999.25    9.29610   -9999.25   98.51550   18.14700   17.88030   20.06910  115.35640   64.25190
 13638.50000    0.16050   -9999.25    9.29840   -9999.25   99.48190   19.06910   18.57200   20.17700  115.05630   64.69290
 13639.00000    0.16320   -9999.25    9.30070   -9999.25  101.55030   19.99950   19.18600   20.29900  113.88010   65.23440
 13639.50000    0.16510   -9999.25    9.30300   -9999.25  103.94470   20.03570   19.47050   20.50070  112.29560   64.05180
 13640.00000    0.16660   -9999.25    9.30520   -9999.25  105.30490   20.20230   19.68930   20.73170  112.01650   64.70370
 13640.50000    0.16790   -9999.25    9.29720    2.66640  106.78620   20.37020   19.85460   21.23390  113.43480   65.06460
 13641.00000    0.16740   -9999.25    9.26320    2.66900  106.81210   20.65350   20.29900   21.74820  114.92550   65.06900
 13641.50000    0.16530   -9999.25    9.22920    2.67150  105.68960   20.98270   20.74670   22.20450  114.15240   64.85370
 13642.00000    0.16390   -9999.25    9.22840    2.67410  104.13680   21.31720   21.07350   22.39520  109.16320   64.33130
 13642.50000    0.17330   -9999.25    9.27110    2.67670  103.37500   21.54750   21.35990   22.62850  111.34880   64.10490
 13643.00000    0.18830   -9999.25    9.30420    2.67830  104.50750   21.77540   21.60500   22.71820  111.67860   64.23030
 13643.50000    0.20610   -9999.25    9.33730    2.67950  107.84930   22.00570   21.85290   22.80820  112.06260   64.06800
 13644.00000    0.22340   -9999.25    9.37040    2.68060  111.58860   22.23850   22.10360   22.89860  113.67020   63.10890
 13644.50000    0.23350   -9999.25    9.39630    2.68190  112.65980   22.39210   22.18490   22.98940  115.31960   63.34620
 13645.00000    0.23660   -9999.25    9.41710    2.68960  111.14690   21.31900   20.76880   22.63790  116.99150   64.71390
 13645.50000    0.23550   -9999.25    9.43800    2.69730  108.59970   19.99570   19.32440   21.92880  119.82890   65.55650
 13646.00000    0.23610   -9999.25    9.45880    2.69850  109.03440   18.88770   18.45470   21.24180  122.29450   66.94400
 13646.50000    0.23880   -9999.25    9.47680    2.69870  111.80170   18.17960   17.75010   20.57640  124.76010   68.24440
 13647.00000    0.23950   -9999.25    9.47810    2.69900  115.98920   17.49790   17.07240   20.04960  127.22570   69.14400
 13647.50000    0.24000   -9999.25    9.47930    2.69930  121.23570   16.84190   16.42050   -9999.25  129.69130   69.50760
 13648.00000    0.23990   -9999.25    9.48060    2.69970  123.95520   16.21040   15.82550   -9999.25  131.96340   71.23660
 13648.50000    0.23840   -9999.25    9.46210    2.70000  124.71210   15.67580   15.39030   -9999.25  134.19340   72.28890
 13649.00000    0.23800   -9999.25    9.43650    2.70030  124.67820   15.24010   14.98150   -9999.25  133.76860   72.21260
 13649.50000    0.23930   -9999.25    9.41080    2.70070  124.29300   15.09250   14.93120   -9999.25  131.56710   71.68710
 13650.00000    0.23980   -9999.25    9.38520    2.70070  123.34480   15.73590   15.51390   -9999.25  126.96530   70.77300
 13650.50000    0.22340   -9999.25    9.35950   -9999.25  122.39660   16.79230   16.42090   -9999.25  121.95030   68.86700
 13651.00000    0.20670   -9999.25    9.33390   -9999.25  120.94410   18.20590   17.42380   -9999.25  113.22210   65.14620
 13651.50000    0.19000   -9999.25    9.30830   -9999.25  117.59750   20.30350   19.32540   -9999.25  113.88050   63.04920
 13652.00000    0.16880   -9999.25    9.28260   -9999.25  114.88660   22.95250   21.79330   -9999.25  114.14540   61.99710
 13652.50000    0.14230   -9999.25    9.25510   -9999.25  108.90590   27.15820   25.61010   -9999.25  112.17930   62.10560
