~Version ---------------------------------------------------
VERS.   2.0 : CWLS log ASCII Standard -VERSION 2.0
WRAP.    NO : One line per depth step
DLM . SPACE : Column Data Section Delimiter
~Well ------------------------------------------------------
STRT .F                12861.0 : START DEPTH
STOP .F                18356.0 : STOP DEPTH
STEP .F                    0.5 : STEP
NULL .                -9999.25 : NULL VALUE
COMP .                         : COMPANY
WELL .                         : WELL
FLD  .                         : FIELD
LOC  .                         : LOCATION
PROV .                         : PROVINCE
CNTY .                         : COUNTY
STAT .                         : STATE
CTRY .                         : COUNTRY
SRVC .                         : SERVICE COMPANY
DATE .                         : DATE
UWI  .                         : UNIQUE WELL ID
API  .                         : API NUMBER
SLAT .WGS84  5.027106254005496 : SURFACE LATITUDE
SLON .WGS84 2.6071148984420063 : SURFACE LONGITUDE
DATUM.F                    nan : DEPTH DATUM ELEV
~Curve Information -----------------------------------------
DEPT   .F     : 1 MEASURED DEPTH
NPHI_LS.DEC   : NEUTRON POROSITY LIMESTONE
DPHI_LS.DEC   : DENSITY POROSITY LIMESTONE
CALD   .IN    : CALIPER FROM DENSITY LOG
RHOB   .G/C3  : BULK DENSITY
GRR    .GAPI  : GAMMA RAY FROM RESISTIVITY LOG
IDPH   .OHMM  : INDUCTION DEEP PHASOR RESISTIVITY
ILD    .OHMM  : INDUCTION DEEP RESISTIVITY
IMPH   .OHMM  : INDUCTION MEDIUM PHASOR RESISTIVITY
DTSM   .US/F  : DELTA-T SHEAR
DTCO   .US/F  : DELTA-T COMPRESSIONAL
~Params ----------------------------------------------------
~Other -----------------------------------------------------
~ASCII -----------------------------------------------------
# ...
 14379.00000    0.04240   -9999.25    8.93700    2.60120   56.51300   17.71870   17.30730   18.32180   99.00840   64.53920
 14379.50000    0.03990   -9999.25    8.90330    2.59850   54.30710   18.01420   17.58870   18.76630   99.34810   64.05280
 14380.00000    0.04290   -9999.25    8.86960    2.59440   53.75860   18.31460   17.87480   19.22170   99.96900   63.04950
 14380.50000    0.04750   -9999.25    8.86140    2.59380   54.26860   18.62000   18.16550   19.77160  100.58980   62.11120
 14381.00000    0.05230   -9999.25    8.85570    2.59320   54.77860   18.93050   18.33310   20.49380  101.21070   61.46020
 14381.50000   -9999.25   -9999.25    8.85000    2.59030   53.29030   19.20230   18.60950   20.06700  102.21080   60.77240
 14382.00000   -9999.25   -9999.25    8.84430    2.58940   51.12250   19.42880   18.89000   19.83880  102.34710   60.19860
 14382.50000   -9999.25   -9999.25    8.83870    2.58950   51.29550   19.65820   19.17470   19.96720  101.51390   60.84290
 14383.00000   -9999.25   -9999.25    8.83300    2.58860   51.62980   19.89050   19.46370   20.31960   98.05090   61.78590
 14383.50000   -9999.25   -9999.25    8.82730    2.58630   51.69450   20.12550   19.75710   20.53640   98.24190   61.33820
 14384.00000   -9999.25   -9999.25    8.82160    2.58390   51.69420   20.36330   19.73840   20.64620  101.29100   61.62860
 14384.50000   -9999.25   -9999.25    8.81580    2.58160   51.74660   20.47540   19.69600   20.75660  102.77970   62.07070
 14385.00000   -9999.25   -9999.25    8.80520    2.57920   52.50250   20.37080   19.65380   20.79650  103.42890   61.72660
 14385.50000   -9999.25   -9999.25    8.79470    2.57690   55.90600   20.30590   19.72540   20.86830  103.23160   61.60490
 14386.00000   -9999.25   -9999.25   -9999.25   -9999.25   57.99300   20.81260   20.26880   21.22660  101.92750   62.95750
 14386.50000   -9999.25   -9999.25   -9999.25   -9999.25   56.99190   21.28480   20.81780   21.59100  101.41130   62.91780
 14387.00000   -9999.25   -9999.25   -9999.25   -9999.25   54.68410   21.53810   21.09610   21.87380  101.01580   61.71030
 14387.50000   -9999.25   -9999.25   -9999.25   -9999.25   50.82220   21.53300   21.04920   22.12080  101.07750   59.94520
 14388.00000   -9999.25   -9999.25   -9999.25   -9999.25   49.27660   20.82770   19.49090   21.20210  101.31020   58.13050
 14388.50000   -9999.25   -9999.25   -9999.25   -9999.25   49.50890   18.75870   17.68380   19.57460  101.62380   56.87640
 14389.00000   -9999.25   -9999.25   -9999.25   -9999.25   53.05700   17.72990   17.27680   18.66570  102.15850   56.08820
 14389.50000    0.06400   -9999.25   -9999.25   -9999.25   65.70010   21.50850   19.30550   19.42810  104.63260   55.99110
 14390.00000    0.08530   -9999.25   -9999.25   -9999.25   84.44500   26.54030   25.43000   20.61960  110.26400   59.01930
 14390.50000    0.09320   -9999.25   -9999.25   -9999.25   97.78310   30.19630   29.48510   19.69650  116.43180   63.04620
 14391.00000    0.10200   -9999.25   -9999.25   -9999.25  109.37610   32.06220   30.87660   17.48240  116.46090   63.44780
 14391.50000    0.11090   -9999.25   -9999.25   -9999.25  115.33320   33.69580   31.48440   15.66240  115.19910   64.06220
 14392.00000    0.11970   -9999.25   -9999.25   -9999.25  113.78120   33.94590   31.27400   14.99800  115.12340   65.56490
 14392.50000    0.12860   -9999.25   -9999.25   -9999.25  110.47190   34.18380   31.06500   14.98930  115.34490   66.15110
 14393.00000    0.13630   -9999.25   -9999.25   -9999.25  105.46280   34.35910   30.96270   16.00840  116.06200   66.68590
 14393.50000    0.14310   -9999.25   -9999.25    2.57820  102.94190   34.50990   30.91040   21.18520  118.30080   67.86530
 14394.00000    0.13560   -9999.25   -9999.25    2.57730  102.65910   34.64320   30.85810   31.25470  115.84120   67.35020
 14394.50000    0.10910   -9999.25   -9999.25    2.57650  104.09370   34.77710   30.80600   44.22810  112.47630   66.66290
 14395.00000    0.09150   -9999.25   -9999.25    2.57530  101.33840   34.91150   30.90040   55.10240  109.59200   65.80670
 14395.50000    0.07860   -9999.25   -9999.25    2.57440   90.38750   35.04640   31.30920   57.57770  107.45780   64.47260
 14396.00000    0.06590   -9999.25   -9999.25    2.57540   78.80780   35.18180   31.58910   45.19440  106.47060   63.68220
 14396.50000    0.05340   -9999.25   -9999.25    2.57660   59.58710   34.77460   31.13890   37.97540  105.42890   62.66880
 14397.00000    0.04020   -9999.25   -9999.25    2.57780   51.33860   33.73520   30.69510   35.33320  102.49440   60.99010
 14397.50000    0.02650   -9999.25   -9999.25    2.57910   43.77980   33.05690   30.25760   34.87070  100.19480   59.89860
 14398.00000    0.00620   -9999.25   -9999.25    2.57870   38.58560   33.16200   30.13360   34.48970  100.06680   60.45280
 14398.50000   -0.02310   -9999.25   -9999.25    2.57580   35.33640   33.61680   30.05320   34.37110  103.11920   62.29220
 14399.00000   -0.05230   -9999.25   -9999.25    2.57280   35.87560   34.07770   30.02850   34.71030  102.24240   62.36750
 14399.50000   -0.08160   -9999.25   -9999.25    2.57070   39.39690   34.54500   30.06260   35.13840   99.81330   62.03500
 14400.00000   -0.09960   -9999.25   -9999.25    2.57090   41.55250   35.01870   30.09670   35.57180   99.99030   61.18740
 14400.50000   -0.09990   -9999.25   -9999.25    2.57590   41.56420   35.34280   30.13080   36.01060  100.31520   60.20800
 14401.00000   -0.10010   -9999.25   -9999.25    2.58060   41.63520   35.30410   30.16500   35.95580  100.05650   59.84540
 14401.50000   -9999.25   -9999.25   -9999.25    2.58510   45.65310   35.34240   30.19930   35.86580   98.85970   60.97010
 14402.00000   -9999.25   -9999.25   -9999.25    2.58930   50.87540   34.75110   29.57570   35.77600   98.17910   62.09900
 14402.50000   -9999.25   -9999.25   -9999.25    2.59130   58.73810   34.14700   28.36110   35.77830   99.28880   60.90010
 14403.00000   -9999.25   -9999.25   -9999.25    2.59340   63.34740   33.88460   28.19120   35.79370   97.95080   61.35890
 14403.50000   -9999.25   -9999.25   -9999.25    2.59540   64.73400   33.45330   28.13110   35.80910   95.41720   61.83350
 14404.00000   -9999.25   -9999.25   -9999.25    2.59400   64.21940   33.02750   28.07110   35.77850   96.16370   60.96740
 14404.50000   -9999.25   -9999.25   -9999.25    2.58910   63.07210   32.67530   27.43480   35.65110   96.56300   59.85010
 14405.00000   -9999.25   -9999.25   -9999.25    2.58210   58.41710   32.55760   26.71260   35.62620   94.88930   60.31070
 14405.50000   -9999.25   -9999.25   -9999.25    2.57500   53.38930   32.57160   26.64080   35.60130   92.04210   61.41990
 14406.00000   -9999.25   -9999.25   -9999.25    2.56790   48.57160   32.56780   26.65220   35.57640   92.39930   62.01940
 14406.50000   -9999.25   -9999.25   -9999.25    2.56710   45.02410   32.51410   27.36060   35.91310   93.36820   62.37310
 14407.00000   -9999.25   -9999.25   -9999.25    2.56710   42.62930   34.40160   28.49700   37.91460   95.20210   61.29000
 14407.50000   -9999.25   -9999.25   -9999.25    2.56940   38.77100   36.36020   29.62560   39.63840   94.93550   60.31090
 14408.00000   -0.10030   -9999.25   -9999.25    2.57220   39.69440   38.41980   30.71120   41.86930   94.66890   60.18290
 14408.50000   -0.10060   -9999.25   -9999.25    2.57420   42.20990   38.43600   31.12020   44.27610   94.54080   59.21470
 14409.00000   -0.10070   -9999.25   -9999.25    2.57530   42.03460   37.40300   31.14120   48.07030   94.76460   59.13530
 14409.50000   -0.03560   -9999.25   -9999.25    2.58220   40.58900   34.19390   29.72960   50.07040   95.16790   58.36220
 14410.00000    0.10120   -9999.25    8.66740    2.59130   39.14340   28.98950   24.57200   48.31870   99.38310   58.10950
 14410.50000    0.15420   -9999.25    8.79870    2.60190   41.91920   23.22320   20.15670   42.08010  109.99950   61.82530
 14411.00000    0.18590   -9999.25    8.92990    2.62830   58.91850   17.65800   16.52010   31.43060  116.81300   64.62810
 14411.50000    0.20920   -9999.25    9.06120    2.65360   79.85570   14.83780   13.80840   22.07700  123.29310   67.12120
