~Version ---------------------------------------------------
VERS.   2.0 : CWLS log ASCII Standard -VERSION 2.0
WRAP.    NO : One line per depth step
DLM . SPACE : Column Data Section Delimiter
~Well ------------------------------------------------------
STRT .F                12861.0 : START DEPTH
STOP .F                18356.0 : STOP DEPTH
STEP .F                    0.5 : STEP
NULL .                -9999.25 : NULL VALUE
COMP .                         : COMPANY
WELL .                         : WELL
FLD  .                         : FIELD
LOC  .                         : LOCATION
PROV .                         : PROVINCE
CNTY .                         : COUNTY
STAT .                         : STATE
CTRY .                         : COUNTRY
SRVC .                         : SERVICE COMPANY
DATE .                         : DATE
UWI  .                         : UNIQUE WELL ID
API  .                         : API NUMBER
SLAT .WGS84  5.027106254005496 : SURFACE LATITUDE
SLON .WGS84 2.6071148984420063 : SURFACE LONGITUDE
DATUM.F                    nan : DEPTH DATUM ELEV
~Curve Information -----------------------------------------
DEPT   .F     : 1 MEASURED DEPTH
NPHI_LS.DEC   : NEUTRON POROSITY LIMESTONE
DPHI_LS.DEC   : DENSITY POROSITY LIMESTONE
CALD   .IN    : CALIPER FROM DENSITY LOG
RHOB   .G/C3  : BULK DENSITY
GRR    .GAPI  : GAMMA RAY FROM RESISTIVITY LOG
IDPH   .OHMM  : INDUCTION DEEP PHASOR RESISTIVITY
ILD    .OHMM  : INDUCTION DEEP RESISTIVITY
IMPH   .OHMM  : INDUCTION MEDIUM PHASOR RESISTIVITY
DTSM   .US/F  : DELTA-T SHEAR
DTCO   .US/F  : DELTA-T COMPRESSIONAL
~Params ----------------------------------------------------
~Other -----------------------------------------------------
~ASCII -----------------------------------------------------
# ...
 17613.00000    0.19560   -9999.25    8.72040    2.61350   93.21790    3.35420    3.30540    3.65580   76.87260   49.47740
 17613.50000    0.19180   -9999.25    8.73940    2.61860   94.23930    3.29960    3.25160    3.57050   76.34000   53.18130
 17614.00000    0.19010   -9999.25    8.75840    2.62270   96.03160    3.25330    3.20470    3.48730   75.60120   55.57220
 17614.50000    0.19350   -9999.25    8.77320    2.62360   96.55450    3.18500    3.13590    3.40600   74.91540   56.60470
 17615.00000    0.20620   -9999.25    8.77250    2.61400   96.44680    3.08540    3.04100    3.32650   75.11790   56.60470
 17615.50000    0.22390   -9999.25    8.77190    2.60430   -9999.25    3.03570    2.99050    3.24900   77.39920   56.60470
 17616.00000    0.23740   -9999.25    8.77130    2.59700   -9999.25    2.97750    2.93320    3.17320   79.64020   56.60470
 17616.50000    0.24220   -9999.25    8.77070    2.59690   -9999.25    2.92880    2.88680    3.09920   80.57690   56.60470
 17617.00000    0.24200   -9999.25    8.77010    2.59930   -9999.25    2.88710    2.84480    3.02900   78.98980   56.60470
 17617.50000    0.23740   -9999.25    8.76950    2.60200   -9999.25    2.83920    2.79770    2.97960   78.17090   56.60460
 17618.00000    0.23530   -9999.25    8.76890    2.60510   -9999.25    2.79210    2.75130    2.93110   79.67300   56.60460
 17618.50000    0.23740   -9999.25    8.76820    2.60820   -9999.25    2.74580    2.70570    2.88930   81.33290   56.60460
 17619.00000    0.24490   -9999.25    8.76760    2.60900   -9999.25    2.70020    2.66080    2.88720   80.74030   56.60450
 17619.50000    0.24800   -9999.25    8.76700    2.60320   -9999.25    2.65550    2.61670    2.89860   79.54630   56.60450
 17620.00000    0.24860   -9999.25    8.77030    2.59920   -9999.25    2.61030    2.57300    2.90130   80.70480   56.60440
 17620.50000    0.25300   -9999.25    8.77880    2.59930   -9999.25    2.56710    2.52820    2.83530   82.16290   56.60440
 17621.00000    0.25890   -9999.25    8.78730    2.59980   -9999.25    2.53110    2.49560    2.72520   81.13430   56.60440
 17621.50000    0.26480   -9999.25    8.79580    2.60050   -9999.25    2.50940    2.47440    2.59890   83.57420   56.60440
 17622.00000    0.27070   -9999.25    8.80430    2.60110   -9999.25    2.47730    2.43740    2.51740   81.95690   56.64210
 17622.50000    0.27420   -9999.25    8.80960    2.60310   -9999.25    2.43960    2.40590    2.46950   82.95760   56.68000
 17623.00000    0.27340   -9999.25    8.81350    2.60520   -9999.25    2.43000    2.39650    2.47140   84.67570   56.71780
 17623.50000    0.26510   -9999.25    8.81740    2.60360   -9999.25    2.42340    2.39000    2.47340   84.87010   56.75570
 17624.00000    0.25610   -9999.25    8.82130    2.60150   -9999.25    2.43390    2.40000    2.47530   83.72310   56.78860
 17624.50000    0.25050   -9999.25    8.82530    2.60450   -9999.25    2.44970    2.41580    2.47720   84.64840   56.81000
 17625.00000    0.25190   -9999.25    8.82920    2.60850   -9999.25    2.43720    2.40350    2.47580   84.79900   56.83130
 17625.50000    0.25620   -9999.25    8.83280    2.61240   -9999.25    2.42480    2.39130    2.46960   84.44280   56.85260
 17626.00000    0.26140   -9999.25    8.83250    2.61610   -9999.25    2.41140    2.37620    2.43000   85.11280   56.87400
 17626.50000    0.27020   -9999.25    8.83220    2.61480   -9999.25    2.36340    2.32670    2.38930   84.60370   56.93490
 17627.00000    0.27850   -9999.25    8.83190    2.60600   -9999.25    2.30680    2.27250    2.34750   84.96580   57.15530
 17627.50000    0.27890   -9999.25    8.83160    2.59450   -9999.25    2.26060    2.22420    2.32490   85.99680   57.74170
 17628.00000    0.27940   -9999.25    8.83130    2.59190   -9999.25    2.19870    2.16580    2.31940   87.21230   58.65620
 17628.50000    0.28100   -9999.25    8.83100    2.59350   -9999.25    2.15430    2.12190    2.32530   87.21260   58.74550
 17629.00000    0.29120   -9999.25    8.83070    2.59500   -9999.25    2.11560    2.08550    2.29810   87.87700   58.85230
 17629.50000    0.29820   -9999.25    8.83040    2.59660   -9999.25    2.08980    2.06000    2.25880   87.94480   59.48570
 17630.00000    0.30000   -9999.25    8.83010    2.59600   -9999.25    2.06430    2.03490    2.24470   88.01150   59.52360
 17630.50000    0.30090   -9999.25    8.82980    2.59390  105.18660    2.04520    2.01390    2.23610   88.07820   59.40920
 17631.00000    0.30090   -9999.25    8.82950    2.59260  105.16550    2.07270    2.04410    2.21120   87.98020   58.65930
 17631.50000    0.29240   -9999.25    8.82920    2.59060  105.14450    2.07390    2.04540    2.18740   85.30520   57.91100
 17632.00000    0.28830   -9999.25    8.82890    2.58900  105.12350    2.08290    2.05410    2.17800   84.96150   57.46610
 17632.50000    0.28430   -9999.25    8.82860    2.58900  104.99340    2.08920    2.06040    2.16530   84.97650   57.43620
 17633.00000    0.28310   -9999.25    8.82830    2.58890  104.60530    2.09130    2.06250    2.14950   84.97850   57.40630
 17633.50000    0.28210   -9999.25    8.82800    2.58720   -9999.25    2.11140    2.08160    2.14690   84.98050   57.37650
 17634.00000    0.28120   -9999.25    8.82770    2.58970   -9999.25    2.13480    2.10460    2.15300   84.98240   57.34660
 17634.50000    0.28050   -9999.25    8.82740    2.59890   -9999.25    2.14450    2.11490    2.16310   84.98440   57.31680
 17635.00000    0.28040   -9999.25    8.82710    2.60900   -9999.25    2.15160    2.12190    2.17410   84.98640   57.28690
 17635.50000    0.28030   -9999.25    8.82680    2.60720   -9999.25    2.15610    2.12640    2.19930   84.98830   57.25700
 17636.00000    0.28010   -9999.25    8.82650    2.59780   -9999.25    2.17890    2.14800    2.23260   84.98040   57.22720
 17636.50000    0.28000   -9999.25    8.82980    2.59770   -9999.25    2.20460    2.17320    2.26650   84.96410   57.19730
 17637.00000    0.27290   -9999.25    8.83210    2.59780   -9999.25    2.22760    2.19630    2.30100   84.55810   57.19690
 17637.50000    0.26740   -9999.25    8.83200    2.59840   -9999.25    2.24640    2.21500    2.36080   84.96680   57.21150
 17638.00000    0.26220   -9999.25    8.83190    2.59890   -9999.25    2.26540    2.23370    2.43250   85.00140   57.32470
 17638.50000    0.25890   -9999.25    8.83180    2.59940   -9999.25    2.28450    2.25250    2.47100   85.05040   57.39030
 17639.00000    0.25630   -9999.25    8.83170    2.59920   -9999.25    2.30130    2.26920    2.48830   85.09440   57.28480
 17639.50000    0.25370   -9999.25    8.83160    2.59900   -9999.25    2.34060    2.30540    2.51410   84.90550   57.15210
 17640.00000    0.25090   -9999.25    8.83150    2.60560   -9999.25    2.38750    2.35170    2.54030   84.57910   56.95130
 17640.50000    0.24590   -9999.25    8.83140    2.61260   -9999.25    2.42760    2.39330    2.56670   84.18180   56.91230
 17641.00000    0.24340   -9999.25    8.83130    2.61360   -9999.25    2.44570    2.41210    2.59890   84.40230   56.92170
 17641.50000    0.24400   -9999.25    8.83120    2.61120   94.33740    2.45330    2.41910    2.63560   85.17090   56.93120
 17642.00000    0.24550   -9999.25    8.83110    2.61300   94.18340    2.45190    2.41790    2.67290   84.29830   56.94060
 17642.50000    0.24700   -9999.25    8.83100    2.61740   94.81400    2.44230    2.40870    2.70170   84.49080   56.95010
 17643.00000    0.25410   -9999.25    8.83090    2.62010   96.62130    2.44140    2.40780    2.66390   86.06610   57.34350
 17643.50000    0.26260   -9999.25    8.83080    2.62290   98.72840    2.43640    2.40280    2.59670   85.34040   57.36970
 17644.00000    0.27150   -9999.25    8.83070    2.61390  100.56610    2.41730    2.37710    2.52970   84.30400   57.12070
 17644.50000    0.27160   -9999.25    8.83060    2.60300  101.22170    2.36290    2.32820    2.46050   83.90670   56.93590
 17645.00000    0.27200   -9999.25    8.83050    2.59990  100.73830    2.33550    2.30250    2.39320   84.23390   56.90030
 17645.50000    0.27320   -9999.25    8.83040    2.60210  100.60260    2.31920    2.28700    2.36510   84.43190   56.86480
