~Version ---------------------------------------------------
VERS.   2.0 : CWLS log ASCII Standard -VERSION 2.0
WRAP.    NO : One line per depth step
DLM . SPACE : Column Data Section Delimiter
~Well ------------------------------------------------------
STRT .F                12861.0 : START DEPTH
STOP .F                18356.0 : STOP DEPTH
STEP .F                    0.5 : STEP
NULL .                -9999.25 : NULL VALUE
COMP .                         : COMPANY
WELL .                         : WELL
FLD  .                         : FIELD
LOC  .                         : LOCATION
PROV .                         : PROVINCE
CNTY .                         : COUNTY
STAT .                         : STATE
CTRY .                         : COUNTRY
SRVC .                         : SERVICE COMPANY
DATE .                         : DATE
UWI  .                         : UNIQUE WELL ID
API  .                         : API NUMBER
SLAT .WGS84  5.027106254005496 : SURFACE LATITUDE
SLON .WGS84 2.6071148984420063 : SURFACE LONGITUDE
DATUM.F                    nan : DEPTH DATUM ELEV
~Curve Information -----------------------------------------
DEPT   .F     : 1 MEASURED DEPTH
NPHI_LS.DEC   : NEUTRON POROSITY LIMESTONE
DPHI_LS.DEC   : DENSITY POROSITY LIMESTONE
CALD   .IN    : CALIPER FROM DENSITY LOG
RHOB   .G/C3  : BULK DENSITY
GRR    .GAPI  : GAMMA RAY FROM RESISTIVITY LOG
IDPH   .OHMM  : INDUCTION DEEP PHASOR RESISTIVITY
ILD    .OHMM  : INDUCTION DEEP RESISTIVITY
IMPH   .OHMM  : INDUCTION MEDIUM PHASOR RESISTIVITY
DTSM   .US/F  : DELTA-T SHEAR
DTCO   .US/F  : DELTA-T COMPRESSIONAL
~Params ----------------------------------------------------
~Other -----------------------------------------------------
~ASCII -----------------------------------------------------
# ...
 15468.00000    0.10410   -9999.25   -9999.25    2.64580   72.06490    7.80950    7.63120    8.42740  122.90630   66.04840
 15468.50000    0.10910   -9999.25   -9999.25    2.64590   73.08770    7.72570    7.55530    8.08970  120.04740   66.21860
 15469.00000    0.11460   -9999.25   -9999.25    2.64600   72.38190    7.67480    7.50560    8.08530  118.72490   65.82520
 15469.50000    0.12250   -9999.25   -9999.25    2.64330   71.21310    7.74710    7.57310    8.08080  119.07710   65.64620
 15470.00000    0.12900   -9999.25   -9999.25    2.63910   70.04430    7.82890    7.65300    8.07630  119.82980   66.00610
 15470.50000    0.12860   -9999.25   -9999.25    2.63480   70.13410    7.91160    7.73370    8.26310  120.58260   66.81880
 15471.00000    0.12590   -9999.25   -9999.25    2.63040   71.13370    7.99510    7.81530    8.32940  121.94900   68.04990
 15471.50000    0.12310   -9999.25   -9999.25    2.62830   71.71870    7.99860    7.82180    8.39620  124.18760   67.92670
 15472.00000    0.12010   -9999.25   -9999.25    2.62910   72.42190    7.94520    7.76960    8.42300  124.81830   67.76470
 15472.50000    0.11690   -9999.25   -9999.25    2.62980   73.19420    7.89230    7.71780    8.43590  125.96550   67.82870
 15473.00000    0.11370   -9999.25   -9999.25    2.63050   74.45500    7.83960    7.66640    8.38360  127.69850   67.86550
 15473.50000    0.11160   -9999.25    9.29990    2.63120   76.49010    7.84580    7.67150    8.36370  128.33630   67.90230
 15474.00000    0.10980   -9999.25    9.40510    2.63200   79.69660    7.95410    7.76490    8.34950  124.39950   66.66690
 15474.50000    0.10980   -9999.25    9.51030    2.63270   81.24530    8.10930    7.91690    8.39630  121.08950   63.25130
 15475.00000    0.11440   -9999.25    9.61540    2.63340   79.29720    8.28380    8.08230    8.56690  116.66010   60.72960
 15475.50000    0.12080   -9999.25    9.72060    2.63410   77.21800    8.61720    8.40080    8.80960  114.57900   57.81780
 15476.00000    0.13160   -9999.25    9.82580    2.63420   75.13890    8.94620    8.66660    9.40220  115.51520   57.51960
 15476.50000    0.13940   -9999.25    9.93100    2.63420   75.60260    9.69750    9.21920   10.03460  114.74120   56.55910
 15477.00000    0.13260   -9999.25    9.95150    2.63420   73.51880   10.46870    9.98080   10.96320  111.08080   54.50580
 15477.50000    0.12170   -9999.25    9.83850    2.63420   70.54600   11.64250   10.92310   12.18560  106.22870   52.45240
 15478.00000    0.10450   -9999.25    9.66150    2.63420   67.70530   12.97710   12.21420   13.60690  101.37660   50.70000
 15478.50000    0.09030   -9999.25    9.54520    2.63420   60.99290   14.46460   13.68730   15.25240   99.21050   50.11380
 15479.00000    0.08620   -9999.25    9.55110    2.63360   50.05420   16.12270   15.35250   17.09680   98.26730   50.60710
 15479.50000    0.09220   -9999.25    9.61290    2.63260   45.17980   17.97090   16.57280   20.13660   97.92370   53.29880
 15480.00000    0.10220   -9999.25    9.59930    2.63500   41.70090   20.26370   17.44900   24.36190   99.48830   59.89090
 15480.50000    0.09960   -9999.25    9.47700    2.64960   39.05330   22.92310   19.41130   29.47380  100.62290   61.70960
 15481.00000    0.07780   -9999.25    9.14770    2.65770   39.22330   25.05890   20.92830   31.72680   97.83650   61.28420
 15481.50000    0.05590   -9999.25    8.80470    2.66500   41.70580   25.26040   21.53100   31.04610   92.56260   58.99620
 15482.00000    0.03410   -9999.25    8.46180    2.67150   45.85280   25.26810   21.89650   30.13830   91.73500   57.92540
 15482.50000    0.01200   -9999.25    8.31900    2.67020   50.52800   25.40380   21.73080   29.05690   92.11350   58.50720
 15483.00000   -0.01050   -9999.25    8.29470    2.66700   51.42980   24.47650   20.53250   27.26690   94.93710   59.59200
 15483.50000   -0.03300   -9999.25    8.31060    2.65280   51.58050   23.12750   19.01490   25.58720  100.70260   60.99530
 15484.00000   -0.05550   -9999.25    8.37870    2.64150   51.80070   21.83270   17.73060   24.01100  105.73830   61.13880
 15484.50000   -0.07800   -9999.25    8.46380    2.63580   53.80310   20.06630   16.85400   22.49180  114.38670   59.07860
 15485.00000   -0.09940   -9999.25    8.54890    2.64410   57.33750   18.44280   16.47910   20.97150  115.58120   58.02610
 15485.50000   -0.09980   -9999.25    8.60540    2.65170   59.59580   16.84690   15.91550   19.55400  115.67470   58.00660
 15486.00000   -0.09980   -9999.25    8.64990    2.65740   60.56950   14.58450   13.74690   17.88080  117.82740   59.43050
 15486.50000   -0.09960   -9999.25    8.69380    2.66140   57.51420   12.41360   10.71280   15.91060  120.30400   61.44520
 15487.00000   -0.09940   -9999.25    8.69380    2.66540   56.33030    9.50670    8.51720   13.83230  123.04010   64.35050
 15487.50000   -0.09920   -9999.25    8.84270    2.66940   59.76140    7.38290    6.70130   11.73710  125.18370   66.39410
 15488.00000   -0.09900   -9999.25    9.06600    2.67330   64.84000    6.10580    5.51590   10.06600  126.79940   68.46870
 15488.50000   -0.09870   -9999.25    9.21010    2.68170   70.63970    5.04030    4.78820    8.63280  127.14590   68.37050
 15489.00000   -0.09260   -9999.25    9.24980    2.68120   73.62850    4.81120    4.70470    7.68660  126.50520   67.08510
 15489.50000   -0.03640   -9999.25    9.28950    2.66410   72.46150    4.74080    4.63420    6.99460  122.53070   65.46180
 15490.00000    0.01990   -9999.25    9.32920    2.65410   70.34650    4.71520    4.61150    6.44500  111.70850   60.58210
 15490.50000    0.08820   -9999.25    9.36900    2.64720   70.43640    4.69520    4.59200    6.30710   98.37330   53.60090
 15491.00000    0.13600   -9999.25    9.41710    2.64240   75.95830    4.67630    4.57380    6.32860   78.80300   48.46310
 15491.50000    0.15230   -9999.25    9.47750    2.63670   83.15520    4.67550    4.57300    6.43470   77.56900   42.46460
 15492.00000    0.15430   -9999.25    9.53800    2.63590   86.73940    4.67470    4.57220    7.40630   79.23710   43.15840
 15492.50000    0.14800   -9999.25    9.59840   -9999.25   89.40690    4.69140    4.58820   83.00590   79.33590   43.68070
 15493.00000    0.15340   -9999.25    9.66450   -9999.25   90.17680    4.70450    4.60140  735.27140   78.19720   43.38520
 15493.50000    0.17190   -9999.25    9.72770   -9999.25   90.23400    4.74080    4.63150 1377.78030   78.02590   43.08970
 15494.00000    0.19360   -9999.25    9.78750   -9999.25   89.66600    4.80420    4.69750 1922.79160   77.85850   42.88300
 15494.50000    0.22060   -9999.25    9.83580   -9999.25   87.92430    4.83920    4.73250 1196.22240   77.69110   42.73510
 15495.00000    0.22440   -9999.25    9.85050   -9999.25   88.03210    4.87930    4.75790  282.12100   77.62930   42.77350
 15495.50000    0.22430   -9999.25    9.86520   -9999.25   87.78820    5.06530    4.90690   28.33240   78.15330   43.56720
 15496.00000    0.22410   -9999.25    9.87680   -9999.25   85.94300    5.56880    5.22050   26.08050   84.41280   45.36850
 15496.50000    0.22400   -9999.25    9.88510   -9999.25   75.77170    6.32990    5.96310   29.84440   89.99640   48.53010
 15497.00000    0.22400   -9999.25    9.89160   -9999.25   61.09330    7.40470    6.89740   37.11860   90.32210   52.06560
 15497.50000    0.23050   -9999.25    9.89160   -9999.25   43.06400    9.05440    8.21490   46.16580   90.34220   55.90470
 15498.00000    0.23790   -9999.25    9.88330   -9999.25   27.50050   11.91290   10.64320   51.79800   88.52430   59.63510
 15498.50000    0.21240   -9999.25    9.83960   -9999.25   22.52760   17.16520   14.90320   51.76100   82.81490   58.31970
 15499.00000    0.15330   -9999.25    9.73300   -9999.25   23.16520   27.28210   21.65380   47.51320   80.00320   55.87500
 15499.50000    0.08400   -9999.25    9.49010   -9999.25   24.93470   33.69910   30.37250   42.28930   78.86800   54.90430
 15500.00000   -0.00310   -9999.25    9.23850   -9999.25   26.78200   37.04800   35.42470   39.74520   82.22680   53.35300
 15500.50000   -0.07040   -9999.25    8.99560   -9999.25   34.38220   35.26150   34.16400  100.45950   91.31520   56.42130
