~Version ---------------------------------------------------
VERS.   2.0 : CWLS log ASCII Standard -VERSION 2.0
WRAP.    NO : One line per depth step
DLM . SPACE : Column Data Section Delimiter
~Well ------------------------------------------------------
STRT .F                10996.0 : START DEPTH
STOP .F                14315.0 : STOP DEPTH
STEP .F                    0.5 : STEP
NULL .                -9999.25 : NULL VALUE
COMP .                         : COMPANY
WELL .                         : WELL
FLD  .                         : FIELD
LOC  .                         : LOCATION
PROV .                         : PROVINCE
CNTY .                         : COUNTY
STAT .                         : STATE
CTRY .                         : COUNTRY
SRVC .                         : SERVICE COMPANY
DATE .                         : DATE
UWI  .                         : UNIQUE WELL ID
API  .                         : API NUMBER
SLAT .WGS84 5.7327837775454995 : SURFACE LATITUDE
SLON .WGS84 3.9947683505355087 : SURFACE LONGITUDE
DATUM.F                 2066.0 : DEPTH DATUM ELEV
~Curve Information -----------------------------------------
DEPT.F     : 
GRD .GAPI  : GAMMA RAY FROM DENSITY LOG
NPHI.DEC   : NEUTRON POROSITY
DPHI.DEC   : DENSITY POROSITY
RHOB.G/C3  : BULK DENSITY
DRHO.G/C3  : BULK DENSITY CORRECTION
CALD.IN    : CALIPER FROM DENSITY LOG
GRR .GAPI  : GAMMA RAY FROM RESISTIVITY LOG
ILD .OHMM  : INDUCTION DEEP RESISTIVITY
ILM .OHMM  : INDUCTION MEDIUM RESISTIVITY
SFLU.OHMM  : SHALLOW FOCUSED RESISTIVITY (UNAVERAGED)
SPR .MV    : SPONTANEOUS POTENTIAL FROM RESISTIVITY LOG
DTCO.US/F  : DELTA-T COMPRESSIONAL
DTSM.US/F  : DELTA-T SHEAR
~Params ----------------------------------------------------
~Other -----------------------------------------------------
~ASCII -----------------------------------------------------
# ...
 13804.00000   -9999.25   -9999.25   -9999.25   -9999.25   -9999.25   -9999.25  106.54080   15.37990   15.82670   23.94950   12.28250   68.39220  116.21840
 13804.50000   -9999.25   -9999.25   -9999.25   -9999.25   -9999.25   -9999.25  105.75940   14.94980   15.33250   20.90560   12.30470   69.16870  117.77200
 13805.00000   -9999.25   -9999.25   -9999.25   -9999.25   -9999.25   -9999.25  105.18240   14.23530   14.59980   20.30450   12.32690   69.91400  119.38300
 13805.50000   -9999.25   -9999.25   -9999.25   -9999.25   -9999.25   -9999.25  109.13070   13.55510   13.90220   19.48680   12.34910   69.66300  120.99410
 13806.00000   -9999.25   -9999.25   -9999.25   -9999.25   -9999.25   -9999.25  115.17580   12.90730   13.23790   18.64820   12.37140   68.89480  122.60520
 13806.50000   -9999.25   -9999.25   -9999.25   -9999.25   -9999.25   -9999.25  114.61140   12.29050   12.60540   17.66600   12.42660   68.77300  124.21620
 13807.00000   -9999.25   -9999.25   -9999.25   -9999.25   -9999.25   -9999.25  111.37190   11.78720   12.09520   16.55290   12.51640   69.59410  125.64470
 13807.50000   -9999.25   -9999.25   -9999.25   -9999.25   -9999.25   -9999.25  109.91250   11.30480   11.63470   15.70840   12.60620   70.47110  127.00510
 13808.00000   -9999.25   -9999.25   -9999.25   -9999.25   -9999.25   -9999.25  113.53190   10.84220   11.22730   15.07940   12.69590   71.34800  128.14460
 13808.50000   -9999.25   -9999.25   -9999.25   -9999.25   -9999.25   -9999.25  118.06880   10.51050   10.88360   15.03160   12.78570   71.82480  129.15160
 13809.00000   -9999.25   -9999.25   -9999.25   -9999.25   -9999.25   -9999.25  119.28220   10.29420   10.77300   14.73320   12.87550   72.10820  129.74280
 13809.50000   -9999.25   -9999.25   -9999.25   -9999.25   -9999.25   -9999.25  118.93550   10.41110   10.76340   13.84530   12.96530   71.96230  128.99600
 13810.00000   -9999.25   -9999.25   -9999.25   -9999.25   -9999.25   -9999.25  117.22940   10.52930   10.96280   13.15710   13.00870   71.11890  125.63380
 13810.50000   -9999.25   -9999.25   -9999.25   -9999.25   -9999.25   -9999.25  110.96200   10.96300   11.39600   12.74270   12.94430   70.25300  121.67750
 13811.00000   -9999.25   -9999.25   -9999.25   -9999.25   -9999.25   -9999.25  101.10960   11.48080   12.00350   15.10650   12.88000   69.47090  120.29510
 13811.50000   -9999.25   -9999.25   -9999.25   -9999.25   -9999.25   -9999.25   91.57920   12.02300   12.64340   18.58830   12.81560   69.06650  120.65960
 13812.00000   -9999.25   -9999.25   -9999.25   -9999.25   -9999.25   -9999.25   88.33060   12.59090   13.31750   22.54480   12.75120   68.72920  114.81300
 13812.50000   -9999.25   -9999.25   -9999.25   -9999.25   -9999.25   -9999.25   94.19920   13.18550   14.02740   24.53300   12.68690   68.47370  115.34930
 13813.00000   -9999.25   -9999.25   -9999.25   -9999.25   -9999.25   -9999.25  100.30030   13.80830   14.58390   24.08490   12.62250   68.25370  116.02930
 13813.50000   -9999.25   -9999.25   -9999.25   -9999.25   -9999.25   -9999.25   98.70870   14.24230   14.79930   22.60940   12.55810   68.09340  115.98700
 13814.00000   -9999.25   -9999.25   -9999.25   -9999.25   -9999.25   -9999.25   95.99800   14.50750   15.01780   21.14310   12.52470   67.94540  115.70340
 13814.50000   -9999.25   -9999.25   -9999.25   -9999.25   -9999.25   -9999.25   95.69430   14.77760   15.11330   19.56970   12.54130   67.88550  115.41980
 13815.00000   -9999.25   -9999.25   -9999.25   -9999.25   -9999.25   -9999.25  101.46430   14.82610   15.19700   19.56970   12.55790   67.82550  115.13620
 13815.50000   -9999.25   -9999.25   -9999.25   -9999.25   -9999.25   -9999.25  108.18710   14.82350   15.31350   19.89500   12.57440   67.76560  114.85260
 13816.00000   -9999.25   -9999.25   -9999.25   -9999.25   -9999.25   -9999.25  107.87920   14.85390   15.43090   21.01560   12.59100   67.84620  114.80570
 13816.50000   -9999.25   -9999.25   -9999.25   -9999.25   -9999.25   -9999.25  107.58710   15.16890   15.54920   22.30510   12.60760   67.95500  114.80200
 13817.00000   -9999.25   -9999.25   -9999.25   -9999.25   -9999.25   -9999.25  108.85830   15.49050   15.85670   22.59640   12.62410   68.06390  114.80330
 13817.50000   -9999.25   -9999.25   -9999.25   -9999.25   -9999.25   -9999.25  110.16940   15.82750   16.27890   22.81820   12.64070   68.06890  114.80670
 13818.00000   -9999.25   -9999.25   -9999.25   -9999.25   -9999.25   -9999.25  104.09830   16.22670   16.71290   24.26530   12.65730   67.93110  114.53640
 13818.50000   -9999.25   -9999.25   -9999.25   -9999.25   -9999.25   -9999.25   98.04120   16.63600   17.12860   24.82300   12.67380   67.53170  114.01730
 13819.00000   -9999.25   -9999.25   -9999.25   -9999.25   -9999.25   -9999.25   93.44650   17.05560   17.45990   25.58330   12.69040   67.13230  113.30060
 13819.50000   -9999.25   -9999.25   -9999.25   -9999.25   -9999.25   -9999.25   90.85170   17.21110   17.72620   26.17470   12.70610   66.95510  112.58380
 13820.00000   -9999.25   -9999.25   -9999.25   -9999.25   -9999.25   -9999.25   90.54740   17.17580   17.87810   26.78450   12.67660   66.85970  112.27910
 13820.50000   -9999.25   -9999.25   -9999.25   -9999.25   -9999.25   -9999.25   93.01470   17.06190   17.83560   27.11090   12.64710   66.95870  112.39300
 13821.00000   -9999.25   -9999.25   -9999.25   -9999.25   -9999.25   -9999.25  100.92290   16.94880   17.43250   27.07940   12.61760   67.05930  112.56720
 13821.50000   -9999.25   -9999.25   -9999.25   -9999.25   -9999.25   -9999.25  108.50240   16.83650   16.97650   26.49830   12.58800   67.35750  113.45250
 13822.00000   -9999.25   -9999.25   -9999.25   -9999.25   -9999.25   -9999.25  111.63370   16.69380   16.50850   25.54260   12.55850   67.68430  114.33780
 13822.50000   -9999.25   -9999.25   -9999.25   -9999.25   -9999.25   -9999.25  108.74570   16.28200   16.05350   24.60930   12.52900   68.01120  114.62290
 13823.00000   -9999.25   -9999.25   -9999.25   -9999.25   -9999.25   -9999.25  104.31330   15.88040   15.61100   23.87100   12.49950   68.23080  114.89430
 13823.50000   -9999.25   -9999.25   -9999.25   -9999.25   -9999.25   -9999.25  104.53930   15.48870   15.18070   23.70890   12.47000   68.35110  115.19230
 13824.00000   -9999.25   -9999.25   -9999.25   -9999.25   -9999.25   -9999.25  105.08330   15.28150   14.78370   23.61040   12.48720   68.47140  115.25760
 13824.50000   -9999.25   -9999.25   -9999.25   -9999.25   -9999.25   -9999.25  103.26800   15.36280   14.66270   22.35970   12.48490   68.58050  114.62630
 13825.00000   -9999.25   -9999.25   -9999.25   -9999.25   -9999.25   -9999.25   96.09920   16.59930   15.08360   21.15070   12.45960   68.60000  113.34650
 13825.50000   -9999.25   -9999.25   -9999.25   -9999.25   -9999.25   -9999.25   87.66760   17.27050   16.31710   21.19860   12.32060   68.45050  112.06670
 13826.00000   -9999.25   -9999.25   -9999.25   -9999.25   -9999.25   -9999.25   80.91660   18.76090   17.92340   22.74270   12.14570   68.05520  110.42990
 13826.50000   -9999.25   -9999.25   -9999.25   -9999.25   -9999.25   -9999.25   74.16560   21.63300   19.84900   31.98640   11.97080   66.58470  108.20280
 13827.00000   -9999.25   -9999.25   -9999.25   -9999.25   -9999.25   -9999.25   72.20640   24.27400   21.98140   43.03980   11.79580   64.41740  105.97560
 13827.50000   -9999.25   -9999.25   -9999.25   -9999.25   -9999.25   -9999.25   74.07170   25.50320   24.34300   56.16920   11.62090   63.71560  104.12060
 13828.00000   -9999.25   -9999.25   -9999.25   -9999.25   -9999.25   -9999.25   76.64380   26.79460   26.95820   61.80040   11.44590   64.63180  104.92270
 13828.50000   -9999.25   -9999.25   -9999.25   -9999.25   -9999.25   -9999.25   76.78340   29.23120   29.85440   52.85870   11.27100   65.62260  105.95280
 13829.00000   -9999.25   -9999.25   -9999.25   -9999.25   -9999.25   -9999.25   73.41210   31.91570   33.06180   47.08220   11.09610   65.98070  106.22960
 13829.50000   -9999.25   -9999.25   -9999.25   -9999.25   -9999.25   -9999.25   69.58030   32.87620   34.27070   46.72120   11.29730   65.50900  106.50630
