~Version ---------------------------------------------------
VERS.   2.0 : CWLS log ASCII Standard -VERSION 2.0
WRAP.    NO : One line per depth step
DLM . SPACE : Column Data Section Delimiter
~Well ------------------------------------------------------
STRT .F                10996.0 : START DEPTH
STOP .F                14315.0 : STOP DEPTH
STEP .F                    0.5 : STEP
NULL .                -9999.25 : NULL VALUE
COMP .                         : COMPANY
WELL .                         : WELL
FLD  .                         : FIELD
LOC  .                         : LOCATION
PROV .                         : PROVINCE
CNTY .                         : COUNTY
STAT .                         : STATE
CTRY .                         : COUNTRY
SRVC .                         : SERVICE COMPANY
DATE .                         : DATE
UWI  .                         : UNIQUE WELL ID
API  .                         : API NUMBER
SLAT .WGS84 5.7327837775454995 : SURFACE LATITUDE
SLON .WGS84 3.9947683505355087 : SURFACE LONGITUDE
DATUM.F                 2066.0 : DEPTH DATUM ELEV
~Curve Information -----------------------------------------
DEPT.F     : 
GRD .GAPI  : GAMMA RAY FROM DENSITY LOG
NPHI.DEC   : NEUTRON POROSITY
DPHI.DEC   : DENSITY POROSITY
RHOB.G/C3  : BULK DENSITY
DRHO.G/C3  : BULK DENSITY CORRECTION
CALD.IN    : CALIPER FROM DENSITY LOG
GRR .GAPI  : GAMMA RAY FROM RESISTIVITY LOG
ILD .OHMM  : INDUCTION DEEP RESISTIVITY
ILM .OHMM  : INDUCTION MEDIUM RESISTIVITY
SFLU.OHMM  : SHALLOW FOCUSED RESISTIVITY (UNAVERAGED)
SPR .MV    : SPONTANEOUS POTENTIAL FROM RESISTIVITY LOG
DTCO.US/F  : DELTA-T COMPRESSIONAL
DTSM.US/F  : DELTA-T SHEAR
~Params ----------------------------------------------------
~Other -----------------------------------------------------
~ASCII -----------------------------------------------------
# ...
 13518.00000  128.43670    0.28010    0.01120    2.68650   -0.00800    4.46400  131.42980    3.21040    3.26470    3.58330    9.77690   86.15420  129.91810
 13518.50000  128.88790    0.29020    0.00220    2.69930   -0.00650    4.55360  124.59130    3.18160    3.24190    3.73820    9.71610   87.29480  131.73400
 13519.00000  129.43390    0.29700    0.00200    2.70550   -0.00890    4.63840  120.83300    3.13350    3.24190    3.97740    9.65540   88.43540  133.54990
 13519.50000  129.69740    0.29880    0.00410    2.70520   -0.01270    4.66930  124.84400    3.13550    3.26430    4.14720    9.59470   89.30930  134.84550
 13520.00000  130.12870    0.29450    0.00390    2.70510   -0.01360    4.69340  129.69000    3.18180    3.28520    3.90140    9.53390   89.55100  135.34240
 13520.50000  130.75910    0.28960    0.00240    2.70490   -0.01150    4.71760  134.03820    3.22870    3.30410    3.82590    9.47320   89.06890  135.52330
 13521.00000  132.69120    0.28400    0.00320    2.70260   -0.00940    4.72740  137.59390    3.27640    3.32320    3.95940    9.41240   88.34990  134.63840
 13521.50000  135.05250    0.27920    0.00900    2.69600   -0.00830    4.73270  141.14970    3.27300    3.32700    4.22580    9.35170   87.63080  133.44960
 13522.00000  136.77390    0.27320    0.01580    2.68580   -0.01080    4.73800  144.70540    3.25100    3.32120    4.53020    9.29100   86.91170  132.27840
 13522.50000  136.29720    0.26900    0.02090    2.67460   -0.01160    4.74330  144.32320    3.19130    3.30170    4.68000    9.24530   86.19260  131.12300
 13523.00000  135.32030    0.27150    0.02430    2.66790   -0.01170    4.74230  138.11020    3.12020    3.23480    4.48310    9.35300   85.76670  129.96750
 13523.50000  135.67410    0.28020    0.03830    2.64700   -0.01170    4.73740  132.40440    3.05060    3.13970    4.13830    9.46070   86.09380  129.47720
 13524.00000  135.93810    0.29080    0.05480    2.61910   -0.01170    4.72850  132.65310    2.98310    3.06780    3.85060    9.56830   86.88160  140.74510
 13524.50000  135.96010    0.29960    0.06630    2.59870   -0.01170    4.71740  135.67250    2.91720    3.00650    3.68520    9.67600   87.53750  159.44760
 13525.00000  136.16050    0.30580    0.05730    2.61410   -0.01140    4.70630  138.04890    2.85280    2.96200    3.63480    9.79270   87.96690  169.46810
 13525.50000  136.78650    0.30840    0.04520    2.63230   -0.01050    4.69520  139.55190    2.81360    2.91810    3.58300    9.93410   87.96590  172.94650
 13526.00000  137.23330    0.30340    0.04000    2.64310   -0.00920    4.65640  141.93400    2.77730    2.87490    3.58250   10.07540   87.96490  173.10140
 13526.50000  137.29490    0.29770    0.03250    2.65770   -0.00790    4.60660  145.34260    2.74140    2.83240    3.61010   10.21670   88.14760  173.37810
 13527.00000  136.70070    0.29380    0.01630    2.68600   -0.00580    4.59130  148.66500    2.70610    2.79040    3.77920   10.35810   89.71340  173.39420
 13527.50000  136.79920    0.28990   -0.00320    2.71870   -0.00480    4.59120  147.78930    2.67120    2.74910    3.66640   10.49940   91.27930  173.09620
 13528.00000  137.80090    0.28740   -0.01690    2.73910   -0.00370    4.59920  143.39990    2.63670    2.70770    3.39200   10.64070   92.68290  171.95260
 13528.50000  137.50490    0.28370   -0.00800    2.72570   -0.00270    4.60520  140.18750    2.60270    2.66670    3.13080   10.78210   92.68090  169.62880
 13529.00000  134.52240    0.27400    0.00240    2.70430   -0.00170    4.61340  142.39290    2.56910    2.63620    3.09690   10.76440   92.53770  167.08320
 13529.50000  133.69130    0.26900    0.01150    2.69460   -0.00270    4.64590  149.18330    2.54080    2.61420    3.12810   10.71680   92.02160  165.93000
 13530.00000  138.80800    0.26660    0.01770    2.68570   -0.01810    4.69300  152.08500    2.54010    2.61340    3.13530   10.66920   91.26790  165.73850
 13530.50000  144.25220    0.26510    0.02030    2.67800   -0.02500    4.72290  154.28090    2.53980    2.61320    3.14160   10.62170   90.51420  166.47000
 13531.00000  149.56770    0.26480    0.02070    2.67580   -0.02750    4.72310  151.45390    2.55940    2.64270    3.16710   10.57410   90.23670  166.94740
 13531.50000  149.87430    0.26300    0.02040    2.67630   -0.02920    4.72340  146.85720    2.59550    2.69800    3.35060   10.52650   90.42080  166.65440
 13532.00000  147.17420    0.26330    0.01950    2.67920   -0.02930    4.72370  142.20090    2.64910    2.75460    3.66160   10.47890   91.06580  166.13950
 13532.50000  142.63490    0.26660    0.01830    2.67990   -0.02960    4.72440  142.71220    2.70380    2.81230    4.01080   10.43140   90.53010  165.53260
 13533.00000  140.99160    0.27310    0.01940    2.67730   -0.02940    4.73610  143.82300    2.75970    2.86050    4.20410   10.41470   89.63860  165.14620
 13533.50000  139.68420    0.27770    0.02270    2.67070   -0.02920    4.74260  138.69120    2.74670    2.86000    4.07520   10.45480   88.74700  165.00360
 13534.00000  138.37690    0.27760    0.02620    2.66550   -0.03000    4.74120  132.42420    2.71070    2.81390    3.94020   10.49330   87.85550  164.99910
 13534.50000  138.57490    0.27660    0.02910    2.66030   -0.03180    4.73980  128.45100    2.63070    2.75610    3.80960   10.53180   87.56870  164.99850
 13535.00000  139.79550    0.27740    0.02970    2.66050   -0.03100    4.73200  127.31700    2.57360    2.70600    3.68890   10.57030   88.06860  165.18670
 13535.50000  142.34830    0.28150    0.02580    2.66730   -0.02800    4.72350  132.47080    2.53210    2.65690    3.53270   10.60880   88.56860  165.86670
 13536.00000  144.85180    0.28800    0.02140    2.67340   -0.02330    4.71200  142.69640    2.49130    2.60860    3.44040   10.64720   89.06850  166.78460
 13536.50000  146.61640    0.29340    0.02010    2.67770   -0.01990    4.68860  152.92200    2.45120    2.56120    3.24210   10.68570   89.56840  160.11480
 13537.00000  146.86600    0.29720    0.02060    2.67450   -0.01670    4.65490  154.26090    2.41170    2.51510    3.09640   10.72420   90.06830  153.44500
 13537.50000  146.04600    0.29640    0.02200    2.67150   -0.01640    4.62110  151.96060    2.36960    2.47010    3.01470   10.76270   90.77370  148.09540
 13538.00000  141.47310    0.29250    0.02690    2.66080   -0.02020    4.58720  152.44860    2.32810    2.42590    3.04740   10.80120   91.73090  146.40560
 13538.50000  134.40670    0.28990    0.04310    2.63400   -0.02670    4.57300  153.53590    2.28730    2.38250    3.08930   10.83970   92.68810  146.36480
 13539.00000  124.94050    0.28920    0.06870    2.59930   -0.03140    4.59100  154.73710    2.24760    2.33990    3.06280   10.75810   93.49120  146.71870
 13539.50000  115.25370    0.29440    0.08760    2.56570   -0.03530    4.61380  159.34940    2.20920    2.29800    3.04270   10.66160   92.80190  147.02250
 13540.00000  109.10810    0.30210    0.09520    2.55190   -0.03920    4.68940  162.52540    2.16850    2.25670    3.02270   10.56500   91.44970  146.79420
 13540.50000  105.01780    0.30910    0.09940    2.53990   -0.04470    4.79220  158.16270    2.10280    2.21610    3.00610   10.46850   90.09750  144.80700
 13541.00000  100.86700    0.31180    0.10300    2.53560   -0.05190    4.81700  151.65660    2.03910    2.17630    2.96200   10.37190   90.45300  141.91390
 13541.50000   96.35340    0.28910    0.10450    2.53450   -0.05920    4.83030  149.22980    1.97740    2.13710    2.81600   10.27540   90.61420  140.07150
 13542.00000   95.20150    0.26630    0.09540    2.54410   -0.05660    4.84360  144.48340    1.96640    2.10080    2.82480   10.17880   90.03290  138.22900
 13542.50000   95.90400    0.23510    0.07670    2.57780   -0.04710    4.85180  141.18340    1.98450    2.11540    2.88740   10.08230   89.17670  136.65090
 13543.00000   96.80520    0.22510    0.05790    2.61620   -0.03280    4.84320  137.78990    2.06250    2.20450    2.90640    9.99360   89.31390  137.46900
 13543.50000   96.58960    0.22030    0.04010    2.64890   -0.01770    4.81380  136.85500    2.18150    2.30300    2.56730    9.98260   92.35520  139.71140
