~Version ---------------------------------------------------
VERS.   2.0 : CWLS log ASCII Standard -VERSION 2.0
WRAP.    NO : One line per depth step
DLM . SPACE : Column Data Section Delimiter
~Well ------------------------------------------------------
STRT .F                10996.0 : START DEPTH
STOP .F                14315.0 : STOP DEPTH
STEP .F                    0.5 : STEP
NULL .                -9999.25 : NULL VALUE
COMP .                         : COMPANY
WELL .                         : WELL
FLD  .                         : FIELD
LOC  .                         : LOCATION
PROV .                         : PROVINCE
CNTY .                         : COUNTY
STAT .                         : STATE
CTRY .                         : COUNTRY
SRVC .                         : SERVICE COMPANY
DATE .                         : DATE
UWI  .                         : UNIQUE WELL ID
API  .                         : API NUMBER
SLAT .WGS84 5.7327837775454995 : SURFACE LATITUDE
SLON .WGS84 3.9947683505355087 : SURFACE LONGITUDE
DATUM.F                 2066.0 : DEPTH DATUM ELEV
~Curve Information -----------------------------------------
DEPT.F     : 
GRD .GAPI  : GAMMA RAY FROM DENSITY LOG
NPHI.DEC   : NEUTRON POROSITY
DPHI.DEC   : DENSITY POROSITY
RHOB.G/C3  : BULK DENSITY
DRHO.G/C3  : BULK DENSITY CORRECTION
CALD.IN    : CALIPER FROM DENSITY LOG
GRR .GAPI  : GAMMA RAY FROM RESISTIVITY LOG
ILD .OHMM  : INDUCTION DEEP RESISTIVITY
ILM .OHMM  : INDUCTION MEDIUM RESISTIVITY
SFLU.OHMM  : SHALLOW FOCUSED RESISTIVITY (UNAVERAGED)
SPR .MV    : SPONTANEOUS POTENTIAL FROM RESISTIVITY LOG
DTCO.US/F  : DELTA-T COMPRESSIONAL
DTSM.US/F  : DELTA-T SHEAR
~Params ----------------------------------------------------
~Other -----------------------------------------------------
~ASCII -----------------------------------------------------
# ...
 14194.00000   -9999.25   -9999.25   -9999.25   -9999.25   -9999.25   -9999.25  119.71090   10.03120   10.42460   14.51020    9.66650   70.41070  132.01240
 14194.50000   -9999.25   -9999.25   -9999.25   -9999.25   -9999.25   -9999.25  119.41310    9.68490    9.93370   13.60610    9.59490   70.85430  132.60060
 14195.00000   -9999.25   -9999.25   -9999.25   -9999.25   -9999.25   -9999.25  119.29870    9.38680    9.57690   12.86440    9.52330   71.61320  132.60450
 14195.50000   -9999.25   -9999.25   -9999.25   -9999.25   -9999.25   -9999.25  119.83680    9.11980    9.32240   12.03710    9.45160   72.67530  132.60700
 14196.00000   -9999.25   -9999.25   -9999.25   -9999.25   -9999.25   -9999.25  120.06280    8.88160    9.07930   11.86070    9.56530   73.31790  134.50650
 14196.50000   -9999.25   -9999.25   -9999.25   -9999.25   -9999.25   -9999.25  113.09880    8.64960    8.84330   11.85310    9.69210   72.38060  133.94810
 14197.00000   -9999.25   -9999.25   -9999.25   -9999.25   -9999.25   -9999.25  108.02500    8.41540    8.61540   12.01180    9.81690   71.29910  125.69230
 14197.50000   -9999.25   -9999.25   -9999.25   -9999.25   -9999.25   -9999.25  107.23010    8.22480    8.42540   11.93720    9.90080   70.21770  121.07290
 14198.00000   -9999.25   -9999.25   -9999.25   -9999.25   -9999.25   -9999.25  109.19430    8.04940    8.23950   11.34960    9.98470   69.32540  116.99150
 14198.50000   -9999.25   -9999.25   -9999.25   -9999.25   -9999.25   -9999.25  111.81450    7.87770    8.16140   10.42610   10.06870   69.03600  116.73690
 14199.00000   -9999.25   -9999.25   -9999.25   -9999.25   -9999.25   -9999.25  114.70290    7.87090    8.16430    9.94070   10.15260   69.15440  117.80650
 14199.50000   -9999.25   -9999.25   -9999.25   -9999.25   -9999.25   -9999.25  118.06190    7.97090    8.32250    9.98810   10.23650   70.37340  120.61260
 14200.00000   -9999.25   -9999.25   -9999.25   -9999.25   -9999.25   -9999.25  120.90160    8.29000    8.67860   10.14530   10.32050   71.84410  122.39680
 14200.50000   -9999.25   -9999.25   -9999.25   -9999.25   -9999.25   -9999.25  120.65060    8.72650    9.17500   10.40930   10.27930   71.04310  122.02100
 14201.00000   -9999.25   -9999.25   -9999.25   -9999.25   -9999.25   -9999.25  115.38600    9.22620    9.77750   10.68000   10.15180   68.47000  121.05160
 14201.50000   -9999.25   -9999.25   -9999.25   -9999.25   -9999.25   -9999.25  106.20070    9.79400   10.41950   11.34600   10.02430   66.88730  120.08230
 14202.00000   -9999.25   -9999.25   -9999.25   -9999.25   -9999.25   -9999.25   99.62060   10.50570   11.10370   13.45280    9.89670   66.28880  119.11290
 14202.50000   -9999.25   -9999.25   -9999.25   -9999.25   -9999.25   -9999.25   94.59000   11.26920   11.83280   17.12520    9.76920   67.12620  118.14350
 14203.00000   -9999.25   -9999.25   -9999.25   -9999.25   -9999.25   -9999.25   98.13730   12.08810   12.49850   20.76120    9.64170   67.18220  117.68240
 14203.50000   -9999.25   -9999.25   -9999.25   -9999.25   -9999.25   -9999.25  100.98730   12.46600   12.81730   21.47330    9.54790   66.35780  118.57500
 14204.00000   -9999.25   -9999.25   -9999.25   -9999.25   -9999.25   -9999.25  100.08380   12.62120   12.81730   19.54460    9.65020   65.60210  119.68230
 14204.50000   -9999.25   -9999.25   -9999.25   -9999.25   -9999.25   -9999.25   99.22560   12.49230   12.72320   17.91300    9.79060   67.42390  120.78950
 14205.00000   -9999.25   -9999.25   -9999.25   -9999.25   -9999.25   -9999.25  102.63960   12.11770   12.37220   17.78100    9.87770   70.37720  121.94840
 14205.50000   -9999.25   -9999.25   -9999.25   -9999.25   -9999.25   -9999.25  106.54740   11.58630   11.83510   17.70140    9.93340   69.79170  123.22520
 14206.00000   -9999.25   -9999.25   -9999.25   -9999.25   -9999.25   -9999.25  107.78630   10.89100   11.17110   16.92210    9.98920   69.58530  124.62510
 14206.50000   -9999.25   -9999.25   -9999.25   -9999.25   -9999.25   -9999.25  108.62300   10.22840   10.54420   15.40160   10.04490   71.49950  129.40230
 14207.00000   -9999.25   -9999.25   -9999.25   -9999.25   -9999.25   -9999.25  110.79560    9.63830    9.95260   13.89830   10.10060   73.41380  134.17960
 14207.50000   -9999.25   -9999.25   -9999.25   -9999.25   -9999.25   -9999.25  116.47890    9.24760    9.54780   12.69480   10.15640   74.07780  137.22470
 14208.00000   -9999.25   -9999.25   -9999.25   -9999.25   -9999.25   -9999.25  123.96450    8.87280    9.18310   11.56030   10.21210   74.25680  136.92720
 14208.50000   -9999.25   -9999.25   -9999.25   -9999.25   -9999.25   -9999.25  130.85660    8.51320    8.84060   10.56460   10.26780   74.12510  136.50920
 14209.00000   -9999.25   -9999.25   -9999.25   -9999.25   -9999.25   -9999.25  131.12730    8.26550    8.52720   10.09600   10.32350   73.84950  135.88800
 14209.50000   -9999.25   -9999.25   -9999.25   -9999.25   -9999.25   -9999.25  128.76020    8.10920    8.42630   10.15460   10.37930   73.54780  135.26670
 14210.00000   -9999.25   -9999.25   -9999.25   -9999.25   -9999.25   -9999.25  128.07900    8.01040    8.40650   11.05830   10.33600   73.24600  134.64550
 14210.50000   -9999.25   -9999.25   -9999.25   -9999.25   -9999.25   -9999.25  130.66500    7.95130    8.40740   11.63750   10.29140   72.80070  134.02430
 14211.00000   -9999.25   -9999.25   -9999.25   -9999.25   -9999.25   -9999.25  135.45930    8.05950    8.42650   11.72620   10.24670   72.29860  133.48080
 14211.50000   -9999.25   -9999.25   -9999.25   -9999.25   -9999.25   -9999.25  130.94200    8.18380    8.52740   11.20090   10.20210   71.79660  132.78120
 14212.00000   -9999.25   -9999.25   -9999.25   -9999.25   -9999.25   -9999.25  122.21420    8.43050    8.94570   10.81400   10.15750   71.29450  130.10140
 14212.50000   -9999.25   -9999.25   -9999.25   -9999.25   -9999.25   -9999.25  119.20170    8.84710    9.30960   10.77540   10.11280   70.79250  126.08290
 14213.00000   -9999.25   -9999.25   -9999.25   -9999.25   -9999.25   -9999.25  119.65960    9.28230    9.66620   11.90990   10.06820   70.33400  122.93420
 14213.50000   -9999.25   -9999.25   -9999.25   -9999.25   -9999.25   -9999.25  120.42330    9.73790   10.03760   13.66960   10.02360   69.88430  121.84540
 14214.00000   -9999.25   -9999.25   -9999.25   -9999.25   -9999.25   -9999.25  119.69460   10.21590   10.43140   15.10030    9.97890   69.43450  120.75660
 14214.50000   -9999.25   -9999.25   -9999.25   -9999.25   -9999.25   -9999.25  118.67200   10.71740   10.84070   16.28440    9.93430   69.42870  120.41310
 14215.00000   -9999.25   -9999.25   -9999.25   -9999.25   -9999.25   -9999.25  121.72040   10.89580   11.15980   17.30010    9.87610   69.74690  121.63260
 14215.50000   -9999.25   -9999.25   -9999.25   -9999.25   -9999.25   -9999.25  123.48850   10.87430   11.23820   17.64450    9.81560   70.19100  123.37340
 14216.00000   -9999.25   -9999.25   -9999.25   -9999.25   -9999.25   -9999.25  121.66040   10.79290   11.00390   17.39270    9.75510   70.81070  125.11410
 14216.50000   -9999.25   -9999.25   -9999.25   -9999.25   -9999.25   -9999.25  117.83090   10.49250   10.64820   16.76210    9.69450   71.55470  127.33430
 14217.00000   -9999.25   -9999.25   -9999.25   -9999.25   -9999.25   -9999.25  115.89520   10.05980   10.27830   15.79180    9.75260   72.29860  129.42700
 14217.50000   -9999.25   -9999.25   -9999.25   -9999.25   -9999.25   -9999.25  118.11840    9.55220    9.92120   14.78080    9.81630   73.04250  131.47870
 14218.00000   -9999.25   -9999.25   -9999.25   -9999.25   -9999.25   -9999.25  121.19470    9.07020    9.57650   12.89570    9.87990   73.28320  132.44200
 14218.50000   -9999.25   -9999.25   -9999.25   -9999.25   -9999.25   -9999.25  124.27100    8.79840    9.33950   11.13760    9.94360   73.11410  131.22760
 14219.00000   -9999.25   -9999.25   -9999.25   -9999.25   -9999.25   -9999.25  124.80370    8.83040    9.21350    9.85490   10.00730   72.56300  129.95370
 14219.50000   -9999.25   -9999.25   -9999.25   -9999.25   -9999.25   -9999.25  122.17950    8.88560    9.21400    9.96710   10.07090   71.69560  128.67970
