~Version ---------------------------------------------------
VERS.   2.0 : CWLS log ASCII Standard -VERSION 2.0
WRAP.    NO : One line per depth step
DLM . SPACE : Column Data Section Delimiter
~Well ------------------------------------------------------
STRT .F                10996.0 : START DEPTH
STOP .F                14315.0 : STOP DEPTH
STEP .F                    0.5 : STEP
NULL .                -9999.25 : NULL VALUE
COMP .                         : COMPANY
WELL .                         : WELL
FLD  .                         : FIELD
LOC  .                         : LOCATION
PROV .                         : PROVINCE
CNTY .                         : COUNTY
STAT .                         : STATE
CTRY .                         : COUNTRY
SRVC .                         : SERVICE COMPANY
DATE .                         : DATE
UWI  .                         : UNIQUE WELL ID
API  .                         : API NUMBER
SLAT .WGS84 5.7327837775454995 : SURFACE LATITUDE
SLON .WGS84 3.9947683505355087 : SURFACE LONGITUDE
DATUM.F                 2066.0 : DEPTH DATUM ELEV
~Curve Information -----------------------------------------
DEPT.F     : 
GRD .GAPI  : GAMMA RAY FROM DENSITY LOG
NPHI.DEC   : NEUTRON POROSITY
DPHI.DEC   : DENSITY POROSITY
RHOB.G/C3  : BULK DENSITY
DRHO.G/C3  : BULK DENSITY CORRECTION
CALD.IN    : CALIPER FROM DENSITY LOG
GRR .GAPI  : GAMMA RAY FROM RESISTIVITY LOG
ILD .OHMM  : INDUCTION DEEP RESISTIVITY
ILM .OHMM  : INDUCTION MEDIUM RESISTIVITY
SFLU.OHMM  : SHALLOW FOCUSED RESISTIVITY (UNAVERAGED)
SPR .MV    : SPONTANEOUS POTENTIAL FROM RESISTIVITY LOG
DTCO.US/F  : DELTA-T COMPRESSIONAL
DTSM.US/F  : DELTA-T SHEAR
~Params ----------------------------------------------------
~Other -----------------------------------------------------
~ASCII -----------------------------------------------------
# ...
 13752.00000  100.37810    0.17550    0.03960    2.64300   -0.04020    4.70530   96.63440   19.96740   20.67840   31.15020   12.46520   66.60090  114.79450
 13752.50000  103.51140    0.17520    0.03710    2.64720   -0.03870    4.70140  101.04460   20.10940   20.70830   30.10020   12.36070   67.54410  117.35610
 13753.00000  106.09210    0.17480    0.03500    2.65150   -0.03740    4.70140  103.82870   19.98080   20.70640   28.58320   12.25610   68.48730  119.04220
 13753.50000  108.65830    0.17530    0.03440    2.65270   -0.03660    4.70140  102.26150   19.75140   20.43760   27.69250   12.15160   69.46680  119.83370
 13754.00000  111.22450    0.17610    0.03400    2.65280   -0.03580    4.69960   98.99230   19.30430   19.89230   27.79980   12.04700   69.51430  120.82530
 13754.50000  109.95020    0.17550    0.03360    2.65260   -0.03500    4.69730   98.46320   18.67600   19.08890   28.21700   11.94250   68.63460  121.81700
 13755.00000  106.12020    0.17410    0.03450    2.65140   -0.03420    4.69970  105.63540   17.94360   16.88160   27.38990   11.83800   69.08710  122.55360
 13755.50000  100.52590    0.17130    0.03860    2.64680   -0.03340    4.70200  113.85690   17.50710   16.45950   23.80820   11.73340   69.53960  122.56330
 13756.00000   94.93370    0.16880    0.04320    2.63760   -0.03260    4.70440  119.75030   17.50630   16.65600   22.12360   11.62890   69.97630  122.29040
 13756.50000   90.78880    0.16730    0.04790    2.63020   -0.03180    4.70660  118.92380   17.73540   17.68460   21.54980   11.52430   70.14510  121.39000
 13757.00000   89.88480    0.16780    0.04930    2.62730   -0.03100    4.70250  111.65860   18.36990   18.91560   25.40230   11.48160   70.11350  120.48960
 13757.50000   90.05470    0.17150    0.05450    2.61980   -0.03030    4.70240  105.22010   19.69670   20.22760   30.91820   11.50010   69.87430  119.58920
 13758.00000   91.81980    0.17520    0.06070    2.60770   -0.03050    4.70180   98.87590   21.08860   21.63050   36.02820   11.51870   69.67230  119.06520
 13758.50000   98.02850    0.17690    0.06700    2.59750   -0.03070    4.70140   93.17160   22.50480   23.13080   41.30200   11.53720   69.82350  120.48200
 13759.00000  103.11210    0.17220    0.07220    2.58770   -0.03100    4.70140   88.50560   24.01610   24.63600   43.22110   11.56560   71.06270  122.32330
 13759.50000  105.41970    0.15970    0.07680    2.58020   -0.03120    4.70140   87.17460   25.58370   26.14910   44.10430   11.71940   72.44110  124.16450
 13760.00000  107.65220    0.14820    0.07970    2.57760   -0.03140    4.70170   89.14240   26.19560   26.98600   44.23490   11.87330   73.69280  126.00570
 13760.50000  109.54500    0.14200    0.07370    2.58530   -0.03170    4.70220   94.88600   26.19550   27.14330   44.21380   12.02720   74.05370  127.84700
 13761.00000  114.98990    0.15050    0.06600    2.59770   -0.03210    4.70270   98.00690   25.86920   27.12570   44.05610   12.18100   74.16070  129.19590
 13761.50000  120.02750    0.16420    0.06330    2.60220   -0.03240    4.70320   98.71860   25.26300   26.02010   43.52770   12.33490   74.19300  130.17970
 13762.00000  119.19090    0.17140    0.06510    2.60240   -0.03470    4.70180   98.97740   23.58320   24.58180   43.08800   12.48880   74.22520  131.16360
 13762.50000  116.82970    0.17690    0.06670    2.59920   -0.03730    4.70000   99.31020   21.70880   22.58340   39.89560   12.64260   74.25750  132.14740
 13763.00000  112.25720    0.17190    0.06350    2.60150   -0.04100    4.70000  101.80990   19.98350   20.74740   36.57510   12.65630   74.28980  133.12420
 13763.50000  111.08230    0.16260    0.05780    2.61140   -0.04670    4.70000  109.57180   18.39520   19.06340   32.14630   12.53910   74.32200  133.75150
 13764.00000  114.31360    0.15560    0.05290    2.62000   -0.04730    4.70010  117.58950   16.93320   17.92760   27.88180   12.42200   74.33570  133.75540
 13764.50000  117.50400    0.15270    0.05030    2.62500   -0.04730    4.70050  123.70270   15.83630   16.65950   22.60110   12.30490   74.51130  133.75930
 13765.00000  117.71310    0.15590    0.04790    2.63270   -0.04450    4.70100  124.58690   15.29010   15.39410   19.76640   12.18780   74.40050  133.25990
 13765.50000  118.51090    0.15960    0.04140    2.63940   -0.04110    4.69730  122.54520   14.76270   14.87960   19.41760   12.07070   73.11650  130.68270
 13766.00000  120.68370    0.16240    0.03120    2.65240   -0.03720    4.69640  120.05410   14.26110   14.52460   21.54300   11.95360   71.79730  127.60820
 13766.50000  125.36710    0.16250    0.02250    2.67140   -0.03230    4.69900  116.62400   13.77810   14.17820   24.49800   11.83640   71.00090  126.13610
 13767.00000  125.51420    0.15980    0.01380    2.68220   -0.03140    4.70000  113.35700   13.31150   13.70060   26.30960   11.72660   70.92530  126.71340
 13767.50000  121.79040    0.15790    0.00840    2.69410   -0.03150    4.70000  110.57600   12.88280   13.23400   24.49590   11.72210   70.92920  127.37620
 13768.00000  117.86240    0.15690    0.00890    2.69500   -0.03150    4.70000  110.80790   12.54230   12.86680   22.58900   11.71770   70.93310  127.21640
 13768.50000  114.01270    0.15840    0.01210    2.69050   -0.03140    4.70060  115.53370   12.21070   12.56700   20.86500   11.71330   70.91060  126.98110
 13769.00000  113.44190    0.17330    0.01410    2.68610   -0.03120    4.70210  121.78230   11.95320   12.39590   19.42800   11.70880   70.87460  126.74590
 13769.50000   -9999.25    0.18330    0.01280    2.68950   -0.02900    4.70820  126.99920   11.88960   12.29040   17.08890   11.70440   70.83850  126.51350
 13770.00000   -9999.25    0.18300    0.01020    2.69340   -0.02680    4.70080  130.37470   11.89480   12.29560   15.52010   11.69990   70.80240  127.35060
 13770.50000   -9999.25    0.17870    0.01010    2.69640   -0.02530    4.69190  129.35040   12.24530   12.53690   15.73570   11.69550   71.15570  129.65010
 13771.00000   -9999.25    0.17450    0.01030    2.69320   -0.02470    4.68310  125.93360   12.57820   12.81230   19.13850   11.69100   72.43160  131.94950
 13771.50000   -9999.25    0.17220    0.01160    2.69020   -0.02410    4.67420  123.46910   12.81050   13.09370   21.10310   11.69800   73.70760  134.40640
 13772.00000   -9999.25    0.16290    0.01160    2.69040   -0.02340    4.67140  123.45380   13.04720   13.38120   21.23530   11.78450   76.19090  137.10420
 13772.50000   -9999.25    0.15410    0.01120    2.69110   -0.02350    4.67050  125.77180   13.18330   13.67520   20.96550   11.87100   77.22440  136.88870
 13773.00000   -9999.25    0.14560    0.01400    2.68650   -0.02840    4.66280  129.66510   13.23360   13.82980   20.16090   11.95750   76.78870  134.25300
 13773.50000   -9999.25    0.14220    0.01920    2.67660   -0.03440    4.66980  130.63060   13.28420   13.82980   18.95980   12.04400   74.66240  130.47790
 13774.00000   -9999.25    0.14050    0.02430    2.67050   -0.03600    4.67680  130.77140   13.32210   13.82980   17.81850   12.14360   72.99520  126.70280
 13774.50000   -9999.25    0.14020    0.02210    2.67100   -0.04010    4.68140  130.27450   13.32020   13.84720   17.81420   12.27480   71.61380  124.62610
 13775.00000   -9999.25    0.13920    0.01760    2.67750   -0.03870    4.67700  126.15770   13.31840   13.88940   19.61980   12.40600   71.91300  127.37920
 13775.50000   -9999.25    0.13920    0.01560    2.68320   -0.03630    4.67770  117.49570   13.29080   13.93180   22.74740   12.53720   72.36000  130.13220
 13776.00000   -9999.25    0.13940    0.01470    2.68860   -0.03430    4.67840  109.88670   13.17390   13.73900   27.24410   12.67330   72.80690  131.62260
 13776.50000   -9999.25   -9999.25   -9999.25   -9999.25   -9999.25   -9999.25  104.95900   13.05790   13.42470   27.88890   12.91760   73.21570  131.91770
 13777.00000   -9999.25   -9999.25   -9999.25   -9999.25   -9999.25   -9999.25  107.56310   12.82020   13.11760   24.97320   13.16190   73.19630  132.16790
 13777.50000   -9999.25   -9999.25   -9999.25   -9999.25   -9999.25   -9999.25  112.78240   12.16090   12.70690   21.14110   13.40620   73.17700  132.30250
