~Version ---------------------------------------------------
VERS.   2.0 : CWLS log ASCII Standard -VERSION 2.0
WRAP.    NO : One line per depth step
DLM . SPACE : Column Data Section Delimiter
~Well ------------------------------------------------------
STRT .F                10996.0 : START DEPTH
STOP .F                14315.0 : STOP DEPTH
STEP .F                    0.5 : STEP
NULL .                -9999.25 : NULL VALUE
COMP .                         : COMPANY
WELL .                         : WELL
FLD  .                         : FIELD
LOC  .                         : LOCATION
PROV .                         : PROVINCE
CNTY .                         : COUNTY
STAT .                         : STATE
CTRY .                         : COUNTRY
SRVC .                         : SERVICE COMPANY
DATE .                         : DATE
UWI  .                         : UNIQUE WELL ID
API  .                         : API NUMBER
SLAT .WGS84 5.7327837775454995 : SURFACE LATITUDE
SLON .WGS84 3.9947683505355087 : SURFACE LONGITUDE
DATUM.F                 2066.0 : DEPTH DATUM ELEV
~Curve Information -----------------------------------------
DEPT.F     : 
GRD .GAPI  : GAMMA RAY FROM DENSITY LOG
NPHI.DEC   : NEUTRON POROSITY
DPHI.DEC   : DENSITY POROSITY
RHOB.G/C3  : BULK DENSITY
DRHO.G/C3  : BULK DENSITY CORRECTION
CALD.IN    : CALIPER FROM DENSITY LOG
GRR .GAPI  : GAMMA RAY FROM RESISTIVITY LOG
ILD .OHMM  : INDUCTION DEEP RESISTIVITY
ILM .OHMM  : INDUCTION MEDIUM RESISTIVITY
SFLU.OHMM  : SHALLOW FOCUSED RESISTIVITY (UNAVERAGED)
SPR .MV    : SPONTANEOUS POTENTIAL FROM RESISTIVITY LOG
DTCO.US/F  : DELTA-T COMPRESSIONAL
DTSM.US/F  : DELTA-T SHEAR
~Params ----------------------------------------------------
~Other -----------------------------------------------------
~ASCII -----------------------------------------------------
# ...
 14090.00000  128.75960    0.18180    0.01520    2.68640    0.19680    4.80170  132.57340    8.94440    9.43920   11.33710    9.59210   74.27420  138.10270
 14090.50000  124.95150    0.18120    0.01610    2.68500    0.19640    4.79890  132.30010    8.85580    9.41570   10.44790    9.55340   74.57610  138.10180
 14091.00000  119.25310    0.17600    0.01890    2.68050    0.19590    4.79690  128.49450    8.81510    9.39220   10.64200    9.51520   74.87790  138.10100
 14091.50000  115.80210    0.17060    0.02080    2.67580    0.19530    4.79490  125.23400    8.81510    9.36890   13.48150    9.49230   74.97210  138.10010
 14092.00000  117.37450    0.16520    0.02220    2.67100    0.19470    4.79290  121.97350    8.81510    9.23230   15.23920    9.46940   74.88380  138.09920
 14092.50000  120.51260    0.16680    0.02360    2.67020    0.19420    4.79080  118.48680    8.81510    9.08680   16.61370    9.44640   74.59910  137.54210
 14093.00000  123.86620    0.17510    0.01650    2.68290    0.19360    4.78880  114.68980    8.67630    8.92990   15.90780    9.42350   74.19490  137.03700
 14093.50000  127.98940    0.18820    0.00890    2.69790    0.19290    4.78680  114.72770    8.51310    8.76780   14.25150    9.40060   73.79070  138.15870
 14094.00000  131.79570    0.19530    0.00580    2.70410    0.19220    4.78480  117.43180    8.25270    8.55590   12.11260    9.37770   73.64610  137.57880
 14094.50000  134.75330    0.19840    0.01040    2.69230    0.19140    4.78280  124.63750    7.90390    8.32160   10.86590    9.75840   73.65580  136.62760
 14095.00000  135.53050    0.19740    0.01740    2.68180    0.19070    4.78070  128.78050    7.56980    8.09370    9.78080    9.95870   73.41840  137.15960
 14095.50000  131.76570    0.19590    0.02080    2.67610    0.18990    4.77870  131.55030    7.36360    7.87210    8.92740   10.00490   73.12390  138.04910
 14096.00000  126.15610    0.19210    0.02150    2.67570    0.18920    4.77670  129.15770    7.30900    7.72650    8.60530   10.05100   72.82940  136.11150
 14096.50000  120.54650    0.18470    0.01870    2.67810    0.18840    4.77470  125.15790    7.35540    7.68450    9.09750   10.09710   72.53490  133.16950
 14097.00000  115.14880    0.17680    0.01560    2.68400    0.18770    4.77260  121.63160    7.53990    7.70840   10.03270   10.14330   72.24050  130.77280
 14097.50000  110.62320    0.17150    0.01230    2.69170    0.18690    4.77060  119.41720    7.79680    7.94830   10.95720   10.18940   70.44900  128.51350
 14098.00000  108.36660    0.16520    0.01520    2.68890    0.18620    4.76860  116.75680    8.14850    8.21760   11.44750   10.18800   70.52360  126.22000
 14098.50000  108.95950    0.15830    0.01930    2.67990    0.18580    4.76660  112.09040    8.68570    8.82250   11.73170   10.08560   70.89890  123.05550
 14099.00000  111.79820    0.14860    0.02370    2.67020    0.18580    4.76460  109.66280    9.26280    9.52120   11.91310    9.98320   71.37970  120.33920
 14099.50000  113.39820    0.14050    0.02650    2.66690    0.18730    4.76600  109.30900    9.88620   10.27520   12.95860    9.88080   70.97150  120.36920
 14100.00000  110.85450    0.13650    0.02760    2.66450    0.18980    4.77180  106.42840   10.55160   11.08900   15.99520    9.77840   69.45740  121.33070
 14100.50000  108.76440    0.13260    0.02940    2.66180    0.19250    4.77770  102.45450   11.18290   11.79030   19.01710    9.67600   68.51150  121.26330
 14101.00000  109.01880    0.13050    0.03080    2.65840    0.19520    4.78350   98.00250   11.63220   12.21030   21.32190    9.57370   68.45310  120.33910
 14101.50000  110.72490    0.13300    0.03290    2.65370    0.19790    4.78940   99.93720   12.09370   12.64520   21.73230    9.46430   68.84840  120.16860
 14102.00000  111.16210    0.13940    0.03400    2.64960    0.19600    4.79520  105.71980   12.38500   12.94940   20.29990    9.57530   69.65530  120.97510
 14102.50000   -9999.25   -9999.25   -9999.25   -9999.25   -9999.25   -9999.25  110.79500   12.68340   13.12070   18.69710    9.68630   70.02610  123.30310
 14103.00000   -9999.25   -9999.25   -9999.25   -9999.25   -9999.25   -9999.25  113.88960   12.98890   13.29430   17.34170    9.79730   69.48980  124.12310
 14103.50000   -9999.25   -9999.25   -9999.25   -9999.25   -9999.25   -9999.25  115.20380   13.30180   13.47520   16.80480    9.90830   68.70230  122.30390
 14104.00000   -9999.25   -9999.25   -9999.25   -9999.25   -9999.25   -9999.25  112.62170   13.60140   13.72970   18.19060   10.01930   67.91480  119.08280
 14104.50000   -9999.25   -9999.25   -9999.25   -9999.25   -9999.25   -9999.25  107.88550   13.84740   13.98910   20.40180   10.13030   67.48340  116.09410
 14105.00000   -9999.25   -9999.25   -9999.25   -9999.25   -9999.25   -9999.25  102.79890   14.09780   14.25340   22.99030   10.24130   67.49220  115.56680
 14105.50000   -9999.25   -9999.25   -9999.25   -9999.25   -9999.25   -9999.25  100.71330   14.35270   14.52260   24.70250   10.35140   67.51510  115.81460
 14106.00000   -9999.25   -9999.25   -9999.25   -9999.25   -9999.25   -9999.25  105.14800   14.61230   14.91620   24.70620   10.22050   67.95110  116.39820
 14106.50000   -9999.25   -9999.25   -9999.25   -9999.25   -9999.25   -9999.25  110.00450   14.87650   15.31580   23.15870   10.08960   68.35070  116.97450
 14107.00000   -9999.25   -9999.25   -9999.25   -9999.25   -9999.25   -9999.25  107.51010   15.19970   15.62140   21.68930    9.95870   68.74270  117.18180
 14107.50000   -9999.25   -9999.25   -9999.25   -9999.25   -9999.25   -9999.25  105.45260   15.57750   15.93310   21.85400    9.82780   68.91090  116.87610
 14108.00000   -9999.25   -9999.25   -9999.25   -9999.25   -9999.25   -9999.25  103.56690   15.97370   16.25100   23.08410    9.69690   68.55620  116.38090
 14108.50000   -9999.25   -9999.25   -9999.25   -9999.25   -9999.25   -9999.25  101.60230   16.38000   16.57520   24.43310    9.56600   67.63040  115.93390
 14109.00000   -9999.25   -9999.25   -9999.25   -9999.25   -9999.25   -9999.25   99.13950   16.79670   16.90600   25.68010    9.43510   66.70460  116.56230
 14109.50000   -9999.25   -9999.25   -9999.25   -9999.25   -9999.25   -9999.25   96.00030   16.99060   17.03360   27.92710    9.45480   66.35380  117.19070
 14110.00000   -9999.25   -9999.25   -9999.25   -9999.25   -9999.25   -9999.25   94.11480   16.99060   16.81430   30.70950    9.51660   67.67160  117.81900
 14110.50000   -9999.25   -9999.25   -9999.25   -9999.25   -9999.25   -9999.25   95.00620   17.08660   16.53320   32.44700    9.57850   69.08320  118.14080
 14111.00000   -9999.25   -9999.25   -9999.25   -9999.25   -9999.25   -9999.25   99.29080   17.25750   15.72610   27.29630    9.64030   69.66350  117.40170
 14111.50000   -9999.25   -9999.25   -9999.25   -9999.25   -9999.25   -9999.25  103.25470   17.44130   15.14090   21.36920    9.70210   69.79680  116.35950
 14112.00000   -9999.25   -9999.25   -9999.25   -9999.25   -9999.25   -9999.25  102.01650   18.00930   15.92150   19.52070    9.76400   68.93070  114.96010
 14112.50000   -9999.25   -9999.25   -9999.25   -9999.25   -9999.25   -9999.25   92.97770   18.63240   18.08200   20.09470    9.80330   67.52930  111.36620
 14113.00000   -9999.25   -9999.25   -9999.25   -9999.25   -9999.25   -9999.25   83.96330   19.87430   20.53560   24.44870    9.80160   66.12780  108.59420
 14113.50000   -9999.25   -9999.25   -9999.25   -9999.25   -9999.25   -9999.25   78.16140   21.19900   23.32220   40.12070    9.79980   65.68750  108.59720
 14114.00000   -9999.25   -9999.25   -9999.25   -9999.25   -9999.25   -9999.25   73.76580   22.61200   26.48690   64.83630    9.84090   66.47820  110.06110
 14114.50000   -9999.25   -9999.25   -9999.25   -9999.25   -9999.25   -9999.25   75.21590   24.11920   28.81000   96.57820    9.96720   67.51540  111.65230
 14115.00000   -9999.25   -9999.25   -9999.25   -9999.25   -9999.25   -9999.25   81.59710   24.80980   28.48110   96.19990   10.09360   68.55260  113.68890
 14115.50000   -9999.25   -9999.25   -9999.25   -9999.25   -9999.25   -9999.25   87.85100   24.64050   26.15140   67.53200   10.22000   69.47670  115.91720
