~Version ---------------------------------------------------
VERS.   2.0 : CWLS log ASCII Standard -VERSION 2.0
WRAP.    NO : One line per depth step
DLM . SPACE : Column Data Section Delimiter
~Well ------------------------------------------------------
STRT .F                10996.0 : START DEPTH
STOP .F                14315.0 : STOP DEPTH
STEP .F                    0.5 : STEP
NULL .                -9999.25 : NULL VALUE
COMP .                         : COMPANY
WELL .                         : WELL
FLD  .                         : FIELD
LOC  .                         : LOCATION
PROV .                         : PROVINCE
CNTY .                         : COUNTY
STAT .                         : STATE
CTRY .                         : COUNTRY
SRVC .                         : SERVICE COMPANY
DATE .                         : DATE
UWI  .                         : UNIQUE WELL ID
API  .                         : API NUMBER
SLAT .WGS84 5.7327837775454995 : SURFACE LATITUDE
SLON .WGS84 3.9947683505355087 : SURFACE LONGITUDE
DATUM.F                 2066.0 : DEPTH DATUM ELEV
~Curve Information -----------------------------------------
DEPT.F     : 
GRD .GAPI  : GAMMA RAY FROM DENSITY LOG
NPHI.DEC   : NEUTRON POROSITY
DPHI.DEC   : DENSITY POROSITY
RHOB.G/C3  : BULK DENSITY
DRHO.G/C3  : BULK DENSITY CORRECTION
CALD.IN    : CALIPER FROM DENSITY LOG
GRR .GAPI  : GAMMA RAY FROM RESISTIVITY LOG
ILD .OHMM  : INDUCTION DEEP RESISTIVITY
ILM .OHMM  : INDUCTION MEDIUM RESISTIVITY
SFLU.OHMM  : SHALLOW FOCUSED RESISTIVITY (UNAVERAGED)
SPR .MV    : SPONTANEOUS POTENTIAL FROM RESISTIVITY LOG
DTCO.US/F  : DELTA-T COMPRESSIONAL
DTSM.US/F  : DELTA-T SHEAR
~Params ----------------------------------------------------
~Other -----------------------------------------------------
~ASCII -----------------------------------------------------
# ...
 13414.00000   65.21420    0.23220   -9999.25   -9999.25   -9999.25   -9999.25   67.44300   -9999.25   -9999.25   -9999.25   -9999.25   -9999.25   -9999.25
 13414.50000   65.23050    0.23660   -9999.25   -9999.25   -9999.25   -9999.25   66.72820   -9999.25   -9999.25   -9999.25   -9999.25   -9999.25   -9999.25
 13415.00000   64.87080    0.24430   -9999.25   -9999.25   -9999.25   -9999.25   66.40460   -9999.25   -9999.25   -9999.25   -9999.25   -9999.25   -9999.25
 13415.50000   63.46080    0.26830   -9999.25   -9999.25   -9999.25   -9999.25   66.38190   -9999.25   -9999.25   -9999.25   -9999.25   -9999.25   -9999.25
 13416.00000   61.37750    0.29030    0.15400    2.45330   -0.30020    4.90340   67.27220  453.62660   50.31410    0.20270   -4.21870   71.22650  122.43810
 13416.50000   60.56310    0.31230    0.15210    2.45040   -0.30010    4.90470   72.84860   28.70150   45.02840    0.22620   -4.18490   72.90540  124.61880
 13417.00000   65.67630    0.26900    0.10560    2.54500   -0.27020    4.90600   85.10340   11.75270   36.48400    0.74370   -8.40370   74.58440  126.79950
 13417.50000   76.36210    0.22130    0.04530    2.63550   -0.16160    4.90740   96.18380    6.69260   29.56090    3.02420  -14.84740   75.40420  128.81410
 13418.00000   87.60030    0.17670    0.02100    2.67670   -0.05300    4.90870  104.22080    3.37260  215.21580    6.43340  -12.78980   75.24210  128.81410
 13418.50000   96.63980    0.15550    0.02290    2.66970   -0.01310    4.91000  104.54580    2.45530 1011.11330   14.97620   -4.39000   74.50720  127.59120
 13419.00000  102.79400    0.15280    0.02930    2.66100   -0.02780    4.91140  101.89560  118.00450 1077.31200   19.68350    2.26880   73.54030  125.37080
 13419.50000  106.13300    0.15260    0.02970    2.66040   -0.02910    4.91650   98.46550 1223.26050 1261.70240   20.35710    7.68740   72.54970  123.15040
 13420.00000  106.90370    0.15170    0.02900    2.66220   -0.03050    4.93940   98.52540 1562.33520 1538.71040   19.34110   11.81310   70.99720  120.41420
 13420.50000  107.35640    0.15050    0.02980    2.66100   -0.03180    4.96240  105.93770 1562.33180 1538.84480   18.44020   13.47840   69.44470  119.63410
 13421.00000  107.62460    0.14990    0.03340    2.65610   -0.03300    4.97120  113.40990 1562.33180 1538.87610   18.85160   13.80140   69.10810  120.41730
 13421.50000  108.18710    0.15000    0.03550    2.65050   -0.03380    4.97080  118.83040 1526.54590 1538.87610   19.67440   13.31350   69.10810  121.87890
 13422.00000  110.09660    0.15610    0.03590    2.65050   -0.02990    4.97060  119.93840  454.69120  902.11960   19.00140   12.82570   69.10810  123.34060
 13422.50000  112.69890    0.16380    0.03480    2.65440   -0.02600    4.97050  117.86410   19.64100  167.08230   15.44510   12.35790   69.37550  124.80230
 13423.00000  114.07750    0.17160    0.02770    2.66540   -0.02560    4.96990  114.15070    9.82820   19.37670   12.52470   12.06070   70.29380  126.38100
 13423.50000  114.87010    0.17320    0.01920    2.67690   -0.02560    4.96330  108.95770    8.54650   11.92390   10.72320   11.77960   71.38880  128.41850
 13424.00000  116.19260    0.17240    0.02070    2.67580   -0.02550    4.95660  105.98480    9.19490   12.22300   10.75770   11.49850   72.83220  130.45610
 13424.50000  117.54350    0.17220    0.02690    2.66590   -0.02550    4.94980  108.91690   11.59130   17.67740   11.67900   11.21750   73.83020  132.49360
 13425.00000  117.42300    0.17170    0.02950    2.66190   -0.02620    4.94120  112.40330   14.61240   25.18390   12.29930   10.93640   73.82060  133.19170
 13425.50000  115.76710    0.17110    0.02470    2.66970   -0.02720    4.93260  113.58000   15.07490   20.98020   12.18780   10.65530   73.20820  133.57340
 13426.00000  113.10750    0.17060    0.01770    2.67920   -0.02840    4.92400  111.26370    9.20150   14.15340   12.16970   10.37420   72.59580  133.84860
 13426.50000  111.43600    0.17080    0.01750    2.68170   -0.03010    4.91540  108.89590    8.86300   10.91050   11.80540   10.50870   72.47200  133.21840
 13427.00000  111.38760    0.17560    0.02100    2.67620   -0.03190    4.90680  107.58620    8.76480    9.38530   11.33430   10.64480   72.95680  132.19210
 13427.50000  112.65350    0.17970    0.02180    2.67450   -0.03180    4.89820  107.27310    8.80180    9.33530   11.02170   10.78080   73.44150  131.21660
 13428.00000  115.09060    0.17830    0.01440    2.68370   -0.03100    4.88960  108.75480    8.98970    9.40210   11.12180   10.91690   73.04750  130.26400
 13428.50000  117.98460    0.17660    0.00870    2.69830   -0.03020    4.87930  113.66410    9.18160    9.54370   12.21800   11.05300   72.15710  129.31130
 13429.00000  118.83170    0.17380    0.00960    2.69600   -0.02940    4.86670  118.78930    9.37750    9.68750   12.32220   11.15490   71.26660  128.59380
 13429.50000  119.02970    0.17150    0.01870    2.68190   -0.02870    4.85410  122.37900    9.57520    9.83350   12.36560   11.20430   70.67820  127.97920
 13430.00000  117.61950    0.17120    0.02810    2.66140   -0.02970    4.84150  121.06440    9.64680    9.94250   12.55150   11.25360   70.67660  127.62440
 13430.50000  116.64410    0.17070    0.03220    2.65200   -0.03400    4.83450  117.77820    9.63080    9.94090   12.77240   11.30300   70.67610  127.48310
 13431.00000  116.52920    0.16760    0.03020    2.65970   -0.03530    4.83520  112.35370    9.44890    9.93930   12.66630   11.35240   70.91200  127.52020
 13431.50000  116.64510    0.16300    0.02840    2.66220   -0.03650    4.83600  108.97200    9.27040    9.82070   12.19230   11.40180   71.22900  127.82670
 13432.00000  116.53340    0.15940    0.02980    2.66190   -0.03780    4.83090  112.07170    9.09530    9.65650   11.54720   11.45120   71.54600  128.13310
 13432.50000  117.32780    0.16070    0.03120    2.65790   -0.03900    4.82140  118.72270    8.92350    9.49510   11.10650   11.47910   71.86290  128.43960
 13433.00000  118.50780    0.16490    0.03230    2.65620   -0.04010    4.81190  118.38070    8.75530    9.33640   11.15820   11.34200   72.17990  128.85370
 13433.50000  119.75100    0.17280    0.03100    2.65860   -0.03860    4.81070  115.29070    8.75410    9.20660   11.14640   11.20500   72.43540  129.41360
 13434.00000  120.93460    0.17730    0.02820    2.66250   -0.03710    4.81430  115.08060    8.75280    9.20500   10.99890   11.06790   72.50230  129.93570
 13434.50000  122.11830    0.17830    0.02510    2.66970   -0.03590    4.81520  118.28820    8.75160    9.20390   10.67720   10.93090   72.36600  130.52000
 13435.00000  123.18660    0.17590    0.02070    2.67610   -0.03470    4.81730  119.14110    8.80280    9.20350   10.81570   10.79390   72.23410  130.54860
 13435.50000  123.01460    0.17450    0.01780    2.68130   -0.03370    4.81690  115.89180    8.95660    9.27710   11.34320   10.65680   72.12810  130.09550
 13436.00000  122.13540    0.17580    0.01900    2.67740   -0.03210    4.81660  115.01190    9.11320    9.43440   12.38570   10.51980   72.02210  128.99600
 13436.50000  121.62100    0.17690    0.02510    2.66830   -0.03070    4.81640  119.90070    9.27250    9.59450   13.10140   10.38270   71.88230  127.89660
 13437.00000  122.06090    0.17640    0.02680    2.66500   -0.03220    4.81640  124.21990    9.43460    9.75720   12.67750   10.24570   71.58800  126.79710
 13437.50000  122.58720    0.17290    0.02640    2.66570   -0.03400    4.81640  124.79100    9.58850    9.92270   11.88960   10.10860   71.29380  125.94290
 13438.00000  122.52590    0.16950    0.02710    2.66490   -0.03600    4.81640  120.86040    9.71140   10.09100   12.18320   10.06700   70.99950  125.69580
 13438.50000  122.16390    0.16690    0.02860    2.66200   -0.03800    4.81640  119.27830    9.74350   10.13690   12.64590   10.02880   70.70530  125.68800
 13439.00000  121.34310    0.16550    0.02990    2.66060   -0.03790    4.81650  119.57140    9.52920   10.03770   13.10340    9.99070   70.66780  125.71590
 13439.50000  120.30250    0.16690    0.02780    2.66340   -0.03460    4.81700  120.40380    9.31950    9.76450   13.02610    9.95250   70.69600  126.60270
