~Version ---------------------------------------------------
VERS.   2.0 : CWLS log ASCII Standard -VERSION 2.0
WRAP.    NO : One line per depth step
DLM . SPACE : Column Data Section Delimiter
~Well ------------------------------------------------------
STRT .F                10996.0 : START DEPTH
STOP .F                14315.0 : STOP DEPTH
STEP .F                    0.5 : STEP
NULL .                -9999.25 : NULL VALUE
COMP .                         : COMPANY
WELL .                         : WELL
FLD  .                         : FIELD
LOC  .                         : LOCATION
PROV .                         : PROVINCE
CNTY .                         : COUNTY
STAT .                         : STATE
CTRY .                         : COUNTRY
SRVC .                         : SERVICE COMPANY
DATE .                         : DATE
UWI  .                         : UNIQUE WELL ID
API  .                         : API NUMBER
SLAT .WGS84 5.7327837775454995 : SURFACE LATITUDE
SLON .WGS84 3.9947683505355087 : SURFACE LONGITUDE
DATUM.F                 2066.0 : DEPTH DATUM ELEV
~Curve Information -----------------------------------------
DEPT.F     : 
GRD .GAPI  : GAMMA RAY FROM DENSITY LOG
NPHI.DEC   : NEUTRON POROSITY
DPHI.DEC   : DENSITY POROSITY
RHOB.G/C3  : BULK DENSITY
DRHO.G/C3  : BULK DENSITY CORRECTION
CALD.IN    : CALIPER FROM DENSITY LOG
GRR .GAPI  : GAMMA RAY FROM RESISTIVITY LOG
ILD .OHMM  : INDUCTION DEEP RESISTIVITY
ILM .OHMM  : INDUCTION MEDIUM RESISTIVITY
SFLU.OHMM  : SHALLOW FOCUSED RESISTIVITY (UNAVERAGED)
SPR .MV    : SPONTANEOUS POTENTIAL FROM RESISTIVITY LOG
DTCO.US/F  : DELTA-T COMPRESSIONAL
DTSM.US/F  : DELTA-T SHEAR
~Params ----------------------------------------------------
~Other -----------------------------------------------------
~ASCII -----------------------------------------------------
# ...
 14012.00000   98.14320    0.07800    0.02810    2.66650    0.17520    4.70810  116.13040   12.11000   12.84220   16.15570   11.91230   67.20910  123.23040
 14012.50000   92.49030    0.07820    0.03170    2.66150    0.17840    4.69690  111.20070   12.38110   13.26880   16.71380   11.59090   65.74200  127.72350
 14013.00000   87.40770    0.07800    0.03730    2.65180    0.18160    4.67770  105.85470   12.65830   13.72130   17.67430   11.26950   66.02010  127.97910
 14013.50000   87.01700    0.07760    0.03830    2.64620    0.18500    4.65840  100.14570   12.79390   14.02410   18.29660   10.77190   67.81100  127.79450
 14014.00000   92.13090    0.07720    0.03230    2.65360    0.18830    4.63920   97.00980   12.89720   13.97760   18.37640   10.47430   69.52020  122.97240
 14014.50000   95.08330    0.07680    0.02690    2.66740    0.19170    4.61990  102.47160   13.00130   13.80020   18.30740   10.43920   70.21780  117.96170
 14015.00000   89.04340    0.07570    0.03070    2.65900    0.19510    4.60070  109.49510   13.23160   13.70450   17.33160   10.25400   69.42520  112.85260
 14015.50000   80.93580    0.07140    0.03890    2.64810    0.19600    4.58850  109.99800   13.77010   14.05430   15.97460   10.06890   67.06990  106.64120
 14016.00000   77.29030    0.06270    0.04580    2.63700    0.19290    4.60600   97.95580   14.68160   15.92680   17.15290    9.88370   64.86630  100.71140
 14016.50000   92.97660    0.05560    0.05240    2.62360    0.18970    4.62360   83.56370   15.86590   18.17150   21.81380    9.69860   62.76400   97.85360
 14017.00000  113.34140    0.04970    0.05880    2.61020    0.18660    4.66030   73.27930   17.37030   20.73260   42.76910    9.51340   61.69490   96.19600
 14017.50000  128.98670    0.04770    0.06720    2.59650    0.18520    4.69900   67.07430   19.37990   23.58860   74.27980    9.30180   62.18320   97.13810
 14018.00000  129.10100    0.04960    0.07420    2.58140    0.18790    4.73760   65.25840   21.72990   26.57730   85.51360    9.05410   63.31670  100.60060
 14018.50000  128.68100    0.05160    0.08070    2.57110    0.19080    4.74820   62.65240   25.21480   29.94460   96.53610    8.80640   64.45030  102.78890
 14019.00000  130.49420    0.05440    0.08660    2.56580    0.19380    4.74690   58.34270   29.25850   33.73860   98.79150    8.55870   65.55840   98.97510
 14019.50000  132.30740    0.05770    0.08970    2.56020    0.19550    4.74550   53.01190   33.95080   38.11290   93.13990    8.32270   66.20970  101.13800
 14020.00000  131.03980    0.05330    0.09260    2.55460    0.19650    4.74420   47.49220   39.39550   43.87910   87.11300    8.40550   66.21920  101.09330
 14020.50000  129.99720    0.04500    0.09560    2.54910    0.19730    4.74290   45.10680   45.71340   48.86000   85.98350    8.48830   65.11650   98.93940
 14021.00000  130.24800    0.03820    0.09850    2.54320    0.19770    4.74160   45.01370   53.04460   49.61930   96.28610    8.57120   62.89470   96.78540
 14021.50000  131.34240    0.03380    0.10020    2.53980    0.19800    4.74030   44.88500   60.14600   50.18180  115.59010    8.65400   62.25210   94.63140
 14022.00000  131.92800    0.03350    0.09570    2.54780    0.19840    4.73900   44.00220   68.08620   51.62160  158.00940    8.73680   62.18150   94.57780
 14022.50000  130.28200    0.03410    0.08530    2.56240    0.19880    4.73770   43.15420   72.34360   52.39160  215.99570    8.81970   62.49290   99.15140
 14023.00000  128.91750    0.04430    0.07190    2.58500    0.19920    4.73550   43.74840   68.15390   49.42450  265.86720    8.90250   64.19290  102.78990
 14023.50000  129.04580    0.06990    0.05580    2.61480    0.19960    4.72650   55.04280   47.55800   39.32620  207.17610    8.93830   66.56320  104.00410
 14024.00000  131.36620    0.10220    0.04000    2.64380    0.20030    4.72890   73.54430   34.19360   29.46530   98.44870    9.01330   69.02030  104.28200
 14024.50000  133.59490    0.13980    0.02780    2.66410    0.20120    4.73450   93.17850   24.58480   22.59870   37.89150    9.08820   71.47730  116.51530
 14025.00000  133.52720    0.16170    0.02290    2.67250    0.20190    4.74010  115.12520   19.08760   17.33230   24.73400    9.16310   73.62330  129.00910
 14025.50000  132.34740    0.17540    0.02170    2.67640    0.20270    4.74570  124.50640   16.16760   13.98330   18.29550    9.23800   74.79950  131.39880
 14026.00000  127.04230    0.18400    0.02230    2.67430    0.20350    4.75130  132.82650   13.69430   11.39720   14.18460    9.31300   74.86000  130.33480
 14026.50000  119.35310    0.19140    0.02270    2.67130    0.20420    4.75680  133.48070   12.33820   10.16260   12.35040    9.38790   73.95530  127.37010
 14027.00000  110.80060    0.19320    0.02200    2.67070    0.20350    4.76240  124.19140   11.76440   10.39860   12.08470    9.44500   72.12170  122.67940
 14027.50000  104.67420    0.19500    0.01840    2.67760    0.19830    4.76800  106.44900   11.43770   11.05060   13.66610    9.49900   69.97630  119.47240
 14028.00000  109.64830    0.19330    0.01120    2.69310    0.16380    4.77340   94.27550   11.08370   11.64210   20.15550    9.55310   69.83890  119.67000
 14028.50000  116.62490    0.19040    0.00530    2.70530    0.13260    4.77360   89.52130   10.63670   11.51260   31.46180    9.60710   70.67320  123.97760
 14029.00000  122.13810    0.18960    0.00620    2.70280    0.12710    4.77370   98.13070   10.18890   10.82960   42.82860    9.66120   72.37670  128.28520
 14029.50000  126.80390    0.18890    0.01030    2.69770    0.12550    4.77390  109.38560    9.40000   10.10100   36.72110    9.71520   74.08020  132.52530
 14030.00000  127.85370    0.18810    0.01280    2.69240    0.12680    4.77400  115.02810    8.50600    9.42140   22.53130    9.76930   75.00630  136.46880
 14030.50000  124.39370    0.18950    0.01560    2.68650    0.12920    4.77410  119.20320    7.82920    8.90840   13.59100    9.82330   75.10460  138.18200
 14031.00000  119.11790    0.19120    0.01870    2.68060    0.13190    4.77430  123.27550    7.67260    8.82610    9.60860    9.87740   74.62070  138.18780
 14031.50000  115.08820    0.19130    0.02180    2.67480    0.13470    4.77440  123.65480    7.67390    8.79760    9.15520   10.04280   73.97530  135.75560
 14032.00000  116.77810    0.19150    0.02200    2.67130    0.13740    4.77450  117.25580    7.92750    8.82010    9.40450   10.21240   73.32980  133.10550
 14032.50000  119.67340    0.19160    0.02090    2.67500    0.14050    4.77470  110.74800    8.27070    8.84260   12.35060   10.38210   72.68440  131.19730
 14033.00000  118.23950    0.19120    0.01950    2.67910    0.14360    4.77480  106.04560    8.54490    8.86520   18.12400   10.55180   72.48930  131.20310
 14033.50000  115.24150    0.19100    0.01810    2.68150    0.14670    4.77500  105.20360    8.44810    8.83460   20.01960   10.72150   73.62710  131.20890
 14034.00000  112.60730    0.19090    0.02050    2.67500    0.14990    4.77510  104.55960    8.35250    8.76670   19.54190   10.89110   75.26710  134.49020
 14034.50000  112.35650    0.19120    0.02510    2.66760    0.15300    4.77520  107.71840    8.23610    8.55410   15.30340   10.95850   75.62800  137.87720
 14035.00000  112.29500    0.19140    0.02700    2.66660    0.15630    4.77540  116.55760    8.03220    8.35070   12.48540   10.91520   75.97800  139.59290
 14035.50000  113.10180    0.19160    0.02620    2.66710    0.15950    4.77550  126.59840    7.83330    8.15440   10.16230   10.87200   76.25040  139.91430
 14036.00000  114.84700    0.18850    0.02320    2.66960    0.16270    4.77560  129.28840    7.37980    7.68610    8.70450   10.82870   76.47170  142.16090
 14036.50000  116.64930    0.18240    0.02110    2.67480    0.16590    4.77580  125.57140    6.80000    7.06470    8.80230   10.78540   76.46540  142.75650
 14037.00000  118.81380    0.17390    0.01910    2.68030    0.16900    4.77590  121.48360    6.26590    6.47980   10.25870   10.74210   76.38240  142.62900
 14037.50000  118.72420    0.16880    0.01880    2.68150    0.17200    4.77610  124.81970    5.95840    6.10890   10.37970   10.69890   76.25570  142.47650
