~Version ---------------------------------------------------
VERS.   2.0 : CWLS log ASCII Standard -VERSION 2.0
WRAP.    NO : One line per depth step
DLM . SPACE : Column Data Section Delimiter
~Well ------------------------------------------------------
STRT .F                10996.0 : START DEPTH
STOP .F                14315.0 : STOP DEPTH
STEP .F                    0.5 : STEP
NULL .                -9999.25 : NULL VALUE
COMP .                         : COMPANY
WELL .                         : WELL
FLD  .                         : FIELD
LOC  .                         : LOCATION
PROV .                         : PROVINCE
CNTY .                         : COUNTY
STAT .                         : STATE
CTRY .                         : COUNTRY
SRVC .                         : SERVICE COMPANY
DATE .                         : DATE
UWI  .                         : UNIQUE WELL ID
API  .                         : API NUMBER
SLAT .WGS84 5.7327837775454995 : SURFACE LATITUDE
SLON .WGS84 3.9947683505355087 : SURFACE LONGITUDE
DATUM.F                 2066.0 : DEPTH DATUM ELEV
~Curve Information -----------------------------------------
DEPT.F     : 
GRD .GAPI  : GAMMA RAY FROM DENSITY LOG
NPHI.DEC   : NEUTRON POROSITY
DPHI.DEC   : DENSITY POROSITY
RHOB.G/C3  : BULK DENSITY
DRHO.G/C3  : BULK DENSITY CORRECTION
CALD.IN    : CALIPER FROM DENSITY LOG
GRR .GAPI  : GAMMA RAY FROM RESISTIVITY LOG
ILD .OHMM  : INDUCTION DEEP RESISTIVITY
ILM .OHMM  : INDUCTION MEDIUM RESISTIVITY
SFLU.OHMM  : SHALLOW FOCUSED RESISTIVITY (UNAVERAGED)
SPR .MV    : SPONTANEOUS POTENTIAL FROM RESISTIVITY LOG
DTCO.US/F  : DELTA-T COMPRESSIONAL
DTSM.US/F  : DELTA-T SHEAR
~Params ----------------------------------------------------
~Other -----------------------------------------------------
~ASCII -----------------------------------------------------
# ...
 14142.00000   -9999.25   -9999.25   -9999.25   -9999.25   -9999.25   -9999.25  120.57770    8.28110    8.45450   11.75810    9.00030   73.93130  136.77600
 14142.50000   -9999.25   -9999.25   -9999.25   -9999.25   -9999.25   -9999.25  125.65720    8.10040    8.27510   11.03050    8.99400   74.60490  137.15870
 14143.00000   -9999.25   -9999.25   -9999.25   -9999.25   -9999.25   -9999.25  131.99800    7.92350    8.14240   10.19530    8.98770   74.57750  136.94610
 14143.50000   -9999.25   -9999.25   -9999.25   -9999.25   -9999.25   -9999.25  128.94530    7.83480    8.04710    9.59040    8.98140   74.10330  136.73360
 14144.00000   -9999.25   -9999.25   -9999.25   -9999.25   -9999.25   -9999.25  120.53440    7.78550    7.96800    9.63600    9.01370   73.66170  136.58930
 14144.50000   -9999.25   -9999.25   -9999.25   -9999.25   -9999.25   -9999.25  113.82050    7.71210    7.91250   10.22460    9.07970   73.43230  137.01360
 14145.00000   -9999.25   -9999.25   -9999.25   -9999.25   -9999.25   -9999.25  112.54450    7.62810    7.86100   10.95400    9.14560   73.84630  137.93940
 14145.50000   -9999.25   -9999.25   -9999.25   -9999.25   -9999.25   -9999.25  112.91920    7.54510    7.80250   11.75360    9.21160   74.52410  139.00690
 14146.00000   -9999.25   -9999.25   -9999.25   -9999.25   -9999.25   -9999.25  115.14900    7.45380    7.67010   12.17130    9.27750   75.11520  140.07440
 14146.50000   -9999.25   -9999.25   -9999.25   -9999.25   -9999.25   -9999.25  119.02210    7.33260    7.53990   11.23820    9.34350   75.25220  140.74620
 14147.00000   -9999.25   -9999.25   -9999.25   -9999.25   -9999.25   -9999.25  125.83930    7.21330    7.41190   10.10540    9.40940   75.26950  141.06310
 14147.50000   -9999.25   -9999.25   -9999.25   -9999.25   -9999.25   -9999.25  133.12300    7.08090    7.28920    9.03340    9.36450   75.18580  140.90120
 14148.00000   -9999.25   -9999.25   -9999.25   -9999.25   -9999.25   -9999.25  135.53500    6.94950    7.17360    9.27510    9.28630   74.90130  140.10290
 14148.50000   -9999.25   -9999.25   -9999.25   -9999.25   -9999.25   -9999.25  132.36090    6.93580    7.13730   10.26520    9.20820   74.61670  139.45950
 14149.00000   -9999.25   -9999.25   -9999.25   -9999.25   -9999.25   -9999.25  126.68600    6.95460    7.14920   10.16110    9.13000   74.29450  137.80150
 14149.50000   -9999.25   -9999.25   -9999.25   -9999.25   -9999.25   -9999.25  123.19550    7.06980    7.23370    8.89950    9.05190   73.86940  136.26450
 14150.00000   -9999.25   -9999.25   -9999.25   -9999.25   -9999.25   -9999.25  120.82070    7.18700    7.37730    8.71180    8.97370   73.22470  133.68130
 14150.50000   -9999.25   -9999.25   -9999.25   -9999.25   -9999.25   -9999.25  121.17860    7.38620    7.56350    9.10290    8.89560   72.39400  131.18440
 14151.00000   -9999.25   -9999.25   -9999.25   -9999.25   -9999.25   -9999.25  123.46630    7.60430    7.75440    9.96140    8.81740   71.14450  131.20200
 14151.50000   -9999.25   -9999.25   -9999.25   -9999.25   -9999.25   -9999.25  126.03660    7.82870    7.95020   11.41740    8.73930   70.16730  132.51360
 14152.00000   -9999.25   -9999.25   -9999.25   -9999.25   -9999.25   -9999.25  126.10000    8.05990    8.24290   12.66540    8.66110   70.96720  134.28400
 14152.50000   -9999.25   -9999.25   -9999.25   -9999.25   -9999.25   -9999.25  119.67830    8.29780    8.54160   13.98010    8.64350   72.47940  136.05440
 14153.00000   -9999.25   -9999.25   -9999.25   -9999.25   -9999.25   -9999.25  113.06450    8.51580    8.80930   14.86240    8.76130   73.99170  137.56240
 14153.50000   -9999.25   -9999.25   -9999.25   -9999.25   -9999.25   -9999.25  108.95650    8.64350    9.08540   14.14360    8.87000   75.12330  139.01450
 14154.00000   -9999.25   -9999.25   -9999.25   -9999.25   -9999.25   -9999.25  113.86090    8.70450    9.11560   11.26770    8.96170   75.75890  140.18010
 14154.50000   -9999.25   -9999.25   -9999.25   -9999.25   -9999.25   -9999.25  119.49400    8.62850    8.98230    9.94920    9.05340   75.63920  141.06390
 14155.00000   -9999.25   -9999.25   -9999.25   -9999.25   -9999.25   -9999.25  122.54470    8.44080    8.79050    9.75150    9.14500   74.49520  141.23220
 14155.50000   -9999.25   -9999.25   -9999.25   -9999.25   -9999.25   -9999.25  118.31760    8.25780    8.48580    9.98540    9.23670   72.52040  141.23670
 14156.00000   -9999.25   -9999.25   -9999.25   -9999.25   -9999.25   -9999.25  116.26760    7.94590    8.16970   10.28760    9.32840   71.83210  141.23670
 14156.50000   -9999.25   -9999.25   -9999.25   -9999.25   -9999.25   -9999.25  115.51570    7.53210    7.84060   10.51850    9.39730   73.94170  141.23670
 14157.00000   -9999.25   -9999.25   -9999.25   -9999.25   -9999.25   -9999.25  120.48900    7.13990    7.55040    9.89140    9.43430   75.54920  141.23670
 14157.50000   -9999.25   -9999.25   -9999.25   -9999.25   -9999.25   -9999.25  125.87140    6.90930    7.26720    8.83650    9.47130   75.64680  141.23670
 14158.00000   -9999.25   -9999.25   -9999.25   -9999.25   -9999.25   -9999.25  130.27110    6.69650    6.97450    8.86930    9.50830   74.38950  141.35470
 14158.50000   -9999.25   -9999.25   -9999.25   -9999.25   -9999.25   -9999.25  133.15760    6.56460    6.76950    9.00240    9.54530   74.27340  141.52010
 14159.00000   -9999.25   -9999.25   -9999.25   -9999.25   -9999.25   -9999.25  132.43630    6.44230    6.60560    9.13740    9.58230   75.39030  141.68560
 14159.50000   -9999.25   -9999.25   -9999.25   -9999.25   -9999.25   -9999.25  129.87140    6.30460    6.48240    9.09630    9.61930   76.03250  141.85110
 14160.00000   -9999.25   -9999.25   -9999.25   -9999.25   -9999.25   -9999.25  126.05920    6.17920    6.39060    8.96320    9.65630   76.32580  141.87580
 14160.50000   -9999.25   -9999.25   -9999.25   -9999.25   -9999.25   -9999.25  122.40880    6.11350    6.35200    8.52380    9.69330   76.37150  141.45690
 14161.00000   -9999.25   -9999.25   -9999.25   -9999.25   -9999.25   -9999.25  123.48930    6.11350    6.40660    8.15460    9.73030   75.90470  140.32190
 14161.50000   -9999.25   -9999.25   -9999.25   -9999.25   -9999.25   -9999.25  129.60320    6.38450    6.53960    7.80980    9.76730   75.09170  138.30700
 14162.00000   -9999.25   -9999.25   -9999.25   -9999.25   -9999.25   -9999.25  133.46540    6.68170    6.79160    8.12320    9.80430   74.12770  135.84680
 14162.50000   -9999.25   -9999.25   -9999.25   -9999.25   -9999.25   -9999.25  136.80120    6.91430    7.02960   10.09180    9.84130   73.13960  134.61750
 14163.00000   -9999.25   -9999.25   -9999.25   -9999.25   -9999.25   -9999.25  138.59470    7.15500    7.27600   12.59640    9.86380   72.08600  134.09630
 14163.50000   -9999.25   -9999.25   -9999.25   -9999.25   -9999.25   -9999.25  141.16230    7.37030    7.54460   14.13500    9.86730   71.26000  133.57520
 14164.00000   -9999.25   -9999.25   -9999.25   -9999.25   -9999.25   -9999.25  140.13550    7.58370    7.82730   13.54160    9.87090   70.88030  132.80360
 14164.50000   -9999.25   -9999.25   -9999.25   -9999.25   -9999.25   -9999.25  132.66490    7.90540    8.16710   12.44070    9.87450   70.75970  131.91800
 14165.00000   -9999.25   -9999.25   -9999.25   -9999.25   -9999.25   -9999.25  121.28330    8.31500    8.56110   11.49350    9.87810   70.77920  130.81950
 14165.50000   -9999.25   -9999.25   -9999.25   -9999.25   -9999.25   -9999.25  113.66800    8.74580    8.96480   11.82870    9.88160   70.94130  129.43970
 14166.00000   -9999.25   -9999.25   -9999.25   -9999.25   -9999.25   -9999.25  109.63710    8.98750    9.21360   12.84840    9.88520   71.38270  128.40500
 14166.50000   -9999.25   -9999.25   -9999.25   -9999.25   -9999.25   -9999.25  109.21960    9.04040    9.35180   13.86070    9.88880   71.82410  129.75200
 14167.00000   -9999.25   -9999.25   -9999.25   -9999.25   -9999.25   -9999.25  110.08840    9.03420    9.36680   14.17130    9.89230   73.02390  134.92050
 14167.50000   -9999.25   -9999.25   -9999.25   -9999.25   -9999.25   -9999.25  110.68440    8.96550    9.32860   14.65310    9.91530   74.31130  139.73210
