~Version ---------------------------------------------------
VERS.   2.0 : CWLS log ASCII Standard -VERSION 2.0
WRAP.    NO : One line per depth step
DLM . SPACE : Column Data Section Delimiter
~Well ------------------------------------------------------
STRT .F                10996.0 : START DEPTH
STOP .F                14315.0 : STOP DEPTH
STEP .F                    0.5 : STEP
NULL .                -9999.25 : NULL VALUE
COMP .                         : COMPANY
WELL .                         : WELL
FLD  .                         : FIELD
LOC  .                         : LOCATION
PROV .                         : PROVINCE
CNTY .                         : COUNTY
STAT .                         : STATE
CTRY .                         : COUNTRY
SRVC .                         : SERVICE COMPANY
DATE .                         : DATE
UWI  .                         : UNIQUE WELL ID
API  .                         : API NUMBER
SLAT .WGS84 5.7327837775454995 : SURFACE LATITUDE
SLON .WGS84 3.9947683505355087 : SURFACE LONGITUDE
DATUM.F                 2066.0 : DEPTH DATUM ELEV
~Curve Information -----------------------------------------
DEPT.F     : 
GRD .GAPI  : GAMMA RAY FROM DENSITY LOG
NPHI.DEC   : NEUTRON POROSITY
DPHI.DEC   : DENSITY POROSITY
RHOB.G/C3  : BULK DENSITY
DRHO.G/C3  : BULK DENSITY CORRECTION
CALD.IN    : CALIPER FROM DENSITY LOG
GRR .GAPI  : GAMMA RAY FROM RESISTIVITY LOG
ILD .OHMM  : INDUCTION DEEP RESISTIVITY
ILM .OHMM  : INDUCTION MEDIUM RESISTIVITY
SFLU.OHMM  : SHALLOW FOCUSED RESISTIVITY (UNAVERAGED)
SPR .MV    : SPONTANEOUS POTENTIAL FROM RESISTIVITY LOG
DTCO.US/F  : DELTA-T COMPRESSIONAL
DTSM.US/F  : DELTA-T SHEAR
~Params ----------------------------------------------------
~Other -----------------------------------------------------
~ASCII -----------------------------------------------------
# ...
 13466.00000  110.54120    0.16460    0.02750    2.67210   -0.03300    4.81800  111.58890   12.23250   12.47290   14.96240    8.83050   68.14150  121.70260
 13466.50000  110.39340    0.16190    0.03330    2.65900   -0.03950    4.82070  114.64990   12.24060   12.55280   14.99240    8.85020   68.58170  122.44710
 13467.00000  112.04210    0.15950    0.03910    2.64760   -0.04490    4.83490  117.90960   12.23920   12.55140   14.99070    8.86990   69.40070  123.19160
 13467.50000  113.28140    0.15790    0.04310    2.63680   -0.04700    4.85000  118.54110   12.23340   12.55000   14.98900    8.88470   70.00450  123.30770
 13468.00000  113.32710    0.15640    0.04260    2.64490   -0.04580    4.86510  117.81750   12.21030   12.52660   14.98730    8.88710   69.99500  122.70560
 13468.50000  113.58060    0.15580    0.03400    2.65300   -0.04030    4.87620  112.52170   12.18730   12.42490   14.87980    8.88950   69.98550  122.23730
 13469.00000  115.63690    0.15640    0.03250    2.65200   -0.03460    4.87620  107.28640   12.16440   12.32410   14.85260    8.89190   69.97710  121.76910
 13469.50000  117.60090    0.15630    0.03580    2.65020   -0.03760    4.87620  103.23170   12.14140   12.22410   14.91070    8.89420   69.95770  121.63180
 13470.00000  117.18940    0.15800    0.03730    2.64650   -0.04080    4.86700  104.35390   12.11710   12.12500   15.12950    8.89660   69.75800  121.86200
 13470.50000  115.86140    0.16010    0.03480    2.65030   -0.03990    4.85210  107.81410   12.01790   12.03700   15.23440    8.89900   69.54100  122.23040
 13471.00000  114.97920    0.16210    0.02950    2.65930   -0.03810    4.83720  111.92100   11.91950   11.95910   15.07730    8.90140   69.30200  123.10610
 13471.50000  114.06720    0.16440    0.02710    2.66420   -0.03650    4.82220  117.75600   11.82190   11.88170   14.70520    8.90380   69.06300  124.19330
 13472.00000  112.70820    0.16800    0.03080    2.65780   -0.03780    4.83250  123.14640   11.70930   11.80480   14.25910    8.97460   68.82400  125.68300
 13472.50000  111.30650    0.17160    0.03760    2.64820   -0.03910    4.84610  126.64480   11.58330   11.72840   13.59540    9.17850   68.60810  126.89040
 13473.00000  114.95630    0.17440    0.04180    2.63930   -0.04160    4.83960  126.29110   11.45870   11.65250   13.42960    9.38240   68.41720  126.87300
 13473.50000  119.93630    0.17610    0.04460    2.63510   -0.04430    4.83770  124.60460   11.33550   11.57700   13.37700    9.58630   68.38440  126.61150
 13474.00000  123.82610    0.17610    0.04690    2.63160   -0.04530    4.83940  122.85780   11.21350   11.50210   13.48020    9.79020   68.70310  126.35740
 13474.50000  122.91000    0.17610    0.04840    2.62850   -0.04730    4.84110  122.35420   11.09290   11.42770   13.54520    9.93560   69.08360  126.27710
 13475.00000  121.35880    0.17610    0.04830    2.62800   -0.04890    4.84290  122.09800   10.97360   11.35370   13.42180    9.84600   69.46400  126.19680
 13475.50000  119.80760    0.17610    0.04530    2.63250   -0.04510    4.84280  121.80000   10.92200   11.27340   13.10030    9.75640   69.64610  126.09910
 13476.00000  119.58580    0.17610    0.04120    2.64030   -0.04110    4.84220  120.91510   10.92330   11.19240   12.68940    9.66670   69.64610  125.99380
 13476.50000  121.36970    0.17450    0.03640    2.64760   -0.04050    4.84210  119.39640   10.92450   11.11200   12.63390    9.57710   69.64610  125.84120
 13477.00000  123.27950    0.17330    0.03430    2.65160   -0.04080    4.84130  116.10800   10.92570   11.06420   12.73270    9.41730   69.64610  125.68860
 13477.50000  123.67340    0.17340    0.03320    2.65480   -0.04120    4.84050  111.84860   10.92700   11.06550   12.95240    9.22560   69.64610  125.46160
 13478.00000  123.58320    0.17360    0.03090    2.65860   -0.04030    4.83980  106.23280   10.92820   11.06670   13.29200    9.20630   69.64610  125.00930
 13478.50000  123.49650    0.17360    0.02800    2.66240   -0.03940    4.83770  110.30340   10.92940   11.10860   13.31650    9.20000   69.64610  124.55700
 13479.00000  123.61350    0.17160    0.02320    2.67230   -0.03560    4.83780  118.16380   10.94080   11.15980   13.22160    9.19370   69.64610  124.55370
 13479.50000  123.37060    0.17060    0.01790    2.68100   -0.02920    4.84000  124.04340   11.00220   11.21130   13.21700    9.18750   69.64610  124.91550
 13480.00000  123.17530    0.16830    0.01520    2.68700   -0.02590    4.84390  124.76820   11.06390   11.26300   13.22390    9.18120   69.64610  124.91550
 13480.50000  122.98000    0.16590    0.01670    2.68220   -0.02420    4.84810  126.13600   11.12600   11.31500   13.19530    9.17500   69.64610  124.67930
 13481.00000  122.26430    0.16370    0.01860    2.67740   -0.02440    4.85230  129.13980   11.18850   11.36720   13.07520    9.24670   69.64610  124.38180
 13481.50000  120.05670    0.16250    0.01960    2.67550   -0.02580    4.84600  130.98850   11.24480   11.41960   12.99040    9.37630   69.58550  123.96340
 13482.00000  117.13380    0.16350    0.02020    2.67520   -0.02750    4.84120  124.37730   11.29740   11.47230   13.18820    9.50580   69.39420  122.95610
 13482.50000  113.32240    0.16450    0.02070    2.67530   -0.02970    4.83710  114.50100   11.35030   11.51800   13.76710    9.63540   68.94580  121.41650
 13483.00000  111.36760    0.16560    0.02130    2.67580   -0.03190    4.83510  107.82150   11.40350   11.55710   14.59580    9.76490   68.37830  120.46980
 13483.50000  111.05240    0.16650    0.02190    2.67330   -0.03360    4.83280  104.99690   11.45690   11.59630   14.80640    9.89450   68.13890  120.32880
 13484.00000  111.29670    0.16740    0.02630    2.66680   -0.03520    4.83040  104.00440   11.48610   11.63560   14.68170   10.02410   67.89940  120.30740
 13484.50000  111.97790    0.16830    0.03040    2.65850   -0.03620    4.82800  105.39840   11.43570   11.64370   14.35240   10.13570   67.75350  120.57620
 13485.00000  113.52180    0.16690    0.03100    2.65770   -0.03570    4.81840  108.09980   11.38540   11.63910   13.93740   10.17630   68.20640  120.92550
 13485.50000  116.53120    0.16610    0.02960    2.65970   -0.03530    4.80410  110.07100   11.29290   11.57670   13.61310   10.21690   68.55320  121.37980
 13486.00000  117.54090    0.16520    0.02900    2.66010   -0.03580    4.79290  111.38770   11.13070   11.51450   13.64050   10.25750   68.89990  121.83410
 13486.50000  115.52370    0.16440    0.03010    2.65880   -0.03650    4.78560  112.70430   10.97080   11.35390   13.76100   10.29810   69.24670  122.28300
 13487.00000  114.18550    0.16290    0.03120    2.65710   -0.03790    4.77820  115.29290   10.81310   11.15360   13.72970   10.33870   69.47530  122.59910
 13487.50000  114.98640    0.16170    0.03370    2.65310   -0.03860    4.77090  119.25020   10.56650   10.93960   13.62400   10.37930   69.64610  122.82500
 13488.00000  117.43350    0.16300    0.03420    2.64850   -0.03930    4.77140  121.70780   10.31480   10.72980   13.29070   10.41070   69.64610  123.03930
 13488.50000  119.24360    0.16500    0.03350    2.65160   -0.04000    4.77610  119.67900   10.11430   10.53150   13.17080   10.25520   69.45350  123.27430
 13489.00000  118.92330    0.16700    0.02890    2.66100   -0.04070    4.77720  114.99640   10.03220   10.40580   12.93010   10.09970   69.20830  123.57280
 13489.50000  118.68160    0.17400    0.02310    2.67190   -0.03960    4.78830  114.82270    9.95080   10.28170   12.52590    9.94420   68.99670  124.06590
 13490.00000  118.69740    0.18380    0.01850    2.67970   -0.03720    4.78540  115.26840    9.87000   10.26300   11.97900    9.90280   69.08270  124.79040
 13490.50000  118.81930    0.18490    0.01380    2.68440   -0.03500    4.77980  115.92150    9.86440   10.27110   11.60570    9.91610   69.71830  125.23260
 13491.00000  118.94120    0.18280    0.01650    2.68160   -0.03580    4.77990  116.91790    9.88530   10.27910   11.52280    9.73090   70.35380  125.49040
 13491.50000  117.49150    0.18050    0.02230    2.67350   -0.03690    4.78210  120.05920    9.90630   10.28720   11.53280    9.68700   70.87760  125.41210
