~Version ---------------------------------------------------
VERS.   2.0 : CWLS log ASCII Standard -VERSION 2.0
WRAP.    NO : One line per depth step
DLM . SPACE : Column Data Section Delimiter
~Well ------------------------------------------------------
STRT .F                10996.0 : START DEPTH
STOP .F                14315.0 : STOP DEPTH
STEP .F                    0.5 : STEP
NULL .                -9999.25 : NULL VALUE
COMP .                         : COMPANY
WELL .                         : WELL
FLD  .                         : FIELD
LOC  .                         : LOCATION
PROV .                         : PROVINCE
CNTY .                         : COUNTY
STAT .                         : STATE
CTRY .                         : COUNTRY
SRVC .                         : SERVICE COMPANY
DATE .                         : DATE
UWI  .                         : UNIQUE WELL ID
API  .                         : API NUMBER
SLAT .WGS84 5.7327837775454995 : SURFACE LATITUDE
SLON .WGS84 3.9947683505355087 : SURFACE LONGITUDE
DATUM.F                 2066.0 : DEPTH DATUM ELEV
~Curve Information -----------------------------------------
DEPT.F     : 
GRD .GAPI  : GAMMA RAY FROM DENSITY LOG
NPHI.DEC   : NEUTRON POROSITY
DPHI.DEC   : DENSITY POROSITY
RHOB.G/C3  : BULK DENSITY
DRHO.G/C3  : BULK DENSITY CORRECTION
CALD.IN    : CALIPER FROM DENSITY LOG
GRR .GAPI  : GAMMA RAY FROM RESISTIVITY LOG
ILD .OHMM  : INDUCTION DEEP RESISTIVITY
ILM .OHMM  : INDUCTION MEDIUM RESISTIVITY
SFLU.OHMM  : SHALLOW FOCUSED RESISTIVITY (UNAVERAGED)
SPR .MV    : SPONTANEOUS POTENTIAL FROM RESISTIVITY LOG
DTCO.US/F  : DELTA-T COMPRESSIONAL
DTSM.US/F  : DELTA-T SHEAR
~Params ----------------------------------------------------
~Other -----------------------------------------------------
~ASCII -----------------------------------------------------
# ...
 13700.00000  107.27530    0.12180    0.02840    2.66230   -0.02670    4.71630  106.58000   13.68230   14.56840   19.02310   10.51120   66.16330  115.48460
 13700.50000  111.02140    0.13240    0.02000    2.67620   -0.02630    4.71600  100.01110   13.34900   13.97300   24.01820   10.50330   65.87300  116.07780
 13701.00000  111.88310    0.13140    0.02200    2.67270   -0.02680    4.71450  105.75000   12.90360   13.24250   25.36040   10.49550   65.47860  116.67110
 13701.50000  112.71180    0.13040    0.02850    2.66310   -0.02740    4.70900  117.46020   12.43460   12.64040   19.11720   10.48760   65.60860  118.47520
 13702.00000  114.48780    0.12910    0.02980    2.66020   -0.02780    4.71550  130.11990   11.98270   12.20750   15.94080   10.47970   67.26360  120.93570
 13702.50000  114.87830    0.12570    0.02860    2.66240   -0.02770    4.70690  138.57310   11.69620   11.91860   14.06510   10.47180   69.29180  122.39030
 13703.00000  113.63430    0.12350    0.02520    2.66780   -0.02730    4.70130  137.36830   11.43640   11.72250   14.04300   10.46390   69.71780  122.62080
 13703.50000  111.46080    0.12320    0.02330    2.67080   -0.02710    4.70160  126.94790   11.26510   11.59340   14.21560   10.45610   69.77090  121.69720
 13704.00000  109.62930    0.12290    0.02380    2.67110   -0.02680    4.70200  116.41480   11.26510   11.51080   14.88690   10.44820   69.13820  120.66240
 13704.50000  109.52780    0.12320    0.02460    2.66950   -0.02650    4.69860  117.05810   11.26510   11.43280   15.60320   10.44030   68.05930  119.62760
 13705.00000  110.90400    0.12460    0.02840    2.66170   -0.02870    4.69860  119.43520   11.26510   11.43280   16.08250   10.56100   68.74380  121.00510
 13705.50000  111.20510    0.12350    0.03430    2.65210   -0.03290    4.69860  120.23860   11.49760   11.74990   15.56810   10.62690   69.42840  122.55430
 13706.00000  108.77770    0.11760    0.03800    2.64940   -0.03520    4.70270  119.80970   11.84830   12.12990   14.65450   10.60620   70.11290  121.47630
 13706.50000  104.91670    0.11130    0.03830    2.64740   -0.03420    4.70700  118.17320   12.20980   12.52220   14.10320   10.58560   69.66730  118.82310
 13707.00000  103.84060    0.10740    0.03430    2.65130   -0.02880    4.71130  114.44700   12.58230   12.87600   14.60620   10.50370   68.75280  117.87180
 13707.50000  105.98250    0.10870    0.02940    2.66040   -0.02710    4.71560  108.37670   12.96620   13.21120   16.02880   10.64550   67.83830  117.05480
 13708.00000  110.43320    0.11550    0.02640    2.66470   -0.02790    4.71200  104.43670   13.36170   13.66630   18.07480   10.85290   66.99350  115.82540
 13708.50000  114.09920    0.12240    0.02620    2.66560   -0.02860    4.70570  105.54400   13.37270   13.80060   19.38190   11.06030   66.71620  114.25060
 13709.00000  115.24060    0.12700    0.02850    2.66220   -0.02930    4.69980  111.58680   13.28670   13.74100   19.22450   11.27060   67.04850  114.71420
 13709.50000  114.93430    0.12750    0.03160    2.65730   -0.03010    4.71340  114.44250   13.20130   13.62150   17.80440   11.26680   68.33740  116.65730
 13710.00000  109.44500    0.12000    0.03080    2.65970   -0.02830    4.72960  116.69390   13.11640   13.50300   15.90640   11.18610   69.47840  119.48080
 13710.50000  103.92210    0.11210    0.02590    2.66600   -0.02760    4.73810  119.08190   13.10690   13.52230   14.87490   11.03220   69.57300  119.75800
 13711.00000  100.93700    0.10860    0.02500    2.66750   -0.02700    4.73690  125.69900   13.19980   13.81140   14.98550   10.87830   69.02900  118.54130
 13711.50000  100.92850    0.10660    0.02820    2.66410   -0.02630    4.73110  128.94070   13.62900   14.35120   16.82780   10.72440   68.32300  115.64780
 13712.00000  101.34010    0.10420    0.03490    2.65430   -0.02680    4.71390  123.51600   14.07220   14.90660   19.05950   10.57040   67.61700  112.75420
 13712.50000  102.91870    0.10450    0.04050    2.64360   -0.02790    4.70560  116.91270   14.52980   15.41380   21.89210   10.41650   67.44130  113.57610
 13713.00000  104.36640    0.10430    0.04810    2.63070   -0.02810    4.71230  110.64690   15.00220   15.93820   23.20200   10.28800   69.40980  116.29660
 13713.50000  104.75330    0.10250    0.05840    2.61520   -0.02820    4.71910  105.80740   15.80410   16.48040   23.22490   10.17140   71.37070  116.71840
 13714.00000   95.41900    0.08270    0.06800    2.59960   -0.02820    4.72580  105.38840   17.00270   17.31160   22.70280   10.05490   69.87490  113.32760
 13714.50000   82.42040    0.06100    0.07750    2.58400   -0.02830    4.73170  104.80930   18.29220   19.10620   22.35520    9.23020   67.48900  109.16200
 13715.00000   66.88550    0.03920    0.08300    2.57070   -0.02950    4.72370  101.67300   19.67960   21.34540   22.89760    8.34060   67.05780  106.21560
 13715.50000   59.38800    0.03120    0.08640    2.56440   -0.03110    4.73550   91.38460   22.48200   24.39250   29.05420    7.48890   66.75420  104.01900
 13716.00000   51.89050    0.03230    0.08980    2.55850   -0.03300    4.73890   79.07130   25.92880   28.75930   46.98460    6.73930   65.88290  101.55400
 13716.50000   49.34040    0.03890    0.09330    2.55180   -0.03410    4.73930   66.15700   29.90400   33.90790   71.38890    5.82610   65.01170   97.14040
 13717.00000   56.66310    0.04770    0.09630    2.54950   -0.03510    4.73980   56.83450   34.48870   39.97820  115.29800    4.93610   64.14040   93.98800
 13717.50000   59.96160    0.05280    0.09680    2.54880   -0.03620    4.74020   51.24780   39.72330   45.54770  139.61150    4.08630   63.50180   94.01430
 13718.00000   62.70570    0.05450    0.09680    2.54600   -0.03730    4.74060   51.20210   45.10820   51.73050  125.87830    3.23650   63.19970   95.24150
 13718.50000   65.13780    0.05590    0.09710    2.54420   -0.03830    4.74100   51.97210   49.35160   53.34870   99.93120    2.85280   64.15240   96.46880
 13719.00000   64.17320    0.05740    0.09890    2.54260   -0.03880    4.74040   53.45060   50.57190   52.44490   79.13960    2.82040   64.12540   97.69600
 13719.50000   62.07920    0.05550    0.09900    2.54300   -0.03840    4.73960   55.11860   50.57190   50.96780   68.07190    2.78790   63.83720   98.92320
 13720.00000   59.98530    0.05210    0.09540    2.54880   -0.03800    4.73880   58.19540   50.00150   50.72860   62.78820    2.38930   63.97360   99.79630
 13720.50000   57.89130    0.04890    0.09040    2.55450   -0.03570    4.73800   60.84240   48.21910   50.34150   61.45280    1.89390   64.28430   99.86070
 13721.00000   57.39950    0.04850    0.08880    2.55460   -0.03300    4.73740   59.63180   44.58120   49.11770   64.79130    1.39850   64.30870   99.86270
 13721.50000   59.46700    0.05500    0.09050    2.55260   -0.03350    4.73690   58.01020   39.20940   44.66780   73.39740    0.90310   63.90950   99.86460
 13722.00000   65.32740    0.06350    0.09030    2.55350   -0.03390    4.73310   58.72230   33.13370   35.85930   83.48310    0.90790   63.50420  100.06090
 13722.50000   74.02290    0.07180    0.08830    2.56150   -0.03580    4.72360   64.99340   27.99950   27.45770   81.53400    1.61750   63.51020  101.15400
 13723.00000   76.25210    0.07420    0.08140    2.57330   -0.03790    4.71400   74.12210   23.66080   21.02450   52.33030    2.32700   63.62840  102.41050
 13723.50000   79.12230    0.07860    0.07580    2.57990   -0.03820    4.70450   77.62480   21.72990   16.85470   31.78740    3.03650   64.05560  103.66690
 13724.00000   83.83170    0.08230    0.07290    2.58570   -0.03740    4.70940   78.71630   20.33390   16.57650   16.62250    3.74600   64.48270  104.84660
 13724.50000   87.26570    0.08510    0.07100    2.59020   -0.03620    4.71510   75.99840   19.39120   16.99250   17.26380    4.20450   64.90990  105.98780
 13725.00000   86.87500    0.08230    0.06970    2.59270   -0.03330    4.72570   74.55080   18.89880   18.15320   25.00300    4.58860   65.33510  106.77300
 13725.50000   82.19590    0.07910    0.06970    2.59200   -0.02830    4.73620   78.74360   18.89880   19.45130   36.32060    4.97270   65.63780  106.77500
