~Version ---------------------------------------------------
VERS.   2.0 : CWLS log ASCII Standard -VERSION 2.0
WRAP.    NO : One line per depth step
DLM . SPACE : Column Data Section Delimiter
~Well ------------------------------------------------------
STRT .F                10996.0 : START DEPTH
STOP .F                14315.0 : STOP DEPTH
STEP .F                    0.5 : STEP
NULL .                -9999.25 : NULL VALUE
COMP .                         : COMPANY
WELL .                         : WELL
FLD  .                         : FIELD
LOC  .                         : LOCATION
PROV .                         : PROVINCE
CNTY .                         : COUNTY
STAT .                         : STATE
CTRY .                         : COUNTRY
SRVC .                         : SERVICE COMPANY
DATE .                         : DATE
UWI  .                         : UNIQUE WELL ID
API  .                         : API NUMBER
SLAT .WGS84 5.7327837775454995 : SURFACE LATITUDE
SLON .WGS84 3.9947683505355087 : SURFACE LONGITUDE
DATUM.F                 2066.0 : DEPTH DATUM ELEV
~Curve Information -----------------------------------------
DEPT.F     : 
GRD .GAPI  : GAMMA RAY FROM DENSITY LOG
NPHI.DEC   : NEUTRON POROSITY
DPHI.DEC   : DENSITY POROSITY
RHOB.G/C3  : BULK DENSITY
DRHO.G/C3  : BULK DENSITY CORRECTION
CALD.IN    : CALIPER FROM DENSITY LOG
GRR .GAPI  : GAMMA RAY FROM RESISTIVITY LOG
ILD .OHMM  : INDUCTION DEEP RESISTIVITY
ILM .OHMM  : INDUCTION MEDIUM RESISTIVITY
SFLU.OHMM  : SHALLOW FOCUSED RESISTIVITY (UNAVERAGED)
SPR .MV    : SPONTANEOUS POTENTIAL FROM RESISTIVITY LOG
DTCO.US/F  : DELTA-T COMPRESSIONAL
DTSM.US/F  : DELTA-T SHEAR
~Params ----------------------------------------------------
~Other -----------------------------------------------------
~ASCII -----------------------------------------------------
# ...
 13856.00000   -9999.25   -9999.25   -9999.25   -9999.25   -9999.25   -9999.25  112.50130   11.13160   11.27780   20.37050   12.67420   69.60550  121.81450
 13856.50000   -9999.25   -9999.25   -9999.25   -9999.25   -9999.25   -9999.25  112.36430   11.45830   11.59870   18.85960   12.58470   69.32180  121.69550
 13857.00000   -9999.25   -9999.25   -9999.25   -9999.25   -9999.25   -9999.25  113.73870   11.77430   12.00840   17.30720   12.49510   69.32180  121.64740
 13857.50000   -9999.25   -9999.25   -9999.25   -9999.25   -9999.25   -9999.25  118.13780   12.09030   12.43270   17.15970   12.41220   69.32180  121.20810
 13858.00000   -9999.25   -9999.25   -9999.25   -9999.25   -9999.25   -9999.25  122.20950   12.15300   12.54270   17.91180   12.46760   69.44900  120.50150
 13858.50000   -9999.25   -9999.25   -9999.25   -9999.25   -9999.25   -9999.25  122.22290   12.15300   12.54080   18.95440   12.52300   69.58530  119.95580
 13859.00000   -9999.25   -9999.25   -9999.25   -9999.25   -9999.25   -9999.25  117.80640   12.04180   12.29570   19.86370   12.57840   69.72150  119.87450
 13859.50000   -9999.25   -9999.25   -9999.25   -9999.25   -9999.25   -9999.25  113.34140   11.73600   12.05540   19.27390   12.63060   69.85780  121.32760
 13860.00000   -9999.25   -9999.25   -9999.25   -9999.25   -9999.25   -9999.25  114.86060   11.43790   11.79950   17.62710   12.67040   69.99400  123.48520
 13860.50000   -9999.25   -9999.25   -9999.25   -9999.25   -9999.25   -9999.25  118.49110   11.11510   11.49190   16.27690   12.71020   70.27460  126.28780
 13861.00000   -9999.25   -9999.25   -9999.25   -9999.25   -9999.25   -9999.25  120.79010   10.79820   11.19230   15.83090   12.75000   70.63020  126.78240
 13861.50000   -9999.25   -9999.25   -9999.25   -9999.25   -9999.25   -9999.25  118.92010   10.49040   10.90060   15.33590   12.78980   70.98590  126.79500
 13862.00000   -9999.25   -9999.25   -9999.25   -9999.25   -9999.25   -9999.25  118.43310   10.19130   10.61200   14.47800   12.82960   71.44470  127.41880
 13862.50000   -9999.25   -9999.25   -9999.25   -9999.25   -9999.25   -9999.25  120.16370   10.02110   10.32610   13.97780   12.86950   71.57220  127.97120
 13863.00000   -9999.25   -9999.25   -9999.25   -9999.25   -9999.25   -9999.25  122.82410    9.96180   10.07030   14.10500   12.90930   71.51210  127.00280
 13863.50000   -9999.25   -9999.25   -9999.25   -9999.25   -9999.25   -9999.25  125.54190    9.92200   10.00610   14.78600   12.90640   71.43840  126.03440
 13864.00000   -9999.25   -9999.25   -9999.25   -9999.25   -9999.25   -9999.25  128.28930    9.92020   10.06090   14.88030   12.88110   71.14730  125.26830
 13864.50000   -9999.25   -9999.25   -9999.25   -9999.25   -9999.25   -9999.25  129.07930    9.91840   10.21940   14.42170   12.85570   70.85610  125.51820
 13865.00000   -9999.25   -9999.25   -9999.25   -9999.25   -9999.25   -9999.25  124.33870    9.99620   10.44650   13.90450   12.83040   70.56500  125.55880
 13865.50000   -9999.25   -9999.25   -9999.25   -9999.25   -9999.25   -9999.25  116.77780   10.26640   10.69900   14.19330   12.80500   70.27380  125.36410
 13866.00000   -9999.25   -9999.25   -9999.25   -9999.25   -9999.25   -9999.25  109.89060   10.74570   11.06490   16.15440   12.77970   69.98270  125.00460
 13866.50000   -9999.25   -9999.25   -9999.25   -9999.25   -9999.25   -9999.25  114.72160   10.96930   11.23330   18.19390   12.75430   69.94270  124.64500
 13867.00000   -9999.25   -9999.25   -9999.25   -9999.25   -9999.25   -9999.25  125.08300   11.13070   11.26850   18.50480   12.77150   70.38280  124.78300
 13867.50000   -9999.25   -9999.25   -9999.25   -9999.25   -9999.25   -9999.25  128.18410   11.35870   11.42370   17.36350   12.90080   70.92960  124.92900
 13868.00000   -9999.25   -9999.25   -9999.25   -9999.25   -9999.25   -9999.25  125.44470   11.53590   11.63650   15.95150   12.91970   70.98650  124.92900
 13868.50000   -9999.25   -9999.25   -9999.25   -9999.25   -9999.25   -9999.25  122.06620   11.53590   11.85910   15.69750   12.93850   70.75840  124.06060
 13869.00000   -9999.25   -9999.25   -9999.25   -9999.25   -9999.25   -9999.25  121.20250   11.38420   11.85960   16.83740   12.95740   70.53020  123.65260
 13869.50000   -9999.25   -9999.25   -9999.25   -9999.25   -9999.25   -9999.25  119.68960   11.00770   11.61600   18.58020   12.97620   70.29870  125.10240
 13870.00000   -9999.25   -9999.25   -9999.25   -9999.25   -9999.25   -9999.25  114.67140   10.36960   11.16600   20.33110   12.99050   69.97490  126.69880
 13870.50000   -9999.25   -9999.25   -9999.25   -9999.25   -9999.25   -9999.25  114.20990    9.69290   10.37560   20.09620   12.97510   70.85470  131.12520
 13871.00000   -9999.25   -9999.25   -9999.25   -9999.25   -9999.25   -9999.25  123.53690    9.06040    9.64120   18.59840   12.95980   71.96780  135.83770
 13871.50000   -9999.25   -9999.25   -9999.25   -9999.25   -9999.25   -9999.25  136.98270    8.46910    8.94310   13.44610   12.94440   73.08090  139.91010
 13872.00000   -9999.25   -9999.25   -9999.25   -9999.25   -9999.25   -9999.25  143.81420    7.91650    8.28690   10.34130   12.92900   74.21180  141.24380
 13872.50000   -9999.25   -9999.25   -9999.25   -9999.25   -9999.25   -9999.25  143.29800    7.72680    7.97950    8.19900   12.91370   75.42050  142.08380
 13873.00000   -9999.25   -9999.25   -9999.25   -9999.25   -9999.25   -9999.25  131.33210    7.72460    7.98210    8.88170   12.89830   75.91710  141.62660
 13873.50000   -9999.25   -9999.25   -9999.25   -9999.25   -9999.25   -9999.25  121.04550    7.78310    8.03900   10.31690   12.88300   75.77430  139.22960
 13874.00000   -9999.25   -9999.25   -9999.25   -9999.25   -9999.25   -9999.25  114.68540    7.92740    8.27690   12.19920   12.85950   74.58720  136.83260
 13874.50000   -9999.25   -9999.25   -9999.25   -9999.25   -9999.25   -9999.25  113.39010    8.19060    8.56930   13.36740   12.74080   73.33480  134.13230
 13875.00000   -9999.25   -9999.25   -9999.25   -9999.25   -9999.25   -9999.25  112.48450    8.46250    8.87190   13.54450   12.62210   72.69610  131.33290
 13875.50000   -9999.25   -9999.25   -9999.25   -9999.25   -9999.25   -9999.25  111.81430    8.74340    9.15910   13.65110   12.50340   72.39450  129.98390
 13876.00000   -9999.25   -9999.25   -9999.25   -9999.25   -9999.25   -9999.25  112.14630    9.03360    9.45240   13.87600   12.38470   72.33320  129.21360
 13876.50000   -9999.25   -9999.25   -9999.25   -9999.25   -9999.25   -9999.25  114.89220    9.33350    9.75500   13.95750   12.26600   72.00670  128.33600
 13877.00000   -9999.25   -9999.25   -9999.25   -9999.25   -9999.25   -9999.25  114.65250    9.50970   10.06730   13.10260   12.14730   71.54780  127.40750
 13877.50000   -9999.25   -9999.25   -9999.25   -9999.25   -9999.25   -9999.25  113.24600    9.68650   10.38970   13.03340   12.02860   71.06240  126.47900
 13878.00000   -9999.25   -9999.25   -9999.25   -9999.25   -9999.25   -9999.25  112.70940    9.86670   10.58930   14.93390   11.90990   70.56690  125.55050
 13878.50000   -9999.25   -9999.25   -9999.25   -9999.25   -9999.25   -9999.25  116.79620    9.94690   10.62090   17.30880   11.79120   70.20300  124.62200
 13879.00000   -9999.25   -9999.25   -9999.25   -9999.25   -9999.25   -9999.25  121.42780    9.94690   10.65270   18.11730   11.81630   70.14270  124.23780
 13879.50000   -9999.25   -9999.25   -9999.25   -9999.25   -9999.25   -9999.25  125.87560    9.96550   10.63550   17.01780   11.95150   70.28810  125.19390
 13880.00000   -9999.25   -9999.25   -9999.25   -9999.25   -9999.25   -9999.25  124.12060    9.99840   10.54650   15.16620   12.06160   70.42330  126.25480
 13880.50000   -9999.25   -9999.25   -9999.25   -9999.25   -9999.25   -9999.25  119.79630   10.03140   10.45840   14.54260   12.09400   70.55850  127.31560
 13881.00000   -9999.25   -9999.25   -9999.25   -9999.25   -9999.25   -9999.25  117.82010   10.06450   10.39050   14.46850   12.12640   70.72550  128.01480
 13881.50000   -9999.25   -9999.25   -9999.25   -9999.25   -9999.25   -9999.25  117.42990   10.14420   10.39290   13.95360   12.15880   70.94690  128.41420
