~Version ---------------------------------------------------
VERS.   2.0 : CWLS log ASCII Standard -VERSION 2.0
WRAP.    NO : One line per depth step
DLM . SPACE : Column Data Section Delimiter
~Well ------------------------------------------------------
STRT .F                10996.0 : START DEPTH
STOP .F                14315.0 : STOP DEPTH
STEP .F                    0.5 : STEP
NULL .                -9999.25 : NULL VALUE
COMP .                         : COMPANY
WELL .                         : WELL
FLD  .                         : FIELD
LOC  .                         : LOCATION
PROV .                         : PROVINCE
CNTY .                         : COUNTY
STAT .                         : STATE
CTRY .                         : COUNTRY
SRVC .                         : SERVICE COMPANY
DATE .                         : DATE
UWI  .                         : UNIQUE WELL ID
API  .                         : API NUMBER
SLAT .WGS84 5.7327837775454995 : SURFACE LATITUDE
SLON .WGS84 3.9947683505355087 : SURFACE LONGITUDE
DATUM.F                 2066.0 : DEPTH DATUM ELEV
~Curve Information -----------------------------------------
DEPT.F     : 
GRD .GAPI  : GAMMA RAY FROM DENSITY LOG
NPHI.DEC   : NEUTRON POROSITY
DPHI.DEC   : DENSITY POROSITY
RHOB.G/C3  : BULK DENSITY
DRHO.G/C3  : BULK DENSITY CORRECTION
CALD.IN    : CALIPER FROM DENSITY LOG
GRR .GAPI  : GAMMA RAY FROM RESISTIVITY LOG
ILD .OHMM  : INDUCTION DEEP RESISTIVITY
ILM .OHMM  : INDUCTION MEDIUM RESISTIVITY
SFLU.OHMM  : SHALLOW FOCUSED RESISTIVITY (UNAVERAGED)
SPR .MV    : SPONTANEOUS POTENTIAL FROM RESISTIVITY LOG
DTCO.US/F  : DELTA-T COMPRESSIONAL
DTSM.US/F  : DELTA-T SHEAR
~Params ----------------------------------------------------
~Other -----------------------------------------------------
~ASCII -----------------------------------------------------
# ...
 13960.00000   -9999.25   -9999.25   -9999.25   -9999.25   -9999.25   -9999.25  130.44480    7.60130    7.86370   11.24230   12.88920   74.60680  138.91540
 13960.50000   -9999.25   -9999.25   -9999.25   -9999.25   -9999.25   -9999.25  130.97600    7.55490    7.86280   10.17260   12.89360   74.66960  138.23780
 13961.00000   -9999.25   -9999.25   -9999.25   -9999.25   -9999.25   -9999.25  134.31420    7.55390    7.91610   10.10880   12.89800   74.65660  137.56020
 13961.50000   -9999.25   -9999.25   -9999.25   -9999.25   -9999.25   -9999.25  139.38350    7.66410    8.08230   10.04540   12.90240   73.86170  136.88260
 13962.00000   -9999.25   -9999.25   -9999.25   -9999.25   -9999.25   -9999.25  136.97260    7.93870    8.43030   10.30470   12.90680   73.06670  136.06840
 13962.50000   -9999.25   -9999.25   -9999.25   -9999.25   -9999.25   -9999.25  127.47020    8.44650    8.92460   10.75930   12.89860   72.27170  133.32900
 13963.00000   -9999.25   -9999.25   -9999.25   -9999.25   -9999.25   -9999.25  115.50590    8.99020    9.42020   11.86920   12.88010   71.52010  130.28430
 13963.50000   -9999.25   -9999.25   -9999.25   -9999.25   -9999.25   -9999.25  109.10290    9.72680   10.16400   13.93510   12.86150   70.79880  127.29740
 13964.00000   -9999.25   -9999.25   -9999.25   -9999.25   -9999.25   -9999.25  105.61470   10.53910   11.15260   17.46110   12.84300   70.07740  124.67510
 13964.50000   -9999.25   -9999.25   -9999.25   -9999.25   -9999.25   -9999.25  102.86150   11.31460   11.79510   21.22890   12.82450   69.63390  123.20260
 13965.00000   -9999.25   -9999.25   -9999.25   -9999.25   -9999.25   -9999.25  103.01790   11.43860   11.80400   22.92130   12.80590   69.56650  123.20850
 13965.50000   -9999.25   -9999.25   -9999.25   -9999.25   -9999.25   -9999.25  106.06040   11.34240   11.66320   19.93590   12.78740   69.57230  124.25980
 13966.00000   -9999.25   -9999.25   -9999.25   -9999.25   -9999.25   -9999.25  109.65080   11.17550   11.47960   17.11130   12.76880   70.17540  125.67800
 13966.50000   -9999.25   -9999.25   -9999.25   -9999.25   -9999.25   -9999.25  113.02470   10.95550   11.33560   14.68700   12.76470   71.00880  125.88250
 13967.00000   -9999.25   -9999.25   -9999.25   -9999.25   -9999.25   -9999.25  115.98900   10.73980   11.19330   14.65150   12.77370   71.28620  125.29320
 13967.50000   -9999.25   -9999.25   -9999.25   -9999.25   -9999.25   -9999.25  116.33400   10.52840   10.90170   15.34350   12.78260   71.31430  124.57260
 13968.00000   -9999.25   -9999.25   -9999.25   -9999.25   -9999.25   -9999.25  114.80990   10.32110   10.60210   16.65430   12.79160   71.32030  123.85200
 13968.50000   -9999.25   -9999.25   -9999.25   -9999.25   -9999.25   -9999.25  113.48140   10.11790   10.31080   18.07500   12.80060   71.33530  123.58930
 13969.00000   -9999.25   -9999.25   -9999.25   -9999.25   -9999.25   -9999.25  116.61820    9.94950   10.15740   17.91420   12.80950   71.91890  124.35430
 13969.50000   -9999.25   -9999.25   -9999.25   -9999.25   -9999.25   -9999.25  119.85050    9.90180   10.12030   16.48150   12.81850   72.77300  126.94340
 13970.00000   -9999.25   -9999.25   -9999.25   -9999.25   -9999.25   -9999.25  122.50840    9.85430   10.07760   14.58540   12.79420   74.08530  129.00670
 13970.50000   -9999.25   -9999.25   -9999.25   -9999.25   -9999.25   -9999.25  122.53830    9.73390    9.99620   13.54040   12.73960   74.54670  131.07010
 13971.00000   -9999.25   -9999.25   -9999.25   -9999.25   -9999.25   -9999.25  119.96780    9.56940    9.91340   13.63390   12.68490   73.70820  132.58100
 13971.50000   -9999.25   -9999.25   -9999.25   -9999.25   -9999.25   -9999.25  116.72050    9.40760    9.82800   13.94810   12.63030   72.91860  132.52290
 13972.00000   -9999.25   -9999.25   -9999.25   -9999.25   -9999.25   -9999.25  114.55380    9.36440    9.77460   13.85200   12.57570   72.12900  132.29160
 13972.50000   -9999.25   -9999.25   -9999.25   -9999.25   -9999.25   -9999.25  116.85090    9.41510    9.81290   13.51860   12.52110   71.37190  129.66880
 13973.00000   -9999.25   -9999.25   -9999.25   -9999.25   -9999.25   -9999.25  122.63880    9.59600   10.14100   13.11270   12.46650   70.92210  127.02240
 13973.50000   -9999.25   -9999.25   -9999.25   -9999.25   -9999.25   -9999.25  126.19040    9.98180   10.61900   12.52770   12.41180   71.41140  127.66100
 13974.00000   -9999.25   -9999.25   -9999.25   -9999.25   -9999.25   -9999.25  120.53280   11.23160   12.21110   13.17110   12.35720   71.80560  128.11330
 13974.50000   -9999.25   -9999.25   -9999.25   -9999.25   -9999.25   -9999.25  103.88240   12.77630   14.35680   17.08380   12.30260   70.66570  122.57660
 13975.00000   -9999.25   -9999.25   -9999.25   -9999.25   -9999.25   -9999.25   84.35480   14.53360   16.87960   28.91490   12.36450   67.90370  115.57880
 13975.50000   -9999.25   -9999.25   -9999.25   -9999.25   -9999.25   -9999.25   64.22290   15.95470   20.32610   57.51300   12.42780   64.84600  107.34050
 13976.00000   -9999.25   -9999.25   -9999.25   -9999.25   -9999.25   -9999.25   52.07230   17.33920   23.67820  111.46780   12.49100   61.55460  102.55510
 13976.50000   -9999.25   -9999.25   -9999.25   -9999.25   -9999.25   -9999.25   59.85000   18.49540   23.69220  167.25540   12.55430   61.21800  102.79650
 13977.00000   -9999.25   -9999.25   -9999.25   -9999.25   -9999.25   -9999.25   76.84630   18.77730   22.15940  117.82520   12.61760   61.94860  105.61120
 13977.50000   -9999.25   -9999.25   -9999.25   -9999.25   -9999.25   -9999.25   95.89200   18.11340   19.49510   54.94080   12.68090   63.59360  108.55130
 13978.00000   -9999.25   -9999.25   -9999.25   -9999.25   -9999.25   -9999.25  105.61750   16.10430   17.12550   23.83200   12.74420   65.25970  113.48870
 13978.50000   -9999.25   -9999.25   -9999.25   -9999.25   -9999.25   -9999.25  110.09190   14.04090   15.00440   20.53690   12.80740   68.24350  119.84900
 13979.00000   -9999.25   -9999.25   -9999.25   -9999.25   -9999.25   -9999.25  113.63040   12.24200   13.14570   17.69730   12.95590   71.01390  125.01800
 13979.50000   -9999.25   -9999.25   -9999.25   -9999.25   -9999.25   -9999.25  117.03230   10.67350   11.51720   15.61850   13.38220   71.93230  129.52450
 13980.00000   -9999.25   -9999.25   -9999.25   -9999.25   -9999.25   -9999.25  120.07900    9.93610   10.59240   13.57860   13.56450   72.12070  130.93720
 13980.50000   -9999.25   -9999.25   -9999.25   -9999.25   -9999.25   -9999.25  121.01900    9.86800   10.43480   12.47010   13.48970   71.76000  129.35510
 13981.00000   -9999.25   -9999.25   -9999.25   -9999.25   -9999.25   -9999.25  113.90510   10.20330   10.66640   12.60070   13.24460   71.09980  126.25980
 13981.50000   -9999.25   -9999.25   -9999.25   -9999.25   -9999.25   -9999.25  102.89570   10.67950   11.14710   14.19540   12.99950   70.21080  123.16450
 13982.00000   -9999.25   -9999.25   -9999.25   -9999.25   -9999.25   -9999.25   92.00170   11.17810   11.78730   17.71840   12.75430   69.13060  120.07090
 13982.50000   -9999.25   -9999.25   -9999.25   -9999.25   -9999.25   -9999.25   90.86980   11.69990   12.44070   21.98090   12.50920   68.05040  117.82370
 13983.00000   -9999.25   -9999.25   -9999.25   -9999.25   -9999.25   -9999.25   97.25110   12.24820   13.12770   25.20880   12.26410   67.86220  117.26250
 13983.50000   -9999.25   -9999.25   -9999.25   -9999.25   -9999.25   -9999.25  103.29900   12.92370   13.81310   23.69520   12.01890   68.11990  117.28200
 13984.00000   -9999.25   -9999.25   -9999.25   -9999.25   -9999.25   -9999.25  106.49620   13.63640   14.49910   22.17300   11.83070   67.99250  117.28090
 13984.50000   -9999.25   -9999.25   -9999.25   -9999.25   -9999.25   -9999.25  105.77680   14.38840   15.21920   21.59450   11.61220   67.60770  116.94910
 13985.00000   -9999.25   -9999.25   -9999.25   -9999.25   -9999.25   -9999.25  105.37830   15.18190   15.81990   23.20360   11.25930   67.33830  116.14740
 13985.50000   -9999.25   -9999.25   -9999.25   -9999.25   -9999.25   -9999.25  106.50430   15.79610   16.38630   25.72520   10.96730   68.93970  115.34570
