~Version ---------------------------------------------------
VERS.   2.0 : CWLS log ASCII Standard -VERSION 2.0
WRAP.    NO : One line per depth step
DLM . SPACE : Column Data Section Delimiter
~Well ------------------------------------------------------
STRT .F                10996.0 : START DEPTH
STOP .F                14315.0 : STOP DEPTH
STEP .F                    0.5 : STEP
NULL .                -9999.25 : NULL VALUE
COMP .                         : COMPANY
WELL .                         : WELL
FLD  .                         : FIELD
LOC  .                         : LOCATION
PROV .                         : PROVINCE
CNTY .                         : COUNTY
STAT .                         : STATE
CTRY .                         : COUNTRY
SRVC .                         : SERVICE COMPANY
DATE .                         : DATE
UWI  .                         : UNIQUE WELL ID
API  .                         : API NUMBER
SLAT .WGS84 5.7327837775454995 : SURFACE LATITUDE
SLON .WGS84 3.9947683505355087 : SURFACE LONGITUDE
DATUM.F                 2066.0 : DEPTH DATUM ELEV
~Curve Information -----------------------------------------
DEPT.F     : 
GRD .GAPI  : GAMMA RAY FROM DENSITY LOG
NPHI.DEC   : NEUTRON POROSITY
DPHI.DEC   : DENSITY POROSITY
RHOB.G/C3  : BULK DENSITY
DRHO.G/C3  : BULK DENSITY CORRECTION
CALD.IN    : CALIPER FROM DENSITY LOG
GRR .GAPI  : GAMMA RAY FROM RESISTIVITY LOG
ILD .OHMM  : INDUCTION DEEP RESISTIVITY
ILM .OHMM  : INDUCTION MEDIUM RESISTIVITY
SFLU.OHMM  : SHALLOW FOCUSED RESISTIVITY (UNAVERAGED)
SPR .MV    : SPONTANEOUS POTENTIAL FROM RESISTIVITY LOG
DTCO.US/F  : DELTA-T COMPRESSIONAL
DTSM.US/F  : DELTA-T SHEAR
~Params ----------------------------------------------------
~Other -----------------------------------------------------
~ASCII -----------------------------------------------------
# ...
 13570.00000  179.74570    0.23370    0.05510    2.62340   -0.02140    4.92830  134.01630    3.19960    3.55720    6.36640    9.99700   80.56880  120.09680
 13570.50000  180.03190    0.24010    0.04580    2.63200   -0.01890    4.93420  143.42790    2.79740    3.25030    3.40630    9.98240   80.80180  125.93170
 13571.00000  178.83120    0.23820    0.04380    2.63580   -0.01890    4.94710  152.83940    2.50600    2.96990    2.74900    9.96780   83.24170  131.49740
 13571.50000  178.54330    0.23300    0.04460    2.63520   -0.01940    4.97610  147.89950    2.47100    2.71850    2.80930    9.95320   86.64660  139.86350
 13572.00000  180.15830    0.22770    0.04440    2.63630   -0.01950    4.99840  144.73440    2.44160    2.63900    3.33450    9.93860   89.47110  149.48250
 13572.50000  181.69460    0.22420    0.04150    2.64100   -0.02080    4.99720  150.06340    2.40580    2.48530    3.86480    9.92400   90.17460  149.27060
 13573.00000  183.20550    0.22500    0.03750    2.64610   -0.02260    4.95560  149.26880    2.37770    2.46270    3.63500    9.89280   90.26530  147.29860
 13573.50000  183.54060    0.22990    0.03700    2.64780   -0.02440    4.91410  141.15860    2.36940    2.46280    2.93860    9.89030   90.26530  145.32660
 13574.00000  182.78920    0.23810    0.04110    2.63570   -0.02620    4.88450  129.38680    2.36940    2.48250    2.70660    9.94290   90.26530  144.22120
 13574.50000  181.84710    0.24710    0.05010    2.62450   -0.02800    4.86240  116.41700    2.36940    2.48130    2.94410    9.99550   90.30170  146.59640
 13575.00000  181.58010    0.25130    0.05360    2.61810   -0.02980    4.85090  110.47740    2.36940    2.46640    3.46960   10.04820   90.48990  150.22870
 13575.50000  181.68230    0.25000    0.05710    2.61330   -0.02950    4.84200  115.55500    2.38780    2.46830    3.66960   10.10080   91.14680  153.86110
 13576.00000  182.02860    0.24870    0.06390    2.60400   -0.02890    4.83790  123.72840    2.49650    2.57650    3.35400   10.15340   92.23690  158.56300
 13576.50000  182.37490    0.24700    0.07050    2.59050   -0.02820    4.83800  129.86780    2.60520    2.72670    3.13830   10.20600   92.78620  163.58180
 13577.00000  183.05340    0.24330    0.07020    2.59170   -0.02750    4.84110  136.62310    2.71290    2.88560    3.20010   10.25790   92.78260  168.60060
 13577.50000  186.01660    0.23950    0.06660    2.59780   -0.02610    4.84410  144.10460    2.82500    3.05880    3.74920   10.29130   92.77820  178.53670
 13578.00000  188.97970    0.23490    0.06260    2.59940   -0.01990    4.84720  146.96960    2.94180    3.24260    4.52050   10.32470   94.14660  179.72770
 13578.50000  190.30290    0.23490    0.06400    2.59980   -0.01330    4.85030  149.83460    3.06350    3.41110    5.41920   10.35810   94.47940  174.99640
 13579.00000  188.96880    0.23450    0.06840    2.59540   -0.01000    4.85340  152.69960    3.19010    3.53070    6.22830   10.39150   92.85940  168.31960
 13579.50000  184.62670    0.23410    0.06930    2.59260   -0.00770    4.85650  156.54020    3.29580    3.49570    6.27620   10.42490   92.52260  163.35590
 13580.00000  176.18780    0.23370    0.06730    2.60060   -0.01020    4.85960  160.29620    3.32920    3.42620    5.40570   10.44030   94.84700  150.66730
 13580.50000  165.06530    0.23360    0.05990    2.60960   -0.01320    4.86270  163.83420    3.36290    3.33890    4.47520   10.41980   95.34610  140.86140
 13581.00000  153.94290    0.23430    0.04980    2.62810   -0.02250    4.86570  167.35750    3.43430    3.31410    3.70180   10.39930   95.63140  139.57190
 13581.50000  139.39130    0.23640    0.04000    2.64370   -0.03190    4.86880  162.57140    3.51940    3.35220    3.55180   10.37880   96.34990  138.65250
 13582.00000  129.52770    0.23640    0.03340    2.65290   -0.02840    4.87190  147.18040    3.60670    3.65000    4.59390   10.35840   98.03310  138.47080
 13582.50000  126.37550    0.23640    0.04090    2.63800   -0.02640    4.87500  134.82800    3.69620    4.09640    6.80270   10.33790   97.76280  138.57760
 13583.00000  128.40700    0.23650    0.05280    2.61870   -0.02400    4.87770  127.54540    3.69150    4.34010    9.63350   10.31740   92.33640  139.52870
 13583.50000  129.88720    0.23660    0.05920    2.61170   -0.02010    4.86290  121.82460    3.61220    4.17980    9.63200   10.32050   85.96940  143.18520
 13584.00000  127.12120    0.23710    0.05180    2.62370   -0.01860    4.84810  124.49280    3.51790    3.86210    8.05750   10.36780   80.14630  146.92590
 13584.50000  122.99700    0.23760    0.04320    2.63750   -0.01810    4.83330  136.33260    3.36820    3.54150    6.74790   10.41510   80.12210  146.62300
 13585.00000  118.61090    0.23810    0.04000    2.64180   -0.01830    4.81850  146.02460    3.13230    3.32770    4.55210   10.46240   81.16520  144.67060
 13585.50000  115.65440    0.23860    0.04270    2.63920   -0.02510    4.79450  143.09020    2.91300    3.08810    3.29170   10.50300   82.64320  144.48900
 13586.00000  119.00750    0.23900    0.04780    2.62910   -0.03270    4.76630  133.47010    2.70900    2.81460    3.01940   10.53090   84.12130  143.45710
 13586.50000  128.98210    0.23950    0.05160    2.62460   -0.04030    4.78570  122.34000    2.51930    2.59020    3.37170   10.55890   85.56870  142.78620
 13587.00000  136.65730    0.24120    0.04620    2.63470   -0.04050    4.78120  121.85420    2.35740    2.42200    4.07580   10.58680   88.47110  144.70820
 13587.50000  140.14820    0.24260    0.03870    2.64860   -0.03500    4.76010  127.03730    2.30650    2.37940    3.69150   10.61480   91.82020  143.79180
 13588.00000  140.39900    0.23480    0.04130    2.64320   -0.02950    4.74240  132.59570    2.38630    2.47170    2.82800   10.64270   95.16930  142.07550
 13588.50000  140.25790    0.22680    0.04580    2.63110   -0.02460    4.70540  138.15420    2.51790    2.61090    2.66800   10.67070   96.17770  140.35930
 13589.00000  144.74690    0.21890    0.04880    2.62810   -0.02570    4.66830  143.34300    2.66140    2.75800    3.34830   10.69860   94.34820  139.88540
 13589.50000  155.52040    0.22390    0.04890    2.62820   -0.02680    4.67140  146.11070    2.81310    2.90950    4.82350   10.72660   90.81340  139.88540
 13590.00000  162.62840    0.23730    0.04950    2.62670   -0.03240    4.67730  147.37910    2.97340    3.06750    6.01660   10.75450   87.31150  140.33980
 13590.50000  157.29260    0.25100    0.05000    2.62630   -0.03640    4.68320  151.67660    3.14290    3.23400    6.43970   10.78250   85.48800  141.27420
 13591.00000  147.65260    0.25550    0.04750    2.62980   -0.03620    4.67820  155.97410    3.32200    3.40950    5.83100   10.81050   86.08110  142.20860
 13591.50000  138.99760    0.25690    0.04240    2.63890   -0.03450    4.67290  161.57250    3.39930    3.55000    4.87940   10.85620   86.67420  143.14300
 13592.00000  131.98650    0.26110    0.03520    2.65020   -0.03270    4.66760  158.62210    3.40150    3.55000    4.82030   10.92000   86.82610  143.68380
 13592.50000  128.38590    0.26530    0.02760    2.66420   -0.03140    4.66330  144.87590    3.32650    3.46540    5.06170   10.98380   85.94640  140.24820
 13593.00000  127.01730    0.27110    0.02120    2.67630   -0.03020    4.66330  132.66060    3.19650    3.29250    5.16130   11.04760   85.06680  139.56090
 13593.50000  125.06560    0.27000    0.01670    2.68200   -0.02900    4.66330  127.41170    3.01740    3.11400    4.67780   11.11130   84.41200  139.54340
 13594.00000  124.57490    0.26850    0.01770    2.68160   -0.02780    4.66330  129.78450    2.84820    2.94510    3.93680   11.17510   84.69350  139.63970
 13594.50000  129.56960    0.26670    0.01890    2.67860   -0.02780    4.66330  133.38970    2.68850    2.78460    3.10390   11.23890   84.99570  139.80280
 13595.00000  133.21060    0.26760    0.01940    2.67700   -0.02850    4.66330  136.90270    2.53780    2.62740    2.75900   11.30260   85.11810  139.93250
 13595.50000  133.34550    0.26680    0.01820    2.67920   -0.02920    4.66330  135.84020    2.39560    2.47900    2.95980   11.34870   85.24050  139.71190
