~Version ---------------------------------------------------
VERS.   2.0 : CWLS log ASCII Standard -VERSION 2.0
WRAP.    NO : One line per depth step
DLM . SPACE : Column Data Section Delimiter
~Well ------------------------------------------------------
STRT .F                10996.0 : START DEPTH
STOP .F                14315.0 : STOP DEPTH
STEP .F                    0.5 : STEP
NULL .                -9999.25 : NULL VALUE
COMP .                         : COMPANY
WELL .                         : WELL
FLD  .                         : FIELD
LOC  .                         : LOCATION
PROV .                         : PROVINCE
CNTY .                         : COUNTY
STAT .                         : STATE
CTRY .                         : COUNTRY
SRVC .                         : SERVICE COMPANY
DATE .                         : DATE
UWI  .                         : UNIQUE WELL ID
API  .                         : API NUMBER
SLAT .WGS84 5.7327837775454995 : SURFACE LATITUDE
SLON .WGS84 3.9947683505355087 : SURFACE LONGITUDE
DATUM.F                 2066.0 : DEPTH DATUM ELEV
~Curve Information -----------------------------------------
DEPT.F     : 
GRD .GAPI  : GAMMA RAY FROM DENSITY LOG
NPHI.DEC   : NEUTRON POROSITY
DPHI.DEC   : DENSITY POROSITY
RHOB.G/C3  : BULK DENSITY
DRHO.G/C3  : BULK DENSITY CORRECTION
CALD.IN    : CALIPER FROM DENSITY LOG
GRR .GAPI  : GAMMA RAY FROM RESISTIVITY LOG
ILD .OHMM  : INDUCTION DEEP RESISTIVITY
ILM .OHMM  : INDUCTION MEDIUM RESISTIVITY
SFLU.OHMM  : SHALLOW FOCUSED RESISTIVITY (UNAVERAGED)
SPR .MV    : SPONTANEOUS POTENTIAL FROM RESISTIVITY LOG
DTCO.US/F  : DELTA-T COMPRESSIONAL
DTSM.US/F  : DELTA-T SHEAR
~Params ----------------------------------------------------
~Other -----------------------------------------------------
~ASCII -----------------------------------------------------
# ...
 13648.00000   95.16990    0.19490    0.03970    2.64370   -0.03500    4.69790   94.69130   14.33090   14.75570   21.06470   10.91220   68.24120  118.95510
 13648.50000   90.20370    0.19230    0.04140    2.64020   -0.03700    4.69020   93.66550   14.33090   14.88940   18.89190   10.89940   -9999.25   -9999.25
 13649.00000   90.37820    0.18770    0.04230    2.63800   -0.03810    4.69140   86.72140   14.24130   15.05100   20.95510   10.88660   -9999.25   -9999.25
 13649.50000   93.79300    0.18690    0.04220    2.63800   -0.03570    4.69260   79.89660   14.15140   15.20790   30.44270   10.87380   81.15430  111.03150
 13650.00000   95.46870    0.18760    0.03890    2.64940   -0.02970    4.69380   77.64010   14.12510   15.02780   38.18210   10.86100   77.89190  111.30080
 13650.50000   95.24420    0.18880    0.03070    2.65940   -0.02260    4.69500   83.20780   13.98290   14.63280   41.46710   10.84830   70.49910  111.57020
 13651.00000   94.33900    0.19040    0.02820    2.66220   -0.02310    4.69790   89.57110   13.84210   14.27960   27.59050   10.83550   65.85650  111.83960
 13651.50000   95.54450    0.19210    0.03160    2.65800   -0.02360    4.70110   94.47740   13.70270   13.98470   20.71850   10.85000   65.83350  112.23690
 13652.00000  101.00800    0.19490    0.03480    2.65600   -0.02180    4.70330   97.41090   13.52490   13.70120   19.03360   10.88660   67.47240  113.09090
 13652.50000  104.28760    0.19740    0.03870    2.64800   -0.02670    4.70280  100.05160   13.24970   13.45030   18.28030   10.92320   69.11130  115.54710
 13653.00000  106.20670    0.19800    0.04150    2.64080   -0.03160    4.70220  102.69230   12.98010   13.20400   18.08170   10.95980   69.66050  118.31190
 13653.50000  107.88100    0.19820    0.04700    2.63180   -0.03200    4.70010  106.96570   12.38320   12.73820   17.90600   10.99640   69.65860  118.59080
 13654.00000  113.59830    0.19840    0.04990    2.62840   -0.03180    4.69100  111.60450   11.72280   12.17620   17.86770   11.03300   69.57000  119.91990
 13654.50000  119.69860    0.19860    0.04470    2.63460   -0.03160    4.68680  116.46870   11.08740   11.63900   18.04730   11.17490   69.57170  121.24900
 13655.00000  124.29760    0.19770    0.04020    2.64300   -0.03140    4.68890  120.86080   10.48620   11.12550   17.66960   11.36130   69.94450  122.57800
 13655.50000  122.09460    0.18920    0.04410    2.63910   -0.03140    4.69270  122.88740    9.91760   10.89020   15.06370   11.54760   70.36430  124.72420
 13656.00000  104.37120    0.16310    0.06200    2.61680   -0.03310    4.69650  122.51460    9.80780   10.81850   12.54740   11.62730   71.16990  127.12310
 13656.50000   76.09530    0.12410    0.07870    2.58780   -0.03390    4.70200  119.73980   10.17590   11.09240   12.39860   11.47820   72.16690  129.39090
 13657.00000   57.75820    0.09880    0.08580    2.55760   -0.03120    4.70340  110.30730   10.91630   12.07190   12.69110   10.55080   73.74540  129.39090
 13657.50000   51.86980    0.07540    0.09660    2.53900   -0.02580    4.69320   90.43330   12.64730   14.06240   15.70860    9.62340   74.92260  128.58150
 13658.00000   46.55270    0.06290    0.10400    2.53600   -0.02230    4.68400   68.19610   15.50690   18.33650   29.28620    8.57720   73.98830  125.21400
 13658.50000   41.18370    0.04920    0.10090    2.53890   -0.02170    4.68790   51.69510   20.32640   23.90970   65.41580    7.49670   71.38620  114.68370
 13659.00000   35.81470    0.04500    0.10030    2.54030   -0.02370    4.69180   45.58460   26.64380   31.13440   85.09230    6.41610   69.37960  106.54720
 13659.50000   32.84580    0.04280    0.10330    2.53580   -0.03130    4.69580   41.97190   34.99140   40.10370  110.68750    5.33560   67.38700  103.13520
 13660.00000   35.05400    0.04360    0.11070    2.52350   -0.03570    4.69790   37.17430   46.65990   51.65710  143.98150    4.14430   65.15800   99.61160
 13660.50000   38.49810    0.04490    0.11730    2.51070   -0.04000    4.69860   35.71730   62.21960   66.53880  157.70010    3.02300   64.88290   97.32250
 13661.00000   42.00790    0.04730    0.11760    2.51060   -0.04180    4.70280   38.28980   77.77010   85.06320  155.97620    2.26860   64.37280   96.45170
 13661.50000   45.51770    0.05350    0.11640    2.51260   -0.04060    4.70370   39.90520   77.38020   86.82850  146.99900    1.51420   63.52850   96.48190
 13662.00000   49.02750    0.06280    0.11340    2.51700   -0.03910    4.70350   37.45440   74.08360   81.54920  137.14800    0.62910   64.80520   97.25950
 13662.50000   52.53720    0.07400    0.10970    2.52410   -0.03910    4.70290   35.65120   67.80680   73.08840  127.69770    1.70680   66.24730  100.70000
 13663.00000   56.04700    0.08130    0.10430    2.53220   -0.03800    4.70170   38.80580   61.21110   65.32940  112.86860    2.32880   67.68940  104.14050
 13663.50000   59.55680    0.08300    0.10210    2.53650   -0.03650    4.69100   46.59780   54.67160   58.39410   95.00380    2.52080   68.14500  106.11620
 13664.00000   62.22640    0.08130    0.10470    2.53380   -0.03520    4.67670   58.28670   48.83080   52.08300   74.17050    2.67490   68.22710  105.19580
 13664.50000   61.86670    0.07930    0.10900    2.52630   -0.03430    4.68520   61.79190   43.61400   46.33650   61.61430    2.70720   68.06800  102.81570
 13665.00000   58.15150    0.07450    0.10970    2.52590   -0.03340    4.69370   62.90890   38.95450   41.22400   52.50770    2.83300   67.92520  102.16830
 13665.50000   55.61190    0.07130    0.10640    2.52820   -0.03250    4.70220   67.23820   34.79290   38.20660   46.04100    3.03830   67.95720  101.94040
 13666.00000   55.53930    0.06520    0.09970    2.53870   -0.03160    4.69890   71.52220   34.32180   38.00300   45.17620    3.06080   68.29070  101.99940
 13666.50000   54.90920    0.05800    0.09020    2.56260   -0.02770    4.69050   70.32100   35.73910   38.76620   45.93340    3.05330   68.36790  102.14780
 13667.00000   54.27920    0.05290    0.06480    2.59830   -0.02240    4.70200   61.42830   37.21500   40.88590   52.28190    2.96060   68.14510  102.12880
 13667.50000   53.64920    0.05430    0.04820    2.62980   -0.02190    4.70300   53.58730   38.75180   43.89890   64.51220    2.54990   67.87320  100.88880
 13668.00000   55.32620    0.06610    0.03180    2.66010   -0.02140    4.70260   46.55870   39.63840   47.08800   77.26100    1.80140   67.35460   99.26650
 13668.50000   59.73640    0.08010    0.02220    2.67280   -0.02240    4.70220   44.90120   39.28500   46.67800   92.52930    0.84200   65.72740   98.19570
 13669.00000   63.71840    0.09180    0.02050    2.67670   -0.02470    4.70180   51.24660   38.05510   41.87390  104.71180    0.50210   64.12270  100.45950
 13669.50000   65.56460    0.09060    0.02020    2.67690   -0.02650    4.69810   58.85450   36.63760   38.33300   79.54520    0.59600   64.41100  102.11500
 13670.00000   65.88920    0.08740    0.01870    2.67940   -0.02690    4.69510   66.37320   35.02970   36.77370   57.90190    1.15780   65.12020  103.77060
 13670.50000   66.54210    0.08050    0.01720    2.68200   -0.02730    4.69490   70.74890   33.49240   35.53900   37.93050    1.71970   65.82950  105.42610
 13671.00000   72.93960    0.07590    0.01940    2.67890   -0.02730    4.69450   69.12160   32.01850   34.40410   35.56910    2.28160   66.53880  107.08160
 13671.50000   83.05060    0.07490    0.02340    2.67150   -0.02730    4.69410   60.41300   30.60300   33.36640   37.20130    2.45030   66.92150  106.77200
 13672.00000   99.29600    0.07830    0.02670    2.66730   -0.02770    4.69380   55.74470   29.56010   32.36000   48.44770    2.52110   66.92540  104.24090
 13672.50000  116.37890    0.08210    0.02740    2.66440   -0.02840    4.69340   51.23040   28.68260   31.38400   58.23440    2.59200   66.92040  105.75630
 13673.00000  120.05480    0.08560    0.02800    2.66220   -0.02900    4.70210   51.72950   27.83120   30.19350   58.57270    2.96170   66.25580  106.43610
 13673.50000  119.18350    0.09470    0.03140    2.65790   -0.02970    4.70130   53.86680   27.00500   29.02670   58.26840    3.64970   65.57860  104.19800
