~Version ---------------------------------------------------
VERS.   2.0 : CWLS log ASCII Standard -VERSION 2.0
WRAP.    NO : One line per depth step
DLM . SPACE : Column Data Section Delimiter
~Well ------------------------------------------------------
STRT .F                10996.0 : START DEPTH
STOP .F                14315.0 : STOP DEPTH
STEP .F                    0.5 : STEP
NULL .                -9999.25 : NULL VALUE
COMP .                         : COMPANY
WELL .                         : WELL
FLD  .                         : FIELD
LOC  .                         : LOCATION
PROV .                         : PROVINCE
CNTY .                         : COUNTY
STAT .                         : STATE
CTRY .                         : COUNTRY
SRVC .                         : SERVICE COMPANY
DATE .                         : DATE
UWI  .                         : UNIQUE WELL ID
API  .                         : API NUMBER
SLAT .WGS84 5.7327837775454995 : SURFACE LATITUDE
SLON .WGS84 3.9947683505355087 : SURFACE LONGITUDE
DATUM.F                 2066.0 : DEPTH DATUM ELEV
~Curve Information -----------------------------------------
DEPT.F     : 
GRD .GAPI  : GAMMA RAY FROM DENSITY LOG
NPHI.DEC   : NEUTRON POROSITY
DPHI.DEC   : DENSITY POROSITY
RHOB.G/C3  : BULK DENSITY
DRHO.G/C3  : BULK DENSITY CORRECTION
CALD.IN    : CALIPER FROM DENSITY LOG
GRR .GAPI  : GAMMA RAY FROM RESISTIVITY LOG
ILD .OHMM  : INDUCTION DEEP RESISTIVITY
ILM .OHMM  : INDUCTION MEDIUM RESISTIVITY
SFLU.OHMM  : SHALLOW FOCUSED RESISTIVITY (UNAVERAGED)
SPR .MV    : SPONTANEOUS POTENTIAL FROM RESISTIVITY LOG
DTCO.US/F  : DELTA-T COMPRESSIONAL
DTSM.US/F  : DELTA-T SHEAR
~Params ----------------------------------------------------
~Other -----------------------------------------------------
~ASCII -----------------------------------------------------
# ...
 14246.00000   -9999.25   -9999.25   -9999.25   -9999.25   -9999.25   -9999.25  124.18450    5.38490    5.50950    7.79360   10.76880   76.52870  132.55300
 14246.50000   -9999.25   -9999.25   -9999.25   -9999.25   -9999.25   -9999.25  121.51200    5.43750    5.62080    7.99560   10.71650   76.10150  129.44680
 14247.00000   -9999.25   -9999.25   -9999.25   -9999.25   -9999.25   -9999.25  122.21210    5.49060    5.73440    8.00040   10.66410   75.67150  130.73110
 14247.50000   -9999.25   -9999.25   -9999.25   -9999.25   -9999.25   -9999.25  125.88460    5.53660    5.75300    7.95200   10.61180   75.24140  132.79950
 14248.00000   -9999.25   -9999.25   -9999.25   -9999.25   -9999.25   -9999.25  129.69060    5.49660    5.71400    7.89480   10.55950   76.51580  134.86790
 14248.50000   -9999.25   -9999.25   -9999.25   -9999.25   -9999.25   -9999.25  133.06380    5.45690    5.65750    7.84870   10.50710   77.12110  138.20750
 14249.00000   -9999.25   -9999.25   -9999.25   -9999.25   -9999.25   -9999.25  133.02090    5.41750    5.59350    7.41930   10.45480   75.31210  141.56980
 14249.50000   -9999.25   -9999.25   -9999.25   -9999.25   -9999.25   -9999.25  131.81020    5.33450    5.52260    6.92680   10.40240   73.37370  144.93210
 14250.00000   -9999.25   -9999.25   -9999.25   -9999.25   -9999.25   -9999.25  131.22420    5.24620    5.44700    6.46010   10.35010   74.04060  147.74400
 14250.50000   -9999.25   -9999.25   -9999.25   -9999.25   -9999.25   -9999.25  130.43990    5.15940    5.36630    6.56930   10.29770   75.17690  149.59140
 14251.00000   -9999.25   -9999.25   -9999.25   -9999.25   -9999.25   -9999.25  127.07840    5.06230    5.28130    7.60760   10.24540   76.13570  151.43880
 14251.50000   -9999.25   -9999.25   -9999.25   -9999.25   -9999.25   -9999.25  121.84640    4.90460    5.13170    9.16730   10.19310   76.94020  154.69940
 14252.00000   -9999.25   -9999.25   -9999.25   -9999.25   -9999.25   -9999.25  121.85800    4.75410    4.98640    9.80510   10.14070   78.77590  158.40210
 14252.50000   -9999.25   -9999.25   -9999.25   -9999.25   -9999.25   -9999.25  132.55340    4.64130    4.83840    6.95180   10.09630   80.21580  162.10470
 14253.00000   -9999.25   -9999.25   -9999.25   -9999.25   -9999.25   -9999.25  143.06210    4.53120    4.67370    5.70180   10.17160   81.65570  165.80740
 14253.50000   -9999.25   -9999.25   -9999.25   -9999.25   -9999.25   -9999.25  143.28680    4.42370    4.52570    5.41780   10.24680   82.74090  169.15000
 14254.00000   -9999.25   -9999.25   -9999.25   -9999.25   -9999.25   -9999.25  133.75330    4.31880    4.44670    5.36310   10.31060   83.54130  172.44110
 14254.50000   -9999.25   -9999.25   -9999.25   -9999.25   -9999.25   -9999.25  123.71580    4.21630    4.37230    5.26960   10.28840   83.90840  174.36910
 14255.00000   -9999.25   -9999.25   -9999.25   -9999.25   -9999.25   -9999.25  123.16580    4.20980    4.33610    4.86100   10.26630   83.04210  176.20010
 14255.50000   -9999.25   -9999.25   -9999.25   -9999.25   -9999.25   -9999.25  123.29650    4.24720    4.33610    4.72290   10.24410   81.72690  175.42740
 14256.00000   -9999.25   -9999.25   -9999.25   -9999.25   -9999.25   -9999.25  120.57230    4.31320    4.42680    5.52290   10.22200   80.41170  173.26720
 14256.50000   -9999.25   -9999.25   -9999.25   -9999.25   -9999.25   -9999.25  116.10400    4.39100    4.55090    6.52710   10.19990   79.84930  176.80720
 14257.00000   -9999.25   -9999.25   -9999.25   -9999.25   -9999.25   -9999.25  116.01200    4.47090    4.67860    7.49660   10.17770   80.37690  182.57750
 14257.50000   -9999.25   -9999.25   -9999.25   -9999.25   -9999.25   -9999.25  118.21780    4.55230    4.80990    7.15550   10.15560   81.12700  182.35190
 14258.00000   -9999.25   -9999.25   -9999.25   -9999.25   -9999.25   -9999.25  121.43900    4.63510    4.83410    6.76080   10.13340   81.65100  171.39470
 14258.50000   -9999.25   -9999.25   -9999.25   -9999.25   -9999.25   -9999.25  124.61580    4.71610    4.83410    6.81560   10.11130   81.36750  153.53850
 14259.00000   -9999.25   -9999.25   -9999.25   -9999.25   -9999.25   -9999.25  127.00540    4.71610    4.79190    6.91230   10.10200   81.08390  149.75840
 14259.50000   -9999.25   -9999.25   -9999.25   -9999.25   -9999.25   -9999.25  127.00210    4.70460    4.74660    6.40070   10.19310   81.97840  145.97830
 14260.00000   -9999.25   -9999.25   -9999.25   -9999.25   -9999.25   -9999.25  126.70040    4.67580    4.71010    5.48760   10.28420   83.30990  146.08260
 14260.50000   -9999.25   -9999.25   -9999.25   -9999.25   -9999.25   -9999.25  127.18490    4.64720    4.67390    5.46410   10.37520   82.31650  146.39600
 14261.00000   -9999.25   -9999.25   -9999.25   -9999.25   -9999.25   -9999.25  128.84780    4.61880    4.67900    5.83470   10.46630   80.91340  144.53260
 14261.50000   -9999.25   -9999.25   -9999.25   -9999.25   -9999.25   -9999.25  129.94640    4.59860    4.70450    6.34980   10.55740   80.51880  143.13040
 14262.00000   -9999.25   -9999.25   -9999.25   -9999.25   -9999.25   -9999.25  128.27800    4.59860    4.73010    7.25740   10.64850   80.54620  143.47340
 14262.50000   -9999.25   -9999.25   -9999.25   -9999.25   -9999.25   -9999.25  125.20680    4.59860    4.75590    8.53280   10.73960   80.57350  143.75730
 14263.00000   -9999.25   -9999.25   -9999.25   -9999.25   -9999.25   -9999.25  127.99270    4.59860    4.78180    8.40700   10.83070   80.77540  143.78460
 14263.50000   -9999.25   -9999.25   -9999.25   -9999.25   -9999.25   -9999.25  132.36620    4.67070    4.79100    7.08290   10.92180   81.28080  143.81190
 14264.00000   -9999.25   -9999.25   -9999.25   -9999.25   -9999.25   -9999.25  132.71020    4.74530    4.79440    6.06480   11.01290   81.78620  142.40870
 14264.50000   -9999.25   -9999.25   -9999.25   -9999.25   -9999.25   -9999.25  127.90240    4.82100    4.86980    5.64210   11.09870   80.58310  139.36880
 14265.00000   -9999.25   -9999.25   -9999.25   -9999.25   -9999.25   -9999.25  121.50350    4.89800    4.94640    5.88150   11.02940   76.80190  136.32890
 14265.50000   -9999.25   -9999.25   -9999.25   -9999.25   -9999.25   -9999.25  118.94050    4.97620    5.03030    6.73640   10.93320   75.32940  134.37410
 14266.00000   -9999.25   -9999.25   -9999.25   -9999.25   -9999.25   -9999.25  118.78180    5.14160    5.23240    7.67740   10.83270   76.29720  134.48900
 14266.50000   -9999.25   -9999.25   -9999.25   -9999.25   -9999.25   -9999.25  118.17640    5.36000    5.44270    8.68220   10.73220   75.67330  138.51470
 14267.00000   -9999.25   -9999.25   -9999.25   -9999.25   -9999.25   -9999.25  117.31530    5.58770    5.66130    9.41410   10.68670   75.07550  142.20830
 14267.50000   -9999.25   -9999.25   -9999.25   -9999.25   -9999.25   -9999.25  119.37470    5.82520    5.87870   10.07050   10.67480   76.15690  143.65720
 14268.00000   -9999.25   -9999.25   -9999.25   -9999.25   -9999.25   -9999.25  122.11990    5.94040    6.08340   10.45350   10.66280   77.73950  143.95240
 14268.50000   -9999.25   -9999.25   -9999.25   -9999.25   -9999.25   -9999.25  122.88980    5.88750    6.08780   10.48010   10.65090   79.31490  143.92070
 14269.00000   -9999.25   -9999.25   -9999.25   -9999.25   -9999.25   -9999.25  121.92290    5.75940    6.05490   10.28400   10.63900   80.53320  143.88890
 14269.50000   -9999.25   -9999.25   -9999.25   -9999.25   -9999.25   -9999.25  122.09450    5.62030    5.86510    9.39360   10.62700   81.13280  143.85720
 14270.00000   -9999.25   -9999.25   -9999.25   -9999.25   -9999.25   -9999.25  125.81170    5.41970    5.67280    8.02390   10.64250   80.96460  143.82550
 14270.50000   -9999.25   -9999.25   -9999.25   -9999.25   -9999.25   -9999.25  130.61820    5.22630    5.48680    7.09880   10.68000   80.23190  143.79380
 14271.00000   -9999.25   -9999.25   -9999.25   -9999.25   -9999.25   -9999.25  134.61470    5.04800    5.30690    6.29270   10.71720   79.10770  143.76210
 14271.50000   -9999.25   -9999.25   -9999.25   -9999.25   -9999.25   -9999.25  134.22960    4.99190    5.27420    5.81010   10.75010   77.98350  143.73040
