~Version ---------------------------------------------------
VERS.   2.0 : CWLS log ASCII Standard -VERSION 2.0
WRAP.    NO : One line per depth step
DLM . SPACE : Column Data Section Delimiter
~Well ------------------------------------------------------
STRT .F                10996.0 : START DEPTH
STOP .F                14315.0 : STOP DEPTH
STEP .F                    0.5 : STEP
NULL .                -9999.25 : NULL VALUE
COMP .                         : COMPANY
WELL .                         : WELL
FLD  .                         : FIELD
LOC  .                         : LOCATION
PROV .                         : PROVINCE
CNTY .                         : COUNTY
STAT .                         : STATE
CTRY .                         : COUNTRY
SRVC .                         : SERVICE COMPANY
DATE .                         : DATE
UWI  .                         : UNIQUE WELL ID
API  .                         : API NUMBER
SLAT .WGS84 5.7327837775454995 : SURFACE LATITUDE
SLON .WGS84 3.9947683505355087 : SURFACE LONGITUDE
DATUM.F                 2066.0 : DEPTH DATUM ELEV
~Curve Information -----------------------------------------
DEPT.F     : 
GRD .GAPI  : GAMMA RAY FROM DENSITY LOG
NPHI.DEC   : NEUTRON POROSITY
DPHI.DEC   : DENSITY POROSITY
RHOB.G/C3  : BULK DENSITY
DRHO.G/C3  : BULK DENSITY CORRECTION
CALD.IN    : CALIPER FROM DENSITY LOG
GRR .GAPI  : GAMMA RAY FROM RESISTIVITY LOG
ILD .OHMM  : INDUCTION DEEP RESISTIVITY
ILM .OHMM  : INDUCTION MEDIUM RESISTIVITY
SFLU.OHMM  : SHALLOW FOCUSED RESISTIVITY (UNAVERAGED)
SPR .MV    : SPONTANEOUS POTENTIAL FROM RESISTIVITY LOG
DTCO.US/F  : DELTA-T COMPRESSIONAL
DTSM.US/F  : DELTA-T SHEAR
~Params ----------------------------------------------------
~Other -----------------------------------------------------
~ASCII -----------------------------------------------------
# ...
 13908.00000   -9999.25   -9999.25   -9999.25   -9999.25   -9999.25   -9999.25  117.10610    9.55380    9.97750   16.72310   12.12170   69.72380  125.51250
 13908.50000   -9999.25   -9999.25   -9999.25   -9999.25   -9999.25   -9999.25  116.63250    9.49900   10.01370   17.63750   12.14140   69.96640  126.15590
 13909.00000   -9999.25   -9999.25   -9999.25   -9999.25   -9999.25   -9999.25  116.52340    9.36110    9.92980   17.32380   12.16100   71.36820  128.10420
 13909.50000   -9999.25   -9999.25   -9999.25   -9999.25   -9999.25   -9999.25  118.86170    9.12920    9.64670   16.04970   12.16600   72.81810  130.05250
 13910.00000   -9999.25   -9999.25   -9999.25   -9999.25   -9999.25   -9999.25  125.75550    8.90310    9.37170   12.93560   12.07970   73.90890  131.30070
 13910.50000   -9999.25   -9999.25   -9999.25   -9999.25   -9999.25   -9999.25  127.40000    8.77580    9.24570   10.96340   11.99330   74.01660  131.42970
 13911.00000   -9999.25   -9999.25   -9999.25   -9999.25   -9999.25   -9999.25  125.76160    8.77180    9.25510    9.70280   11.95430   73.93360  131.61640
 13911.50000   -9999.25   -9999.25   -9999.25   -9999.25   -9999.25   -9999.25  124.72160    9.07140    9.61730    9.88490   11.94690   73.74460  129.18230
 13912.00000   -9999.25   -9999.25   -9999.25   -9999.25   -9999.25   -9999.25  125.75030    9.49360   10.01620   12.15390   11.93950   73.53950  126.69590
 13912.50000   -9999.25   -9999.25   -9999.25   -9999.25   -9999.25   -9999.25  127.15240   10.04600   10.75560   15.62030   11.93210   72.67470  122.05140
 13913.00000   -9999.25   -9999.25   -9999.25   -9999.25   -9999.25   -9999.25  124.21130   10.63050   11.54970   18.23700   11.98380   70.94900  117.23870
 13913.50000   -9999.25   -9999.25   -9999.25   -9999.25   -9999.25   -9999.25  117.84460   11.24910   12.40230   20.79150   12.11640   68.73980  114.18800
 13914.00000   -9999.25   -9999.25   -9999.25   -9999.25   -9999.25   -9999.25  111.66670   11.90370   12.79510   25.66570   12.24910   66.60480  113.43790
 13914.50000   -9999.25   -9999.25   -9999.25   -9999.25   -9999.25   -9999.25  107.11580   12.12800   12.82800   29.32770   12.38180   66.37970  113.62920
 13915.00000   -9999.25   -9999.25   -9999.25   -9999.25   -9999.25   -9999.25  111.51790   11.91280   12.56950   25.44960   12.53710   66.93340  117.10690
 13915.50000   -9999.25   -9999.25   -9999.25   -9999.25   -9999.25   -9999.25  118.27730   11.62200   12.11740   19.44440   12.76240   68.50920  123.09240
 13916.00000   -9999.25   -9999.25   -9999.25   -9999.25   -9999.25   -9999.25  124.40510   11.28930   11.70110   16.72590   12.95140   70.08500  126.49800
 13916.50000   -9999.25   -9999.25   -9999.25   -9999.25   -9999.25   -9999.25  124.99180   10.96630   11.31500   14.38750   13.14040   71.05120  129.39510
 13917.00000   -9999.25   -9999.25   -9999.25   -9999.25   -9999.25   -9999.25  123.38570   10.65260   10.94150   13.92170   13.15960   71.36790  129.55150
 13917.50000   -9999.25   -9999.25   -9999.25   -9999.25   -9999.25   -9999.25  122.01690   10.34780   10.58040   13.86400   13.02920   71.51900  129.70610
 13918.00000   -9999.25   -9999.25   -9999.25   -9999.25   -9999.25   -9999.25  120.69600   10.05200   10.29450   13.89620   12.89880   71.73730  129.70610
 13918.50000   -9999.25   -9999.25   -9999.25   -9999.25   -9999.25   -9999.25  118.73110    9.87940   10.07830   13.85980   12.76840   71.95570  129.24000
 13919.00000   -9999.25   -9999.25   -9999.25   -9999.25   -9999.25   -9999.25  111.77550    9.80790   10.07830   13.33760   12.63790   71.99280  128.77110
 13919.50000   -9999.25   -9999.25   -9999.25   -9999.25   -9999.25   -9999.25  106.87860    9.75150   10.07830   12.94340   12.50750   71.99280  127.91900
 13920.00000   -9999.25   -9999.25   -9999.25   -9999.25   -9999.25   -9999.25  107.63880    9.69900   10.07310   13.75670   12.39470   71.61250  127.15160
 13920.50000   -9999.25   -9999.25   -9999.25   -9999.25   -9999.25   -9999.25  109.13890    9.65270   10.03230   14.78030   12.29740   71.15220  126.27040
 13921.00000   -9999.25   -9999.25   -9999.25   -9999.25   -9999.25   -9999.25  108.05750    9.61270    9.99160   16.39710   12.25200   70.80930  126.93420
 13921.50000   -9999.25   -9999.25   -9999.25   -9999.25   -9999.25   -9999.25  107.55510    9.57290    9.95140   18.10690   12.29520   71.15600  128.22580
 13922.00000   -9999.25   -9999.25   -9999.25   -9999.25   -9999.25   -9999.25  110.75620    9.39890    9.76350   17.79500   12.33840   71.85320  129.70860
 13922.50000   -9999.25   -9999.25   -9999.25   -9999.25   -9999.25   -9999.25  114.44420    9.13360    9.43980   15.36250   12.38170   72.04150  131.19130
 13923.00000   -9999.25   -9999.25   -9999.25   -9999.25   -9999.25   -9999.25  117.05470    8.80520    9.13340   13.54060   12.42490   72.10560  132.85160
 13923.50000   -9999.25   -9999.25   -9999.25   -9999.25   -9999.25   -9999.25  118.71320    8.47500    8.85340   12.55750   12.46810   72.48970  134.56050
 13924.00000   -9999.25   -9999.25   -9999.25   -9999.25   -9999.25   -9999.25  122.47690    8.19810    8.53540   11.90230   12.51140   73.57230  136.26940
 13924.50000   -9999.25   -9999.25   -9999.25   -9999.25   -9999.25   -9999.25  126.74650    8.09710    8.24260   11.30080   12.57110   74.83030  137.15200
 13925.00000   -9999.25   -9999.25   -9999.25   -9999.25   -9999.25   -9999.25  130.34890    8.02650    8.13510   10.68360   12.61130   74.73640  137.16170
 13925.50000   -9999.25   -9999.25   -9999.25   -9999.25   -9999.25   -9999.25  125.95900    8.01930    8.23460   10.31430   12.62610   73.94480  136.94250
 13926.00000   -9999.25   -9999.25   -9999.25   -9999.25   -9999.25   -9999.25  119.23900    8.17950    8.36790   10.32980   12.64090   73.07220  136.25010
 13926.50000   -9999.25   -9999.25   -9999.25   -9999.25   -9999.25   -9999.25  111.38010    8.45640    8.64770   11.20540   12.65570   72.19950  132.33570
 13927.00000   -9999.25   -9999.25   -9999.25   -9999.25   -9999.25   -9999.25  105.07640    8.87490    9.06770   12.37900   12.67060   71.32690  127.52870
 13927.50000   -9999.25   -9999.25   -9999.25   -9999.25   -9999.25   -9999.25  101.72000    9.31410    9.57180   13.93780   12.68540   70.56160  124.47660
 13928.00000   -9999.25   -9999.25   -9999.25   -9999.25   -9999.25   -9999.25  105.04510    9.91730   10.33450   15.56210   12.59020   69.80360  122.00340
 13928.50000   -9999.25   -9999.25   -9999.25   -9999.25   -9999.25   -9999.25  107.93280   10.75000   11.15800   17.25490   12.47210   69.04560  119.91360
 13929.00000   -9999.25   -9999.25   -9999.25   -9999.25   -9999.25   -9999.25  105.99410   11.65270   12.22950   18.09270   12.35410   68.28760  118.31270
 13929.50000   -9999.25   -9999.25   -9999.25   -9999.25   -9999.25   -9999.25  100.39320   12.63330   13.68720   19.40790   12.23610   67.95900  116.71180
 13930.00000   -9999.25   -9999.25   -9999.25   -9999.25   -9999.25   -9999.25   90.06560   13.93810   15.31880   21.60460   12.11800   67.62160  114.95960
 13930.50000   -9999.25   -9999.25   -9999.25   -9999.25   -9999.25   -9999.25   77.52970   15.37760   17.39440   30.00900   12.00000   66.84750  112.25160
 13931.00000   -9999.25   -9999.25   -9999.25   -9999.25   -9999.25   -9999.25   71.27640   16.96590   19.88160   42.97740   11.98670   64.90150  109.36030
 13931.50000   -9999.25   -9999.25   -9999.25   -9999.25   -9999.25   -9999.25   69.57540   18.06010   21.37640   55.77610   12.05880   63.20700  106.74280
 13932.00000   -9999.25   -9999.25   -9999.25   -9999.25   -9999.25   -9999.25   80.07700   18.17390   21.07900   51.18730   12.13090   63.55660  107.69680
 13932.50000   -9999.25   -9999.25   -9999.25   -9999.25   -9999.25   -9999.25   92.00750   17.54530   19.25850   43.06410   12.20300   64.72570  115.57610
 13933.00000   -9999.25   -9999.25   -9999.25   -9999.25   -9999.25   -9999.25  102.84470   15.86260   17.39160   29.35990   12.27510   65.91900  119.32480
 13933.50000   -9999.25   -9999.25   -9999.25   -9999.25   -9999.25   -9999.25  111.36950   14.58170   15.70560   20.39210   12.37260   67.46340  119.93790
