~Version ---------------------------------------------------
VERS.   2.0 : CWLS log ASCII Standard -VERSION 2.0
WRAP.    NO : One line per depth step
DLM . SPACE : Column Data Section Delimiter
~Well ------------------------------------------------------
STRT .FT                   7.0 : START DEPTH
STOP .FT                3990.0 : STOP DEPTH
STEP .FT                   0.5 : STEP
NULL .                -9999.25 : NULL VALUE
COMP .                         : COMPANY
WELL .                         : WELL
FLD  .                         : FIELD
LOC  .                         : LOCATION
PROV .                         : PROVINCE
CNTY .                         : COUNTY
STAT .                         : STATE
CTRY .                         : COUNTRY
SRVC .                         : SERVICE COMPANY
DATE .                         : DATE
UWI  .                         : UNIQUE WELL ID
API  .                         : API NUMBER
SLAT .WGS84 2.9077605796239965 : SURFACE LATITUDE
SLON .WGS84  6.372655013293993 : SURFACE LONGITUDE
DATUM.F                2884.15 : DEPTH DATUM ELEV
~Curve Information -----------------------------------------
DEPT   .FT    : DEPTH FEET
DTCO   .US/F  : DELTA TIME COMPRESSIONAL FROM SDT LOG
DTSM   .US/F  : DELTA TIME SHEAR WAVE FROM SDT LOG
GRD    .GAPI  : GAMMA RAY FROM CNL LOG
GRS    .GAPI  : GAMMA RAY FROM SDT LOG
NPHI_LS.DEC   : NEUTRON POROSITY LIMESTONE FROM CNL LOG
SPHI_LS.DEC   : SONIC POROSITY LIMESTONE [DTM=47.6, DTF=189] FROM SDT LOG
~Params ----------------------------------------------------
~Other -----------------------------------------------------
~ASCII -----------------------------------------------------
# ...
 3560.50000   60.75010  106.86170   48.83260   48.72350    0.15840    0.09180
 3561.00000   61.19390  103.82840   46.60100   44.85860    0.16390    0.09650
 3561.50000   60.70160  100.79510   41.72550   37.73930    0.16900    0.09400
 3562.00000   58.75240   97.76180   34.37340   30.57640    0.16610    0.07950
 3562.50000   56.59420   94.85020   27.07100   24.64440    0.14020    0.06620
 3563.00000   55.33200   93.70490   21.01240   19.52380    0.11730    0.05770
 3563.50000   54.28330   93.11830   15.70020   16.78620    0.10900    0.04900
 3564.00000   53.48250   93.11830   14.37080   14.54630    0.11300    0.04270
 3564.50000   54.17910   93.15620   14.40380   14.18020    0.12040    0.04340
 3565.00000   55.91920   93.52600   14.98160   13.97210    0.11460    0.05910
 3565.50000   56.53130   94.04960   16.03850   13.03140    0.11430    0.06570
 3566.00000   54.90180   95.27780   16.38730   13.76460    0.13550    0.05240
 3566.50000   53.65160   96.84380   15.97400   14.99380    0.16150    0.04790
 3567.00000   53.75970   98.50630   15.53360   15.61430    0.17820    0.04350
 3567.50000   54.02790  100.16880   15.38520   15.24600    0.18330    0.04450
 3568.00000   54.38730  101.40190   15.88940   14.05750    0.18120    0.04840
 3568.50000   55.86870  102.06170   18.40900   13.18270    0.18660    0.05750
 3569.00000   56.85360  102.46360   18.94100   13.82190    0.19750    0.06290
 3569.50000   57.11990  101.49480   18.74550   14.78130    0.21250    0.06670
 3570.00000   57.06570   99.89180   17.71860   15.72230    0.21510    0.06720
 3570.50000   56.93840   98.28890   16.48610   15.33500    0.21290    0.06450
 3571.00000   56.62200   97.26560   16.41480   14.45180    0.20850    0.06190
 3571.50000   55.88780   97.24560   16.34360   13.55320    0.20420    0.05950
 3572.00000   55.46560   97.30280   16.30310   12.65440    0.19980    0.05650
 3572.50000   55.64760   97.16260   16.18580   12.68320    0.19310    0.05650
 3573.00000   55.63070   97.02240   15.42540   12.95810    0.17600    0.05640
 3573.50000   55.46880   96.88230   14.66500   13.32760    0.14380    0.05650
 3574.00000   55.65440   96.71000   13.90460   13.47900    0.12220    0.05660
 3574.50000   55.99620   96.51200   13.14880   13.46390    0.09930    0.05840
 3575.00000   56.19810   96.31390   12.72650   13.44730    0.09580    0.06170
 3575.50000   56.19240   96.11590   12.75680   13.07080    0.09230    0.06210
 3576.00000   56.18680   95.91790   13.30700   12.57840    0.08680    0.06190
 3576.50000   56.18120   95.02100   13.79370   12.10680    0.08070    0.06150
 3577.00000   56.10630   94.04850   13.36040   11.63520    0.07470    0.06000
 3577.50000   55.70350   93.07590   12.92700   11.42930    0.06860    0.05780
 3578.00000   55.36100   92.10340   13.09760   11.63450    0.06130    0.05490
 3578.50000   55.01100   91.21040   13.94170   13.33440    0.06050    0.05240
 3579.00000   54.64020   90.78310   14.50940   14.00760    0.06080    0.04980
 3579.50000   53.93230   90.35580   15.07710   14.02970    0.06270    0.04550
 3580.00000   52.72730   90.19670   15.64480   14.06870    0.06210    0.03820
 3580.50000   51.40620   90.29410   16.06870   14.14510    0.05380    0.03060
 3581.00000   51.52880   90.44810   15.71780   14.17470    0.03870    0.02690
 3581.50000   52.22170   90.91350   14.58810   14.22100    0.02780    0.03180
 3582.00000   52.59240   91.37890   13.79690   14.30670    0.01910    0.03510
 3582.50000   52.25240   91.84440   13.82840   14.31660    0.01910    0.03450
 3583.00000   52.36010   92.30980   15.24080   14.35200    0.02900    0.03270
 3583.50000   52.82940   92.30640   18.35720   14.69810    0.04020    0.03440
 3584.00000   53.07720   92.19540   21.47090   16.81910    0.04850    0.03650
 3584.50000   52.94470   91.80540   21.83140   17.06840    0.05470    0.03720
 3585.00000   52.32480   90.60790   21.66260   17.18040    0.05160    0.03380
 3585.50000   50.72590   89.63650   20.76290   17.83610    0.04320    0.02590
 3586.00000   49.81490   89.25290   19.46260   18.46100    0.03470    0.01800
 3586.50000   49.77990   89.32470   18.66150   17.34630    0.02710    0.01750
 3587.00000   49.74490   89.84590   18.68540   16.80880    0.02310    0.01940
 3587.50000   49.85050   90.72340   19.44510   17.27230    0.02280    0.02110
 3588.00000   49.95750   91.60090   23.14730   20.28830    0.02920    0.02170
 3588.50000   50.13940   92.47850   27.59230   23.84130    0.03770    0.02090
 3589.00000   50.28690   93.86060   30.53840   26.87900    0.04710    0.02040
 3589.50000   50.62250   95.33690   30.56790   27.78860    0.05440    0.02070
 3590.00000   51.51250   95.93130   31.60780   29.06500    0.05940    0.02520
 3590.50000   52.37460   96.31690   35.71850   33.76720    0.06560    0.03440
 3591.00000   53.71620   96.10560   40.00970   37.94220    0.07200    0.04380
 3591.50000   54.26020   95.64010   44.03160   44.23270    0.07460    0.04590
 3592.00000   54.16630   94.00500   42.35500   45.75080    0.06520    0.04670
 3592.50000   53.39220   92.37000   39.12580   39.95840    0.04840    0.04130
 3593.00000   52.39110   91.28190   35.38200   34.22720    0.04200    0.03590
 3593.50000   51.34950   91.76920   31.29010   28.42240    0.03550    0.02870
 3594.00000   50.48780   93.22060   28.42520   25.21140    0.03110    0.02130
 3594.50000   50.22530   95.95060   24.80250   22.26230    0.02670    0.01970
 3595.00000   50.55860   98.68060   24.28430   21.84760    0.02410    0.02070
 3595.50000   51.89170  102.11910   26.26600   25.22280    0.03380    0.03040
 3596.00000   53.71440  105.60690   34.96120   30.75220    0.07120    0.04740
 3596.50000   56.99810  106.82170   41.21120   38.03060    0.10660    0.06810
 3597.00000   60.25370  105.54890   42.67330   44.27890    0.13590    0.08960
 3597.50000   62.18520  102.57300   39.89120   42.79570    0.14240    0.10090
 3598.00000   62.78360   98.93800   34.78620   37.34360    0.12590    0.10800
 3598.50000   59.51280   95.30310   30.96000   28.72740    0.09830    0.09500
 3599.00000   55.94180   92.66520   28.05170   23.99030    0.07440    0.06290
 3599.50000   53.83540   91.77620   26.06520   20.98270    0.04940    0.04540
 3600.00000   53.08070   91.88680   23.04790   20.43800    0.03690    0.03820
 3600.50000   52.25240   92.32350   24.10370   21.55820    0.03060    0.03360
 3601.00000   52.07500   92.76020   27.08840   24.65320    0.03640    0.03180
 3601.50000   52.07990   93.00070   29.81050   29.34850    0.04350    0.03050
 3602.00000   51.83540   92.95780   31.90950   31.68610    0.05060    0.02910
 3602.50000   51.59090   92.91490   30.63300   30.94990    0.05330    0.02790
 3603.00000   51.38740   92.87210   26.76510   26.58640    0.05100    0.02650
 3603.50000   51.21140   92.89840   22.01740   20.06050    0.04790    0.02590
 3604.00000   51.19140   94.60710   20.23790   18.53480    0.05170    0.02570
 3604.50000   51.42970   97.16270   20.01060   18.76350    0.05690    0.02770
 3605.00000   51.98390   99.71830   23.45240   21.64080    0.06260    0.03310
 3605.50000   53.12770  102.27390   27.42930   24.51340    0.06820    0.04080
 3606.00000   54.61020  103.94080   29.54960   26.82090    0.08100    0.04960
 3606.50000   56.15270  104.54560   30.24300   28.81620    0.09540    0.05980
 3607.00000   57.86590  104.44100   30.99700   28.26780    0.11550    0.06970
 3607.50000   59.40520  103.97600   31.93630   27.52890    0.12870    0.08200
 3608.00000   59.75800  103.12000   32.02100   26.73870    0.13120    0.08790
 3608.50000   59.42030   99.96690   30.49930   25.98990    0.12330    0.08470
 3609.00000   57.77890   97.16150   27.14290   24.27640    0.10530    0.07390
 3609.50000   56.17990   94.52560   23.78660   22.22570    0.08360    0.06280
 3610.00000   55.03690   92.55050   20.63890   19.48720    0.06330    0.05750
 3610.50000   53.63580   91.24560   17.75170   16.83530    0.04970    0.05660
 3611.00000   52.53830   91.01000   16.26600   14.71650    0.04320    0.05080
 3611.50000   52.65470   90.78910   15.10900   13.44950    0.04160    0.04390
