~Version ---------------------------------------------------
VERS.   2.0 : CWLS log ASCII Standard -VERSION 2.0
WRAP.    NO : One line per depth step
DLM . SPACE : Column Data Section Delimiter
~Well ------------------------------------------------------
STRT .FT                   7.0 : START DEPTH
STOP .FT                3990.0 : STOP DEPTH
STEP .FT                   0.5 : STEP
NULL .                -9999.25 : NULL VALUE
COMP .                         : COMPANY
WELL .                         : WELL
FLD  .                         : FIELD
LOC  .                         : LOCATION
PROV .                         : PROVINCE
CNTY .                         : COUNTY
STAT .                         : STATE
CTRY .                         : COUNTRY
SRVC .                         : SERVICE COMPANY
DATE .                         : DATE
UWI  .                         : UNIQUE WELL ID
API  .                         : API NUMBER
SLAT .WGS84 2.9077605796239965 : SURFACE LATITUDE
SLON .WGS84  6.372655013293993 : SURFACE LONGITUDE
DATUM.F                2884.15 : DEPTH DATUM ELEV
~Curve Information -----------------------------------------
DEPT   .FT    : DEPTH FEET
DTCO   .US/F  : DELTA TIME COMPRESSIONAL FROM SDT LOG
DTSM   .US/F  : DELTA TIME SHEAR WAVE FROM SDT LOG
GRD    .GAPI  : GAMMA RAY FROM CNL LOG
GRS    .GAPI  : GAMMA RAY FROM SDT LOG
NPHI_LS.DEC   : NEUTRON POROSITY LIMESTONE FROM CNL LOG
SPHI_LS.DEC   : SONIC POROSITY LIMESTONE [DTM=47.6, DTF=189] FROM SDT LOG
~Params ----------------------------------------------------
~Other -----------------------------------------------------
~ASCII -----------------------------------------------------
# ...
 3612.00000   52.77120   90.57580   15.60800   13.60240    0.04130    0.03830
 3612.50000   52.39420   90.36250   15.54360   13.77130    0.04070    0.03340
 3613.00000   51.62420   90.14920   13.59250   13.91880    0.03770    0.02880
 3613.50000   51.45180   90.06570   12.21250   14.06640    0.03170    0.02720
 3614.00000   51.48030   90.33320   12.26770   14.21330    0.02630    0.02720
 3614.50000   51.45680   90.60080   13.68350   14.33810    0.02150    0.02710
 3615.00000   51.31810   90.86840   15.03770   14.03660    0.01800    0.02700
 3615.50000   50.91010   90.94600   16.23020   13.30470    0.01830    0.02450
 3616.00000   50.58000   90.75450   15.76680   13.06420    0.02020    0.02070
 3616.50000   49.70660   90.56290   15.24200   13.31540    0.02220    0.01630
 3617.00000   49.41580   90.02530   15.24200   13.72660    0.02340    0.01240
 3617.50000   50.10430   89.50000   15.90570   14.42160    0.02480    0.01590
 3618.00000   50.59650   89.62170   16.84700   15.16020    0.02640    0.01900
 3618.50000   50.62330   89.80520   19.38750   16.29790    0.02980    0.02240
 3619.00000   51.20630   91.02420   23.05810   21.73550    0.03640    0.02740
 3619.50000   53.11780   95.14180   28.37000   27.28180    0.04910    0.04030
 3620.00000   55.23890   98.54970   33.06840   34.84310    0.06630    0.04950
 3620.50000   55.98270   99.12540   39.33700   36.38180    0.09640    0.05670
 3621.00000   55.80130   98.29440   36.54330   32.95140    0.10620    0.05710
 3621.50000   55.57100   97.46350   28.54550   27.21530    0.10200    0.05740
 3622.00000   54.95370   96.63260   21.86890   20.27900    0.09130    0.04940
 3622.50000   53.64100   94.94250   21.62270   20.03010    0.08070    0.04080
 3623.00000   52.18690   93.02610   21.70110   20.87200    0.07000    0.03240
 3623.50000   52.08090   91.10960   23.15800   21.08500    0.05930    0.03320
 3624.00000   53.33020   90.76330   22.77850   19.38480    0.04770    0.04380
 3624.50000   54.70400   90.61840   19.07610   17.72740    0.03440    0.05100
 3625.00000   53.50320   90.89460   17.21110   16.52250    0.03080    0.04490
 3625.50000   51.50130   91.18190   16.71340   15.96330    0.03220    0.03050
 3626.00000   50.69770   91.48810   16.56750   16.33470    0.03750    0.02170
 3626.50000   50.96040   91.88200   16.56410   17.03200    0.04560    0.02260
 3627.00000   51.19140   92.32000   16.63560   17.69720    0.05540    0.02420
 3627.50000   51.34900   95.57550   16.86120   19.04540    0.06000    0.02630
 3628.00000   52.35960   99.22810   18.08660   22.43670    0.06040    0.02900
 3628.50000   54.52780  103.59560   21.62110   25.78510    0.06750    0.04240
 3629.00000   58.85260  113.03520   25.21060   30.04170    0.08050    0.07240
 3629.50000   65.76300  122.25900   33.52690   35.11020    0.10300    0.11190
 3630.00000   72.67340  126.16780   45.73780   49.37130    0.13070    0.16360
 3630.50000   73.75610  126.16470   58.56260   56.69770    0.16540    0.18750
 3631.00000   72.00810  123.70980   67.83180   61.93990    0.18600    0.17160
 3631.50000   69.41430  117.27320   60.24060   57.51310    0.16840    0.15170
 3632.00000   66.22530  110.83660   46.49360   47.62750    0.13490    0.13180
 3632.50000   62.46900  104.40000   35.09640   36.25870    0.10570    0.10940
 3633.00000   59.03390  100.72670   30.64180   30.96540    0.10350    0.08850
 3633.50000   57.36770  100.69900   31.35260   29.66970    0.11050    0.06760
 3634.00000   57.31540  100.81630   31.68530   28.26730    0.11030    0.06870
 3634.50000   57.44620  101.05150   29.96770   25.88150    0.10440    0.07100
 3635.00000   57.23800  101.37770   26.41440   24.66770    0.09980    0.06840
 3635.50000   56.77120  101.37370   24.37030   24.98280    0.10260    0.06510
 3636.00000   56.48060  100.70190   28.03290   28.20060    0.11150    0.06440
 3636.50000   56.11690   99.25960   31.94120   31.47790    0.11660    0.06310
 3637.00000   55.75320   97.81740   31.12240   32.15020    0.10640    0.06170
 3637.50000   55.27110   94.54790   27.99850   30.17320    0.08980    0.04900
 3638.00000   52.42640   89.95580   24.60710   24.30790    0.06350    0.03600
 3638.50000   52.30880   89.47960   21.35840   16.93380    0.04870    0.03050
 3639.00000   52.82020   92.38980   20.30800   15.21630    0.04910    0.03700
 3639.50000   52.22050   95.48330   19.45370   14.61170    0.05090    0.03510
 3640.00000   52.18650   96.74960   18.82140   15.99400    0.05180    0.03030
 3640.50000   52.70060   97.31400   19.30280   17.36270    0.05180    0.03910
 3641.00000   53.21480   97.91050   19.78410   18.43340    0.05230    0.03980
 3641.50000   53.65110   97.84370   20.82940   20.34900    0.05710    0.04260
 3642.00000   53.54740   97.96050   22.67380   25.01910    0.07100    0.04380
 3642.50000   52.86020   97.99340   27.10880   30.18320    0.08320    0.03660
 3643.00000   53.19640   97.66420   29.38410   32.83020    0.08610    0.04000
 3643.50000   53.97570   97.31980   29.84750   31.08740    0.08050    0.04560
 3644.00000   53.48710   95.61800   22.68370   26.25240    0.07470    0.04510
 3644.50000   52.35090   93.86270   22.19540   21.18350    0.07160    0.03530
 3645.00000   51.83590   92.69510   21.04490   19.80270    0.06830    0.03160
 3645.50000   51.47010   91.61130   20.04440   20.47000    0.06090    0.02900
 3646.00000   51.20780   91.04260   20.02580   20.14990    0.04650    0.02610
 3646.50000   50.85070   90.69740   21.25990   18.50860    0.03720    0.02310
 3647.00000   49.99240   90.35230   22.49390   17.57470    0.03710    0.01780
 3647.50000   48.11130   90.00710   23.72790   18.57050    0.03770    0.00740
 3648.00000   47.21590   89.94650   25.59390   21.28840    0.03840   -0.00280
 3648.50000   50.29370   94.54210   28.94370   25.84490    0.03900    0.01220
 3649.00000   54.22520  103.87450   35.49810   31.66180    0.06700    0.04270
 3649.50000   58.60030  113.20690   46.80690   40.87260    0.10370    0.06790
 3650.00000   61.97530  118.07150   55.46620   49.45690    0.14840    0.09280
 3650.50000   64.67480  113.44770   54.96510   52.64260    0.14870    0.11790
 3651.00000   64.18780  104.59010   45.50890   44.81930    0.10980    0.11590
 3651.50000   61.53940   97.85270   34.91560   34.60080    0.07490    0.09880
 3652.00000   59.44600   97.31350   29.50910   27.94630    0.06560    0.08260
 3652.50000   57.44410   96.49870   25.13190   23.20800    0.06660    0.07120
 3653.00000   56.68380   95.15220   23.85400   21.35090    0.06660    0.06560
 3653.50000   55.59100   93.84200   23.51350   20.38320    0.06090    0.05900
 3654.00000   54.68660   93.35180   23.38270   20.83810    0.04870    0.05220
 3654.50000   54.23470   92.86160   23.67620   22.01530    0.04560    0.04860
 3655.00000   54.14500   92.37140   22.96060   23.44610    0.04480    0.04740
 3655.50000   53.86370   91.88120   21.12630   22.28290    0.04390    0.04560
 3656.00000   53.04170   91.59500   19.29210   20.72870    0.04070    0.04390
 3656.50000   51.98240   91.34990   17.72650   18.42330    0.03760    0.03460
 3657.00000   51.10240   91.61070   17.58530   16.19190    0.03740    0.02510
 3657.50000   51.03650   92.06900   17.52760   15.08740    0.03710    0.02180
 3658.00000   51.71000   93.58900   18.43030   16.29590    0.03860    0.02650
 3658.50000   51.91360   95.67920   19.66250   18.20290    0.04250    0.03130
 3659.00000   53.36470  100.82540   20.89480   19.36270    0.04550    0.03980
 3659.50000   56.31670  108.79110   22.12710   20.69420    0.04860    0.07880
 3660.00000   68.93090  117.54560   27.51750   23.81920    0.05490    0.16390
 3660.50000   81.54510  119.18830   35.59190   32.07080    0.07020    0.23820
 3661.00000   80.42670  115.95470   49.04970   50.11580    0.11150    0.23860
 3661.50000   77.30200  111.80940   65.20030   69.94650    0.15360    0.21490
 3662.00000   72.92650  107.66410   75.82990   79.96300    0.20580    0.17900
 3662.50000   68.55090  103.51890   71.93510   73.71550    0.18490    0.15440
 3663.00000   64.15060   99.37360   55.10980   53.39010    0.13920    0.12980
