~Version ---------------------------------------------------
VERS.   2.0 : CWLS log ASCII Standard -VERSION 2.0
WRAP.    NO : One line per depth step
DLM . SPACE : Column Data Section Delimiter
~Well ------------------------------------------------------
STRT .FT                   7.0 : START DEPTH
STOP .FT                3990.0 : STOP DEPTH
STEP .FT                   0.5 : STEP
NULL .                -9999.25 : NULL VALUE
COMP .                         : COMPANY
WELL .                         : WELL
FLD  .                         : FIELD
LOC  .                         : LOCATION
PROV .                         : PROVINCE
CNTY .                         : COUNTY
STAT .                         : STATE
CTRY .                         : COUNTRY
SRVC .                         : SERVICE COMPANY
DATE .                         : DATE
UWI  .                         : UNIQUE WELL ID
API  .                         : API NUMBER
SLAT .WGS84 2.9077605796239965 : SURFACE LATITUDE
SLON .WGS84  6.372655013293993 : SURFACE LONGITUDE
DATUM.F                2884.15 : DEPTH DATUM ELEV
~Curve Information -----------------------------------------
DEPT   .FT    : DEPTH FEET
DTCO   .US/F  : DELTA TIME COMPRESSIONAL FROM SDT LOG
DTSM   .US/F  : DELTA TIME SHEAR WAVE FROM SDT LOG
GRD    .GAPI  : GAMMA RAY FROM CNL LOG
GRS    .GAPI  : GAMMA RAY FROM SDT LOG
NPHI_LS.DEC   : NEUTRON POROSITY LIMESTONE FROM CNL LOG
SPHI_LS.DEC   : SONIC POROSITY LIMESTONE [DTM=47.6, DTF=189] FROM SDT LOG
~Params ----------------------------------------------------
~Other -----------------------------------------------------
~ASCII -----------------------------------------------------
# ...
 2582.00000   55.96710   89.60320   34.39390   33.00970    0.11650    0.05990
 2582.50000   56.05890   89.99440   39.21290   36.54680    0.14580    0.06050
 2583.00000   55.60160   90.38560   41.57970   38.38560    0.13550    0.05840
 2583.50000   55.14430   90.15830   41.61090   39.08060    0.11310    0.05550
 2584.00000   54.93250   89.65480   43.38700   39.45370    0.11060    0.05300
 2584.50000   54.93210   89.19830   44.97560   41.51200    0.12180    0.05200
 2585.00000   55.14620   89.18140   45.56380   41.96240    0.17520    0.05350
 2585.50000   55.36030   89.63780   46.70990   42.37920    0.22250    0.05440
 2586.00000   55.47140   89.73550   47.61920   42.70080    0.29220    0.05310
 2586.50000   54.86330   89.35080   47.05570   42.50260    0.42770    0.05030
 2587.00000   54.63530   89.09340   44.62060   41.84260    0.43780    0.05070
 2587.50000   54.52550   89.51980   44.40360   41.60300    0.36560    0.05090
 2588.00000   54.41570   91.68070   43.93720   41.77540    0.29630    0.05130
 2588.50000   54.52560   93.69850   42.52550   41.96030    0.21390    0.05150
 2589.00000   54.79000   95.71630   41.57180   41.96520    0.19560    0.05290
 2589.50000   55.05430   97.73420   40.35990   41.55250    0.16050    0.05350
 2590.00000   55.31870   98.52440   35.15410   37.36220    0.08130    0.05490
 2590.50000   55.58310   99.13520   29.75730   29.49830    0.02440    0.05810
 2591.00000   55.96900   99.74610   24.36040   22.91710   -0.00300    0.06040
 2591.50000   56.21730  100.19380   18.96360   19.09790   -0.00820    0.06100
 2592.00000   56.47770  100.46690   16.15060   16.51600   -0.00750    0.06140
 2592.50000   57.19360  102.58460   14.92030   14.97080   -0.00360    0.06830
 2593.00000   57.74310  103.19850   15.89810   14.74220    0.00170    0.07240
 2593.50000   57.39710  103.25780   18.88190   16.22330    0.01480    0.07060
 2594.00000   57.05120  103.31720   21.86560   19.95780    0.03690    0.06850
 2594.50000   56.76230  103.37650   24.84930   24.32740    0.09890    0.06650
 2595.00000   56.70170  103.25200   27.77430   28.94150    0.12980    0.06440
 2595.50000   56.47360  102.69680   30.59070   33.31250    0.12270    0.06270
 2596.00000   56.47330  102.14170   33.00910   36.70780    0.08910    0.06270
 2596.50000   56.47300  101.58650   35.30870   38.27550    0.05390    0.06320
 2597.00000   56.51490  101.03140   37.60830   37.63790    0.04280    0.06350
 2597.50000   56.47240  100.47620   39.17790   36.70190    0.04080    0.06370
 2598.00000   56.51720   99.92110   37.37700   35.84810    0.03890    0.06390
 2598.50000   56.59190   99.36600   30.63530   34.51740    0.02970    0.06410
 2599.00000   56.63180   98.81080   26.01950   31.50050    0.01770    0.06390
 2599.50000   56.47130   98.25570   21.02210   28.25820    0.00660    0.06260
 2600.00000   56.36610   97.65680   17.51330   23.62000   -0.00120    0.06170
 2600.50000   56.19090   96.51990   16.19210   19.48330   -0.00840    0.06070
 2601.00000   56.22790   95.38310   15.59730   16.30490   -0.00990    0.06190
 2601.50000   56.40910   94.24620   15.01190   14.81070   -0.01070    0.06340
 2602.00000   56.45150   93.10930   14.44540   14.54660   -0.01030    0.06310
 2602.50000   56.05130   90.69550   14.34890   15.04920   -0.00670    0.06060
 2603.00000   55.27310   87.21310   15.37030   17.33220    0.01590    0.05610
 2603.50000   54.67670   83.73070   18.59800   19.73390    0.05860    0.05070
 2604.00000   54.42940   80.24840   22.13780   23.27800    0.10850    0.04720
 2604.50000   52.63970   79.43300   25.53570   24.58170    0.14100    0.04500
 2605.00000   50.85400   80.28810   25.64030   26.18950    0.12380    0.02350
 2605.50000   51.49840   82.13030   27.00330   30.30600    0.08800    0.02670
 2606.00000   53.63500   84.13050   29.35080   35.03690    0.06880    0.04350
 2606.50000   54.49610   87.19490   40.36840   40.57850    0.07610    0.05040
 2607.00000   53.90020   90.25930   45.72010   44.22610    0.07890    0.04480
 2607.50000   53.91880   93.32360   47.99420   45.28100    0.07060    0.04510
 2608.00000   54.40430   96.38800   47.88390   44.20020    0.05100    0.04890
 2608.50000   54.73580   99.45240   41.94050   42.30260    0.03770    0.05070
 2609.00000   54.45140  100.64420   39.83820   40.01090    0.02780    0.04880
 2609.50000   54.27520  100.14040   38.53180   37.97080    0.02930    0.04750
 2610.00000   54.95420   94.74590   38.36110   38.41950    0.03150    0.05020
 2610.50000   55.95600   87.87080   40.49260   39.60810    0.03500    0.06020
 2611.00000   56.33730   82.67860   40.62560   40.50250    0.03850    0.06030
 2611.50000   55.79610   82.12740   40.73750   40.95300    0.04190    0.05680
 2612.00000   54.01330   82.09730   40.81300   40.61770    0.04180    0.04640
 2612.50000   52.08600   83.15260   41.08450   40.26130    0.03730    0.03780
 2613.00000   51.71160   85.28390   41.80760   39.92570    0.03420    0.03670
 2613.50000   52.37240   87.77570   41.37130   39.06920    0.03520    0.03550
 2614.00000   52.12940   90.26750   40.48950   37.89960    0.04320    0.03350
 2614.50000   51.11740   92.75930   39.92580   37.11620    0.06090    0.02670
 2615.00000   51.08140   95.25100   40.22310   37.68970    0.09940    0.02420
 2615.50000   51.21220   97.74280   41.74940   40.40740    0.16250    0.02530
 2616.00000   51.17560  100.12930   43.30180   44.81200    0.27530    0.02510
 2616.50000   51.04710  100.34450   44.98070   48.31090    0.36440    0.02470
 2617.00000   50.73770   99.07240   46.20280   49.47810    0.38710    0.02430
 2617.50000   50.85390   95.79800   47.37280   48.96960    0.35600    0.02390
 2618.00000   51.67820   90.43490   48.44790   47.87100    0.29100    0.02730
 2618.50000   53.48020   89.91450   45.65300   45.74430    0.22700    0.04030
 2619.00000   55.73450   93.36990   38.69850   42.91460    0.14040    0.05750
 2619.50000   58.45430  100.33190   30.64420   34.88750    0.05660    0.07270
 2620.00000   59.96970  106.25460   21.55640   26.69520    0.02410    0.08880
 2620.50000   58.65830  112.73450   17.43920   20.39940   -0.00050    0.08460
 2621.00000   57.48350  117.75930   17.21900   18.10210    0.00700    0.07280
 2621.50000   57.23420  120.75790   19.54290   20.43100    0.02680    0.06850
 2622.00000   57.12390  120.20530   25.71580   27.12780    0.07000    0.06790
 2622.50000   57.14000  114.17720   32.92740   33.72690    0.12010    0.06790
 2623.00000   57.15610  108.14920   36.42710   38.24680    0.12350    0.06790
 2623.50000   57.17220  102.58170   35.48220   39.02640    0.10680    0.06820
 2624.00000   57.20010  101.85960   34.12240   36.80560    0.09520    0.06870
 2624.50000   57.24720  102.61570   35.54330   34.87910    0.14880    0.06920
 2625.00000   57.55560  105.20470   37.44480   35.91900    0.18980    0.07060
 2625.50000   57.81150  107.83240   39.28220   38.15830    0.21120    0.07260
 2626.00000   57.61120  110.46010   40.82030   39.50550    0.17970    0.07140
 2626.50000   57.23460  113.07560   41.07720   39.38240    0.14020    0.06970
 2627.00000   57.32740  115.46610   40.26170   38.59860    0.08650    0.06830
 2627.50000   57.55880  117.85660   37.77960   38.06350    0.05690    0.06960
 2628.00000   57.96800  120.99120   34.82170   37.20120    0.04680    0.07220
 2628.50000   59.17040  126.40530   34.76460   37.15860    0.05970    0.07720
 2629.00000   60.73800  131.21780   38.37150   38.68000    0.08480    0.09220
 2629.50000   60.76410  131.39750   43.14750   42.41800    0.12330    0.09870
 2630.00000   59.07020  129.49500   47.12620   47.95360    0.17710    0.08170
 2630.50000   57.64330  129.58760   47.80990   51.20090    0.20840    0.08040
 2631.00000   57.61360  129.68030   47.40270   51.40360    0.20560    0.07590
 2631.50000   57.83910  129.72990   46.31780   50.26610    0.18150    0.07240
 2632.00000   58.06460  128.75140   45.24160   47.66990    0.13560    0.07370
 2632.50000   58.19250  121.73390   44.16530   45.80930    0.10270    0.07430
 2633.00000   57.93000  113.89610   42.32710   44.91210    0.08310    0.07370
