~Version ---------------------------------------------------
VERS.   2.0 : CWLS log ASCII Standard -VERSION 2.0
WRAP.    NO : One line per depth step
DLM . SPACE : Column Data Section Delimiter
~Well ------------------------------------------------------
STRT .FT                   7.0 : START DEPTH
STOP .FT                3990.0 : STOP DEPTH
STEP .FT                   0.5 : STEP
NULL .                -9999.25 : NULL VALUE
COMP .                         : COMPANY
WELL .                         : WELL
FLD  .                         : FIELD
LOC  .                         : LOCATION
PROV .                         : PROVINCE
CNTY .                         : COUNTY
STAT .                         : STATE
CTRY .                         : COUNTRY
SRVC .                         : SERVICE COMPANY
DATE .                         : DATE
UWI  .                         : UNIQUE WELL ID
API  .                         : API NUMBER
SLAT .WGS84 2.9077605796239965 : SURFACE LATITUDE
SLON .WGS84  6.372655013293993 : SURFACE LONGITUDE
DATUM.F                2884.15 : DEPTH DATUM ELEV
~Curve Information -----------------------------------------
DEPT   .FT    : DEPTH FEET
DTCO   .US/F  : DELTA TIME COMPRESSIONAL FROM SDT LOG
DTSM   .US/F  : DELTA TIME SHEAR WAVE FROM SDT LOG
GRD    .GAPI  : GAMMA RAY FROM CNL LOG
GRS    .GAPI  : GAMMA RAY FROM SDT LOG
NPHI_LS.DEC   : NEUTRON POROSITY LIMESTONE FROM CNL LOG
SPHI_LS.DEC   : SONIC POROSITY LIMESTONE [DTM=47.6, DTF=189] FROM SDT LOG
~Params ----------------------------------------------------
~Other -----------------------------------------------------
~ASCII -----------------------------------------------------
# ...
 3457.50000   61.11410  107.97100   23.00820   23.13880    0.04220    0.10280
 3458.00000   59.37810  103.45940   19.49660   19.16350    0.03590    0.08760
 3458.50000   57.91430  102.76940   17.87580   16.39330    0.03000    0.07400
 3459.00000   57.36540  103.15000   16.54160   15.88910    0.02240    0.06930
 3459.50000   56.60250  106.68210   16.11070   16.15320    0.01580    0.06580
 3460.00000   56.39320  111.87800   16.10250   16.52490    0.01590    0.06120
 3460.50000   56.75880  114.21360   17.31250   17.67400    0.01970    0.06410
 3461.00000   58.13700  114.29780   18.82040   19.38920    0.02380    0.07490
 3461.50000   59.55310  113.82280   20.74130   21.45920    0.02940    0.08490
 3462.00000   60.15880  111.87760   23.80420   24.23740    0.03440    0.08950
 3462.50000   60.56130  109.67800   26.32470   25.71470    0.03270    0.09110
 3463.00000   60.72590  107.47840   23.63570   24.14860    0.02690    0.09210
 3463.50000   59.66090  106.14780   20.42380   21.03790    0.02030    0.08750
 3464.00000   58.91080  105.51750   18.86170   17.58720    0.01430    0.08080
 3464.50000   58.23930  105.19130   18.41850   16.52270    0.01410    0.07450
 3465.00000   57.58680  110.07250   19.96530   17.06510    0.01910    0.07180
 3465.50000   58.22040  110.01230   21.51210   18.99880    0.02930    0.07390
 3466.00000   59.77060  109.40420   23.94590   21.22010    0.04070    0.08430
 3466.50000   61.01060  107.52090   24.34560   22.73880    0.04050    0.09530
 3467.00000   59.84130  104.84950   22.77750   20.82460    0.03500    0.09290
 3467.50000   58.82110  101.74200   21.23120   18.52490    0.02860    0.08060
 3468.00000   57.67890   98.63450   18.97350   16.65040    0.02600    0.07000
 3468.50000   56.38800   96.61980   16.66250   16.21310    0.02740    0.05930
 3469.00000   54.68560   94.90410   16.73410   15.60460    0.03040    0.04870
 3469.50000   53.20600   93.08420   16.80580   14.82340    0.02850    0.04040
 3470.00000   52.39720   91.19280   15.52040   14.32020    0.02330    0.03430
 3470.50000   52.04220   90.06580   14.09060   13.81560    0.01560    0.03150
 3471.00000   52.06100   89.42580   12.99960   12.50600    0.00860    0.03130
 3471.50000   52.22040   89.19440   11.71670   12.01180    0.00780    0.03060
 3472.00000   52.05950   89.30320   12.15340   12.01220    0.01070    0.02990
 3472.50000   51.04310   90.21160   13.47160   12.12990    0.01480    0.02610
 3473.00000   49.48160   90.74670   14.59100   13.58620    0.01600    0.01500
 3473.50000   48.74550   89.20240   15.71030   14.17030    0.01600    0.00930
 3474.00000   48.55970   89.84280   16.82970   15.23210    0.01560    0.00690
 3474.50000   48.79880   90.43840   18.81050   16.28820    0.01520    0.00800
 3475.00000   48.79080   90.29280   19.52310   16.71500    0.01480    0.00840
 3475.50000   48.53800   90.09530   17.87760   16.36410    0.01410    0.00740
 3476.00000   48.19240   89.89780   14.81110   15.06280    0.01370    0.00560
 3476.50000   48.33050   89.80950   14.08880   14.11660    0.01460    0.00540
 3477.00000   48.50070   89.73920   14.70270   15.06700    0.01590    0.00590
 3477.50000   48.70230   90.84740   16.09080   16.65780    0.01850    0.00800
 3478.00000   49.36840   92.04000   17.21090   18.58670    0.01840    0.01000
 3478.50000   50.06350   93.23270   18.77990   21.07530    0.01890    0.01780
 3479.00000   49.94660   94.41790   21.23630   22.60640    0.02220    0.01750
 3479.50000   49.85510   94.42800   23.69280   23.44410    0.02720    0.01570
 3480.00000   49.58650   93.59620   23.83710   23.22800    0.03500    0.01600
 3480.50000   48.44330   90.40130   23.17000   22.34270    0.03180    0.00760
 3481.00000   45.98290   89.51750   21.98100   20.48810    0.02450   -0.00610
 3481.50000   44.73870   88.77650   20.78540   18.54500    0.01780   -0.01980
 3482.00000   44.75100   88.79300   19.58980   17.79560    0.01610   -0.02140
 3482.50000   45.17300   89.91640   18.44780   17.19090    0.01640   -0.01700
 3483.00000   45.68720   90.39940   18.56730   16.82560    0.01730   -0.01420
 3483.50000   46.12950   90.39610   18.88840   17.43090    0.01550   -0.01110
 3484.00000   46.80830   90.39270   20.74740   18.78990    0.01480   -0.00870
 3484.50000   47.58490   90.47040   22.47510   20.33040    0.01590   -0.00310
 3485.00000   48.32690   92.21310   25.51350   21.60200    0.01880    0.00180
 3485.50000   48.88250   93.95570   25.90660   20.09440    0.02010    0.00740
 3486.00000   50.32460   93.74990   23.14450   17.98030    0.01600    0.01440
 3486.50000   52.01050   93.90970   19.44280   15.55540    0.00790    0.02680
 3487.00000   53.48720   95.76550   14.89840   12.83760    0.00240    0.03910
 3487.50000   55.29800   97.62130   14.02140   12.42720    0.00240    0.05180
 3488.00000   56.57630   99.47710   14.06810   15.33490    0.00690    0.06290
 3488.50000   56.63620  101.33290   17.77480   18.71740    0.01230    0.06330
 3489.00000   56.30620  101.93910   21.48000   21.18020    0.01720    0.06160
 3489.50000   55.99370  101.91900   21.82870   21.02730    0.01830    0.06020
 3490.00000   56.08500  101.65590   19.77300   19.53610    0.01710    0.06050
 3490.50000   56.50210  101.01870   18.38320   16.79050    0.01580    0.06250
 3491.00000   56.50010  100.38140   16.99350   15.27020    0.01470    0.06390
 3491.50000   55.42440   99.35300   15.60370   14.40580    0.01450    0.06180
 3492.00000   53.83550   96.77610   14.36800   13.54460    0.01460    0.05080
 3492.50000   53.35670   95.29420   14.76380   12.84640    0.01610    0.03970
 3493.00000   52.93290   95.57030   17.23300   13.96250    0.02070    0.03540
 3493.50000   52.50910   95.42890   21.47850   15.46810    0.02210    0.03090
 3494.00000   51.68930   91.75130   22.34720   16.98020    0.01960    0.02650
 3494.50000   50.58480   87.67440   21.18540   17.74580    0.01730    0.02220
 3495.00000   49.94670   87.83070   19.95340   18.23630    0.01530    0.01770
 3495.50000   50.19700   89.15920   20.11810   18.29100    0.01490    0.01690
 3496.00000   51.74390   89.81950   21.62690   19.51690    0.01550    0.02740
 3496.50000   53.46420   90.73540   24.73430   20.99130    0.01950    0.03880
 3497.00000   53.57240   95.24840   26.01170   22.52550    0.02740    0.04420
 3497.50000   53.44130   97.71580   26.94580   24.60700    0.03810    0.04460
 3498.00000   52.84010   97.51400   26.94150   25.91290    0.04810    0.03630
 3498.50000   51.10540   95.83210   26.53950   25.04440    0.05520    0.02400
 3499.00000   50.12450   93.77370   24.14850   22.18750    0.05620    0.01960
 3499.50000   50.26010   93.30020   21.78200   20.54560    0.05460    0.02120
 3500.00000   50.84920   94.69340   20.39400   19.45780    0.05160    0.02330
 3500.50000   51.47430   95.14110   20.18960   18.34150    0.04830    0.02720
 3501.00000   52.09460   95.36940   19.84110   17.22520    0.04470    0.03210
 3501.50000   52.59340   95.52160   19.09880   16.95970    0.03510    0.03600
 3502.00000   50.99290   93.06690   17.84690   16.53450    0.02790    0.03080
 3502.50000   49.04470   90.75370   15.49740   15.45690    0.02060    0.01930
 3503.00000   48.45720   90.75220   14.76630   14.97620    0.01920    0.00760
 3503.50000   48.44220   91.76980   15.14150   14.95410    0.02000    0.00530
 3504.00000   49.22030   93.08560   16.71930   15.05410    0.02050    0.01090
 3504.50000   50.23410   94.47470   19.06910   16.13280    0.01970    0.01690
 3505.00000   50.94710   95.61150   19.12900   17.66550    0.01890    0.02290
 3505.50000   51.35980   95.91080   19.54340   18.66990    0.02170    0.02790
 3506.00000   51.45700   95.23710   21.37690   20.35140    0.03130    0.02790
 3506.50000   50.98010   93.83940   24.06650   21.93000    0.04350    0.02480
 3507.00000   50.27700   92.35540   25.11340   22.03650    0.04270    0.02050
 3507.50000   49.71830   90.87140   23.88310   20.71380    0.03330    0.01640
 3508.00000   49.44330   89.58960   21.86740   18.08710    0.02340    0.01320
 3508.50000   48.94560   89.46290   19.90340   15.67580    0.01590    0.01070
