~Version ---------------------------------------------------
VERS.   2.0 : CWLS log ASCII Standard -VERSION 2.0
WRAP.    NO : One line per depth step
DLM . SPACE : Column Data Section Delimiter
~Well ------------------------------------------------------
STRT .FT                   7.0 : START DEPTH
STOP .FT                3990.0 : STOP DEPTH
STEP .FT                   0.5 : STEP
NULL .                -9999.25 : NULL VALUE
COMP .                         : COMPANY
WELL .                         : WELL
FLD  .                         : FIELD
LOC  .                         : LOCATION
PROV .                         : PROVINCE
CNTY .                         : COUNTY
STAT .                         : STATE
CTRY .                         : COUNTRY
SRVC .                         : SERVICE COMPANY
DATE .                         : DATE
UWI  .                         : UNIQUE WELL ID
API  .                         : API NUMBER
SLAT .WGS84 2.9077605796239965 : SURFACE LATITUDE
SLON .WGS84  6.372655013293993 : SURFACE LONGITUDE
DATUM.F                2884.15 : DEPTH DATUM ELEV
~Curve Information -----------------------------------------
DEPT   .FT    : DEPTH FEET
DTCO   .US/F  : DELTA TIME COMPRESSIONAL FROM SDT LOG
DTSM   .US/F  : DELTA TIME SHEAR WAVE FROM SDT LOG
GRD    .GAPI  : GAMMA RAY FROM CNL LOG
GRS    .GAPI  : GAMMA RAY FROM SDT LOG
NPHI_LS.DEC   : NEUTRON POROSITY LIMESTONE FROM CNL LOG
SPHI_LS.DEC   : SONIC POROSITY LIMESTONE [DTM=47.6, DTF=189] FROM SDT LOG
~Params ----------------------------------------------------
~Other -----------------------------------------------------
~ASCII -----------------------------------------------------
# ...
 3921.00000   56.14330   98.51930   22.49330   18.43210    0.18140    0.06050
 3921.50000   56.14170   98.02730   21.61030   17.78470    0.18700    0.06110
 3922.00000   56.48050   97.53530   19.93900   16.02240    0.19880    0.06320
 3922.50000   56.36390   97.04330   18.26770   14.55090    0.19830    0.06350
 3923.00000   55.53700   96.55130   16.59650   14.25460    0.18360    0.05930
 3923.50000   54.99700   96.06520   15.62110   14.47250    0.15950    0.05450
 3924.00000   54.64000   95.58090   16.01970   14.42640    0.14330    0.04980
 3924.50000   54.19450   95.44580   17.19670   14.37770    0.13100    0.04670
 3925.00000   53.82390   95.50490   18.37360   14.32890    0.12900    0.04480
 3925.50000   53.54230   95.55370   18.74620   14.28280    0.12700    0.04310
 3926.00000   53.75540   95.78090   18.29090   14.23410    0.12980    0.04420
 3926.50000   54.00040   96.29700   17.73740   14.18790    0.13410    0.04560
 3927.00000   54.03280   97.04880   17.14040   14.13910    0.13840    0.04520
 3927.50000   54.15960   97.81860   16.83970   14.09310    0.14100    0.04490
 3928.00000   54.79060   98.64310   16.53890   14.04760    0.14160    0.04940
 3928.50000   55.21550   99.46760   16.43090   13.97090    0.15220    0.05440
 3929.00000   55.22210   99.50770   16.34080   13.87210    0.16280    0.05340
 3929.50000   54.85600   99.52130   16.29870   14.03690    0.17360    0.05040
 3930.00000   54.70010  100.23590   16.84160   14.32340    0.18630    0.04880
 3930.50000   55.01910  101.34520   17.89560   14.63850    0.19810    0.05150
 3931.00000   55.33810  103.02260   19.18250   14.97960    0.20570    0.05410
 3931.50000   55.65310  104.67890   19.87040   15.72000    0.21090    0.05660
 3932.00000   56.31260  105.53050   19.84250   16.36750    0.21480    0.06000
 3932.50000   57.52200  106.26620   19.02320   17.30010    0.21670    0.07010
 3933.00000   58.00990  106.51250   18.98170   18.20560    0.21320    0.07440
 3933.50000   57.96490  107.78800   19.52300   19.50440    0.21240    0.07400
 3934.00000   57.95070  108.12040   21.66310   21.70330    0.21630    0.07430
 3934.50000   58.33390  108.09400   26.47850   24.30190    0.23560    0.07470
 3935.00000   58.01340  107.36290   28.12550   24.55670    0.25480    0.07520
 3935.50000   57.58250  106.79500   28.30970   24.16260    0.26640    0.07050
 3936.00000   57.24120  107.15240   28.17200   23.19240    0.26780    0.06540
 3936.50000   57.02890  107.65080   28.03430   22.26840    0.26180    0.06210
 3937.00000   57.19890  107.96790   28.42110   23.22980    0.24540    0.06290
 3937.50000   58.05250  108.10850   28.39010   24.97330    0.23480    0.06850
 3938.00000   58.28230  107.29010   28.48130   26.31000    0.22890    0.07410
 3938.50000   57.85040  105.78180   29.01810   27.60120    0.22890    0.07240
 3939.00000   57.26380  104.57420   29.46320   27.13850    0.23110    0.06890
 3939.50000   56.65900  104.45310   29.64140   26.73480    0.22470    0.06540
 3940.00000   56.16530  104.33200   29.74160   26.44250    0.21350    0.06160
 3940.50000   55.53160  104.21770   29.40400   26.09320    0.20380    0.05780
 3941.00000   55.23290  104.10400   28.55040   25.54630    0.21420    0.05400
 3941.50000   54.99400  104.28410   28.58590   24.43830    0.23110    0.05170
 3942.00000   54.99300  104.66880   28.62150   24.70790    0.25000    0.05420
 3942.50000   55.61410  105.73540   28.66520   26.45870    0.25400    0.05790
 3943.00000   56.23510  106.98120   30.17990   29.70370    0.25350    0.06060
 3943.50000   57.04020  107.67620   31.67770   32.26220    0.25190    0.06470
 3944.00000   58.48410  108.14190   33.17540   32.24200    0.25080    0.07400
 3944.50000   59.85770  108.24880   34.34640   31.60500    0.24650    0.08660
 3945.00000   60.03180  108.22730   34.52750   30.01540    0.23630    0.08900
 3945.50000   60.02980  107.03950   34.36880   28.42080    0.21450    0.08930
 3946.00000   60.02780  105.85160   32.50300   26.82640    0.18300    0.08860
 3946.50000   60.02570  105.45560   29.26740   25.23680    0.17020    0.08680
 3947.00000   59.75790  105.83030   26.85010   23.64730    0.16530    0.08510
 3947.50000   59.48330  107.51440   26.02860   22.62370    0.16690    0.08360
 3948.00000   59.36290  109.24960   26.02860   23.79950    0.18810    0.08510
 3948.50000   59.84150  109.85110   29.10410   26.78400    0.20900    0.08800
 3949.00000   60.10380  110.25610   32.81570   29.53530    0.22070    0.08820
 3949.50000   60.16070  111.41520   35.22550   31.68360    0.22450    0.08860
 3950.00000   60.13010  115.85320   36.00630   32.77340    0.22300    0.08900
 3950.50000   60.27510  116.43520   36.78710   33.74870    0.22290    0.08910
 3951.00000   60.42010  116.43520   36.78640   33.37700    0.22520    0.09180
 3951.50000   60.56510  116.43520   35.99210   32.01430    0.23450    0.09490
 3952.00000   60.71010  116.36990   34.71350   29.51720    0.24370    0.09800
 3952.50000   61.76180  116.16130   33.20070   27.01070    0.25290    0.10110
 3953.00000   62.36910  115.62050   31.56450   26.17320    0.26150    0.10230
 3953.50000   62.28890  114.30300   30.36970   26.10800    0.26690    0.10240
 3954.00000   62.17730  112.95910   29.98900   25.50920    0.26190    0.10210
 3954.50000   61.46200  111.15690   29.74890   22.28420    0.25470    0.09780
 3955.00000   60.59580  111.30220   28.74490   19.60860    0.24950    0.09320
 3955.50000   60.23650  111.33860   26.27970   -9999.25    0.25520    0.08920
 3956.00000   60.11330  111.12060   23.06530   -9999.25    0.26810    0.08840
 3956.50000   60.10740  110.90270   22.57960   -9999.25    0.28000    0.08840
 3957.00000   60.10160  110.39820   23.46450   -9999.25    0.27610    0.08850
 3957.50000   60.09580  109.87510   25.14920   -9999.25    0.24850    0.08840
 3958.00000   60.09000  109.43680   26.81940   -9999.25    0.22560    0.08840
 3958.50000   60.08420  108.42650   27.09100   -9999.25    0.19860    0.08840
 3959.00000   60.07840  108.29500   26.49610   -9999.25    0.19090    0.08650
 3959.50000   60.07260  108.25390   25.56780   -9999.25    0.19940    0.08380
 3960.00000   60.06680  109.60730   24.26240   -9999.25    0.21220    0.08150
 3960.50000   59.88240  109.99590   23.83720   -9999.25    0.22940    0.08040
 3961.00000   59.52070  109.30200   22.81170   -9999.25    0.24610    0.08290
 3961.50000   59.72100  108.66720   21.78610   -9999.25    0.25990    0.08540
 3962.00000   60.05690  107.87070   20.76060   -9999.25    0.26460    0.08800
 3962.50000   60.13280  107.59000   20.50910   -9999.25    0.26460    0.08900
 3963.00000   60.06070  108.46420   20.57990   -9999.25    0.26580    0.08910
 3963.50000   59.98870  109.98190   20.94820   -9999.25    0.27580    0.08820
 3964.00000   59.83750  111.25960   21.62620   -9999.25    0.28290    0.08670
 3964.50000   59.55010  111.83200   22.79270   -9999.25    0.27890    0.08370
 3965.00000   59.49250  111.62260   23.70640   -9999.25    0.27000    0.08440
 3965.50000   59.36640  111.00570   25.38950   -9999.25    0.25840    0.08530
 3966.00000   59.24410  110.01160   27.85720   -9999.25    0.24600    0.08620
 3966.50000   59.77930  108.83720   29.57090   -9999.25    0.23490    0.08720
 3967.00000   60.16510  107.76860   29.96850   -9999.25    0.22230    0.08890
 3967.50000   60.18760  106.73050   29.83600   -9999.25    0.21470    0.08920
 3968.00000   60.21000  105.84720   27.98520   -9999.25    0.20950    0.08910
 3968.50000   60.21470  105.26760   24.57790   -9999.25    0.20930    0.08900
 3969.00000   60.11770  104.84180   22.90600   -9999.25    0.20960    0.08830
 3969.50000   59.73590  104.57580   21.08850   -9999.25    0.21000    0.08570
 3970.00000   59.00620  104.30980   19.07200   -9999.25    0.21140    0.07970
 3970.50000   58.03760  104.14010   19.35250   -9999.25    0.21470    0.07360
 3971.00000   57.59080  104.03760   20.29400   -9999.25    0.21770    0.07030
 3971.50000   57.68700  103.93410   21.23480   -9999.25    0.21800    0.06980
 3972.00000   57.58390  103.81830   21.68770   -9999.25    0.21820    0.06910
