~Version ---------------------------------------------------
VERS.   2.0 : CWLS log ASCII Standard -VERSION 2.0
WRAP.    NO : One line per depth step
DLM . SPACE : Column Data Section Delimiter
~Well ------------------------------------------------------
STRT .FT                   7.0 : START DEPTH
STOP .FT                3990.0 : STOP DEPTH
STEP .FT                   0.5 : STEP
NULL .                -9999.25 : NULL VALUE
COMP .                         : COMPANY
WELL .                         : WELL
FLD  .                         : FIELD
LOC  .                         : LOCATION
PROV .                         : PROVINCE
CNTY .                         : COUNTY
STAT .                         : STATE
CTRY .                         : COUNTRY
SRVC .                         : SERVICE COMPANY
DATE .                         : DATE
UWI  .                         : UNIQUE WELL ID
API  .                         : API NUMBER
SLAT .WGS84 2.9077605796239965 : SURFACE LATITUDE
SLON .WGS84  6.372655013293993 : SURFACE LONGITUDE
DATUM.F                2884.15 : DEPTH DATUM ELEV
~Curve Information -----------------------------------------
DEPT   .FT    : DEPTH FEET
DTCO   .US/F  : DELTA TIME COMPRESSIONAL FROM SDT LOG
DTSM   .US/F  : DELTA TIME SHEAR WAVE FROM SDT LOG
GRD    .GAPI  : GAMMA RAY FROM CNL LOG
GRS    .GAPI  : GAMMA RAY FROM SDT LOG
NPHI_LS.DEC   : NEUTRON POROSITY LIMESTONE FROM CNL LOG
SPHI_LS.DEC   : SONIC POROSITY LIMESTONE [DTM=47.6, DTF=189] FROM SDT LOG
~Params ----------------------------------------------------
~Other -----------------------------------------------------
~ASCII -----------------------------------------------------
# ...
 3251.50000   63.50410  111.61620   35.37770   34.84890    0.12430    0.11270
 3252.00000   65.81700  114.39170   30.55760   33.47000    0.09370    0.12730
 3252.50000   66.40550  111.68960   23.72970   26.60700    0.05090    0.13610
 3253.00000   62.26720  106.78200   21.13670   21.24090    0.03760    0.10730
 3253.50000   59.14790  104.93710   21.17350   19.11580    0.03240    0.08290
 3254.00000   58.00030  103.09220   21.20200   17.40730    0.02660    0.07320
 3254.50000   55.26560  101.34910   19.56380   16.02610    0.01960    0.05570
 3255.00000   52.32380   99.77810   16.61130   13.59930    0.01120    0.03800
 3255.50000   50.25540   98.20710   13.65880   12.15230    0.00850    0.02040
 3256.00000   49.28860   96.63610   12.45040   13.55080    0.00950    0.01590
 3256.50000   49.28890   95.92730   13.07420   14.48980    0.01310    0.01430
 3257.00000   51.40410   95.89960   17.02570   17.61190    0.02520    0.02460
 3257.50000   54.24480   96.82870   23.16310   23.26560    0.06130    0.04300
 3258.00000   57.32960   99.52840   31.76220   31.27560    0.09900    0.06690
 3258.50000   61.64690  112.88630   37.69200   39.15790    0.14980    0.09640
 3259.00000   67.41230  123.82940   41.21150   42.72410    0.16490    0.12600
 3259.50000   73.17760  133.68970   44.18660   42.72280    0.15450    0.16650
 3260.00000   77.11180  139.56770   45.15450   41.63950    0.14340    0.20720
 3260.50000   80.00800  144.45510   45.07990   41.42020    0.14510    0.22810
 3261.00000   81.75560  149.34240   44.99920   43.08640    0.16590    0.23920
 3261.50000   82.41090  154.22970   44.95570   46.02230    0.19680    0.24490
 3262.00000   82.19710  154.44830   49.48500   48.01720    0.22160    0.24530
 3262.50000   83.09720  152.77730   49.00400   48.46630    0.22900    0.24900
 3263.00000   82.38820  148.55900   47.68790   46.29480    0.21560    0.25040
 3263.50000   80.34240  144.11910   44.82020   43.36350    0.18930    0.23790
 3264.00000   77.77590  139.67920   42.09370   39.97440    0.16280    0.22260
 3264.50000   77.09690  137.84300   40.55860   39.58000    0.13720    0.20740
 3265.00000   78.26070  138.01640   40.11170   41.57250    0.13080    0.21010
 3265.50000   78.77910  138.96010   39.40200   43.56510    0.13210    0.22170
 3266.00000   76.64460  137.72260   38.22250   43.52070    0.13440    0.21770
 3266.50000   73.76450  125.83950   37.04310   40.14110    0.12930    0.18860
 3267.00000   71.83430  125.45540   35.86370   38.49620    0.11150    0.17190
 3267.50000   70.73650  126.70850   35.03240   37.11800    0.09530    0.16400
 3268.00000   72.13470  131.49130   36.02810   38.62260    0.10230    0.16910
 3268.50000   75.62900  135.87950   41.16870   40.78070    0.13310    0.19220
 3269.00000   78.19450  135.80820   45.49750   43.26530    0.15780    0.21520
 3269.50000   78.18350  132.72020   46.83740   45.27040    0.15700    0.22010
 3270.00000   75.66390  126.30810   45.88210   43.37790    0.13350    0.20030
 3270.50000   72.64530  119.95230   41.49180   39.59630    0.11470    0.17390
 3271.00000   68.43610  113.59650   40.06680   37.20360    0.10770    0.14770
 3271.50000   63.53610  109.01930   38.65400   35.18960    0.10840    0.12130
 3272.00000   59.76570  108.81310   36.14340   33.69540    0.10750    0.09490
 3272.50000   58.05060  108.94900   35.16790   32.15370    0.10360    0.07350
 3273.00000   58.64040  109.96860   35.43320   33.29220    0.10250    0.08100
 3273.50000   61.51080  114.25410   40.33540   37.21520    0.10720    0.09420
 3274.00000   63.89470  120.42800   46.77010   43.73720    0.12170    0.11690
 3274.50000   67.65980  131.58290   50.18080   48.75140    0.12920    0.14540
 3275.00000   72.22310  136.65740   50.32570   49.94840    0.12570    0.17200
 3275.50000   76.11110  138.21690   49.34830   48.12990    0.12360    0.19750
 3276.00000   79.27170  138.21460   47.86320   47.65810    0.13900    0.22280
 3276.50000   77.63000  134.76720   46.13880   47.47390    0.15270    0.21420
 3277.00000   73.28580  129.20800   44.41450   45.36990    0.14900    0.16570
 3277.50000   67.11990  118.27750   39.69000   37.98810    0.12890    0.10710
 3278.00000   63.13580  106.46110   30.25930   33.28270    0.10190    0.05200
 3278.50000   51.86390  103.51540   27.99170   28.94680    0.08430    0.03020
 3279.00000   52.59640  103.98340   28.32570   27.87690    0.08600    0.03580
 3279.50000   54.77660  104.45140   28.65980   27.12310    0.08270    0.05040
 3280.00000   57.00360  104.91940   29.14060   23.30040    0.06250    0.06500
 3280.50000   56.37240  105.38740   21.29550   19.11540    0.03220    0.06570
 3281.00000   55.38390  105.77220   16.91640   15.85820    0.02280    0.05550
 3281.50000   57.63750  105.78890   17.04560   16.09710    0.03370    0.06730
 3282.00000   59.76220  105.80560   20.14560   18.43280    0.05440    0.08330
 3282.50000   60.11560  104.66200   23.09940   19.58220    0.05590    0.08840
 3283.00000   59.21670  103.52760   22.81110   17.92880    0.04280    0.08360
 3283.50000   55.26020   99.23560   19.26760   15.75160    0.02750    0.06610
 3284.00000   53.18810   98.48940   15.01110   13.76730    0.01230    0.04290
 3284.50000   53.95560   98.87170   14.42670   12.66140    0.01300    0.03940
 3285.00000   56.80000   99.39760   14.95390   14.62330    0.01820    0.06260
 3285.50000   60.56370  100.92030   16.30490   16.45440    0.03150    0.07610
 3286.00000   64.23960  105.84350   18.63340   18.27310    0.04480    0.10770
 3286.50000   65.68060  107.00240   20.46670   20.75180    0.05320    0.12490
 3287.00000   63.79470  106.52340   22.24020   23.22570    0.07180    0.12220
 3287.50000   56.42340  103.34780   26.63500   27.87580    0.10610    0.10870
 3288.00000   45.90120   97.25220   35.08940   34.84120    0.14700   -0.00550
 3288.50000   45.57070   88.28090   35.91480   39.21310    0.16550   -0.01730
 3289.00000   45.66600   88.21090   34.76280   38.52780    0.15010   -0.01980
 3289.50000   45.71010   88.86450   29.96240   33.62070    0.09180   -0.01910
 3290.00000   45.75410   90.25800   24.21220   25.07400    0.04860   -0.01840
 3290.50000   48.99270   92.23610   20.03720   18.81920    0.01660   -0.01770
 3291.00000   52.07010   94.21430   16.54170   14.98920    0.00450    0.01630
 3291.50000   55.78100   98.02340   15.43400   13.04140    0.00290    0.03710
 3292.00000   59.49190  102.08240   16.16180   12.97990    0.00540    0.06350
 3292.50000   63.39490  105.32460   17.33460   13.06430    0.01030    0.09120
 3293.00000   67.22250  108.03350   17.02180   13.13780    0.01050    0.12440
 3293.50000   70.49370  110.68600   14.15020   12.77090    0.00880    0.15020
 3294.00000   73.67560  113.22610   12.03410   12.94770    0.00690    0.17530
 3294.50000   76.72700  117.45770   12.03020   13.11370    0.00740    0.19870
 3295.00000   78.79920  122.05490   12.75720   14.60420    0.01000    0.21610
 3295.50000   80.55380  124.90460   15.31790   16.95910    0.02560    0.23040
 3296.00000   78.75830  126.06540   19.31480   21.94310    0.04120    0.23070
 3296.50000   76.66380  125.71690   23.81760   25.65700    0.08490    0.21080
 3297.00000   74.04800  124.65830   26.57270   27.60320    0.09310    0.18990
 3297.50000   70.95340  121.14420   26.46600   25.91610    0.08570    0.16840
 3298.00000   69.31190  118.31130   24.89220   23.53430    0.06510    0.15140
 3298.50000   68.28580  115.95870   22.78360   22.22910    0.05040    0.14470
 3299.00000   66.92360  113.22360   23.32070   25.36290    0.05430    0.13590
 3299.50000   65.35640  111.63180   28.93990   31.13920    0.08150    0.12610
 3300.00000   65.01710  110.95490   35.38980   40.49680    0.16200    0.12290
 3300.50000   65.09300  110.81060   41.80300   40.13120    0.19940    0.12430
 3301.00000   64.61100  111.65080   41.38270   36.86590    0.17060    0.12060
 3301.50000   64.51820  112.49100   33.99120   31.51340    0.12320    0.11750
 3302.00000   65.93540  115.00240   26.40130   26.16080    0.08460    0.13010
 3302.50000   66.22740  116.64700   22.85170   24.56660    0.06370    0.13260
