~Version ---------------------------------------------------
VERS.   2.0 : CWLS log ASCII Standard -VERSION 2.0
WRAP.    NO : One line per depth step
DLM . SPACE : Column Data Section Delimiter
~Well ------------------------------------------------------
STRT .FT                   7.0 : START DEPTH
STOP .FT                3990.0 : STOP DEPTH
STEP .FT                   0.5 : STEP
NULL .                -9999.25 : NULL VALUE
COMP .                         : COMPANY
WELL .                         : WELL
FLD  .                         : FIELD
LOC  .                         : LOCATION
PROV .                         : PROVINCE
CNTY .                         : COUNTY
STAT .                         : STATE
CTRY .                         : COUNTRY
SRVC .                         : SERVICE COMPANY
DATE .                         : DATE
UWI  .                         : UNIQUE WELL ID
API  .                         : API NUMBER
SLAT .WGS84 2.9077605796239965 : SURFACE LATITUDE
SLON .WGS84  6.372655013293993 : SURFACE LONGITUDE
DATUM.F                2884.15 : DEPTH DATUM ELEV
~Curve Information -----------------------------------------
DEPT   .FT    : DEPTH FEET
DTCO   .US/F  : DELTA TIME COMPRESSIONAL FROM SDT LOG
DTSM   .US/F  : DELTA TIME SHEAR WAVE FROM SDT LOG
GRD    .GAPI  : GAMMA RAY FROM CNL LOG
GRS    .GAPI  : GAMMA RAY FROM SDT LOG
NPHI_LS.DEC   : NEUTRON POROSITY LIMESTONE FROM CNL LOG
SPHI_LS.DEC   : SONIC POROSITY LIMESTONE [DTM=47.6, DTF=189] FROM SDT LOG
~Params ----------------------------------------------------
~Other -----------------------------------------------------
~ASCII -----------------------------------------------------
# ...
 2839.50000   69.33460  131.97390   31.46400   32.81890    0.01930    0.15260
 2840.00000   70.60620  135.98170   26.69180   28.14670    0.01130    0.16180
 2840.50000   72.13910  139.98950   27.50680   27.43000    0.03790    0.17230
 2841.00000   74.01610  143.44120   32.67130   30.82820    0.07740    0.18490
 2841.50000   75.70760  143.85520   37.62110   36.31330    0.11380    0.19750
 2842.00000   76.45590  138.50320   39.33460   40.29970    0.11120    0.20330
 2842.50000   75.43010  124.70110   40.65040   43.58840    0.09260    0.19680
 2843.00000   73.85780  115.78350   41.90540   43.45160    0.06550    0.18840
 2843.50000   71.88990  110.15020   43.51920   43.48050    0.05310    0.17180
 2844.00000   69.04850  104.51680   45.48210   44.92590    0.04740    0.15230
 2844.50000   66.79950  101.49160   45.74310   44.81990    0.04370    0.13680
 2845.00000   65.32910   99.49440   44.22580   44.71400    0.04010    0.12780
 2845.50000   64.17090   97.49720   42.70850   44.68580    0.03640    0.11930
 2846.00000   61.94760   95.50000   41.67620   44.65400    0.03180    0.10490
 2846.50000   60.28530   93.50280   40.68640   42.83100    0.02730    0.09390
 2847.00000   60.28580   92.63650   39.69660   40.89540    0.02590    0.08960
 2847.50000   60.36140   92.10040   39.17120   39.73550    0.02610    0.08990
 2848.00000   61.29550   92.09870   39.50730   39.57320    0.03010    0.09670
 2848.50000   63.51750   96.17140   42.08570   41.05170    0.03910    0.10620
 2849.00000   66.32350  100.19970   42.92950   41.96100    0.05310    0.12470
 2849.50000   68.34790  104.22790   42.94500   42.90310    0.06440    0.14340
 2850.00000   66.63380  105.35290   42.91360   43.72300    0.10300    0.15080
 2850.50000   56.03720   92.53640   43.87330   44.72000    0.14290    0.06590
 2851.00000   51.43340   81.37330   48.00430   46.49090    0.16670    0.02750
 2851.50000   51.36790   80.04030   51.01050   48.36760    0.17060    0.02630
 2852.00000   50.64000   77.91980   50.98130   49.24630    0.14110    0.02370
 2852.50000   49.67640   77.91650   48.84100   46.38650    0.09880    0.01670
 2853.00000   50.58560   78.80090   47.10690   44.20100    0.08010    0.01380
 2853.50000   55.62190   83.92240   45.37400   42.03120    0.07800    0.04980
 2854.00000   60.89040   96.92530   43.10460   39.94550    0.07490    0.08890
 2854.50000   66.15900  101.52740   39.07200   38.18630    0.06620    0.12810
 2855.00000   65.61790   99.43300   38.07720   36.83360    0.05620    0.12680
 2855.50000   62.81860   94.35450   38.07720   37.91650    0.06650    0.11050
 2856.00000   57.21250   88.58220   39.35220   40.36810    0.08550    0.09780
 2856.50000   52.41610   80.68310   40.39170   42.78190    0.11430    0.05180
 2857.00000   48.80370   77.10100   41.65390   44.26900    0.12460    0.00620
 2857.50000   47.55210   76.62090   43.86030   44.36250    0.13740    0.00050
 2858.00000   46.80980   77.08220   46.85240   44.43890    0.15360   -0.00400
 2858.50000   46.44890   78.65190   48.95870   44.38470    0.16760   -0.00710
 2859.00000   46.52370   80.83750   48.66790   44.91150    0.18350   -0.00880
 2859.50000   47.07680   83.02310   48.37710   46.57330    0.20590   -0.00620
 2860.00000   48.60570   85.62740   48.08630   47.87870    0.23560    0.00280
 2860.50000   50.14960   89.96560   47.79540   48.15410    0.24940    0.01500
 2861.00000   51.37950   90.18640   47.50460   46.77170    0.22810    0.02510
 2861.50000   52.38360   91.41980   46.24270   45.39040    0.19180    0.03250
 2862.00000   51.51740   92.39550   44.19490   44.33190    0.16770    0.03240
 2862.50000   50.00610   89.38010   42.81070   44.57190    0.15600    0.02260
 2863.00000   48.85840   86.36470   42.57700   44.56790    0.14850    0.01270
 2863.50000   47.71620   83.30180   43.25540   44.92260    0.13840    0.00300
 2864.00000   46.18340   79.38780   44.43540   44.83440    0.12770   -0.00690
 2864.50000   46.18440   78.67390   45.08860   43.99340    0.12580   -0.00890
 2865.00000   46.43810   77.96000   45.36880   43.06510    0.13520   -0.00720
 2865.50000   46.69180   77.28360   45.22180   42.14020    0.14560   -0.00540
 2866.00000   46.94550   76.98880   44.69970   40.20370    0.13420   -0.00430
 2866.50000   47.11050   76.69400   43.26920   37.35180    0.10750   -0.00430
 2867.00000   46.92050   75.97130   40.26060   34.76280    0.07690   -0.00430
 2867.50000   46.48950   74.52700   35.90570   32.34660    0.03840   -0.00660
 2868.00000   45.74070   70.92020   32.90770   30.11470    0.02510   -0.00960
 2868.50000   45.60750   68.50410   30.20000   27.42780    0.02000   -0.01270
 2869.00000   46.21870   69.95300   27.49230   25.93290    0.01620   -0.01140
 2869.50000   46.88230   73.78530   25.30060   24.97980    0.01680   -0.00560
 2870.00000   47.69600   77.61750   26.15630   25.16630    0.02730    0.00250
 2870.50000   48.50980   79.29600   28.68290   28.72340    0.06370    0.00840
 2871.00000   49.32360   77.14220   32.03350   32.28050    0.10180    0.01290
 2871.50000   48.86230   76.35820   34.56150   35.09450    0.10990    0.01060
 2872.00000   50.11380   76.85110   34.72720   35.80370    0.08300    0.00670
 2872.50000   57.15070   91.86930   34.32670   35.37220    0.05490    0.06020
 2873.00000   64.18750  101.20790   34.05570   34.72080    0.02960    0.10960
 2873.50000   65.00950  100.33950   33.99140   34.04670    0.02090    0.12810
 2874.00000   62.24300   94.81980   34.31090   33.93900    0.02090    0.10610
 2874.50000   60.59180   90.30370   34.88450   34.30720    0.02530    0.09150
 2875.00000   60.23800   89.86870   35.63040   35.53910    0.02960    0.08900
 2875.50000   60.17960   89.63270   37.09360   36.82340    0.03470    0.08900
 2876.00000   61.02160   89.85430   38.71090   36.81680    0.04200    0.09600
 2876.50000   64.09050  100.97060   38.40700   36.55240    0.04960    0.11330
 2877.00000   67.15930  105.15910   37.39340   35.50580    0.06250    0.13300
 2877.50000   67.90600  104.45960   36.37970   34.53790    0.08610    0.14880
 2878.00000   63.50640   92.46070   36.84860   35.19290    0.12640    0.11000
 2878.50000   54.84840   83.50080   37.83120   37.15850    0.17230    0.06110
 2879.00000   52.37950   84.00520   39.26720   39.12350    0.21960    0.03320
 2879.50000   52.75930   85.11100   41.49570   40.78470    0.23650    0.03300
 2880.00000   53.22410   91.63530   44.60710   42.54830    0.24320    0.03670
 2880.50000   53.68880   90.61000   45.72050   44.16860    0.26140    0.04090
 2881.00000   54.33910   90.38640   45.55580   44.81070    0.27050    0.04490
 2881.50000   54.93880   90.16280   39.83680   43.89040    0.25200    0.04870
 2882.00000   54.50900   89.95820   35.76830   39.88330    0.20070    0.04930
 2882.50000   53.85800   89.83780   28.02350   34.88170    0.15210    0.04490
 2883.00000   53.20690   90.10670   25.87650   29.64200    0.10980    0.04000
 2883.50000   53.37700   97.68780   21.73490   24.29880    0.07380    0.03810
 2884.00000   61.23320  119.20200   19.51300   19.89790    0.04740    0.09950
 2884.50000   70.49110  122.10180   18.80180   16.41500    0.03040    0.17480
 2885.00000   71.93440  118.72160   21.69720   16.23100    0.02660    0.17500
 2885.50000   70.90940  114.75130   26.52800   18.74570    0.02640    0.16810
 2886.00000   69.88440  110.59560   30.36950   24.16830    0.02680    0.16110
 2886.50000   66.58580  104.35110   33.42310   29.52860    0.02810    0.13430
 2887.00000   63.89910   98.10660   36.39430   34.49870    0.03020    0.10770
 2887.50000   61.21240   89.39230   39.04070   37.59660    0.03270    0.08090
 2888.00000   58.52570   80.15830   39.18990   38.45500    0.03920    0.05420
 2888.50000   49.51250   73.37080   38.91140   36.38390    0.05120    0.02550
 2889.00000   48.49290   75.51900   34.90070   32.03350    0.05620    0.00700
 2889.50000   50.80240   83.22660   28.66020   27.00700    0.04650    0.01150
 2890.00000   53.68860   94.76070   19.80960   21.93090    0.03200    0.02990
 2890.50000   56.57480  100.66360   13.36160   15.22140    0.01070    0.04210
