~Version ---------------------------------------------------
VERS.   2.0 : CWLS log ASCII Standard -VERSION 2.0
WRAP.    NO : One line per depth step
DLM . SPACE : Column Data Section Delimiter
~Well ------------------------------------------------------
STRT .FT                   7.0 : START DEPTH
STOP .FT                3990.0 : STOP DEPTH
STEP .FT                   0.5 : STEP
NULL .                -9999.25 : NULL VALUE
COMP .                         : COMPANY
WELL .                         : WELL
FLD  .                         : FIELD
LOC  .                         : LOCATION
PROV .                         : PROVINCE
CNTY .                         : COUNTY
STAT .                         : STATE
CTRY .                         : COUNTRY
SRVC .                         : SERVICE COMPANY
DATE .                         : DATE
UWI  .                         : UNIQUE WELL ID
API  .                         : API NUMBER
SLAT .WGS84 2.9077605796239965 : SURFACE LATITUDE
SLON .WGS84  6.372655013293993 : SURFACE LONGITUDE
DATUM.F                2884.15 : DEPTH DATUM ELEV
~Curve Information -----------------------------------------
DEPT   .FT    : DEPTH FEET
DTCO   .US/F  : DELTA TIME COMPRESSIONAL FROM SDT LOG
DTSM   .US/F  : DELTA TIME SHEAR WAVE FROM SDT LOG
GRD    .GAPI  : GAMMA RAY FROM CNL LOG
GRS    .GAPI  : GAMMA RAY FROM SDT LOG
NPHI_LS.DEC   : NEUTRON POROSITY LIMESTONE FROM CNL LOG
SPHI_LS.DEC   : SONIC POROSITY LIMESTONE [DTM=47.6, DTF=189] FROM SDT LOG
~Params ----------------------------------------------------
~Other -----------------------------------------------------
~ASCII -----------------------------------------------------
# ...
 3354.50000   83.27740  148.57650   45.04520   40.13820    0.23120    0.24970
 3355.00000   83.99860  144.81560   44.89120   42.60780    0.24330    0.25720
 3355.50000   82.33150  139.89600   44.73720   43.36310    0.23470    0.24910
 3356.00000   79.88840  134.97640   44.28770   43.44270    0.21110    0.22940
 3356.50000   77.33250  130.05690   40.53360   42.44530    0.18460    0.20980
 3357.00000   73.80340  126.01750   37.55380   40.06320    0.16100    0.18770
 3357.50000   70.52330  122.04420   34.57390   36.96000    0.13720    0.16220
 3358.00000   67.24320  112.74310   32.87420   33.99750    0.10800    0.13670
 3358.50000   63.57430  109.60680   33.49920   32.40320    0.08670    0.11110
 3359.00000   62.48640  110.56530   34.74190   32.05760    0.07160    0.10040
 3359.50000   62.02360  111.55250   35.46130   32.06590    0.07080    0.10130
 3360.00000   62.19350  110.90570   35.09780   31.61990    0.07090    0.10430
 3360.50000   62.11200  110.11600   34.41880   30.48980    0.06990    0.10710
 3361.00000   62.94490  110.32830   34.10390   30.04310    0.06690    0.11000
 3361.50000   64.00630  113.82610   33.99260   30.03440    0.06690    0.11520
 3362.00000   65.06770  124.36770   35.13510   30.33620    0.07890    0.12200
 3362.50000   66.57410  128.16190   36.36540   33.20750    0.09300    0.13340
 3363.00000   68.19180  131.23710   37.59570   36.42380    0.11760    0.14440
 3363.50000   69.80960  133.18470   38.82590   40.30300    0.12950    0.15740
 3364.00000   71.42730  133.85280   39.95040   43.24260    0.13300    0.16910
 3364.50000   72.88640  134.73170   40.65700   44.65860    0.13500    0.18170
 3365.00000   74.37330  135.79270   41.36370   44.66710    0.14210    0.18820
 3365.50000   74.71590  138.69000   42.07030   43.09730    0.15310    0.19380
 3366.00000   74.53150  141.75150   42.77690   41.35800    0.16010    0.19650
 3366.50000   77.83450  143.32980   43.48360   41.82160    0.16470    0.21210
 3367.00000   81.13750  143.26240   44.32840   43.37440    0.17030    0.23400
 3367.50000   74.03730  127.80130   45.34850   44.91210    0.17820    0.21820
 3368.00000   65.31200  100.49690   44.81220   44.75750    0.17960    0.12630
 3368.50000   56.58670   91.57930   42.56330   42.57660    0.16400    0.05490
 3369.00000   51.41950   96.20380   39.88880   39.56060    0.14170    0.02700
 3369.50000   59.53610  109.03250   37.21430   37.89860    0.11850    0.07350
 3370.00000   66.07340  121.71360   35.07490   37.67510    0.11220    0.11370
 3370.50000   69.64190  121.94490   35.04770   37.43250    0.11320    0.14470
 3371.00000   71.11580  120.49630   35.44300   36.43550    0.11390    0.16450
 3371.50000   70.25010  119.40800   35.44300   34.22620    0.10430    0.16100
 3372.00000   69.16870  120.09280   33.29540   31.35340    0.09050    0.15340
 3372.50000   69.29640  121.54960   29.38640   29.78700    0.08190    0.15280
 3373.00000   71.01980  122.46530   29.21390   29.75560    0.08040    0.16450
 3373.50000   69.52410  118.35090   29.11130   29.74060    0.07960    0.17170
 3374.00000   64.11490  102.09550   27.41860   28.69850    0.07090    0.13750
 3374.50000   60.66180  102.00850   23.36420   26.57210    0.05370    0.10450
 3375.00000   58.82450  102.73340   19.41890   23.21710    0.03560    0.08080
 3375.50000   57.53120  103.22240   16.08880   19.96470    0.02600    0.07120
 3376.00000   57.55470  103.55200   14.69640   18.40230    0.02080    0.07030
 3376.50000   58.42740  103.57060   17.80140   18.83430    0.02300    0.07760
 3377.00000   58.34240  102.76450   20.99750   20.42980    0.02770    0.07540
 3377.50000   57.91600  101.77000   24.33320   22.66600    0.03670    0.07310
 3378.00000   57.49870  100.78730   27.81600   24.82650    0.04820    0.07210
 3378.50000   56.66110   99.83290   28.25650   24.65170    0.05500    0.06210
 3379.00000   55.84840   98.92200   26.99710   23.00050    0.05250    0.05980
 3379.50000   56.72380   93.59250   24.28060   21.11090    0.04840    0.06370
 3380.00000   57.44460   93.20150   21.39120   19.68420    0.04780    0.06920
 3380.50000   54.83790   92.93890   19.11120   20.02310    0.05070    0.06000
 3381.00000   54.42530   94.35450   18.51150   20.62550    0.05770    0.04890
 3381.50000   56.09070   98.42450   17.91000   20.76090    0.06750    0.05280
 3382.00000   58.18900  101.22710   17.62520   20.60850    0.07430    0.06850
 3382.50000   59.73390  102.15740   17.25280   19.28390    0.07660    0.08600
 3383.00000   59.07800  103.08770   17.09100   18.51710    0.07430    0.08620
 3383.50000   57.67330  104.01810   17.14050   17.77240    0.07010    0.07250
 3384.00000   57.20030  104.94840   17.34210   17.71060    0.06900    0.06730
 3384.50000   56.81500  105.87870   17.52910   18.43450    0.08110    0.06700
 3385.00000   54.43270  106.80910   18.28560   19.69750    0.09150    0.05250
 3385.50000   52.79270  107.73940   19.90270   21.37340    0.09690    0.03790
 3386.00000   54.17370  108.20200   21.79670   23.76610    0.10020    0.03500
 3386.50000   57.43620  107.44590   23.64890   23.81400    0.09950    0.05900
 3387.00000   58.08930  103.64060   25.21250   23.93850    0.09570    0.07300
 3387.50000   55.90230   96.52080   26.77620   24.65790    0.08490    0.05840
 3388.00000   55.94110   97.48380   28.33980   26.01610    0.07200    0.05270
 3388.50000   62.27350  102.07960   29.90350   28.24470    0.05650    0.09190
 3389.00000   68.74650  109.63000   31.87050   30.40830    0.06500    0.14070
 3389.50000   75.21950  116.89570   34.34790   32.63350    0.07900    0.18930
 3390.00000   81.69240  124.16140   38.05090   37.68650    0.10270    0.23820
 3390.50000   88.68780  126.06190   42.59060   43.25840    0.12580    0.29940
 3391.00000   95.68320  126.68560   47.43890   48.22690    0.15050    0.34300
 3391.50000   95.49450  127.28250   52.28730   50.83160    0.19850    0.34200
 3392.00000   90.63570  127.87940   52.98020   51.01500    0.23300    0.30390
 3392.50000   87.60560  128.39890   50.16700   48.35350    0.22400    0.29250
 3393.00000   88.89490  128.87270   44.42810   45.56180    0.18410    0.28850
 3393.50000   90.50250  129.34650   40.13020   44.76970    0.13980    0.29880
 3394.00000   89.63770  127.77990   40.16180   44.44940    0.14540    0.29940
 3394.50000   85.43000  122.62270   42.63770   43.89900    0.16910    0.28500
 3395.00000   77.47730  107.43140   43.26030   41.24490    0.17370    0.26400
 3395.50000   66.32510   91.42370   40.71040   38.14400    0.15770    0.11490
 3396.00000   56.69360   79.16300   36.35270   35.47610    0.13070    0.05590
 3396.50000   50.39460   78.00500   32.15570   33.59050    0.11180    0.01670
 3397.00000   49.91560   79.41610   32.11210   33.57670    0.09950    0.01270
 3397.50000   51.95830   81.64910   34.14610   34.13210    0.09530    0.02840
 3398.00000   53.72920   85.84600   35.46150   34.37340    0.10130    0.03790
 3398.50000   54.85620   90.73740   35.55250   34.62600    0.11180    0.04670
 3399.00000   55.83310   95.62880   35.56140   34.69790    0.11610    0.05540
 3399.50000   56.95530  100.52020   36.66290   34.53650    0.11890    0.06770
 3400.00000   60.58680  114.43000   37.17270   34.40080    0.11800    0.09710
 3400.50000   64.84560  120.22300   37.30850   34.23620    0.11350    0.11570
 3401.00000   66.66070  119.83960   33.77680   33.60230    0.10570    0.13430
 3401.50000   66.16890  117.51140   30.20390   30.79020    0.09350    0.12440
 3402.00000   62.79630  112.50700   24.01520   26.52730    0.08190    0.09290
 3402.50000   57.69840  110.52240   19.07250   22.32420    0.07370    0.06150
 3403.00000   53.33520  109.65320   18.06740   19.73910    0.07280    0.04080
 3403.50000   53.58550  109.37380   18.28460   18.46500    0.07350    0.04160
 3404.00000   53.83590  109.09450   18.78550   19.00680    0.07360    0.04330
 3404.50000   54.39100  108.83620   21.99670   19.92390    0.07290    0.04810
 3405.00000   55.16750  108.60190   22.15710   20.82200    0.07010    0.05510
 3405.50000   55.61830  108.36770   21.98690   21.03370    0.05870    0.05810
