~Version ---------------------------------------------------
VERS.   2.0 : CWLS log ASCII Standard -VERSION 2.0
WRAP.    NO : One line per depth step
DLM . SPACE : Column Data Section Delimiter
~Well ------------------------------------------------------
STRT .FT                   7.0 : START DEPTH
STOP .FT                3990.0 : STOP DEPTH
STEP .FT                   0.5 : STEP
NULL .                -9999.25 : NULL VALUE
COMP .                         : COMPANY
WELL .                         : WELL
FLD  .                         : FIELD
LOC  .                         : LOCATION
PROV .                         : PROVINCE
CNTY .                         : COUNTY
STAT .                         : STATE
CTRY .                         : COUNTRY
SRVC .                         : SERVICE COMPANY
DATE .                         : DATE
UWI  .                         : UNIQUE WELL ID
API  .                         : API NUMBER
SLAT .WGS84 2.9077605796239965 : SURFACE LATITUDE
SLON .WGS84  6.372655013293993 : SURFACE LONGITUDE
DATUM.F                2884.15 : DEPTH DATUM ELEV
~Curve Information -----------------------------------------
DEPT   .FT    : DEPTH FEET
DTCO   .US/F  : DELTA TIME COMPRESSIONAL FROM SDT LOG
DTSM   .US/F  : DELTA TIME SHEAR WAVE FROM SDT LOG
GRD    .GAPI  : GAMMA RAY FROM CNL LOG
GRS    .GAPI  : GAMMA RAY FROM SDT LOG
NPHI_LS.DEC   : NEUTRON POROSITY LIMESTONE FROM CNL LOG
SPHI_LS.DEC   : SONIC POROSITY LIMESTONE [DTM=47.6, DTF=189] FROM SDT LOG
~Params ----------------------------------------------------
~Other -----------------------------------------------------
~ASCII -----------------------------------------------------
# ...
 3715.00000   59.60950  106.28370   35.09800   30.51860    0.09200    0.08710
 3715.50000   59.78380  104.48660   35.90150   33.18580    0.08530    0.08760
 3716.00000   58.60420  101.74110   35.91970   35.54810    0.08480    0.07840
 3716.50000   56.16870   99.03060   31.84930   33.36210    0.08260    0.06560
 3717.00000   54.43580   96.38830   26.37810   27.73400    0.06890    0.05230
 3717.50000   52.82640   93.87160   21.13470   21.34040    0.05840    0.03880
 3718.00000   51.91800   93.88170   15.39230   16.15150    0.05820    0.03290
 3718.50000   51.73630   93.89170   16.17840   14.95860    0.07030    0.03020
 3719.00000   52.17670   94.49790   16.95780   15.17890    0.08290    0.03290
 3719.50000   52.69240   95.57070   17.49380   15.46630    0.09510    0.03680
 3720.00000   53.58400   97.87810   16.67530   15.64420    0.10260    0.04060
 3720.50000   54.81490  100.44690   15.17770   15.91790    0.10840    0.05140
 3721.00000   56.24430  102.18890   16.18210   16.03970    0.11790    0.06230
 3721.50000   58.34010  103.93100   18.19830   16.14710    0.14040    0.07310
 3722.00000   59.47940  104.74550   20.21450   18.52240    0.17600    0.08320
 3722.50000   60.18660  104.82830   22.09000   21.54660    0.21210    0.08890
 3723.00000   59.84250  102.95330   23.45680   23.06700    0.23020    0.08680
 3723.50000   59.03690  100.84470   23.86740   23.50210    0.20030    0.07940
 3724.00000   57.79510   98.87640   23.98250   23.84850    0.16270    0.07370
 3724.50000   56.78300   98.17520   23.99960   24.15370    0.13180    0.06500
 3725.00000   56.13400   98.12430   24.01440   23.80410    0.12770    0.05970
 3725.50000   55.28440   99.08590   23.82190   22.06800    0.13950    0.05530
 3726.00000   55.11530  100.04740   22.98610   19.43990    0.16370    0.05270
 3726.50000   55.83270  101.00890   20.02910   16.83050    0.17380    0.05800
 3727.00000   56.58720  101.97040   18.20630   16.49720    0.18230    0.06340
 3727.50000   56.98790  103.03600   17.52420   16.98900    0.19180    0.06580
 3728.00000   57.10360  105.17700   16.89080   16.46700    0.20760    0.06850
 3728.50000   57.43980  109.34080   16.33900   15.34660    0.21880    0.07240
 3729.00000   58.75360  110.00080   15.90410   16.12570    0.22640    0.08210
 3729.50000   59.81150  110.31060   17.47560   18.73640    0.22850    0.08750
 3730.00000   59.74660  110.57930   19.68390   20.78490    0.22160    0.08970
 3730.50000   59.52640  111.02560   23.09470   25.44660    0.21200    0.08440
 3731.00000   60.56780  111.91280   25.93540   27.03960    0.19900    0.09030
 3731.50000   61.95920  112.80000   28.12050   29.57090    0.18820    0.10450
 3732.00000   63.40900  113.68730   30.65030   32.07050    0.19960    0.11420
 3732.50000   65.40050  114.57450   32.45360   33.03650    0.21120    0.12530
 3733.00000   66.70670  115.46170   31.95530   32.75850    0.22460    0.13240
 3733.50000   66.83840  115.82380   29.92310   30.02660    0.23730    0.13660
 3734.00000   66.89950  115.35250   27.64620   27.31760    0.24850    0.13350
 3734.50000   65.50880  111.28530   25.67020   23.92990    0.25510    0.12500
 3735.00000   64.11820  107.21810   23.95440   23.15500    0.24700    0.11270
 3735.50000   61.79040  103.15090   22.65120   22.28580    0.22430    0.10060
 3736.00000   59.22830  101.21230   22.11240   21.74330    0.18720    0.08840
 3736.50000   57.11880  104.50870   22.43110   22.26440    0.15010    0.07620
 3737.00000   56.87970  107.80520   24.72800   23.80450    0.13870    0.06630
 3737.50000   57.55790  110.02310   26.22400   25.34470    0.16060    0.07080
 3738.00000   58.92350  110.50950   25.87430   24.61840    0.19600    0.07980
 3738.50000   60.65970  110.35350   22.66070   20.58340    0.24280    0.08870
 3739.00000   61.70670  109.86230   19.91190   18.39500    0.25600    0.09770
 3739.50000   61.70890  109.04460   18.46810   16.89440    0.25650    0.10210
 3740.00000   61.15550  106.52390   18.02810   16.48250    0.23900    0.09970
 3740.50000   60.60220  103.08120   19.41130   17.17330    0.21650    0.09350
 3741.00000   59.87810  101.11780   21.69070   18.73650    0.19850    0.08740
 3741.50000   59.30430  100.80010   23.97010   20.52220    0.19380    0.08120
 3742.00000   58.92290  101.07880   26.15050   22.32620    0.19350    0.07750
 3742.50000   58.10450  101.70380   28.29180   24.11190    0.20770    0.07340
 3743.00000   57.41660  102.28930   30.28870   25.71380    0.21370    0.06920
 3743.50000   57.41620  102.78930   31.26090   27.51490    0.21120    0.06920
 3744.00000   57.85970  103.28930   30.95450   28.84070    0.20580    0.07250
 3744.50000   58.39140  103.86260   28.64980   28.16240    0.20080    0.07760
 3745.00000   59.39590  105.99230   25.23320   27.87940    0.20290    0.08380
 3745.50000   60.51480  108.12210   23.43150   26.40280    0.20850    0.09000
 3746.00000   60.78770  110.24910   22.12980   24.08190    0.21160    0.09340
 3746.50000   60.91820  112.11180   23.16630   23.00640    0.20550    0.09450
 3747.00000   61.88500  113.52440   24.20280   23.37510    0.19200    0.10370
 3747.50000   63.68280  114.13910   25.18810   24.58320    0.19350    0.11770
 3748.00000   65.63710  114.85710   25.17900   26.36170    0.19720    0.13190
 3748.50000   66.81020  115.57510   24.98270   27.76980    0.20480    0.13480
 3749.00000   66.04410  115.91690   24.78640   26.45000    0.21210    0.13070
 3749.50000   65.49170  116.08520   24.59010   23.19070    0.21510    0.12840
 3750.00000   65.79400  116.25240   24.49830   19.93580    0.20940    0.12940
 3750.50000   65.68650  116.58080   24.49830   18.83480    0.20480    0.12820
 3751.00000   65.38210  117.07450   24.61510   20.18640    0.21340    0.12700
 3751.50000   65.59680  117.88670   25.06140   22.45940    0.22740    0.13140
 3752.00000   66.75500  115.00910   25.41490   24.30880    0.23870    0.14000
 3752.50000   68.46180  113.49000   25.74430   26.13970    0.23060    0.14700
 3753.00000   68.58720  113.81980   26.04340   27.42890    0.21880    0.14700
 3753.50000   68.35240  113.94890   25.94180   27.01290    0.20800    0.14460
 3754.00000   66.17050  113.22780   24.31490   24.13530    0.21340    0.13290
 3754.50000   63.98850  112.27920   22.32120   21.00470    0.22030    0.12130
 3755.00000   63.99090  112.81860   20.32740   18.00440    0.21870    0.11680
 3755.50000   64.43090  113.35790   18.33370   17.51370    0.21100    0.11830
 3756.00000   64.77260  113.82590   17.50670   18.66120    0.20600    0.12070
 3756.50000   64.72410  113.73460   17.72440   19.33070    0.20710    0.12070
 3757.00000   64.67010  113.64340   18.27320   19.31070    0.20970    0.11990
 3757.50000   64.61600  113.18780   18.83600   19.30900    0.20260    0.11800
 3758.00000   64.19790  111.32830   19.36900   19.28910    0.19470    0.11590
 3758.50000   63.36450  109.68000   19.90200   19.28740    0.19070    0.11250
 3759.00000   62.22000  109.41330   20.43510   20.11800    0.19620    0.10490
 3759.50000   61.82850  109.59840   20.45640   20.66270    0.20640    0.09680
 3760.00000   60.31460  109.08360   19.40280   19.37780    0.22460    0.08740
 3760.50000   58.34050  105.39310   17.54890   17.73170    0.23640    0.07850
 3761.00000   57.57310  105.80410   17.05040   16.69510    0.22320    0.06960
 3761.50000   58.39200  109.01830   19.25310   17.57820    0.19440    0.07280
 3762.00000   60.50410  114.59760   23.55360   23.86870    0.16120    0.08460
 3762.50000   64.79480  121.74210   42.15910   34.00170    0.15880    0.12590
 3763.00000   68.20670  128.03230   53.78840   48.44220    0.18000    0.14760
 3763.50000   69.53980  127.82600   57.97910   56.18030    0.21280    0.15500
 3764.00000   69.54040  118.50110   52.37250   50.58440    0.23580    0.14910
 3764.50000   66.97230  110.81870   40.02100   39.72690    0.22520    0.13950
 3765.00000   64.89930  111.07860   31.95200   32.04960    0.20720    0.12630
 3765.50000   63.25410  111.05620   29.66320   29.26820    0.19410    0.11270
 3766.00000   62.80370  111.00410   29.44920   28.79340    0.19420    0.10890
