~Version ---------------------------------------------------
VERS.   2.0 : CWLS log ASCII Standard -VERSION 2.0
WRAP.    NO : One line per depth step
DLM . SPACE : Column Data Section Delimiter
~Well ------------------------------------------------------
STRT .FT                   7.0 : START DEPTH
STOP .FT                3990.0 : STOP DEPTH
STEP .FT                   0.5 : STEP
NULL .                -9999.25 : NULL VALUE
COMP .                         : COMPANY
WELL .                         : WELL
FLD  .                         : FIELD
LOC  .                         : LOCATION
PROV .                         : PROVINCE
CNTY .                         : COUNTY
STAT .                         : STATE
CTRY .                         : COUNTRY
SRVC .                         : SERVICE COMPANY
DATE .                         : DATE
UWI  .                         : UNIQUE WELL ID
API  .                         : API NUMBER
SLAT .WGS84 2.9077605796239965 : SURFACE LATITUDE
SLON .WGS84  6.372655013293993 : SURFACE LONGITUDE
DATUM.F                2884.15 : DEPTH DATUM ELEV
~Curve Information -----------------------------------------
DEPT   .FT    : DEPTH FEET
DTCO   .US/F  : DELTA TIME COMPRESSIONAL FROM SDT LOG
DTSM   .US/F  : DELTA TIME SHEAR WAVE FROM SDT LOG
GRD    .GAPI  : GAMMA RAY FROM CNL LOG
GRS    .GAPI  : GAMMA RAY FROM SDT LOG
NPHI_LS.DEC   : NEUTRON POROSITY LIMESTONE FROM CNL LOG
SPHI_LS.DEC   : SONIC POROSITY LIMESTONE [DTM=47.6, DTF=189] FROM SDT LOG
~Params ----------------------------------------------------
~Other -----------------------------------------------------
~ASCII -----------------------------------------------------
# ...
 2685.00000   53.12120   85.23080   15.65360   18.31180    0.00550    0.03950
 2685.50000   53.19290   89.74770   15.74090   20.58810    0.02410    0.04080
 2686.00000   53.26460   90.42800   18.26190   26.14730    0.05620    0.04220
 2686.50000   53.66780   90.70440   25.81430   31.25720    0.13480    0.04450
 2687.00000   54.25020   90.58080   33.36680   36.22220    0.21810    0.04800
 2687.50000   54.60400   90.28220   40.91920   39.50340    0.26620    0.04900
 2688.00000   54.62280   89.73870   47.37360   40.19880    0.27510    0.04940
 2688.50000   54.64160   89.39950   48.19050   39.76730    0.25280    0.04980
 2689.00000   54.75520   89.24850   46.49460   38.85250    0.21490    0.05140
 2689.50000   54.93190   91.80730   44.24510   38.20750    0.17970    0.05340
 2690.00000   55.45900   96.49850   42.14680   38.42460    0.15140    0.05620
 2690.50000   56.51170   96.95780   41.94510   39.38930    0.15240    0.06320
 2691.00000   56.91400   96.73510   43.70920   40.66930    0.17530    0.06590
 2691.50000   56.44750   95.41010   45.46720   42.58550    0.20570    0.06460
 2692.00000   55.98100   93.91310   46.69130   43.90790    0.24820    0.06000
 2692.50000   55.51440   92.41600   47.91530   45.40950    0.27070    0.05570
 2693.00000   55.07490   90.91900   48.30230   47.25270    0.27670    0.05390
 2693.50000   55.14250   89.88590   47.82320   46.09220    0.26180    0.05390
 2694.00000   55.90490   89.34190   46.91560   43.23640    0.22560    0.06010
 2694.50000   57.34710   90.19370   45.10230   39.93810    0.17480    0.06820
 2695.00000   58.29290   91.50170   42.24280   37.16250    0.13020    0.07350
 2695.50000   58.96440   91.25170   39.38330   35.58040    0.09300    0.07890
 2696.00000   58.49870   90.83740   36.52390   35.42620    0.07370    0.08100
 2696.50000   57.43560   88.87820   36.26290   35.73350    0.05230    0.07250
 2697.00000   56.59950   86.91900   36.92310   35.89960    0.04650    0.06390
 2697.50000   55.99960   84.95980   38.59590   36.08200    0.05780    0.05990
 2698.00000   55.87740   83.00070   39.21430   36.97620    0.07920    0.05820
 2698.50000   55.87360   81.04150   39.55740   38.10750    0.10520    0.05750
 2699.00000   55.86980   80.60720   39.01200   38.57940    0.11130    0.05870
 2699.50000   55.97160   80.49260   37.32460   38.61240    0.09250    0.05990
 2700.00000   56.26320   82.02970   32.91920   36.24530    0.07100    0.06140
 2700.50000   56.62260   85.20070   27.59280   30.10670    0.04330    0.06160
 2701.00000   56.52240   89.47090   24.05230   26.56170    0.01050    0.06160
 2701.50000   56.24110   90.90640   23.29930   22.84110    0.00980    0.06160
 2702.00000   55.95990   90.85780   22.99370   20.27960    0.01940    0.05960
 2702.50000   55.65150   88.70170   22.80030   19.69810    0.04810    0.05730
 2703.00000   55.38470   84.62920   24.03770   21.87590    0.07910    0.05710
 2703.50000   55.41420   80.80680   25.56210   25.75700    0.10040    0.05750
 2704.00000   55.78080   83.06610   26.72070   28.76790    0.10060    0.05850
 2704.50000   55.68160   87.76600   25.46030   29.21460    0.06080    0.05950
 2705.00000   55.27190   90.49050   23.27500   26.11730    0.02230    0.05710
 2705.50000   55.05590   92.15100   20.16060   22.15240    0.00680    0.05490
 2706.00000   55.13060  101.43200   17.81090   18.88730    0.00030    0.05340
 2706.50000   55.02590  108.86990   15.94600   16.73630   -0.00330    0.05290
 2707.00000   54.87630  111.71840   15.52240   15.80240   -0.00470    0.05270
 2707.50000   54.72670  114.56690   14.96890   15.81650   -0.00590    0.05240
 2708.00000   54.77300  117.64910   14.31740   16.15320   -0.00710    0.05230
 2708.50000   54.86820  120.58660   13.98400   16.86880   -0.00860    0.05200
 2709.00000   54.96340  120.78600   13.98400   17.01360   -0.00860    0.05140
 2709.50000   54.72290  120.13160   14.08380   16.56850   -0.00520    0.04970
 2710.00000   54.48240  118.08290   14.22370   16.34270   -0.00030    0.04970
 2710.50000   54.63220  115.90610   15.27200   17.28250    0.01900    0.05090
 2711.00000   55.00870  113.41420   19.58850   18.79740    0.06570    0.05240
 2711.50000   55.03570  111.26210   23.97580   22.00970    0.12280    0.05280
 2712.00000   55.08100  111.06710   28.36300   25.86960    0.15810    0.05410
 2712.50000   55.32890  116.10300   29.36190   29.45650    0.13440    0.05550
 2713.00000   55.69550  120.66020   26.90250   30.84530    0.09890    0.05690
 2713.50000   56.01610  125.18260   24.14850   28.47220    0.03790    0.05830
 2714.00000   56.04690  123.53750   19.62290   23.21080    0.00930    0.05940
 2714.50000   56.05450  121.70520   14.91200   19.19330    0.00020    0.05960
 2715.00000   55.95730  121.31100   14.67790   16.31110   -0.00220    0.05910
 2715.50000   55.70070  120.68900   14.65130   14.90840   -0.00220    0.05680
 2716.00000   55.50800  120.06700   14.56440   14.89850   -0.00290    0.05460
 2716.50000   55.11300  119.44500   14.25930   15.13670   -0.00460    0.05230
 2717.00000   54.91930  118.87470   13.95430   15.45480   -0.00670    0.05140
 2717.50000   54.97780  118.32890   14.08200   15.47260   -0.00900    0.05190
 2718.00000   55.11490  116.76380   14.46730   14.96320   -0.01080    0.05270
 2718.50000   55.01190  114.53060   14.70900   14.25150   -0.01190    0.05150
 2719.00000   54.54850  112.29750   14.75530   13.22080   -0.01210    0.04950
 2719.50000   54.27080  110.06440   14.61730   12.86160   -0.01240    0.04740
 2720.00000   54.15020  107.87300   12.87490   13.58840   -0.01270    0.04630
 2720.50000   54.14900  105.75490   12.31290   14.17760   -0.01250    0.04580
 2721.00000   54.14780  103.63680   12.46520   14.14150   -0.01220    0.04580
 2721.50000   54.04120  101.51870   13.02960   13.63600   -0.01200    0.04530
 2722.00000   53.88750   99.54340   13.44980   12.97490   -0.01180    0.04400
 2722.50000   53.88240   97.92960   13.87010   13.04340   -0.01160    0.04400
 2723.00000   54.15890   96.31580   14.19420   13.11180   -0.01130    0.04650
 2723.50000   54.48170   94.70200   14.84290   13.97170   -0.01110    0.04870
 2724.00000   54.69880   93.08820   15.49160   14.57000   -0.00900    0.05010
 2724.50000   54.98640   92.49040   16.14030   15.04910   -0.00370    0.05280
 2725.00000   55.69360   93.76190   16.78890   15.99330    0.01000    0.05900
 2725.50000   56.93520   97.49560   17.43760   17.17290    0.03350    0.06770
 2726.00000   57.48750  106.00580   18.76660   18.96330    0.05730    0.07140
 2726.50000   57.26990  115.40680   20.65680   21.08580    0.07390    0.06950
 2727.00000   57.05230  120.53540   24.46900   23.91840    0.06970    0.06730
 2727.50000   56.48710  119.20610   28.81000   28.23860    0.06550    0.06290
 2728.00000   55.59290  109.83630   37.17780   31.17220    0.07300    0.05650
 2728.50000   55.41550   99.62030   41.62270   35.57920    0.08950    0.05700
 2729.00000   56.61210  104.80920   43.66720   38.61940    0.09850    0.06320
 2729.50000   57.05300  103.08920   43.20130   39.24740    0.09160    0.06660
 2730.00000   56.98960   98.59650   40.20380   38.60290    0.06550    0.06650
 2730.50000   56.68010  102.71900   37.74040   36.79880    0.03790    0.06480
 2731.00000   56.38890  108.54570   35.12530   35.84920    0.02370    0.06280
 2731.50000   56.21410  114.32340   34.85850   35.47700    0.01850    0.06160
 2732.00000   56.24170  119.70620   36.37060   35.43120    0.01820    0.06160
 2732.50000   56.38010  119.63340   37.93480   35.75910    0.01950    0.06160
 2733.00000   56.51850  118.44420   38.35100   36.34900    0.02080    0.06110
 2733.50000   56.80050  114.83800   38.11590   37.08080    0.02170    0.06260
 2734.00000   56.93360  111.23180   36.82320   37.37520    0.02260    0.06730
 2734.50000   56.96690  107.62550   35.94400   37.60840    0.02340    0.06870
 2735.00000   57.00020  104.01930   36.79190   37.79120    0.02420    0.06850
 2735.50000   57.03360  100.41310   37.64280   38.19640    0.02600    0.06580
 2736.00000   57.12350   96.80680   38.54090   39.08500    0.02950    0.06260
