~Version ---------------------------------------------------
VERS.   2.0 : CWLS log ASCII Standard -VERSION 2.0
WRAP.    NO : One line per depth step
DLM . SPACE : Column Data Section Delimiter
~Well ------------------------------------------------------
STRT .FT                   7.0 : START DEPTH
STOP .FT                3990.0 : STOP DEPTH
STEP .FT                   0.5 : STEP
NULL .                -9999.25 : NULL VALUE
COMP .                         : COMPANY
WELL .                         : WELL
FLD  .                         : FIELD
LOC  .                         : LOCATION
PROV .                         : PROVINCE
CNTY .                         : COUNTY
STAT .                         : STATE
CTRY .                         : COUNTRY
SRVC .                         : SERVICE COMPANY
DATE .                         : DATE
UWI  .                         : UNIQUE WELL ID
API  .                         : API NUMBER
SLAT .WGS84 2.9077605796239965 : SURFACE LATITUDE
SLON .WGS84  6.372655013293993 : SURFACE LONGITUDE
DATUM.F                2884.15 : DEPTH DATUM ELEV
~Curve Information -----------------------------------------
DEPT   .FT    : DEPTH FEET
DTCO   .US/F  : DELTA TIME COMPRESSIONAL FROM SDT LOG
DTSM   .US/F  : DELTA TIME SHEAR WAVE FROM SDT LOG
GRD    .GAPI  : GAMMA RAY FROM CNL LOG
GRS    .GAPI  : GAMMA RAY FROM SDT LOG
NPHI_LS.DEC   : NEUTRON POROSITY LIMESTONE FROM CNL LOG
SPHI_LS.DEC   : SONIC POROSITY LIMESTONE [DTM=47.6, DTF=189] FROM SDT LOG
~Params ----------------------------------------------------
~Other -----------------------------------------------------
~ASCII -----------------------------------------------------
# ...
 3818.00000   53.45000   93.59490   15.52730   13.57560    0.11940    0.04130
 3818.50000   54.21350   93.36920   15.43160   13.47860    0.10650    0.04640
 3819.00000   54.96230   92.62380   14.79790   12.23910    0.09660    0.05140
 3819.50000   55.12460   90.83990   14.60700   11.20110    0.09100    0.05450
 3820.00000   53.96380   86.86260   14.30200   12.09060    0.08510    0.04710
 3820.50000   51.22590   86.19480   14.25420   13.43340    0.07710    0.03050
 3821.00000   49.55730   86.36320   14.25180   13.58930    0.06700    0.01710
 3821.50000   49.10240   88.69440   14.24940   13.57730    0.05960    0.01380
 3822.00000   49.06190   90.17300   14.24700   13.05030    0.05220    0.01040
 3822.50000   48.50480   91.51770   14.69550   12.19880    0.05330    0.00700
 3823.00000   49.06070   92.86230   15.16270   12.12350    0.06290    0.01200
 3823.50000   50.77300   94.20700   15.62990   12.77120    0.07520    0.02440
 3824.00000   52.88330   95.55160   16.09720   13.02350    0.09030    0.03680
 3824.50000   53.54060   96.84980   16.85930   13.68970    0.09790    0.04300
 3825.00000   54.03800   97.88950   18.11100   14.36190    0.09890    0.04740
 3825.50000   54.62350   98.92910   18.66740   14.87380    0.09630    0.05080
 3826.00000   54.88160   99.96880   18.70500   16.14310    0.10380    0.05200
 3826.50000   53.73630  101.00840   18.62170   17.97470    0.11160    0.04660
 3827.00000   53.70260  101.91430   20.73280   20.20960    0.11630    0.04190
 3827.50000   55.21950  102.81150   22.84390   22.57030    0.11790    0.05340
 3828.00000   56.25750  104.58650   26.76850   25.19440    0.11900    0.06000
 3828.50000   57.02720  106.84870   30.73530   28.68460    0.12240    0.06560
 3829.00000   58.81490  109.11090   33.27930   31.10580    0.13200    0.07760
 3829.50000   60.94290  111.06960   34.34320   33.77710    0.14720    0.09590
 3830.00000   62.79300  110.72560   34.21840   35.73640    0.16400    0.10680
 3830.50000   63.59900  108.82580   32.92840   35.26640    0.18290    0.11310
 3831.00000   63.02770  106.92600   29.71680   32.07470    0.18280    0.10890
 3831.50000   61.73970  105.02610   26.20280   26.65730    0.17280    0.10210
 3832.00000   59.31430  101.27770   22.48910   21.45850    0.15660    0.08800
 3832.50000   57.79000   99.48480   19.21830   17.45110    0.14390    0.07400
 3833.00000   56.95500   99.73450   17.74970   15.68960    0.13440    0.06680
 3833.50000   56.68430   99.96300   16.28110   15.29730    0.13620    0.06480
 3834.00000   56.62800   99.95900   16.00530   15.54420    0.13770    0.06540
 3834.50000   57.02770   99.50290   16.00830   15.77770    0.13560    0.06610
 3835.00000   56.95470   98.59020   16.66160   16.01110    0.12960    0.06580
 3835.50000   56.57300   97.67750   18.37170   16.25810    0.12600    0.06360
 3836.00000   56.18060   96.76490   19.25430   16.49160    0.12490    0.06170
 3836.50000   55.84480   95.85220   19.30880   16.44510    0.11590    0.05960
 3837.00000   55.36130   95.05910   17.84400   15.27580    0.10220    0.05560
 3837.50000   54.76270   94.49850   15.02880   14.24910    0.09070    0.05150
 3838.00000   54.63890   94.29070   14.84320   13.07910    0.08810    0.04930
 3838.50000   54.62920   94.08280   15.54410   12.88830    0.09870    0.04930
 3839.00000   54.61950   94.98270   16.22260   14.03650    0.10790    0.04750
 3839.50000   54.60990   96.19090   16.33380   14.45570    0.11440    0.04320
 3840.00000   53.84290   96.65770   16.33200   14.46590    0.11430    0.03880
 3840.50000   52.69220   96.10460   16.30250   13.53520    0.11510    0.03520
 3841.00000   52.60690   95.55140   16.27300   13.06100    0.12030    0.03620
 3841.50000   52.79150   95.01130   16.18610   12.55000    0.12690    0.03800
 3842.00000   52.79080   95.06710   15.42660   12.52300    0.12710    0.03810
 3842.50000   51.60690   95.12280   14.96040   12.63440    0.11980    0.03260
 3843.00000   51.39220   95.53430   15.16660   13.19080    0.11100    0.02710
 3843.50000   52.63010   96.02520   15.54380   13.21050    0.11300    0.03140
 3844.00000   53.68210   96.51610   15.54380   13.23000    0.13400    0.04130
 3844.50000   54.47270   97.00700   15.20490   13.26340    0.15610    0.04940
 3845.00000   54.63990   97.49800   14.35640   13.72760    0.17400    0.05010
 3845.50000   54.84930   97.98890   13.58660   14.25980    0.17370    0.05080
 3846.00000   55.19060   98.07610   13.11890   12.99780    0.17190    0.05150
 3846.50000   55.44720   98.07000   12.79540   11.49160    0.19000    0.05220
 3847.00000   55.12670   98.06400   12.79180   10.53590    0.20510    0.05290
 3847.50000   55.09550   97.88550   12.85430   10.08770    0.22120    0.05340
 3848.00000   54.95130   97.65410   13.44240    9.89540    0.21740    0.05190
 3848.50000   54.50690   97.74810   13.98020    9.71720    0.20460    0.05000
 3849.00000   54.14830   98.19170   13.97980    9.60010    0.20100    0.04820
 3849.50000   54.37500   99.39500   14.02060   10.73410    0.20010    0.04850
 3850.00000   54.48330  100.83150   14.84840   11.94550    0.20910    0.04930
 3850.50000   54.63190  101.99080   15.67610   13.04300    0.21570    0.05020
 3851.00000   54.78040  102.86180   16.50380   13.68840    0.21940    0.05150
 3851.50000   55.83000  103.61870   17.33160   14.15220    0.21480    0.05780
 3852.00000   57.46530  105.46670   18.10450   15.41390    0.21000    0.06610
 3852.50000   58.21260  108.30250   18.65740   17.10700    0.21190    0.07400
 3853.00000   58.59600  109.05150   18.97630   18.27030    0.22410    0.07810
 3853.50000   59.15570  109.62050   19.29520   18.58890    0.23060    0.08270
 3854.00000   59.86010  111.80550   19.89660   18.58620    0.22320    0.08670
 3854.50000   60.18920  113.92620   20.95920   18.41140    0.21230    0.09050
 3855.00000   60.84610  114.35260   22.30110   18.98630    0.21060    0.09380
 3855.50000   61.89840  114.33550   24.38260   19.35130    0.21420    0.10320
 3856.00000   62.69060  113.82780   25.85740   20.31710    0.22270    0.10820
 3856.50000   63.10750  112.15590   26.76880   21.26820    0.23120    0.11120
 3857.00000   63.11330  110.10720   27.15290   21.84160    0.23550    0.10870
 3857.50000   62.68130  108.05840   26.98270   21.60800    0.23870    0.10620
 3858.00000   61.35800  106.00960   26.26240   21.10260    0.23500    0.09790
 3858.50000   59.70960  103.96080   25.49910   20.55330    0.23130    0.08810
 3859.00000   58.31700  102.53880   24.73590   21.01990    0.22740    0.07730
 3859.50000   57.22560  101.78280   23.79040   21.11190    0.22390    0.06870
 3860.00000   56.39540  101.42430   21.30730   20.85790    0.22210    0.06430
 3860.50000   55.56520  101.17180   20.35330   20.33200    0.22600    0.05840
 3861.00000   54.93230  100.91920   20.18770   18.45020    0.23210    0.05270
 3861.50000   54.90130  100.66670   19.40960   16.98640    0.24410    0.05150
 3862.00000   54.78920  100.34020   18.42900   15.73300    0.24470    0.05070
 3862.50000   54.52770   99.96330   17.33150   14.66130    0.23740    0.04990
 3863.00000   54.73710  100.13220   15.28060   14.49740    0.22740    0.05150
 3863.50000   55.26690  100.86640   13.99320   14.33340    0.22640    0.05540
 3864.00000   55.65010  102.66730   14.40730   14.79390    0.23000    0.05800
 3864.50000   55.74010  104.80000   15.16660   15.37050    0.22850    0.06060
 3865.00000   56.22220  106.93280   16.47700   16.40540    0.22160    0.06410
 3865.50000   57.51680  109.06560   17.94120   16.97250    0.22400    0.07380
 3866.00000   58.44990  110.69150   19.40550   17.01090    0.23850    0.08190
 3866.50000   59.67100  111.24210   20.53230   17.40090    0.25030    0.08650
 3867.00000   60.13670  111.79270   21.27070   18.11510    0.25070    0.08950
 3867.50000   60.26820  112.19370   22.00910   18.86180    0.23920    0.09030
 3868.00000   60.28020  112.01330   23.81800   18.71560    0.23200    0.09030
 3868.50000   60.29210  110.81160   24.69310   18.41450    0.22480    0.09030
 3869.00000   60.29760  109.45050   23.51290   17.45100    0.22530    0.09040
