~Version ---------------------------------------------------
VERS.   2.0 : CWLS log ASCII Standard -VERSION 2.0
WRAP.    NO : One line per depth step
DLM . SPACE : Column Data Section Delimiter
~Well ------------------------------------------------------
STRT .FT                   7.0 : START DEPTH
STOP .FT                3990.0 : STOP DEPTH
STEP .FT                   0.5 : STEP
NULL .                -9999.25 : NULL VALUE
COMP .                         : COMPANY
WELL .                         : WELL
FLD  .                         : FIELD
LOC  .                         : LOCATION
PROV .                         : PROVINCE
CNTY .                         : COUNTY
STAT .                         : STATE
CTRY .                         : COUNTRY
SRVC .                         : SERVICE COMPANY
DATE .                         : DATE
UWI  .                         : UNIQUE WELL ID
API  .                         : API NUMBER
SLAT .WGS84 2.9077605796239965 : SURFACE LATITUDE
SLON .WGS84  6.372655013293993 : SURFACE LONGITUDE
DATUM.F                2884.15 : DEPTH DATUM ELEV
~Curve Information -----------------------------------------
DEPT   .FT    : DEPTH FEET
DTCO   .US/F  : DELTA TIME COMPRESSIONAL FROM SDT LOG
DTSM   .US/F  : DELTA TIME SHEAR WAVE FROM SDT LOG
GRD    .GAPI  : GAMMA RAY FROM CNL LOG
GRS    .GAPI  : GAMMA RAY FROM SDT LOG
NPHI_LS.DEC   : NEUTRON POROSITY LIMESTONE FROM CNL LOG
SPHI_LS.DEC   : SONIC POROSITY LIMESTONE [DTM=47.6, DTF=189] FROM SDT LOG
~Params ----------------------------------------------------
~Other -----------------------------------------------------
~ASCII -----------------------------------------------------
# ...
 3148.50000   61.70780  122.08480   36.38870   34.40550    0.08200    0.15430
 3149.00000   72.44050  135.52120   41.51130   39.43070    0.09710    0.20760
 3149.50000   78.94740  139.84280   43.57730   41.13540    0.07960    0.22300
 3150.00000   78.48220  134.02370   40.36540   32.72770    0.04190    0.22400
 3150.50000   76.67050  126.80720   28.12770   27.12500    0.01020    0.20770
 3151.00000   73.54290  120.07360   21.56370   21.47130   -0.00380    0.19030
 3151.50000   70.22260  113.34000   17.73900   17.10730   -0.00880    0.16650
 3152.00000   68.29020  107.60060   17.04670   15.01920   -0.00920    0.14360
 3152.50000   67.25010  106.52300   17.90010   15.12970   -0.00810    0.13920
 3153.00000   67.71850  106.62120   19.16550   16.42790   -0.00580    0.14150
 3153.50000   69.82450  108.51840   22.63160   19.84130    0.00510    0.15740
 3154.00000   71.72640  111.46850   27.72940   25.50180    0.01630    0.17340
 3154.50000   73.33110  114.09650   33.08940   30.63630    0.03420    0.18360
 3155.00000   74.70750  115.97930   37.61010   35.23340    0.05360    0.19130
 3155.50000   75.37030  116.49560   42.68100   38.69850    0.05440    0.19760
 3156.00000   74.84510  116.73090   43.46290   39.73410    0.04740    0.19870
 3156.50000   74.14340  115.61010   40.13760   37.80180    0.02790    0.18890
 3157.00000   72.56830  113.26560   34.22950   32.87770    0.01610    0.17600
 3157.50000   70.43300  110.92120   28.32450   28.65540    0.00590    0.16330
 3158.00000   69.60890  111.14770   24.87090   26.12920    0.00710    0.15710
 3158.50000   70.60160  117.72430   25.33370   25.82330    0.01500    0.16300
 3159.00000   71.19350  125.04340   28.24610   28.46960    0.02820    0.16600
 3159.50000   70.96660  129.56010   31.15840   30.79450    0.04360    0.16640
 3160.00000   69.89020  139.15950   34.26900   33.64200    0.05140    0.15870
 3160.50000   68.11050  139.60800   36.52470   35.17110    0.05740    0.14660
 3161.00000   66.01510  139.46210   38.20690   37.01910    0.06490    0.13230
 3161.50000   64.09580  138.61540   39.88910   39.37630    0.07420    0.12050
 3162.00000   63.95420  135.81790   41.57130   42.27660    0.09160    0.11350
 3162.50000   64.69820  126.86940   43.25350   44.68300    0.10830    0.12320
 3163.00000   68.67860  118.10640   44.93580   47.08860    0.12840    0.14160
 3163.50000   72.40500  111.83620   47.86840   50.52560    0.14860    0.17100
 3164.00000   74.67310  110.98400   48.51450   52.87410    0.14500    0.19000
 3164.50000   75.37150  110.20490   46.99050   49.28230    0.11140    0.19780
 3165.00000   75.22850  106.70990   40.20700   42.93580    0.06640    0.19690
 3165.50000   73.60810  103.27970   31.03970   33.93730    0.02700    0.18030
 3166.00000   70.53700   99.84950   24.19800   26.41290    0.01030    0.16470
 3166.50000   68.15100   96.77840   19.62910   21.59360    0.00360    0.15380
 3167.00000   67.25200   94.10770   19.65490   19.59110    0.00630    0.14290
 3167.50000   64.38280   91.43710   21.27740   19.88380    0.02010    0.12280
 3168.00000   58.98900   82.00770   25.34180   22.43380    0.04400    0.08810
 3168.50000   53.59510   72.02910   31.26630   26.36430    0.08430    0.04650
 3169.00000   51.02490   74.56580   36.16020   29.78050    0.11790    0.02480
 3169.50000   51.80950   76.96480   35.93920   30.96450    0.12890    0.02810
 3170.00000   53.41020   77.50480   35.80310   33.10580    0.13800    0.04100
 3170.50000   55.17980   77.66950   36.92700   35.95290    0.14920    0.05150
 3171.00000   55.22860   77.86020   38.94080   39.21960    0.15650    0.05230
 3171.50000   52.72360   77.99740   39.54000   43.54040    0.14170    0.03730
 3172.00000   52.08270   78.00740   38.18090   42.73520    0.11390    0.02800
 3172.50000   57.31930   96.85870   35.85050   38.83050    0.06830    0.08020
 3173.00000   62.55590  106.98710   34.53460   35.49440    0.04290    0.11440
 3173.50000   64.04060  113.79030   31.94610   32.98270    0.03400    0.11730
 3174.00000   63.63400  120.67910   30.73520   32.69520    0.04070    0.11150
 3174.50000   65.52230  121.20820   34.24960   35.23700    0.06010    0.12440
 3175.00000   67.61300  122.05630   36.04510   37.77900    0.07150    0.13960
 3175.50000   69.84840  123.03920   36.04400   38.11960    0.05930    0.15390
 3176.00000   71.19740  123.08000   28.83900   35.22160    0.03540    0.16840
 3176.50000   71.82890  122.97880   24.40580   26.01920    0.01200    0.17200
 3177.00000   70.41430  122.96940   20.27650   20.22850    0.00070    0.16150
 3177.50000   68.46170  123.29750   17.76870   16.86390   -0.00340    0.15040
 3178.00000   67.21940  125.46570   16.32210   15.58150   -0.00280    0.13970
 3178.50000   66.39960  129.59140   16.42270   16.13590    0.00450    0.13310
 3179.00000   67.36030  133.71710   20.20670   18.30630    0.01530    0.14090
 3179.50000   70.07840  135.79250   24.88310   21.96130    0.04210    0.15550
 3180.00000   72.99990  135.85570   30.35170   28.20280    0.07640    0.17130
 3180.50000   74.40460  135.34290   30.81900   31.80870    0.09510    0.18780
 3181.00000   75.80920  134.72480   29.69120   31.28570    0.07590    0.19740
 3181.50000   75.63250  134.62640   26.82720   29.06340    0.05020    0.20050
 3182.00000   73.91930  131.83310   24.06670   24.03850    0.02520    0.18940
 3182.50000   71.81940  128.35430   21.49520   20.14140    0.01080    0.17180
 3183.00000   70.04190  130.58430   19.46860   19.19330    0.00900    0.16080
 3183.50000   69.47430  132.82190   18.96820   19.41020    0.01070    0.15340
 3184.00000   71.04940  135.05960   20.64710   21.31180    0.02480    0.16400
 3184.50000   73.13680  137.09010   25.66460   24.55030    0.04820    0.18090
 3185.00000   73.97640  137.37240   31.99060   28.96500    0.06490    0.18490
 3185.50000   73.97980  137.10030   34.62650   32.13000    0.04990    0.18710
 3186.00000   73.85450  134.70610   30.12340   33.99840    0.02850    0.17990
 3186.50000   71.79760  127.26100   25.00010   26.12830    0.00850    0.17220
 3187.00000   69.51850  127.23540   18.96240   21.09120   -0.00160    0.15060
 3187.50000   67.78130  125.37300   14.39670   17.98910   -0.00380    0.14180
 3188.00000   66.74890  126.56990   14.10790   16.42380   -0.00450    0.13410
 3188.50000   66.12950  128.00840   13.67390   16.60350   -0.00450    0.13260
 3189.00000   66.15770  132.31550   13.65710   16.97760   -0.00190    0.13170
 3189.50000   67.55220  132.87750   14.20900   17.03570    0.00600    0.13740
 3190.00000   71.68730  137.23670   16.49220   18.16260    0.02680    0.16190
 3190.50000   75.09130  138.87350   21.41510   20.58370    0.04380    0.18650
 3191.00000   77.17490  139.20680   25.25820   23.59070    0.05550    0.21100
 3191.50000   78.22940  136.33770   25.69220   25.47800    0.04310    0.21620
 3192.00000   77.81040  131.68360   22.15820   25.33120    0.02580    0.21620
 3192.50000   75.56170  122.54360   18.02140   19.58740    0.00370    0.19640
 3193.00000   72.58110  123.36430   14.98190   16.56880   -0.00380    0.17570
 3193.50000   69.86660  122.29870   13.79590   13.65620   -0.00730    0.16300
 3194.00000   68.60170  121.72790   13.66470   11.79960   -0.00770    0.14850
 3194.50000   67.28100  116.44390   13.40340   12.56610   -0.00830    0.13860
 3195.00000   66.80340  116.10040   13.00190   13.38660   -0.00740    0.13560
 3195.50000   66.40440  116.15280   12.53380   13.95980   -0.00590    0.13270
 3196.00000   66.58290  118.16690   12.42300   13.53770   -0.00210    0.13250
 3196.50000   68.83190  121.77700   13.60250   14.09070    0.00760    0.14710
 3197.00000   71.30290  125.38720   16.54200   15.40400    0.02980    0.16440
 3197.50000   72.71730  128.82140   19.48150   18.55450    0.04400    0.17920
 3198.00000   74.37180  128.52860   21.76300   21.14430    0.04650    0.19020
 3198.50000   74.45450  127.88220   21.21360   21.62460    0.02210    0.19100
 3199.00000   73.62070  125.97160   17.69330   20.34070    0.01040    0.18510
 3199.50000   71.88780  121.28550   14.17310   17.51710   -0.00140    0.17340
