~Version ---------------------------------------------------
VERS.   2.0 : CWLS log ASCII Standard -VERSION 2.0
WRAP.    NO : One line per depth step
DLM . SPACE : Column Data Section Delimiter
~Well ------------------------------------------------------
STRT .FT                   7.0 : START DEPTH
STOP .FT                3990.0 : STOP DEPTH
STEP .FT                   0.5 : STEP
NULL .                -9999.25 : NULL VALUE
COMP .                         : COMPANY
WELL .                         : WELL
FLD  .                         : FIELD
LOC  .                         : LOCATION
PROV .                         : PROVINCE
CNTY .                         : COUNTY
STAT .                         : STATE
CTRY .                         : COUNTRY
SRVC .                         : SERVICE COMPANY
DATE .                         : DATE
UWI  .                         : UNIQUE WELL ID
API  .                         : API NUMBER
SLAT .WGS84 2.9077605796239965 : SURFACE LATITUDE
SLON .WGS84  6.372655013293993 : SURFACE LONGITUDE
DATUM.F                2884.15 : DEPTH DATUM ELEV
~Curve Information -----------------------------------------
DEPT   .FT    : DEPTH FEET
DTCO   .US/F  : DELTA TIME COMPRESSIONAL FROM SDT LOG
DTSM   .US/F  : DELTA TIME SHEAR WAVE FROM SDT LOG
GRD    .GAPI  : GAMMA RAY FROM CNL LOG
GRS    .GAPI  : GAMMA RAY FROM SDT LOG
NPHI_LS.DEC   : NEUTRON POROSITY LIMESTONE FROM CNL LOG
SPHI_LS.DEC   : SONIC POROSITY LIMESTONE [DTM=47.6, DTF=189] FROM SDT LOG
~Params ----------------------------------------------------
~Other -----------------------------------------------------
~ASCII -----------------------------------------------------
# ...
 3045.50000   81.39870  124.24370   45.11810   46.06940    0.17140    0.23810
 3046.00000   82.88350  133.36510   45.40690   49.57350    0.19790    0.24870
 3046.50000   83.52240  136.76150   47.80860   51.56840    0.22720    0.25380
 3047.00000   83.62450  137.21190   49.10970   52.00420    0.23910    0.25520
 3047.50000   82.70610  136.39600   50.75760   51.48990    0.24200    0.24880
 3048.00000   80.67380  132.32520   52.31290   48.34390    0.23460    0.23660
 3048.50000   78.91890  129.11570   44.73130   45.55790    0.20360    0.22450
 3049.00000   77.49500  125.90630   42.40880   43.30670    0.15880    0.21580
 3049.50000   75.97780  122.69690   40.52060   41.02200    0.11990    0.20150
 3050.00000   74.46050  119.48740   39.29310   36.96900    0.09300    0.18620
 3050.50000   72.16140  116.27800   38.65080   34.64480    0.08400    0.16620
 3051.00000   69.66670  113.06850   38.00860   35.08380    0.08140    0.15400
 3051.50000   67.17210  109.85910   37.86810   35.36830    0.07190    0.14110
 3052.00000   65.19120  107.14820   38.77480   35.61610    0.06400    0.12750
 3052.50000   64.34700  106.89870   40.32090   35.63460    0.06510    0.11900
 3053.00000   65.44350  106.74240   39.75570   36.38560    0.07620    0.12500
 3053.50000   68.15030  108.46820   38.64590   37.60220    0.09680    0.13470
 3054.00000   71.44990  111.83760   38.36820   39.55240    0.11400    0.15840
 3054.50000   75.88160  117.96560   38.13410   41.53900    0.14010    0.18560
 3055.00000   79.99540  123.95210   40.56210   43.86590    0.16490    0.22100
 3055.50000   82.64890  125.62310   44.65620   46.48640    0.18240    0.23950
 3056.00000   83.89960  126.46290   49.70790   49.30570    0.20440    0.25810
 3056.50000   83.40410  124.24510   50.40050   49.20440    0.20420    0.25390
 3057.00000   80.84970  119.62630   46.94650   45.68050    0.17710    0.23440
 3057.50000   76.55040  112.37770   40.98410   40.22310    0.12710    0.20590
 3058.00000   72.84860  105.12920   35.82820   33.58800    0.08680    0.17220
 3058.50000   68.60340   99.16750   31.58990   30.29030    0.05000    0.14220
 3059.00000   65.30050   93.43800   29.09350   28.95030    0.02930    0.12700
 3059.50000   63.68410   89.38290   28.89730   29.07710    0.02830    0.11390
 3060.00000   63.36360   88.78700   30.25990   30.22940    0.03630    0.11080
 3060.50000   63.42400   89.93670   31.31320   32.20370    0.04370    0.11220
 3061.00000   64.14520   92.27590   32.23530   33.37490    0.04960    0.11620
 3061.50000   64.87420   94.61510   33.12920   34.67000    0.05080    0.11900
 3062.00000   64.96270   96.95430   33.95710   35.41520    0.05170    0.12140
 3062.50000   65.16440   98.84000   34.78500   34.44180    0.05430    0.12350
 3063.00000   65.81890   99.37230   35.61290   33.62840    0.06090    0.12830
 3063.50000   65.13920   95.49190   36.44070   33.62590    0.07430    0.13130
 3064.00000   61.13700   87.58310   37.98070   35.44260    0.09860    0.11020
 3064.50000   52.29690   74.23230   39.72110   38.29740    0.13100    0.06050
 3065.00000   48.14280   72.91660   41.46160   40.72780    0.16350    0.00720
 3065.50000   47.80220   72.63000   40.20620   42.60190    0.16520    0.00250
 3066.00000   47.86560   72.80360   38.27250   40.76640    0.14050    0.00200
 3066.50000   47.36490   72.45490   36.78560   39.18910    0.10710    0.00030
 3067.00000   47.13940   72.23080   39.35800   38.74070    0.09780   -0.00210
 3067.50000   47.47070   76.79550   43.39460   39.82610    0.10730   -0.00380
 3068.00000   48.95080   80.04500   47.26280   41.81910    0.14020    0.00570
 3068.50000   51.60930   78.47910   49.03950   44.82740    0.16680    0.02130
 3069.00000   51.57600   76.93850   49.41720   45.95420    0.16400    0.02770
 3069.50000   50.94870   77.59230   47.63550   44.86490    0.12500    0.02350
 3070.00000   51.22510   78.94620   43.40430   40.83260    0.07880    0.02300
 3070.50000   53.99470   84.15630   39.09740   35.26630    0.04800    0.02170
 3071.00000   57.44710   90.41500   35.49200   32.41860    0.03840    0.06530
 3071.50000   61.92380   95.71140   35.37250   31.60190    0.03490    0.09550
 3072.00000   63.71470   96.42700   35.53180   32.00020    0.02850    0.11360
 3072.50000   61.83030   96.01040   35.82150   32.07620    0.02320    0.09850
 3073.00000   61.05930   94.62770   35.51590   31.93270    0.01850    0.09750
 3073.50000   60.99590   93.24500   35.13460   32.12500    0.01780    0.09680
 3074.00000   61.01200   91.86230   34.75330   32.93390    0.01970    0.09550
 3074.50000   59.33450   90.47960   37.80560   33.49010    0.02370    0.08230
 3075.00000   58.91470   91.11930   39.55920   33.93510    0.03240    0.08100
 3075.50000   59.89930   91.90910   40.03610   34.90140    0.04690    0.08790
 3076.00000   60.83080   89.82520   40.17930   36.73940    0.06610    0.09260
 3076.50000   59.35490   85.84100   42.43380   40.17620    0.09000    0.08320
 3077.00000   55.20010   80.77380   45.73850   44.22660    0.11690    0.06040
 3077.50000   52.03130   83.41500   49.70490   48.29870    0.14090    0.04010
 3078.00000   50.32350   89.30870   51.59910   51.49520    0.16960    0.02060
 3078.50000   51.28020  103.36610   51.40890   52.27250    0.19090    0.01620
 3079.00000   56.87660  113.90670   49.09590   50.82610    0.17000    0.04550
 3079.50000   64.51050  122.63300   44.48190   47.63930    0.12550    0.10980
 3080.00000   66.58230  120.38280   40.65320   45.38450    0.06940    0.13640
 3080.50000   67.72220  114.73360   39.26770   43.61130    0.04800    0.14660
 3081.00000   68.37830  113.46090   39.84550   43.48340    0.04640    0.14850
 3081.50000   68.43250  114.84550   41.14740   43.66230    0.04890    0.14830
 3082.00000   68.14810  116.52350   42.12360   43.76140    0.05270    0.14240
 3082.50000   68.12070  117.54860   43.06830   43.98470    0.05480    0.13970
 3083.00000   68.47880  117.54120   44.01300   44.47790    0.05590    0.14390
 3083.50000   68.62220  116.81690   45.10430   44.91570    0.06840    0.14800
 3084.00000   68.39120  115.87460   44.73290   44.23300    0.07900    0.14900
 3084.50000   68.24500  114.94330   43.05450   43.67340    0.07740    0.14560
 3085.00000   68.15690  113.10800   40.04030   41.06950    0.05820    0.14420
 3085.50000   67.95940  109.81450   38.54400   36.69010    0.03710    0.14200
 3086.00000   66.86020  107.17950   38.29750   34.78530    0.02120    0.13690
 3086.50000   65.67350  104.92040   38.31140   33.18210    0.01750    0.12860
 3087.00000   64.68780  104.56280   36.95210   31.94730    0.01430    0.12030
 3087.50000   64.23040  104.53770   35.14240   30.84530    0.01210    0.11860
 3088.00000   63.91010  104.78060   32.41750   30.58740    0.01130    0.11730
 3088.50000   63.58970  105.69890   32.03030   30.61580    0.01120    0.11450
 3089.00000   63.36830  106.70530   34.06420   30.75440    0.01120    0.11090
 3089.50000   63.63170  107.29720   36.56420   31.06610    0.01120    0.11100
 3090.00000   64.08650  107.21350   37.95730   30.98830    0.01120    0.11790
 3090.50000   63.87130  107.16400   38.54700   30.62250    0.01120    0.11470
 3091.00000   64.48050  107.34890   36.94780   30.58910    0.01070    0.11730
 3091.50000   65.49600  107.53370   33.94600   30.57820    0.00890    0.12480
 3092.00000   65.23460  107.06380   31.41620   29.87430    0.00720    0.12940
 3092.50000   63.07960  106.48290   30.93510   28.72790    0.00750    0.11300
 3093.00000   62.59310  106.28710   30.82970   28.98910    0.00800    0.10520
 3093.50000   63.09910  106.72420   30.93330   29.79910    0.01080    0.10810
 3094.00000   63.54060  107.54490   31.95040   30.96890    0.01370    0.11080
 3094.50000   63.74760  108.51420   33.88260   33.03700    0.01750    0.11240
 3095.00000   64.05770  108.98280   35.92600   35.51850    0.02180    0.11430
 3095.50000   65.55220  109.23750   38.45690   37.86840    0.02630    0.12330
 3096.00000   67.19370  109.42990   40.64940   40.21840    0.03080    0.13470
 3096.50000   67.74460  109.28620   41.80370   41.23530    0.03450    0.14080
