~Version ---------------------------------------------------
VERS.   2.0 : CWLS log ASCII Standard -VERSION 2.0
WRAP.    NO : One line per depth step
DLM . SPACE : Column Data Section Delimiter
~Well ------------------------------------------------------
STRT .FT                   7.0 : START DEPTH
STOP .FT                3990.0 : STOP DEPTH
STEP .FT                   0.5 : STEP
NULL .                -9999.25 : NULL VALUE
COMP .                         : COMPANY
WELL .                         : WELL
FLD  .                         : FIELD
LOC  .                         : LOCATION
PROV .                         : PROVINCE
CNTY .                         : COUNTY
STAT .                         : STATE
CTRY .                         : COUNTRY
SRVC .                         : SERVICE COMPANY
DATE .                         : DATE
UWI  .                         : UNIQUE WELL ID
API  .                         : API NUMBER
SLAT .WGS84 2.9077605796239965 : SURFACE LATITUDE
SLON .WGS84  6.372655013293993 : SURFACE LONGITUDE
DATUM.F                2884.15 : DEPTH DATUM ELEV
~Curve Information -----------------------------------------
DEPT   .FT    : DEPTH FEET
DTCO   .US/F  : DELTA TIME COMPRESSIONAL FROM SDT LOG
DTSM   .US/F  : DELTA TIME SHEAR WAVE FROM SDT LOG
GRD    .GAPI  : GAMMA RAY FROM CNL LOG
GRS    .GAPI  : GAMMA RAY FROM SDT LOG
NPHI_LS.DEC   : NEUTRON POROSITY LIMESTONE FROM CNL LOG
SPHI_LS.DEC   : SONIC POROSITY LIMESTONE [DTM=47.6, DTF=189] FROM SDT LOG
~Params ----------------------------------------------------
~Other -----------------------------------------------------
~ASCII -----------------------------------------------------
# ...
 2942.50000   68.61780  123.41230   14.45710   14.72500   -0.01120    0.15140
 2943.00000   67.84450  125.65640   13.73950   13.99720   -0.01100    0.14390
 2943.50000   67.47730  127.79190   13.86890   13.10600   -0.00960    0.13940
 2944.00000   68.14000  129.01530   14.60240   13.77170   -0.00690    0.14630
 2944.50000   69.84110  129.33950   15.71190   15.36210    0.00010    0.15600
 2945.00000   70.72420  129.62190   20.06790   17.63970    0.01440    0.16610
 2945.50000   71.06200  129.59140   27.02710   24.04530    0.03080    0.16630
 2946.00000   71.14390  129.76540   30.52880   30.69240    0.04800    0.16680
 2946.50000   71.22580  130.35820   31.20170   33.48980    0.04260    0.16950
 2947.00000   72.25460  130.95100   27.99750   32.81110    0.03100    0.17340
 2947.50000   73.20350  131.54390   24.93660   30.45490    0.02310    0.17730
 2948.00000   74.61570  131.85610   24.79970   27.81270    0.02980    0.18980
 2948.50000   76.45500  131.04170   28.03450   27.29240    0.05170    0.20230
 2949.00000   76.72610  129.33320   32.37390   29.85150    0.07700    0.20580
 2949.50000   76.16690  126.91460   36.71330   33.71900    0.08030    0.20560
 2950.00000   74.52360  124.31610   40.92260   37.42590    0.06750    0.18940
 2950.50000   71.66870  121.71760   42.33820   39.70820    0.05470    0.17010
 2951.00000   69.94960  119.11900   40.51960   38.94870    0.04190    0.15640
 2951.50000   68.76700  116.52050   37.88500   37.56460    0.03380    0.14990
 2952.00000   68.17080  114.95430   33.69910   36.69100    0.02920    0.14390
 2952.50000   67.25670  113.80470   34.80160   36.33260    0.02680    0.13890
 2953.00000   66.43070  112.65520   35.09270   36.04900    0.02450    0.13320
 2953.50000   65.43180  111.53830   35.07200   35.83910    0.02210    0.12720
 2954.00000   64.05110  110.46310   34.56070   36.05810    0.01970    0.12060
 2954.50000   62.93360  109.38800   34.26650   36.70760    0.01730    0.11210
 2955.00000   62.54020  108.52360   35.30300   37.27620    0.01730    0.10520
 2955.50000   62.73900  107.42060   37.87220   37.58910    0.01760    0.10580
 2956.00000   63.81130  107.55120   38.09740   36.95670    0.01780    0.11510
 2956.50000   65.06570  108.15100   36.92070   36.24350    0.01800    0.12200
 2957.00000   64.94760  107.71550   35.72860   35.93390    0.01830    0.12190
 2957.50000   64.60540  107.33610   34.40970   35.57490    0.01850    0.11960
 2958.00000   64.07400  107.09290   33.00570   35.22640    0.01960    0.11770
 2958.50000   64.03160  107.01180   33.63180   35.31750    0.02170    0.11720
 2959.00000   63.86670  107.00330   36.07510   36.15140    0.02370    0.11580
 2959.50000   62.90120  107.62210   37.96840   37.56140    0.02580    0.10770
 2960.00000   60.94500  108.83220   38.78130   37.91590    0.02830    0.09650
 2960.50000   62.27290  113.45970   39.28260   37.48910    0.03120    0.09660
 2961.00000   63.38690  114.50150   39.27970   38.38150    0.03820    0.10900
 2961.50000   63.76490  115.42780   39.27670   39.73210    0.04550    0.11350
 2962.00000   64.26240  118.37330   39.22410   40.79890    0.05100    0.11490
 2962.50000   65.76910  122.76340   39.15900   41.26610    0.05560    0.12730
 2963.00000   66.96940  126.72470   38.60680   40.80960    0.05350    0.13430
 2963.50000   68.01880  127.74690   37.83340   39.68800    0.04490    0.14190
 2964.00000   68.96410  125.23720   36.52560   36.43560    0.02690    0.15040
 2964.50000   69.90950  122.54720   31.63080   30.71070    0.00780    0.15790
 2965.00000   70.00050  122.75720   25.35410   25.01000   -0.00600    0.15480
 2965.50000   68.89670  123.73030   19.67070   18.98190   -0.00570    0.15050
 2966.00000   70.13800  124.70330   16.18580   15.48050    0.00500    0.16020
 2966.50000   72.10270  129.35980   19.27860   15.88060    0.02650    0.17540
 2967.00000   72.90430  132.49500   24.26000   23.14210    0.05130    0.17840
 2967.50000   73.50710  133.05670   31.36690   30.43450    0.07000    0.18060
 2968.00000   74.23000  131.39110   35.34040   34.50800    0.06210    0.19120
 2968.50000   74.42010  129.72550   34.52460   35.16600    0.04500    0.19160
 2969.00000   74.52770  128.06000   32.32450   32.33580    0.03830    0.18980
 2969.50000   74.04100  126.36060   28.47870   28.15150    0.05000    0.18560
 2970.00000   72.68860  122.95590   24.53380   23.77780    0.06220    0.17110
 2970.50000   69.08610  119.03150   21.24740   20.53640    0.06090    0.14640
 2971.00000   63.82680  113.57030   18.22360   17.59480    0.04850    0.12160
 2971.50000   61.27880  108.10620   17.81440   17.03030    0.03610    0.09920
 2972.00000   58.83520  105.70050   18.10450   17.75770    0.02500    0.08010
 2972.50000   56.01080  104.25110   19.06510   18.17650    0.01750    0.06320
 2973.00000   55.82060  105.01630   18.84440   17.11210    0.00880    0.05560
 2973.50000   57.10880  105.39770   16.35690   14.98780    0.00100    0.06640
 2974.00000   57.54420  104.09240   13.46190   12.17710   -0.00480    0.06930
 2974.50000   57.99770  104.22480   12.01150   10.94040   -0.00520    0.07540
 2975.00000   59.56370  104.16530   11.53800   10.55460   -0.00350    0.08480
 2975.50000   60.15710   99.33510   11.37370    9.93950   -0.00010    0.09050
 2976.00000   58.93960   96.49350   11.40650    9.27540    0.00250    0.07660
 2976.50000   56.19970   97.02050   12.53480    9.71320    0.00220    0.05960
 2977.00000   54.71380  100.50720   13.72400   10.99640   -0.00080    0.04960
 2977.50000   55.55720  103.99390   16.46750   12.88290   -0.00550    0.05290
 2978.00000   59.04490  108.98220   18.88100   14.28220   -0.00540    0.07800
 2978.50000   61.91300  111.50070   21.75480   15.45530   -0.00240    0.10150
 2979.00000   64.06550  110.03050   24.40780   18.71240    0.00200    0.11650
 2979.50000   64.53250  108.77890   24.74200   22.62570    0.00600    0.12040
 2980.00000   64.64120  110.61400   27.55460   26.01220    0.01060    0.11990
 2980.50000   64.65810  113.87280   31.13450   30.21730    0.01650    0.11930
 2981.00000   65.31070  115.09700   34.73740   32.89140    0.03200    0.12050
 2981.50000   66.42770  115.12620   39.82390   36.80830    0.05520    0.13000
 2982.00000   67.57300  114.77590   42.88400   39.33920    0.06650    0.14120
 2982.50000   68.07920  114.43820   41.50090   42.39620    0.06580    0.14440
 2983.00000   67.81750  113.91880   40.61140   44.43240    0.05320    0.14330
 2983.50000   67.03850  113.20450   40.77120   44.71640    0.04400    0.13890
 2984.00000   66.50080  110.60530   41.38410   45.00030    0.03900    0.13190
 2984.50000   65.19800  108.90230   42.22340   45.11990    0.03730    0.12470
 2985.00000   64.48330  111.09270   42.51870   44.27010    0.03180    0.11770
 2985.50000   64.45320  113.46310   41.81970   42.67630    0.02660    0.11840
 2986.00000   64.68010  114.10560   40.23040   41.07590    0.02200    0.12040
 2986.50000   64.99300  114.09080   37.63370   40.04720    0.01820    0.12390
 2987.00000   65.30590  113.68230   36.75040   40.58350    0.01860    0.12730
 2987.50000   65.61880  111.79610   38.15030   41.08690    0.02370    0.13010
 2988.00000   65.42750  109.90980   43.78710   43.10310    0.02860    0.12680
 2988.50000   65.06390  108.02350   46.65460   44.48780    0.03310    0.12420
 2989.00000   65.17990  106.13730   47.29370   44.16580    0.03790    0.12540
 2989.50000   65.56880  104.88290   46.44320   43.46500    0.04230    0.12690
 2990.00000   65.64770  104.85580   44.98920   42.17890    0.04200    0.12820
 2990.50000   65.75980  105.41390   43.35300   40.10350    0.03990    0.13080
 2991.00000   66.30270  105.97190   42.59090   39.91260    0.03840    0.13330
 2991.50000   66.47040  106.19820   43.33910   40.59250    0.03860    0.13420
 2992.00000   65.12970  104.61640   44.17960   41.53610    0.04480    0.12460
 2992.50000   63.78890  100.73120   44.39680   42.91050    0.05700    0.11590
 2993.00000   65.81360  103.33450   44.13450   44.25000    0.07090    0.12790
 2993.50000   69.51350  114.06250   44.33260   45.73680    0.08680    0.15670
