~Version ---------------------------------------------------
VERS.   2.0 : CWLS log ASCII Standard -VERSION 2.0
WRAP.    NO : One line per depth step
DLM . SPACE : Column Data Section Delimiter
~Well ------------------------------------------------------
STRT .FT                   7.0 : START DEPTH
STOP .FT                3990.0 : STOP DEPTH
STEP .FT                   0.5 : STEP
NULL .                -9999.25 : NULL VALUE
COMP .                         : COMPANY
WELL .                         : WELL
FLD  .                         : FIELD
LOC  .                         : LOCATION
PROV .                         : PROVINCE
CNTY .                         : COUNTY
STAT .                         : STATE
CTRY .                         : COUNTRY
SRVC .                         : SERVICE COMPANY
DATE .                         : DATE
UWI  .                         : UNIQUE WELL ID
API  .                         : API NUMBER
SLAT .WGS84 2.9077605796239965 : SURFACE LATITUDE
SLON .WGS84  6.372655013293993 : SURFACE LONGITUDE
DATUM.F                2884.15 : DEPTH DATUM ELEV
~Curve Information -----------------------------------------
DEPT   .FT    : DEPTH FEET
DTCO   .US/F  : DELTA TIME COMPRESSIONAL FROM SDT LOG
DTSM   .US/F  : DELTA TIME SHEAR WAVE FROM SDT LOG
GRD    .GAPI  : GAMMA RAY FROM CNL LOG
GRS    .GAPI  : GAMMA RAY FROM SDT LOG
NPHI_LS.DEC   : NEUTRON POROSITY LIMESTONE FROM CNL LOG
SPHI_LS.DEC   : SONIC POROSITY LIMESTONE [DTM=47.6, DTF=189] FROM SDT LOG
~Params ----------------------------------------------------
~Other -----------------------------------------------------
~ASCII -----------------------------------------------------
# ...
 2788.00000   56.35370  105.08120   34.39070   25.14580    0.05810    0.06190
 2788.50000   58.01220  104.46970   42.58950   35.92940    0.09570    0.07200
 2789.00000   59.26400  103.07480   49.34420   43.39280    0.12800    0.08350
 2789.50000   59.99390  101.33200   52.79600   51.40160    0.16200    0.08790
 2790.00000   60.03050   99.37610   57.75480   57.50350    0.20060    0.08920
 2790.50000   59.41220   97.27400   60.53720   60.45440    0.22750    0.08240
 2791.00000   56.37560   95.17200   60.62840   60.03850    0.23390    0.06180
 2791.50000   51.03580   93.06990   58.94940   58.83090    0.22080    0.01910
 2792.00000   45.69590   90.96780   59.51830   57.62950    0.20280   -0.01230
 2792.50000   41.99870   90.58910   53.24250   54.33560    0.20270   -0.03770
 2793.00000   41.84800   90.58910   53.53300   52.64730    0.22590   -0.04150
 2793.50000   41.91350   91.14380   53.57510   52.59730    0.24950   -0.04120
 2794.00000   42.62300   93.16200   53.61720   51.87030    0.26290   -0.03960
 2794.50000   44.85240  100.75660   53.65930   51.17210    0.25460   -0.01440
 2795.00000   49.46240  119.74620   52.06220   50.47330    0.22230    0.01080
 2795.50000   56.50300  137.78270   49.25950   49.37040    0.19130    0.09930
 2796.00000   63.54350  153.60800   46.64440   47.02560    0.13230    0.14060
 2796.50000   70.58410  159.22380   44.08530   43.62460    0.08300    0.18250
 2797.00000   73.40030  156.18720   41.52620   40.27260    0.05720    0.17830
 2797.50000   68.68930  146.26880   38.96700   37.64060    0.03950    0.15720
 2798.00000   65.60560  136.35040   37.24630   35.60900    0.03330    0.13610
 2798.50000   64.26330  126.43200   36.04670   35.36270    0.03200    0.11740
 2799.00000   63.36660  116.51360   36.50330   35.42420    0.03360    0.11110
 2799.50000   63.40040  108.71260   37.73030   35.36340    0.04020    0.10730
 2800.00000   65.46610  106.03360   38.83760   36.80580    0.04650    0.12450
 2800.50000   66.14490  104.94760   38.67720   37.23620    0.05030    0.13250
 2801.00000   66.08420  104.61260   37.89580   36.65020    0.05250    0.12950
 2801.50000   67.95970  104.79480   35.58350   36.00770    0.05900    0.13730
 2802.00000   70.81160  106.55620   35.25800   36.16660    0.08380    0.15460
 2802.50000   74.99770  109.37700   36.58720   37.81660    0.12880    0.17940
 2803.00000   79.17520  111.31350   39.78610   40.30630    0.18110    0.20940
 2803.50000   77.31650  111.55060   42.98510   42.65310    0.21360    0.22270
 2804.00000   68.83070  110.87870   44.24160   44.32120    0.21280    0.17080
 2804.50000   60.34490   98.20460   44.09140   44.32140    0.20090    0.11550
 2805.00000   53.12780   91.95410   44.18900   44.45920    0.19770    0.05810
 2805.50000   51.28040   91.74880   46.46260   45.31330    0.20900    0.03200
 2806.00000   51.19460   93.26270   49.97480   47.55020    0.22010    0.02740
 2806.50000   50.87370   93.65340   52.41500   51.35250    0.21850    0.02270
 2807.00000   49.61210   91.46160   54.10910   53.52140    0.19170    0.01540
 2807.50000   48.60270   89.07540   51.75390   53.66230    0.13850    0.00770
 2808.00000   50.62470   88.61510   46.81240   49.88980    0.10020    0.01600
 2808.50000   57.13690   94.74030   42.83340   45.26290    0.06280    0.07670
 2809.00000   63.06110   96.08670   40.31100   40.52530    0.04120    0.11250
 2809.50000   63.47990   96.38800   38.05030   36.55730    0.03780    0.11290
 2810.00000   63.39640   98.27840   36.01900   34.86880    0.03940    0.12160
 2810.50000   64.18490  100.91030   35.29250   33.52940    0.04350    0.12640
 2811.00000   64.97340  100.80970   35.17480   33.91430    0.05030    0.12580
 2811.50000   65.13180  100.34380   36.39930   35.76170    0.06670    0.12260
 2812.00000   59.59520   96.78470   39.05180   37.20140    0.09890    0.10780
 2812.50000   54.17670   90.04370   39.30810   38.76440    0.15520    0.07170
 2813.00000   48.75820   89.96580   39.37390   40.75370    0.21200    0.01430
 2813.50000   43.33970   91.05350   39.61330   43.19380    0.25930   -0.04320
 2814.00000   40.10560   93.45930   40.75060   44.98430    0.27490   -0.05500
 2814.50000   40.14780   93.88730   44.74060   46.92410    0.27630   -0.04880
 2815.00000   40.19010   93.51430   45.85100   48.37490    0.27380   -0.04670
 2815.50000   40.23230   92.27930   46.15120   49.36860    0.27900   -0.04620
 2816.00000   40.48360   91.04440   46.38810   50.06140    0.28410   -0.04500
 2816.50000   41.57110   89.80940   46.51050   49.46780    0.26490   -0.04080
 2817.00000   41.94570   88.34820   46.63290   47.18740    0.21650   -0.04280
 2817.50000   40.08390   86.75330   46.73370   44.52830    0.18950   -0.05120
 2818.00000   40.10330   85.83760   46.73070   43.59690    0.17590   -0.05960
 2818.50000   40.12260   88.11590   46.72770   43.94340    0.19450   -0.06270
 2819.00000   40.14190   91.41170   46.29850   44.45720    0.22270   -0.05930
 2819.50000   41.05170   95.43030   45.48420   44.93480    0.24330   -0.05370
 2820.00000   41.96140   99.44900   44.51860   45.72380    0.26310   -0.04530
 2820.50000   43.22810  100.29390   44.18580   46.83450    0.28550   -0.03000
 2821.00000   44.83220   95.84440   44.23040   46.66660    0.28420   -0.01880
 2821.50000   46.66020   91.04290   44.84900   45.12950    0.24410   -0.00770
 2822.00000   49.70510   85.57640   44.37250   42.93380    0.17630    0.02070
 2822.50000   53.27860   82.77850   41.09790   39.69640    0.07370    0.04220
 2823.00000   55.70820   85.55440   37.82330   36.89500    0.04870    0.05320
 2823.50000   57.68270   89.86900   35.79960   35.82330    0.03120    0.06420
 2824.00000   60.13060   93.27080   36.67910   35.77830    0.03040    0.08880
 2824.50000   59.92080   87.26100   37.57930   35.88310    0.03260    0.09270
 2825.00000   53.76840   81.01920   38.47940   35.99020    0.05300    0.05740
 2825.50000   48.61930   76.82720   39.37960   36.09500    0.07690    0.02220
 2826.00000   47.77820   80.94520   42.38480   39.07140    0.12450    0.00060
 2826.50000   48.16360   85.94840   46.18630   43.73860    0.18780    0.00280
 2827.00000   48.54900   90.87740   48.42100   48.35870    0.26530    0.00670
 2827.50000   48.99710   93.24440   50.65570   51.04550    0.33350    0.01060
 2828.00000   49.69640   93.14140   47.22840   49.31700    0.27070    0.01440
 2828.50000   50.21120   93.42390   39.34320   41.92910    0.20790    0.01800
 2829.00000   50.85840   94.14090   27.63410   31.13620    0.09080    0.02150
 2829.50000   51.38880   94.85790   17.31840   21.88270    0.03030    0.02390
 2830.00000   51.30940   96.60400   13.29500   14.79790   -0.00490    0.02440
 2830.50000   49.74870  100.67730   10.58600    9.88380   -0.00810    0.01980
 2831.00000   49.25630  104.79110   10.04200    9.11900   -0.00810    0.01360
 2831.50000   49.97540  109.08540    9.56590    9.62310   -0.00560    0.01490
 2832.00000   52.44720  113.11130    9.52160   10.74520   -0.00160    0.03190
 2832.50000   56.17730  116.70620   13.33460   13.21590    0.01850    0.05520
 2833.00000   60.52080  120.30120   19.39090   17.63240    0.04230    0.07850
 2833.50000   64.57260  123.89620   28.95990   25.60270    0.06680    0.10890
 2834.00000   68.62430  126.13230   35.62090   31.94950    0.08220    0.14090
 2834.50000   70.78400  125.69410   41.02840   38.22400    0.07890    0.16230
 2835.00000   71.44320  125.25600   43.46760   41.51130    0.07170    0.16830
 2835.50000   70.88740  125.47130   45.90670   42.77840    0.06800    0.16550
 2836.00000   70.15000  125.99800   47.06400   44.00860    0.06900    0.16060
 2836.50000   70.15950  126.04690   47.45070   44.49130    0.07200    0.15910
 2837.00000   70.16910  126.04690   47.48750   44.52670    0.07650    0.16000
 2837.50000   70.17860  126.04700   47.32330   44.85420    0.08100    0.16060
 2838.00000   70.18820  126.04770   46.99850   45.09160    0.07760    0.16020
 2838.50000   68.75380  127.35260   44.86680   42.77990    0.06270    0.15150
 2839.00000   68.22940  129.09370   37.10290   37.61620    0.03700    0.14500
