~Version ---------------------------------------------------
VERS.   2.0 : CWLS log ASCII Standard -VERSION 2.0
WRAP.    NO : One line per depth step
DLM . SPACE : Column Data Section Delimiter
~Well ------------------------------------------------------
STRT .FT                   7.0 : START DEPTH
STOP .FT                3990.0 : STOP DEPTH
STEP .FT                   0.5 : STEP
NULL .                -9999.25 : NULL VALUE
COMP .                         : COMPANY
WELL .                         : WELL
FLD  .                         : FIELD
LOC  .                         : LOCATION
PROV .                         : PROVINCE
CNTY .                         : COUNTY
STAT .                         : STATE
CTRY .                         : COUNTRY
SRVC .                         : SERVICE COMPANY
DATE .                         : DATE
UWI  .                         : UNIQUE WELL ID
API  .                         : API NUMBER
SLAT .WGS84 2.9077605796239965 : SURFACE LATITUDE
SLON .WGS84  6.372655013293993 : SURFACE LONGITUDE
DATUM.F                2884.15 : DEPTH DATUM ELEV
~Curve Information -----------------------------------------
DEPT   .FT    : DEPTH FEET
DTCO   .US/F  : DELTA TIME COMPRESSIONAL FROM SDT LOG
DTSM   .US/F  : DELTA TIME SHEAR WAVE FROM SDT LOG
GRD    .GAPI  : GAMMA RAY FROM CNL LOG
GRS    .GAPI  : GAMMA RAY FROM SDT LOG
NPHI_LS.DEC   : NEUTRON POROSITY LIMESTONE FROM CNL LOG
SPHI_LS.DEC   : SONIC POROSITY LIMESTONE [DTM=47.6, DTF=189] FROM SDT LOG
~Params ----------------------------------------------------
~Other -----------------------------------------------------
~ASCII -----------------------------------------------------
# ...
 2479.00000   -9999.25   -9999.25   25.58250   -9999.25    0.01910   -9999.25
 2479.50000   -9999.25   -9999.25   25.39810   -9999.25    0.01500   -9999.25
 2480.00000   -9999.25   -9999.25   23.48420   -9999.25    0.00430   -9999.25
 2480.50000   -9999.25   -9999.25   19.51000   -9999.25   -0.00650   -9999.25
 2481.00000   -9999.25   -9999.25   17.26120   -9999.25   -0.00820   -9999.25
 2481.50000   -9999.25   -9999.25   15.51990   -9999.25   -0.00890   -9999.25
 2482.00000   -9999.25   -9999.25   14.07750   -9999.25   -0.00890   -9999.25
 2482.50000   -9999.25   -9999.25   13.42070   -9999.25   -0.00890   -9999.25
 2483.00000   -9999.25   -9999.25   12.87010   -9999.25   -0.00890   -9999.25
 2483.50000   -9999.25   -9999.25   12.84530   -9999.25   -0.00890   -9999.25
 2484.00000   -9999.25   -9999.25   13.42620   -9999.25   -0.00890   -9999.25
 2484.50000   -9999.25   -9999.25   14.00710   -9999.25   -0.00930   -9999.25
 2485.00000   -9999.25   -9999.25   14.58810   -9999.25   -0.01030   -9999.25
 2485.50000   -9999.25   -9999.25   15.16900   -9999.25   -0.01150   -9999.25
 2486.00000   -9999.25   -9999.25   15.75000   -9999.25   -0.01100   -9999.25
 2486.50000   -9999.25   -9999.25   16.33090   -9999.25   -0.00410   -9999.25
 2487.00000   -9999.25   -9999.25   17.60710   -9999.25    0.01050   -9999.25
 2487.50000   -9999.25   -9999.25   22.10400   -9999.25    0.03880   -9999.25
 2488.00000   -9999.25   -9999.25   25.15460   -9999.25    0.08380   -9999.25
 2488.50000   -9999.25   -9999.25   27.07260   -9999.25    0.12880   -9999.25
 2489.00000   -9999.25   -9999.25   27.08130   -9999.25    0.15430   -9999.25
 2489.50000   -9999.25   -9999.25   26.32710   -9999.25    0.11780   -9999.25
 2490.00000   -9999.25   -9999.25   23.23970   -9999.25    0.08330   -9999.25
 2490.50000   -9999.25   -9999.25   19.44240   -9999.25    0.04440   -9999.25
 2491.00000   -9999.25   -9999.25   16.52480   -9999.25    0.02500   -9999.25
 2491.50000   -9999.25   -9999.25   13.84100   -9999.25    0.01880   -9999.25
 2492.00000   -9999.25   -9999.25   11.15720   -9999.25    0.01220   -9999.25
 2492.50000   -9999.25   -9999.25   10.75820   -9999.25    0.00560   -9999.25
 2493.00000   -9999.25   -9999.25   10.93070   -9999.25    0.00180   -9999.25
 2493.50000   -9999.25   -9999.25   12.48750   -9999.25    0.00470   -9999.25
 2494.00000   -9999.25   -9999.25   16.16990   -9999.25    0.01830   -9999.25
 2494.50000   -9999.25   -9999.25   20.71590   -9999.25    0.05060   -9999.25
 2495.00000   -9999.25  114.92260   25.98680   -9999.25    0.08120   -9999.25
 2495.50000   -9999.25  112.99340   31.55340   -9999.25    0.10100   -9999.25
 2496.00000   56.07800  110.39120   34.85080   37.40410    0.10300    0.05920
 2496.50000   55.07870  107.27940   36.85330   38.19460    0.10750    0.05550
 2497.00000   54.07930  102.69540   38.31650   38.18380    0.12380    0.04970
 2497.50000   52.98610   98.11150   39.77960   38.17170    0.16260    0.03600
 2498.00000   52.45350   93.52750   41.13650   39.91280    0.24520    0.03280
 2498.50000   53.75450   90.23170   42.01770   42.43660    0.39900    0.04300
 2499.00000   55.24530   90.63850   42.40880   42.92230    0.49080    0.05310
 2499.50000   55.45100   93.12460   42.40880   43.30710    0.53520    0.05560
 2500.00000   55.30440   96.44380   42.30680   43.43090    0.52590    0.05490
 2500.50000   55.15210  102.12000   41.99650   43.28840    0.45630    0.05400
 2501.00000   55.08030  106.71080   41.64840   42.85510    0.36460    0.05300
 2501.50000   55.12900  111.30160   41.30030   42.47960    0.28400    0.05280
 2502.00000   55.17780  115.89240   40.95220   41.46910    0.24640    0.05300
 2502.50000   55.22650  120.48330   40.13570   39.32030    0.26050    0.05330
 2503.00000   55.44180  125.07410   38.67100   38.22400    0.28870    0.05560
 2503.50000   55.76810  128.75100   37.20400   37.34580    0.27280    0.05790
 2504.00000   56.09440  129.69520   34.52450   36.84120    0.23800    0.05970
 2504.50000   56.17010  129.50620   32.10710   36.08240    0.20510    0.06050
 2505.00000   56.07340  127.52920   31.21890   34.95470    0.18110    0.05950
 2505.50000   55.73260  125.49790   31.34600   33.60140    0.16460    0.05830
 2506.00000   55.10050  124.34380   32.51080   32.52020    0.16300    0.05260
 2506.50000   54.57090  123.62500   33.18120   31.78210    0.17570    0.04830
 2507.00000   54.35910  123.01300   32.76690   32.15330    0.16540    0.04680
 2507.50000   54.35910  123.10170   30.55850   32.17330    0.12420    0.04800
 2508.00000   54.35910  124.31780   27.90470   29.58540    0.07830    0.04920
 2508.50000   55.04250  126.20780   25.25090   26.73230    0.03860    0.05320
 2509.00000   55.80420  127.03530   22.59710   23.09340    0.01690    0.05670
 2509.50000   56.22510  127.97610   19.94320   19.89900    0.00620    0.05940
 2510.00000   56.51020  128.72640   17.28940   17.05560   -0.00150    0.06340
 2510.50000   57.05610  128.55040   15.24750   15.41410   -0.00510    0.06580
 2511.00000   57.23980  120.70890   14.37630   15.65300   -0.00470    0.06770
 2511.50000   57.20170  102.18860   14.14690   16.41870   -0.00290    0.06820
 2512.00000   57.13300   86.84510   14.65070   17.05980   -0.00110    0.06910
 2512.50000   57.61260   80.21970   15.69650   16.82530    0.00070    0.07330
 2513.00000   58.91470   80.21970   16.77920   16.38790    0.00260    0.08390
 2513.50000   59.95490   80.21970   16.88560   15.86070    0.00450    0.08560
 2514.00000   57.66730   80.21970   16.74100   15.33370    0.00540    0.07030
 2514.50000   55.27160   81.49420   16.87210   15.26630    0.00300    0.05820
 2515.00000   54.40040   83.90040   17.07250   15.27320    0.00070    0.04850
 2515.50000   53.81750   90.36370   17.19900   15.71010   -0.00240    0.04600
 2516.00000   55.39380   91.53670   17.00320   16.02280   -0.00430    0.05530
 2516.50000   56.85780   91.31870   16.57360   16.45960   -0.00220    0.06450
 2517.00000   56.22100   90.10210   17.10510   16.87200    0.00370    0.06560
 2517.50000   55.17450   90.08590   18.89140   18.50610    0.01670    0.05970
 2518.00000   55.04870   86.89180   20.88300   20.97380    0.03550    0.05240
 2518.50000   54.15160   86.42750   23.09560   24.26440    0.06190    0.04430
 2519.00000   53.05590   86.55390   26.68600   25.77100    0.10120    0.03940
 2519.50000   53.38300   88.17000   29.95130   27.82500    0.13520    0.04100
 2520.00000   54.95760   89.73360   33.41590   30.54840    0.16620    0.05250
 2520.50000   55.62740   89.59090   36.67100   32.98740    0.19360    0.05770
 2521.00000   56.11970   88.45650   37.56080   36.36410    0.18790    0.06010
 2521.50000   56.12390   86.16200   37.22850   39.36770    0.15270    0.05970
 2522.00000   56.03060   83.87730   36.05840   41.02870    0.11200    0.05570
 2522.50000   54.94730   78.62440   35.61280   39.76650    0.08010    0.05150
 2523.00000   54.71490   79.01130   36.31030   38.01560    0.06880    0.04900
 2523.50000   55.81000   80.64150   37.70720   37.26280    0.08210    0.05440
 2524.00000   56.76910   80.34790   38.39710   36.93680    0.10860    0.06360
 2524.50000   55.01670   79.39670   38.89290   35.83590    0.12430    0.05830
 2525.00000   53.78980   79.37620   37.34660   33.11870    0.12070    0.04710
 2525.50000   53.90200   81.44620   31.87250   30.10730    0.09010    0.04330
 2526.00000   54.64560   83.45550   29.21820   25.48290    0.05510    0.04910
 2526.50000   55.38910   85.46480   22.85270   22.80860    0.01630    0.05470
 2527.00000   55.91960   87.47410   19.17220   20.13440    0.00590    0.05960
 2527.50000   56.03400   89.48350   16.97070   19.15480    0.00070    0.06020
 2528.00000   56.11480   90.39360   17.41880   18.86740   -0.00300    0.06050
 2528.50000   56.39690   90.56170   17.86690   18.68100   -0.00500    0.06190
 2529.00000   56.72930   90.37920   18.31500   19.02200   -0.00510    0.06450
 2529.50000   56.94490   90.34270   18.76300   20.19390   -0.00160    0.06640
 2530.00000   56.54210   90.32020   21.39920   21.62760    0.00360    0.06160
