~Version ---------------------------------------------------
VERS.   2.0 : CWLS log ASCII Standard -VERSION 2.0
WRAP.    NO : One line per depth step
DLM . SPACE : Column Data Section Delimiter
~Well ------------------------------------------------------
STRT .F                 7293.0 : START DEPTH
STOP .F                15081.0 : STOP DEPTH
STEP .F                    0.5 : STEP
NULL .                -9999.25 : NULL VALUE
COMP .                         : COMPANY
WELL .                         : WELL
FLD  .                         : FIELD
LOC  .                         : LOCATION
PROV .                         : PROVINCE
CNTY .                         : COUNTY
STAT .                         : STATE
CTRY .                         : COUNTRY
SRVC .                         : SERVICE COMPANY
DATE .                         : DATE
UWI  .                         : UNIQUE WELL ID
API  .                         : API NUMBER
SLAT .WGS84  5.692772930891202 : SURFACE LATITUDE
SLON .WGS84 4.8118330966239995 : SURFACE LONGITUDE
DATUM.F                2430.86 : DEPTH DATUM ELEV
~Curve Information -----------------------------------------
DEPT     .F     : 
AST10    .OHMM  : 10-IN. RESISTIVITY, 1-FT RESOLUTION
AST30    .OHMM  : 30 ARRAY INDUCTION 30
AST90    .OHMM  : 90-IN. RESISTIVITY, 1-FT RESOLUTION
CALI_SPCS.IN    : CALIPER FROM RESISTIVITY
DPHI_SLDT.DEC   : DENSITY POROSITY LIMESTONE
DT       .US/F  : INTERVAL TRANSIT TIME
DTC      .US/F  : COMPRESSIONAL-WAVE INTERVAL TRANSIT TIME ACAUSTIC SLOWNESS
DTS      .US/F  : DELTA SHEAR
DTSM     .US/F  : Delta-T Shear Slowness
GR       .GAPI  : GAMMA RAY FROM CEMENTBOND LOG
GR_STGC  .GAPI  : GAMMA RAY
NPHI_LS  .DEC   : NEUTRON POROSITY LIMESTONE
PEF_SLDT .B/E   : PHOTOELECTRIC FACTOR
QRHO_SLDT.G/C3  : DENSITY CORRECTION
RHOB_SLDT.G/C3  : BULK DENSITY
SPR      .MV    : SPONTANEOUS POTENTIAL FROM RES.
~Params ----------------------------------------------------
~Other -----------------------------------------------------
~ASCII -----------------------------------------------------
# ...
 14646.00000   25.03830   17.75520   20.22400    9.51630    0.07050   80.81790   62.64250  145.18370  123.97480  218.15160  217.46160    0.22260    5.43890   -0.00210    2.59120 -119.01260
 14646.50000   24.17700   19.75170   20.85830    9.53690    0.07680   80.72710   62.66020  144.74970  123.76570  226.54980  229.05400    0.22610    5.58580   -0.00200    2.58040 -118.77260
 14647.00000   25.36420   18.13190   19.62180    9.58780    0.08000   80.56340   62.92050  140.89660  123.68080  231.25660  232.91810    0.22930    5.63520   -0.00200    2.57330 -118.53260
 14647.50000   26.60660   16.33460   18.04000    9.61860    0.06930   80.50180   62.51070  133.41270  123.42630  231.25380  231.00210    0.22990    5.51870   -0.00200    2.58720 -118.88110
 14648.00000   29.00240   16.86330   19.18940    9.64660    0.05730   79.83830   61.58500  129.20660  122.76900  227.17310  222.54210    0.22450    5.40180   -0.00190    2.61110 -118.76920
 14648.50000   29.92810   18.17130   21.05250    9.65730    0.04980   79.12250   61.07470  128.35200  121.83620  220.66850  210.98230    0.21600    5.35370   -0.00190    2.62420 -118.05290
 14649.00000   30.27100   18.42570   19.60890    9.68020    0.04080   78.72420   60.56440  127.19000  120.28870  214.16390  200.82270    0.20760    5.14270   -0.00180    2.63740 -117.83910
 14649.50000   29.85530   19.93560   20.09930    9.70320    0.02890   78.09180   59.22480  123.99770  119.94940  207.65920  189.11550    0.19200    4.87410   -0.00180    2.65520 -118.83690
 14650.00000   29.54630   19.29130   19.91430    9.70670    0.01020   75.69540   57.67800  121.46330  119.14380  201.15460  172.85010    0.17240    4.65570   -0.00180    2.67930 -118.82790
 14650.50000   31.44920   18.94640   19.73160    9.68780    0.00110   71.05770   55.21180  118.12340  109.65050  193.57270  156.92600    0.15380    4.46680   -0.00170    2.70670 -118.74060
 14651.00000   45.33140   21.00440   21.25100    9.63660   -0.01180   66.42890   50.36010  113.00890  100.74420  185.99080  148.24010    0.13080    4.49590   -0.00170    2.72990 -118.68750
 14651.50000   58.87120   27.64620   32.72030    9.57730   -0.02370   61.81360   45.25680  105.72500   91.87600  179.92530   93.32190    0.10780    4.54970   -0.00170    2.74710 -118.36010
 14652.00000   81.10870   37.09690   44.32680    9.50610   -0.02860   59.66000   41.48520   93.90860   87.01560  137.47200   70.28600    0.08380    4.60220   -0.00160    2.75840 -118.67110
 14652.50000  112.42680   42.63380   42.89980    9.44710   -0.03030   58.72370   38.56850   89.60800   85.09340  109.16540   56.55410    0.07320    4.62380   -0.00200    2.76150 -119.18430
 14653.00000  137.37490   41.08130   42.71790    9.40660   -0.03090   58.68390   39.49710   88.40170   84.76630   91.01540   53.61350    0.07150    4.62380   -0.00200    2.76230 -119.39540
 14653.50000  161.35120   45.70210   48.78730    9.38460   -0.03430   58.20130   38.87190   87.10220   83.62440   81.73640   54.97000    0.06830    4.59410   -0.00200    2.76670 -119.47640
 14654.00000  260.39780   47.42980   50.63160    9.39670   -0.03800   57.24820   37.42360   85.04030   81.15290   76.88720   49.59410    0.06170    4.51970   -0.00190    2.77570 -119.55730
 14654.50000  375.05820   57.20910   91.99710    9.40890   -0.04490   55.44220   34.76550   82.83520   79.39690   73.59810   40.96190    0.05140    4.44530   -0.00190    2.78720 -119.62200
 14655.00000  583.29280  113.84860  122.47440    9.45960   -0.05080   53.46180   31.40730   78.37310   75.74020   68.83550   33.61950    0.04110    4.46230   -0.00190    2.79740 -120.03500
 14655.50000  799.27300  107.19830  115.85570    9.59380   -0.05550   52.41280   30.14770   75.89670   73.46040   64.50110   29.71950    0.03100    4.53430   -0.00180    2.80660 -120.66430
 14656.00000  870.68970  126.07110  152.98220    9.62030   -0.05640   52.35660   31.23130   76.35670   73.19210   60.30750   32.68010    0.02720    4.61380   -0.00180    2.80330 -120.67310
 14656.50000  704.05630   95.04200  132.41710    9.59250   -0.04930   53.92560   32.64220   78.60430   75.98400   55.65500   40.67960    0.02620    4.63320   -0.00180    2.79200 -120.73260
 14657.00000  480.75820   74.75150   88.02160    9.55070   -0.03980   56.00940   33.87390   80.97900   79.29600   53.60540   51.31280    0.03490    4.54120   -0.00180    2.77870 -120.99110
 14657.50000  345.26460   56.60700   65.44470    9.47410   -0.03390   58.31000   36.11820   83.98640   84.32850   53.78420   61.94590    0.04530    4.43940   -0.00170    2.76790 -121.31690
 14658.00000  278.25340   51.57310   59.69830    9.39750   -0.03170   59.81160   38.36240   87.13880   85.70080   58.59910   71.11820    0.06160    4.42150   -0.00170    2.76520 -121.00770
 14658.50000  211.24210   46.58470   54.04590    9.35200   -0.03560   59.17100   40.51560   90.60820   85.65600   65.06650   71.66960    0.07640    4.49470   -0.00170    2.77350 -120.61450
 14659.00000  181.12810   44.26700   48.36170    9.32720   -0.04170   58.05300   40.01460   91.27110   83.99270   70.19530   65.96660    0.07600    4.62920   -0.00170    2.78420 -120.22140
 14659.50000  142.04000   42.33540   45.46740    9.32530   -0.04810   57.06850   38.40400   90.73620   81.82190   72.47740   58.83580    0.06910    4.73020   -0.00160    2.79270 -119.93210
 14660.00000  116.14510   41.29970   44.36040    9.32030   -0.04670   58.17190   36.93660   92.05530   83.96310   71.43560   59.43610    0.06690    4.70240   -0.00160    2.79010 -119.64200
 14660.50000   91.17390   39.61560   41.44840    9.31370   -0.03920   61.26810   38.28610   97.93390   87.07000   69.15280   71.75100    0.08040    4.61760   -0.00160    2.77700 -119.33680
 14661.00000   58.77310   29.58380   33.25110    9.30080   -0.02700   65.38860   42.46410  105.28580   94.95800   68.23550   84.93320    0.09830    4.68000   -0.00150    2.75830 -119.43380
 14661.50000   47.36510   23.59640   26.98700    9.28780   -0.01500   68.01750   45.55150  109.83060  100.67760   69.29400   94.80050    0.12760    4.97490   -0.00150    2.73600 -119.66340
 14662.00000   79.26240   27.14830   30.78290    9.24450   -0.00700   66.69840   48.21020  111.75610   98.66530   74.12970   97.29220    0.12280    5.51150   -0.00150    2.72190 -119.89290
 14662.50000   95.91670   36.01150   37.93930    9.18830   -0.00740   64.14940   48.91970  110.33990   93.30880   83.27010   89.69860    0.10500    5.58870   -0.00150    2.72260 -120.12250
 14663.00000  114.83760   40.55340   42.75900    9.12780   -0.00710   62.42730   44.71460  104.78960   91.03990   93.25720   88.81270    0.08720    5.32530   -0.00140    2.72330 -119.91880
 14663.50000  118.50890   39.08020   41.20560    9.13900   -0.00410   63.50310   41.37720   99.57630   92.20500  101.67610   95.00830    0.08280    5.10790   -0.00140    2.71830 -118.71720
 14664.00000  112.78540   36.37840   40.95380    9.15830   -0.00030   64.83060   42.90950  101.72190   95.28550  105.56180  103.85760    0.09200    5.00920   -0.00140    2.71070 -118.65900
 14664.50000  127.70650   33.85720   41.85050    9.14720   -0.00060   65.81260   45.57640  104.06570   97.75000  111.04590  113.72210    0.10260    5.18180   -0.00130    2.71050 -119.13910
 14665.00000  135.15930   37.49040   40.45520    9.12850   -0.00480   65.47870   47.00960  104.43180   96.54280  117.74320  118.98110    0.10320    5.22920   -0.00130    2.71850 -119.95470
 14665.50000  115.94330   36.63400   40.20800    9.13090   -0.00810   64.51520   46.27050  102.57820   95.53260  121.42200  122.38890    0.10020    5.17190   -0.00130    2.72400 -120.26890
 14666.00000   96.90860   32.33380   34.71630    9.14730   -0.00630   65.11720   45.64360  100.50670   95.99070  123.90820  126.02920    0.10140    5.01350   -0.00130    2.71890 -120.16560
 14666.50000   77.87380   30.86830   32.19710    9.16370   -0.00410   66.02020   45.78890  101.98240   97.68900  126.49730  129.58450    0.10580    4.89540   -0.00120    2.71690 -119.98170
 14667.00000   59.90670   29.06630   29.62350    9.18140   -0.00440   67.22880   46.61610  104.07230  100.07870  133.65100  137.26010    0.11350    4.87650   -0.00120    2.71720 -119.79780
