~Version ---------------------------------------------------
VERS.   2.0 : CWLS log ASCII Standard -VERSION 2.0
WRAP.    NO : One line per depth step
DLM . SPACE : Column Data Section Delimiter
~Well ------------------------------------------------------
STRT .F                 7293.0 : START DEPTH
STOP .F                15081.0 : STOP DEPTH
STEP .F                    0.5 : STEP
NULL .                -9999.25 : NULL VALUE
COMP .                         : COMPANY
WELL .                         : WELL
FLD  .                         : FIELD
LOC  .                         : LOCATION
PROV .                         : PROVINCE
CNTY .                         : COUNTY
STAT .                         : STATE
CTRY .                         : COUNTRY
SRVC .                         : SERVICE COMPANY
DATE .                         : DATE
UWI  .                         : UNIQUE WELL ID
API  .                         : API NUMBER
SLAT .WGS84  5.692772930891202 : SURFACE LATITUDE
SLON .WGS84 4.8118330966239995 : SURFACE LONGITUDE
DATUM.F                2430.86 : DEPTH DATUM ELEV
~Curve Information -----------------------------------------
DEPT     .F     : 
AST10    .OHMM  : 10-IN. RESISTIVITY, 1-FT RESOLUTION
AST30    .OHMM  : 30 ARRAY INDUCTION 30
AST90    .OHMM  : 90-IN. RESISTIVITY, 1-FT RESOLUTION
CALI_SPCS.IN    : CALIPER FROM RESISTIVITY
DPHI_SLDT.DEC   : DENSITY POROSITY LIMESTONE
DT       .US/F  : INTERVAL TRANSIT TIME
DTC      .US/F  : COMPRESSIONAL-WAVE INTERVAL TRANSIT TIME ACAUSTIC SLOWNESS
DTS      .US/F  : DELTA SHEAR
DTSM     .US/F  : Delta-T Shear Slowness
GR       .GAPI  : GAMMA RAY FROM CEMENTBOND LOG
GR_STGC  .GAPI  : GAMMA RAY
NPHI_LS  .DEC   : NEUTRON POROSITY LIMESTONE
PEF_SLDT .B/E   : PHOTOELECTRIC FACTOR
QRHO_SLDT.G/C3  : DENSITY CORRECTION
RHOB_SLDT.G/C3  : BULK DENSITY
SPR      .MV    : SPONTANEOUS POTENTIAL FROM RES.
~Params ----------------------------------------------------
~Other -----------------------------------------------------
~ASCII -----------------------------------------------------
# ...
 11722.00000    8.43590   14.93010   15.99740    9.79020    0.01840   66.12120   43.29380   78.60380   97.80510   93.72590   93.11780    0.20750    6.24590   -0.00270    2.71070   35.15720
 11722.50000    9.09960   16.84470   19.66830    9.80550    0.08510   65.81210   42.04550   83.64980   97.53240   91.76130   88.23700    0.20250    6.17000   -0.00270    2.58840   34.70930
 11723.00000    9.37050   19.54030   21.00170    9.80550    0.19070   65.89290   41.20400   90.30850   97.56360   89.33000   83.26660    0.19240    6.54720   -0.00270    2.44500   34.41240
 11723.50000    9.18890   18.11080   19.53370    9.80500    0.23610   66.40860   41.60490   99.89720   98.30570   87.25650   77.87860    0.18240    6.84760   -0.00270    2.33820   34.09390
 11724.00000    8.83670   17.57370   18.62810    9.80130    0.24320   66.74030   42.36440  107.66550   99.28040   87.49730   72.38630    0.17230    7.00230   -0.00270    2.29960   34.01580
 11724.50000    8.81150   17.66000   18.80560    9.79750    0.23580   65.67530   44.71820  112.44310   98.52270   88.76830   67.50110    0.16400    7.03370   -0.00270    2.29960   33.93760
 11725.00000    9.43040   18.07780   21.87660    9.80220    0.22530   63.63590   45.62750  112.93510   95.15860   89.21430   63.52630    0.15960    7.26130   -0.00270    2.31560   33.70170
 11725.50000   10.65300   19.29280   25.61890    9.80690    0.21480   61.20060   44.10270  111.56590   89.49280   86.36920   60.90800    0.14430    7.69600   -0.00270    2.33590   33.42630
 11726.00000   11.72440   23.65760   27.93710    9.80680    0.21350   59.25230   42.76890  108.27480   85.99640   81.87340   62.20570    0.13640    8.13080   -0.00270    2.34360   33.15090
 11726.50000   11.34290   23.28510   27.37000    9.80340    0.22770   60.64240   43.64320  106.35420   87.56680   79.14800   63.87080    0.13580    8.14680   -0.00270    2.32990   32.67970
 11727.00000   11.09320   21.94450   25.08680    9.79990    0.23160   66.33480   47.96140  108.26220   94.14510   78.50200   63.87430    0.14000    7.96920   -0.00270    2.31570   32.84850
 11727.50000   10.53600   20.89190   24.63170    9.80370    0.22610   72.02720   53.66930  111.39350  108.41850   79.66410   62.50490    0.14540    7.79170   -0.00270    2.31940   33.28990
 11728.00000   10.11200   20.06980   24.63680    9.80600    0.21270   77.39750   59.71430  113.06420  117.16990   82.07330   61.80430    0.14850    7.61410   -0.00270    2.33460   33.68980
 11728.50000   10.02140   19.49260   22.69410    9.80300    0.19940   78.90760   60.96520  110.74310  120.75530   82.12340   62.37190    0.15250    7.43650   -0.00270    2.35540   34.49100
 11729.00000   10.04730   18.91530   21.58500    9.79730    0.18830   77.13530   59.90130  105.88390  119.43960   76.73390   64.49910    0.15660    7.25900   -0.00270    2.37620   35.10630
 11729.50000    9.90350   18.45400   22.47330    9.80470    0.18050   73.41370   54.84960  100.76360  113.66770   68.10340   66.57010    0.16060    7.11700   -0.00270    2.39700   34.97780
 11730.00000    9.34280   18.03710   21.06930    9.79830    0.17810   68.38440   50.51280   97.61140  106.56570   63.34330   70.67070    0.16460    7.76400   -0.00270    2.40530   34.84920
 11730.50000    9.10730   17.71010   20.56000    9.79190    0.19000   66.19710   48.37180   96.10660   98.43040   65.96930   73.68980    0.17750    8.71940   -0.00270    2.38610   34.72060
 11731.00000    8.97860   18.04500   20.50190    9.79480    0.21670   66.44820   47.08690   95.48910   98.63280   71.20690   77.39720    0.19420    8.98730   -0.00270    2.34580   34.89290
 11731.50000    8.68070   18.99230   20.88940    9.79760    0.24530   66.45900   47.03180   97.36260   98.59750   75.63100   74.78990    0.21050    8.44730   -0.00270    2.30090   35.04900
 11732.00000    8.38220   19.08460   21.25760    9.79560    0.24580   66.48690   45.83790   97.93020   98.38400   75.83440   69.27060    0.21540    7.90720   -0.00270    2.28340   35.20510
 11732.50000    8.03150   18.46830   19.46890    9.79030    0.22990   66.98170   44.10670   97.59040   99.82500   76.16840   63.23630    0.20870    7.36720   -0.00270    2.33510   34.48460
 11733.00000    7.60210   18.02730   18.93850    9.78510    0.17770   67.51240   41.99670   98.09620  100.54450   77.21860   60.33170    0.20260    6.82710   -0.00270    2.39280   33.54500
 11733.50000    7.12170   17.58640   18.65460    9.78450    0.14010   67.12260   40.50920   99.71070  100.06320   77.83410   59.75790    0.19650    6.54020   -0.00270    2.47440   32.83120
 11734.00000    6.91570   16.71130   18.20180    9.78400    0.10210   66.21030   38.41380   99.45930   98.36090   77.59120   59.99140    0.19040    6.40640   -0.00270    2.53430   32.35880
 11734.50000    6.48420   15.59380   17.54370    9.79020    0.11140   65.49580   38.47910   98.95900   96.79160   77.29800   59.54950    0.18910    6.49090   -0.00270    2.53300   32.32770
 11735.00000    6.38720   15.30190   16.44610    9.78420    0.13120   65.15640   40.44240   99.30660   96.06600   77.15580   59.08410    0.19100    6.60040   -0.00270    2.49780   32.13620
 11735.50000    6.58100   15.59130   16.75740    9.77830    0.15240   65.82770   42.63650  101.37040   97.88500   76.23410   59.58400    0.19120    6.68330   -0.00270    2.46490   32.03710
 11736.00000    7.04980   16.79440   18.67380    9.77830    0.18180   66.98380   43.45390  103.63270  100.57580   74.91460   61.04160    0.18900    6.65740   -0.00260    2.41280   32.30770
 11736.50000    7.25050   18.59980   20.05290    9.77830    0.25690   67.72010   43.60290  107.58760  100.88530   75.00020   64.20000    0.18680    7.21660   -0.00320    2.27890   32.26250
 11737.00000    7.41270   18.34780   19.88390    9.77830    0.29760   67.92120   43.34560  111.96670  101.14020   76.34580   62.67350    0.18680    8.05360   -0.00750    2.14500   32.52630
 11737.50000    7.41440   17.50110   18.40010    9.78260    0.41670   67.55080   44.01280  113.70000  100.55170   76.29620   59.38590    0.19470    9.50960   -0.01820    2.05430   33.52620
 11738.00000    7.46380   16.65470   18.06640    9.78270    0.47440   67.09580   45.66630  114.44470  100.16840   74.17850   56.68750    0.20370   10.96560   -0.02890    1.99260   34.39520
 11738.50000    7.65140   16.73530   17.73910    9.78280    0.46330   66.96860   47.99460  116.28700   99.70730   68.22390   56.13230    0.20560   11.24390   -0.03520    1.90240   35.26410
 11739.00000    8.07030   18.27940   19.46550    9.78290    0.41990   66.88260   49.54640  119.20740   99.37970   65.91220   56.38820    0.20360   10.22940   -0.03490    1.91610   36.23750
 11739.50000    8.37030   19.87340   20.51950    9.78300    0.38510   66.55740   50.20600  120.50610   98.64030   67.17990   56.88970    0.19820    9.22830   -0.02510    1.96650   37.68240
 11740.00000    8.33010   19.23290   20.52330    9.78320    0.30210   66.20940   50.13060  118.64660   98.47080   69.13950   57.55480    0.19310    8.53820   -0.00990    2.05370   39.12720
 11740.50000    8.37280   17.38420   17.96640    9.78330    0.29950   66.99740   49.74790  115.33410   99.27120   72.24800   58.54160    0.19160    7.92580   -0.00270    2.18140   40.12620
 11741.00000    8.70930   15.39230   16.38840    9.78340    0.19660   68.28140   48.94930  112.90400  101.56140   76.20330   59.18230    0.19060    7.34840   -0.00210    2.30900   42.24150
 11741.50000    8.37420   15.17400   15.81330    9.78350    0.15390   67.56300   47.95120  111.47270  101.79750   79.10940   59.04800    0.18430    6.77100   -0.00420    2.39700   40.98240
 11742.00000    8.65540   16.56440   21.22210    9.78350    0.09850   64.33510   46.95300  112.13720   98.38400   75.46180   59.42250    0.17830    6.19350   -0.00660    2.47500   40.75750
 11742.50000    9.55760   19.96980   26.92040    9.78950    0.07230   59.92790   46.10200  110.62860   89.30180   70.60130   60.15910    0.17240    5.91000   -0.00790    2.54360   41.28020
 11743.00000   10.72150   25.10670   29.29000    9.79600    0.04610   57.35320   45.05300  105.47670   81.68240   66.40110   60.93810    0.15730    5.88030   -0.00650    2.59800   43.41890
