~Version ---------------------------------------------------
VERS.   2.0 : CWLS log ASCII Standard -VERSION 2.0
WRAP.    NO : One line per depth step
DLM . SPACE : Column Data Section Delimiter
~Well ------------------------------------------------------
STRT .F                 7293.0 : START DEPTH
STOP .F                15081.0 : STOP DEPTH
STEP .F                    0.5 : STEP
NULL .                -9999.25 : NULL VALUE
COMP .                         : COMPANY
WELL .                         : WELL
FLD  .                         : FIELD
LOC  .                         : LOCATION
PROV .                         : PROVINCE
CNTY .                         : COUNTY
STAT .                         : STATE
CTRY .                         : COUNTRY
SRVC .                         : SERVICE COMPANY
DATE .                         : DATE
UWI  .                         : UNIQUE WELL ID
API  .                         : API NUMBER
SLAT .WGS84  5.692772930891202 : SURFACE LATITUDE
SLON .WGS84 4.8118330966239995 : SURFACE LONGITUDE
DATUM.F                2430.86 : DEPTH DATUM ELEV
~Curve Information -----------------------------------------
DEPT     .F     : 
AST10    .OHMM  : 10-IN. RESISTIVITY, 1-FT RESOLUTION
AST30    .OHMM  : 30 ARRAY INDUCTION 30
AST90    .OHMM  : 90-IN. RESISTIVITY, 1-FT RESOLUTION
CALI_SPCS.IN    : CALIPER FROM RESISTIVITY
DPHI_SLDT.DEC   : DENSITY POROSITY LIMESTONE
DT       .US/F  : INTERVAL TRANSIT TIME
DTC      .US/F  : COMPRESSIONAL-WAVE INTERVAL TRANSIT TIME ACAUSTIC SLOWNESS
DTS      .US/F  : DELTA SHEAR
DTSM     .US/F  : Delta-T Shear Slowness
GR       .GAPI  : GAMMA RAY FROM CEMENTBOND LOG
GR_STGC  .GAPI  : GAMMA RAY
NPHI_LS  .DEC   : NEUTRON POROSITY LIMESTONE
PEF_SLDT .B/E   : PHOTOELECTRIC FACTOR
QRHO_SLDT.G/C3  : DENSITY CORRECTION
RHOB_SLDT.G/C3  : BULK DENSITY
SPR      .MV    : SPONTANEOUS POTENTIAL FROM RES.
~Params ----------------------------------------------------
~Other -----------------------------------------------------
~ASCII -----------------------------------------------------
# ...
 12969.00000   16.36460   25.48240   30.20960    9.81110   -0.01270   63.51240   44.21410   95.45550   93.21820  126.16580   98.15140    0.09250    5.77950   -0.00930    2.73220 -163.36970
 12969.50000   16.50100   28.87800   31.87960    9.81170   -0.01670   63.77960   42.62410   95.13440   94.01920  122.71760  101.11550    0.08920    5.72590   -0.00730    2.73750 -164.10470
 12970.00000   17.11940   30.67070   34.01590    9.81240   -0.02080   64.29980   42.23790   95.31410   94.91190  116.79990  105.72110    0.08480    5.33610   -0.00290    2.74200 -164.88300
 12970.50000   18.23000   31.82880   34.49190    9.81310   -0.01800   64.66370   42.63490   97.12000   95.46350  113.50020  108.76410    0.08060    4.92960   -0.00330    2.74160 -164.88300
 12971.00000   17.83570   31.97660   32.74650    9.81370   -0.00850   65.07200   43.85470  102.48830   96.22580  114.45580  103.38000    0.08020    4.83940   -0.00370    2.72410 -164.88300
 12971.50000   16.68140   29.63650   28.79030    9.81440    0.00130   64.89900   44.58710  104.02660   95.89800  117.68500   97.19400    0.08050    5.02720   -0.00410    2.70880 -164.66100
 12972.00000   16.47640   27.44430   27.87160    9.81510    0.00130   64.65530   44.42290  104.02660   95.02860  120.30660   93.53420    0.08260    5.31800   -0.00390    2.70640 -164.56010
 12972.50000   15.98350   26.07960   27.23340    9.81570   -0.00380   64.25100   44.20090  104.02660   94.58050  117.13240   95.29240    0.08780    5.65440   -0.00320    2.71870 -164.37850
 12973.00000   15.87630   24.28810   25.52310    9.81640   -0.01040   64.02650   44.18670  103.32150   94.23760  112.17830   97.90760    0.09350    5.92190   -0.00290    2.73110 -163.99520
 12973.50000   14.92400   22.29760   22.79790    9.81710   -0.01590   64.31070   44.60420  101.76970   94.50940  110.86410   98.75870    0.10920    6.32970   -0.00290    2.73990 -163.28890
 12974.00000   13.79780   20.30710   21.30400    9.81770   -0.02100   64.67430   44.82210  100.95700   94.82410  114.76300   98.45240    0.12410    6.66130   -0.00290    2.74750 -162.58270
 12974.50000   13.07870   20.21330   21.70250    9.81840   -0.02160   64.60140   44.35740  101.34800   94.81110  119.93650   97.83100    0.12830    6.73540   -0.00290    2.74620 -161.87650
 12975.00000   12.59480   20.02680   21.60220    9.81910   -0.01370   64.34200   44.13050  102.58210   94.71080  121.93210   97.24670    0.12920    6.74910   -0.00290    2.73730 -161.65460
 12975.50000   12.01430   20.02680   21.30400    9.81970   -0.00050   63.96710   44.07680  104.53410   94.07430  119.13370   97.34880    0.12730    6.66010   -0.00290    2.70780 -161.65460
 12976.00000   11.88160   20.40140   21.80330    9.82040    0.01840   63.49180   43.82180  105.87600   93.08150  114.94120   98.10840    0.12340    6.60080   -0.00290    2.67290 -162.25990
 12976.50000   11.79370   21.56780   23.37240    9.82110    0.03600   63.30850   43.26460  105.90950   93.38060  110.06070   97.74760    0.11890    6.56900   -0.00290    2.64310 -163.06700
 12977.00000   11.57720   21.76860   24.03120    9.82170    0.04950   63.63500   43.29300  104.80580   93.67970  105.72980   96.63610    0.11710    6.60050   -0.00290    2.62210 -163.47050
 12977.50000   11.47040   21.76860   24.03120    9.82240    0.06060   63.89190   43.69910  102.92260   94.01940  103.24290   95.84950    0.11840    6.79710   -0.00290    2.60620 -163.46790
 12978.00000   11.09620   21.86970   23.15680    9.82310    0.06670   63.56820   43.90430  100.81280   93.78410  100.12960   95.42690    0.12050    7.10520   -0.00290    2.59600 -163.06920
 12978.50000   10.85070   21.56780   22.46990    9.82370    0.07410   62.66510   43.82250   98.93490   91.53510   96.89720   94.00360    0.12270    7.22100   -0.00290    2.58130 -162.68740
 12979.00000   10.45610   20.30710   22.31430    9.82440    0.08480   61.80510   43.71590   98.23740   90.58390   95.49050   89.88440    0.12310    7.22340   -0.00290    2.56330 -162.76740
 12979.50000   10.46420   20.30710   23.04980    9.82500    0.09600   61.45910   43.72060  100.67980   90.20800   97.02450   86.91440    0.11890    7.28030   -0.00450    2.54300 -162.84740
 12980.00000   10.73640   23.04420   27.87160    9.82450    0.10990   61.90960   44.31050  103.96090   90.51130   99.70960   85.87830    0.11560    7.44840   -0.01040    2.52410 -162.92740
 12980.50000   10.95110   25.13070   28.79030    9.82320    0.11810   61.49770   44.58260  106.10720   89.88270  101.38750   85.97590    0.11360    7.55750   -0.01620    2.50960 -163.00740
 12981.00000   10.85970   23.24170   27.39010    9.82200    0.12780   60.56200   43.61950  105.40880   88.14870   99.86320   86.71680    0.11320    7.67110   -0.01980    2.49260 -163.00330
 12981.50000   10.65090   21.86970   25.17080    9.82070    0.13460   59.28940   41.96300  103.71640   86.41480   95.55100   88.58490    0.11780    7.81800   -0.02270    2.48250 -162.51910
 12982.00000   10.42590   20.88290   24.36760    9.81940    0.13930   59.59510   41.39230  102.69990   86.20230   88.29990   92.15560    0.12980    8.01210   -0.02620    2.46690 -162.54440
 12982.50000   10.16040   20.02680   23.01350    9.81820    0.14870   61.51660   42.48320  104.76350   89.17310   85.77460   95.34340    0.13700    8.11710   -0.02800    2.45700 -161.44130
 12983.00000    9.89480   18.76910   21.50230    9.81690    0.15440   63.64060   44.43660  107.52260   92.80270   91.25480   94.22890    0.13870    8.06060   -0.02930    2.44770 -160.33830
 12983.50000    9.72830   17.91940   21.40300    9.81780    0.15400   65.14700   45.88330  105.83010   96.27180   99.71730   89.84720    0.14090    7.87630   -0.02730    2.44740 -160.10980
 12984.00000    9.94100   18.08620   21.30400    9.82540    0.14860   65.41080   46.34250  102.05150   96.89110  111.06630   85.27260    0.14360    7.63510   -0.02510    2.45380 -160.11370
 12984.50000   10.39380   21.24470   23.46320    9.83300    0.14370   65.28880   46.15790  100.30880   96.41290  120.38110   87.40010    0.14510    7.56310   -0.02220    2.46460 -160.14630
 12985.00000   10.85360   23.55240   27.35990    9.83550    0.13750   64.67590   45.62180  102.68620   95.41350  129.02560   96.26810    0.14370    7.78320   -0.01830    2.47610 -160.17900
 12985.50000   10.95110   21.95670   25.45880    9.83030    0.13230   64.17890   45.84180  105.06360   94.43820  136.03330  107.00680    0.14330    7.63050   -0.01660    2.48420 -160.21170
 12986.00000   10.46000   19.56830   22.83720    9.83320    0.13530   64.50750   46.05480  106.07310   94.89280  140.45840  115.72990    0.14410    7.21590   -0.01560    2.48070 -160.24440
 12986.50000   10.22120   19.47780   22.10840    9.83160    0.13730   64.59580   45.62090  103.31670   95.58630  142.23570  120.63570    0.13490    6.80130   -0.01460    2.47510 -160.27710
 12987.00000   10.55150   20.87960   22.83720    9.83660    0.13710   64.96240   44.56220   99.12670   96.27990  141.83450  117.90630    0.12140    6.68460   -0.01350    2.47590 -160.30970
 12987.50000   10.80160   21.27010   23.80960    9.83870    0.13350   65.52670   43.51700   95.68830   96.97340  138.12810  114.13470    0.11280    6.87360   -0.01150    2.48050 -160.34240
 12988.00000   10.20160   19.42450   21.74070    9.83640    0.12970   65.47030   43.79740   96.54970   97.09690  129.13140  112.87450    0.11020    7.00940   -0.01110    2.48770 -160.37510
 12988.50000    9.51220   17.36270   19.78190    9.84050    0.12530   65.05550   44.63280   99.34450   96.32570  122.44750  113.25030    0.10780    6.88880   -0.01100    2.49510 -160.40780
 12989.00000    9.61570   16.71630   20.52890    9.83750    0.12200   64.47280   46.01700  101.36630   95.31290  124.34680  113.49320    0.10580    6.62460   -0.01000    2.50010 -160.44040
 12989.50000   10.38020   21.45530   23.71090    9.83360    0.12110   63.95420   46.81910  100.99570   94.11840  129.88130  111.05220    0.09380    6.36040   -0.00840    2.50200 -160.47310
 12990.00000   10.60410   25.71960   27.05810    9.82970    0.11840   63.24870   46.46440  101.31890   94.78060  136.03220  107.46140    0.08460    6.29370   -0.00650    2.50470 -160.50580
