~Version ---------------------------------------------------
VERS.   2.0 : CWLS log ASCII Standard -VERSION 2.0
WRAP.    NO : One line per depth step
DLM . SPACE : Column Data Section Delimiter
~Well ------------------------------------------------------
STRT .F                 7293.0 : START DEPTH
STOP .F                15081.0 : STOP DEPTH
STEP .F                    0.5 : STEP
NULL .                -9999.25 : NULL VALUE
COMP .                         : COMPANY
WELL .                         : WELL
FLD  .                         : FIELD
LOC  .                         : LOCATION
PROV .                         : PROVINCE
CNTY .                         : COUNTY
STAT .                         : STATE
CTRY .                         : COUNTRY
SRVC .                         : SERVICE COMPANY
DATE .                         : DATE
UWI  .                         : UNIQUE WELL ID
API  .                         : API NUMBER
SLAT .WGS84  5.692772930891202 : SURFACE LATITUDE
SLON .WGS84 4.8118330966239995 : SURFACE LONGITUDE
DATUM.F                2430.86 : DEPTH DATUM ELEV
~Curve Information -----------------------------------------
DEPT     .F     : 
AST10    .OHMM  : 10-IN. RESISTIVITY, 1-FT RESOLUTION
AST30    .OHMM  : 30 ARRAY INDUCTION 30
AST90    .OHMM  : 90-IN. RESISTIVITY, 1-FT RESOLUTION
CALI_SPCS.IN    : CALIPER FROM RESISTIVITY
DPHI_SLDT.DEC   : DENSITY POROSITY LIMESTONE
DT       .US/F  : INTERVAL TRANSIT TIME
DTC      .US/F  : COMPRESSIONAL-WAVE INTERVAL TRANSIT TIME ACAUSTIC SLOWNESS
DTS      .US/F  : DELTA SHEAR
DTSM     .US/F  : Delta-T Shear Slowness
GR       .GAPI  : GAMMA RAY FROM CEMENTBOND LOG
GR_STGC  .GAPI  : GAMMA RAY
NPHI_LS  .DEC   : NEUTRON POROSITY LIMESTONE
PEF_SLDT .B/E   : PHOTOELECTRIC FACTOR
QRHO_SLDT.G/C3  : DENSITY CORRECTION
RHOB_SLDT.G/C3  : BULK DENSITY
SPR      .MV    : SPONTANEOUS POTENTIAL FROM RES.
~Params ----------------------------------------------------
~Other -----------------------------------------------------
~ASCII -----------------------------------------------------
# ...
 9636.50000    8.34390   14.02040   13.07810    9.51940    0.02810   77.93150   59.60050  126.85920  118.77030   -9999.25  123.54950    0.23810    5.92290   -0.00310    2.65270   13.49090
 9637.00000    8.69520   14.41880   13.78630    9.50860    0.01490   76.59400   60.49870  128.50580  116.86810   -9999.25  122.54050    0.24310    6.13610   -0.00870    2.68350   13.51140
 9637.50000    8.88200   16.04370   14.31030    9.50300    0.08760   75.26750   61.03770  126.13850  114.07570   -9999.25  118.10870    0.24820    6.34920   -0.01290    2.58340   13.46060
 9638.00000    8.45910   14.70580   13.41480    9.50880    0.20580   78.24600   60.38760  124.99180  119.57660   -9999.25  113.67680    0.26320    6.69440   -0.00860    2.41910   13.12430
 9638.50000    7.42790   12.34940   11.21690    9.57510    0.26450   81.09680   59.30420  125.65530  126.01650   -9999.25  109.82860    0.27820    6.80810   -0.00360    2.25490   12.78800
 9639.00000    7.01850   11.82510   10.74480    9.68880    0.26710   82.36510   58.23600  125.87040  126.84490   -9999.25  111.88960    0.28130    6.35080   -0.00360    2.25700   12.70940
 9639.50000    8.48570   14.16560   12.46290    9.67610    0.22010   81.45200   58.14450  125.11320  124.32640   -9999.25  116.64580    0.27210    6.05670   -0.00930    2.32760   12.31720
 9640.00000    9.75350   17.32030   16.01140    9.63610    0.19430   80.90410   59.46850  123.67340  124.54720   -9999.25  121.88770    0.26660    5.76270   -0.01610    2.37970   11.94280
 9640.50000    9.48420   17.05980   15.71800    9.61720    0.19020   81.75750   61.37110  122.60350  126.82400   -9999.25  126.93690    0.26740    5.46860   -0.01940    2.38730   11.92100
 9641.00000    8.70730   16.13720   14.96000    9.62980    0.17480   82.82580   61.42590  123.35810  127.72160   -9999.25  129.21360    0.26720    5.17450   -0.01590    2.41580   12.42810
 9641.50000    8.93510   16.43910   15.28710    9.63740    0.12020   83.06870   61.59630  126.79080  127.71800   -9999.25  131.03570    0.24940    4.88050   -0.01140    2.49580   12.94000
 9642.00000    9.49850   16.59210   14.96000    9.61580    0.07720   80.48540   61.30340  127.76120  121.07670   -9999.25  131.54800    0.23250    5.08230   -0.00920    2.57630   13.21770
 9642.50000   10.03180   16.36310   15.00640    9.59810    0.11670   77.18300   60.15000  124.15410  117.19250   -9999.25  131.04960    0.23440    5.09650   -0.00710    2.53050   13.04780
 9643.00000   10.14110   16.21220   14.77640    9.62640    0.16500   79.00940   58.51130  119.40800  120.73260   -9999.25  127.82210    0.24590    5.11070   -0.00490    2.45700   12.60860
 9643.50000    9.98540   17.44890   14.77640    9.66250    0.17710   80.80270   58.90260  118.32570  125.49460   -9999.25  124.59450    0.25320    5.12480   -0.00720    2.40540   12.16940
 9644.00000   11.76650   19.78850   16.06150    9.65940    0.15230   82.29770   60.26290  120.59940  125.80030   -9999.25  121.36700    0.24830    5.13900   -0.00600    2.44970   12.15610
 9644.50000   12.85830   21.60680   19.21250    9.62660    0.10960   79.12270   61.48630  123.88170  122.92500   -9999.25  119.46750    0.22900    4.90100   -0.00290    2.52370   12.05280
 9645.00000   14.05950   27.19550   23.24730    9.58130    0.07680   75.36600   61.55380  126.68640  116.79640   -9999.25  118.96960    0.20970    4.60000   -0.00290    2.58550   11.79180
 9645.50000   14.97460   34.62720   30.25300    9.53900    0.05600   73.25270   59.43310  126.14980  110.27550   -9999.25  129.94980    0.20510    4.40930   -0.00290    2.61180   11.66600
 9646.00000   18.00510   40.57260   35.32850    9.46700    0.09060   76.70070   57.78710  125.00010  115.29150   -9999.25  146.56340    0.23140    4.42920   -0.00290    2.56880   11.67580
 9646.50000   18.07150   40.76100   38.13920    9.41000    0.12660   83.52280   58.48060  124.18250  127.28520   -9999.25  148.97250    0.27410    4.46910   -0.00280    2.50310   11.68450
 9647.00000   17.63890   37.40300   33.49160    9.24140    0.15700   90.25180   62.40090  129.85400  138.24630   -9999.25  170.47990    0.29990    4.63750   -0.00280    2.45960   11.69380
 9647.50000   18.57530   36.30300   32.58070    9.09420    0.16790   95.61810   57.17520  120.00210  132.32660   -9999.25  185.96830    0.30000    4.78120   -0.00280    2.42780   11.83710
 9648.00000   21.34510   58.82370   58.94190    8.95240    0.16180   97.19040   49.59170  108.44360  129.86950   -9999.25  197.56690    0.30000    4.86860   -0.00280    2.42650   11.98000
 9648.50000   21.34020   79.79860   72.50730    8.80390    0.14910   97.32550   55.52960  120.74460  131.65370   -9999.25  208.15530    0.30000    4.96250   -0.00280    2.44890   12.06940
 9649.00000   21.90280   86.33770   76.18030    8.69640    0.14160   95.11860   59.78630  136.34430  122.94680   -9999.25  216.95730    0.30000    5.11280   -0.00280    2.46760   12.07860
 9649.50000   23.30820   71.35850   58.05000    8.65620    0.17420   90.20270   48.41650  119.99230  116.02040   -9999.25  224.43590    0.30000    5.52980   -0.00270    2.42980   12.08790
 9650.00000   22.06100   56.63810   48.83610    8.61990    0.25070   90.70750   46.11560  107.72820  124.70880   -9999.25  229.81090    0.30010    5.97890   -0.00270    2.35190   12.29510
 9650.50000   19.44630   43.33680   35.10400    8.64750    0.26390   90.98610   54.66820  130.92520  135.48690   -9999.25  224.31450    0.30010    6.42810   -0.00270    2.28190   11.49390
 9651.00000   13.75590   27.66720   21.33010    8.78620    0.25340   89.69980   61.88210  145.98840  139.66280   -9999.25  201.86740    0.28840    6.75830   -0.00270    2.25610   11.43880
 9651.50000   11.49980   18.01890   16.52650    8.91150    0.17360   85.61660   60.37810  142.19230  134.29260   -9999.25  168.28580    0.23440    6.55070   -0.00270    2.35170   11.38370
 9652.00000   13.86410   23.07130   20.86820    8.81650    0.09390   80.48670   55.30320  133.12400  119.66610   -9999.25  149.75300    0.18740    6.46460   -0.00270    2.47540   11.32860
 9652.50000   14.72210   23.49500   22.67380    8.61860    0.01410   72.41400   50.85530  123.26140  108.63200   -9999.25   97.80250    0.15300    6.37850   -0.00260    2.59910   11.27360
 9653.00000   14.79090   23.59670   22.18120    8.56940   -0.01200   66.73910   47.49130  112.18990   98.82150   -9999.25   90.39620    0.13750    6.29240   -0.00260    2.72030   11.21850
 9653.50000   15.59250   26.12320   23.80650    8.54800   -0.02760   64.23160   46.33900  106.62690   94.63050   -9999.25   85.34130    0.12890    6.20630   -0.00260    2.75620   11.14520
 9654.00000   16.09610   29.18660   24.69870    8.54790   -0.03370   64.16510   46.47330  106.14680   94.63410   -9999.25   81.44870    0.12530    6.12020   -0.00260    2.76660   10.84890
 9654.50000   16.18370   26.94280   23.81550    8.54780   -0.03330   65.14360   46.74180  107.35590   96.24710   -9999.25   82.05500    0.12870    6.03420   -0.00260    2.76820   10.55270
 9655.00000   16.03240   25.14520   22.08320    8.53880   -0.03180   66.13220   47.25100  107.77970   98.55200   -9999.25   85.32300    0.13170    5.94810   -0.00260    2.76590   10.25640
 9655.50000   15.67210   25.25450   21.87150    8.54010   -0.02990   66.66960   47.61030  107.53520   99.03000   -9999.25   87.56790    0.13270    5.86200   -0.00250    2.76280   10.18850
 9656.00000   16.79640   28.15970   24.52260    8.54800   -0.02750   65.93140   47.59150  105.52410   97.62240   -9999.25   85.26280    0.12520    5.77590   -0.00250    2.75790   10.17770
 9656.50000   18.10190   31.20730   28.24730    8.58220   -0.02610   64.80520   47.39600  103.59490   96.08200   -9999.25   81.57330    0.11480    5.68980   -0.00250    2.75500   10.43150
 9657.00000   18.43500   32.55380   31.75640    8.61210   -0.03000   64.12010   46.23760  103.33840   94.81370   -9999.25   81.72170    0.10940    5.60370   -0.00250    2.76030   10.45680
 9657.50000   19.41700   33.61420   32.23880    8.62490   -0.03810   63.63190   44.88530  104.07680   93.55720   -9999.25   82.58540    0.10510    5.51760   -0.00250    2.77370   10.16390
