~Version ---------------------------------------------------
VERS.   2.0 : CWLS log ASCII Standard -VERSION 2.0
WRAP.    NO : One line per depth step
DLM . SPACE : Column Data Section Delimiter
~Well ------------------------------------------------------
STRT .F                 7293.0 : START DEPTH
STOP .F                15081.0 : STOP DEPTH
STEP .F                    0.5 : STEP
NULL .                -9999.25 : NULL VALUE
COMP .                         : COMPANY
WELL .                         : WELL
FLD  .                         : FIELD
LOC  .                         : LOCATION
PROV .                         : PROVINCE
CNTY .                         : COUNTY
STAT .                         : STATE
CTRY .                         : COUNTRY
SRVC .                         : SERVICE COMPANY
DATE .                         : DATE
UWI  .                         : UNIQUE WELL ID
API  .                         : API NUMBER
SLAT .WGS84  5.692772930891202 : SURFACE LATITUDE
SLON .WGS84 4.8118330966239995 : SURFACE LONGITUDE
DATUM.F                2430.86 : DEPTH DATUM ELEV
~Curve Information -----------------------------------------
DEPT     .F     : 
AST10    .OHMM  : 10-IN. RESISTIVITY, 1-FT RESOLUTION
AST30    .OHMM  : 30 ARRAY INDUCTION 30
AST90    .OHMM  : 90-IN. RESISTIVITY, 1-FT RESOLUTION
CALI_SPCS.IN    : CALIPER FROM RESISTIVITY
DPHI_SLDT.DEC   : DENSITY POROSITY LIMESTONE
DT       .US/F  : INTERVAL TRANSIT TIME
DTC      .US/F  : COMPRESSIONAL-WAVE INTERVAL TRANSIT TIME ACAUSTIC SLOWNESS
DTS      .US/F  : DELTA SHEAR
DTSM     .US/F  : Delta-T Shear Slowness
GR       .GAPI  : GAMMA RAY FROM CEMENTBOND LOG
GR_STGC  .GAPI  : GAMMA RAY
NPHI_LS  .DEC   : NEUTRON POROSITY LIMESTONE
PEF_SLDT .B/E   : PHOTOELECTRIC FACTOR
QRHO_SLDT.G/C3  : DENSITY CORRECTION
RHOB_SLDT.G/C3  : BULK DENSITY
SPR      .MV    : SPONTANEOUS POTENTIAL FROM RES.
~Params ----------------------------------------------------
~Other -----------------------------------------------------
~ASCII -----------------------------------------------------
# ...
 13377.50000   16.64860   43.81810   59.20540    9.82560    0.07610   66.52240   44.82900   95.68280   98.75720  173.35080  145.34070    0.08880    5.60190   -0.00360    2.58460 -190.11520
 13378.00000   16.77140   45.05320   56.17730    9.82570    0.10310   66.93250   44.59300   96.05890   99.22400  172.44410  146.69960    0.09560    5.70960   -0.01080    2.54440 -190.01450
 13378.50000   16.49790   43.64540   54.97540    9.82590    0.11730   67.59920   45.04710   95.38570  100.40060  168.49710  146.37360    0.10040    5.52800   -0.01490    2.50840 -190.02000
 13379.00000   16.15430   40.12580   53.63400    9.82600    0.11110   68.19070   44.84010   95.60750  101.59680  160.81020  143.41820    0.10060    5.30950   -0.01070    2.51340 -190.43020
 13379.50000   15.57320   38.39260   49.17660    9.82190    0.09780   67.68560   43.86000   94.08110  101.57730  152.03960  136.80990    0.09960    5.21820   -0.00650    2.54110 -190.83080
 13380.00000   15.18150   36.12070   43.74300    9.82190    0.08560   66.65180   42.02720   90.60770   99.20050  142.31080  128.72280    0.09320    5.18210   -0.00500    2.56140 -190.97780
 13380.50000   14.73980   34.43700   41.63360    9.82730    0.09120   65.47620   41.24670   86.18780   97.13310  137.91920  125.14010    0.08710    5.11220   -0.00410    2.55520 -190.39760
 13381.00000   14.52090   33.18400   41.50530    9.83260    0.09930   64.36990   42.45570   84.84640   95.10070  137.28710  123.53850    0.08890    5.03960   -0.00360    2.54220 -189.81730
 13381.50000   15.28720   34.04570   42.02120    9.83220    0.10720   64.27450   44.87100   86.45620   94.86730  137.26680  120.96700    0.08910    4.97960   -0.00430    2.52950 -189.73680
 13382.00000   15.67240   36.80940   45.80770    9.83040    0.10780   64.88940   46.90010   90.78450   95.89810  135.72380  118.28690    0.08910    4.97080   -0.00480    2.52960 -189.91810
 13382.50000   16.09720   39.57310   47.69430    9.83000    0.08970   65.90470   48.55300   93.73410   97.64850  135.35410  116.07150    0.08750    4.96200   -0.00410    2.55280 -190.50240
 13383.00000   16.47520   41.06620   48.43670    9.83060    0.06450   66.64460   47.30470   93.85750   99.08770  138.70550  118.55910    0.08900    5.04160   -0.00360    2.60420 -190.50840
 13383.50000   16.77140   42.02860   48.43670    9.83120    0.03120   66.14400   45.34450   92.68800   98.48480  144.52970  121.66730    0.09030    5.15320   -0.00300    2.65640 -190.67810
 13384.00000   17.10300   43.01350   50.89030    9.83180    0.01360   65.07090   43.27100   94.23570   96.11850  144.58220  121.87620    0.08850    5.27500   -0.00240    2.68180 -190.84770
 13384.50000   17.43230   44.20010   54.80600    9.83240    0.02170   63.81310   41.84160   96.02460   94.10600  135.08460  120.02750    0.08010    5.28160   -0.00270    2.67520 -191.93670
 13385.00000   18.08380   47.18960   55.83110    9.83300    0.03730   62.85840   40.63330   96.45960   92.45560  117.54070  121.22100    0.07190    5.05490   -0.00320    2.65120 -193.33060
 13385.50000   18.39970   48.51980   52.32480    9.83360    0.04760   62.29640   41.13350   95.43790   91.46860  107.70910  124.44490    0.06930    4.83490   -0.00370    2.63120 -193.17640
 13386.00000   19.00620   49.65690   53.96600    9.82880    0.04250   61.97860   41.67860   94.42220   90.64680  106.48880  127.27000    0.06870    4.64150   -0.00400    2.63670 -193.02220
 13386.50000   19.27220   51.77120   56.17730    9.82930    0.03400   61.49480   41.49470   92.77670   90.06060  115.92320  126.77060    0.06870    4.61380   -0.00360    2.64940 -192.50340
 13387.00000   18.52820   47.88120   56.52500    9.82970    0.03150   60.97720   39.32600   91.04210   89.16870  126.77870  125.93830    0.07260    4.73220   -0.00320    2.65660 -191.43760
 13387.50000   17.63190   42.22370   47.10880    9.83020    0.03420   61.53650   38.30130   90.32690   89.09090  135.81570  122.88950    0.08600    4.88370   -0.00850    2.65160 -190.37190
 13388.00000   16.93940   40.87640   44.28670    9.83070    0.03530   62.94340   41.13950   91.59350   91.57480  139.89030  115.79610    0.09940    4.93470   -0.01210    2.64910 -190.22350
 13388.50000   16.03840   38.84540   42.67530    9.83110    0.03320   65.15690   44.11300   94.56570   95.58360  139.50500  109.81130    0.10800    4.88310   -0.01640    2.65170 -190.10960
 13389.00000   15.60220   35.90330   43.20560    9.83160    0.02740   67.04370   47.10410   99.07980  100.52700  140.84130  108.65620    0.10820    4.81300   -0.01970    2.66190 -190.41110
 13389.50000   15.30730   35.90330   43.47350    9.83200    0.01850   68.79200   48.75050  102.60390  102.98750  144.14310  112.53960    0.10480    4.81740   -0.02130    2.67880 -190.50840
 13390.00000   14.90260   38.84540   46.81850    9.83250    0.00560   68.06600   49.82580  102.49830  101.61440  150.36110  121.10870    0.10440    4.80370   -0.01480    2.69980 -190.91260
 13390.50000   14.65850   40.12580   47.54730    9.83290    0.00330   66.16040   50.51820  101.46490   98.68920  155.03270  130.63960    0.10540    4.59170   -0.00920    2.70220 -191.31690
 13391.00000   14.73100   42.41980   55.48720    9.83320    0.01880   64.56920   47.86430  100.16440   96.09600  157.95740  136.80390    0.10600    4.30140   -0.00490    2.67620 -191.72110
 13391.50000   14.37370   44.22600   53.70550    9.83320    0.04270   64.09970   44.54310  100.28000   94.31330  148.57970  134.26450    0.10560    4.01120   -0.00520    2.63640 -192.32740
 13392.00000   13.61250   40.30680   48.18580    9.83320    0.07600   63.78150   43.03020  100.41080   93.72200  136.40050  126.43260    0.09800    3.97770   -0.00730    2.58790 -193.05180
 13392.50000   12.84000   34.59690   41.50530    9.83320    0.09810   63.42150   42.67040  100.47590   93.08020  126.08070  119.01140    0.08810    4.59070   -0.00840    2.54760 -194.08480
 13393.00000   12.46800   32.67560   38.47550    9.83320    0.12010   63.14630   43.13930  101.25460   92.81560  121.42410  114.31800    0.08670    5.20360   -0.01010    2.51100 -195.21830
 13393.50000   12.37560   31.10000   35.34700    9.83320    0.13290   64.01440   43.33570   99.97390   94.07980  122.57880  111.33600    0.09720    5.81660   -0.01200    2.48540 -195.81050
 13394.00000   12.45070   30.81310   34.69800    9.83320    0.12950   64.46340   40.89880   96.71020   95.34410  123.92200  109.63870    0.10710    5.79740   -0.01130    2.48630 -196.28630
 13394.50000   12.58410   30.24730   35.12930    9.83320    0.11870   63.21340   36.81250   91.11520   93.19490  126.25370  110.46700    0.11210    5.62550   -0.00460    2.50180 -196.58750
 13395.00000   12.83490   29.96840   37.13760    9.83320    0.10770   61.18700   32.94480   85.14890   89.69400  127.18070  110.39790    0.11190    5.59670   -0.00190    2.52300 -197.00060
 13395.50000   13.16860   31.38950   38.77880    9.83320    0.10170   59.00650   29.95590   79.66550   85.85270  128.26130  107.29670    0.10670    5.64470   -0.00120    2.53680 -197.06100
 13396.00000   14.03780   33.18400   39.99510    9.83320    0.09870   57.26360   30.72390   76.70440   82.69870  130.31230  102.42440    0.10030    5.60290   -0.00160    2.53990 -197.16710
 13396.50000   15.00650   34.43700   46.67430    9.83320    0.09640   56.93690   32.13400   76.45920   81.50580  133.78750  102.57360    0.09800    5.47600   -0.00230    2.53980 -197.45050
 13397.00000   15.82340   36.57480   55.00790    9.83320    0.09410   58.24840   33.90940   78.60060   83.38400  138.05080  113.87200    0.09420    5.28220   -0.00300    2.54560 -197.73400
 13397.50000   17.02760   43.61550   63.95860    9.83320    0.08350   59.68520   36.53810   83.12170   86.09430  143.84060  124.56530    0.08470    5.13380   -0.00360    2.56040 -198.01740
 13398.00000   19.24130   50.11910   71.70160    9.83320    0.06720   61.45970   40.23580   86.94160   89.64000  149.86030  133.48780    0.07430    5.00570   -0.00520    2.58630 -198.96990
 13398.50000   23.73970   80.21460  101.23740    9.83320    0.05650   63.54610   44.04320   90.53760   93.18570  155.01640  133.24300    0.06390    4.87450   -0.01210    2.60960 -199.44210
