~Version ---------------------------------------------------
VERS.   2.0 : CWLS log ASCII Standard -VERSION 2.0
WRAP.    NO : One line per depth step
DLM . SPACE : Column Data Section Delimiter
~Well ------------------------------------------------------
STRT .F                 7293.0 : START DEPTH
STOP .F                15081.0 : STOP DEPTH
STEP .F                    0.5 : STEP
NULL .                -9999.25 : NULL VALUE
COMP .                         : COMPANY
WELL .                         : WELL
FLD  .                         : FIELD
LOC  .                         : LOCATION
PROV .                         : PROVINCE
CNTY .                         : COUNTY
STAT .                         : STATE
CTRY .                         : COUNTRY
SRVC .                         : SERVICE COMPANY
DATE .                         : DATE
UWI  .                         : UNIQUE WELL ID
API  .                         : API NUMBER
SLAT .WGS84  5.692772930891202 : SURFACE LATITUDE
SLON .WGS84 4.8118330966239995 : SURFACE LONGITUDE
DATUM.F                2430.86 : DEPTH DATUM ELEV
~Curve Information -----------------------------------------
DEPT     .F     : 
AST10    .OHMM  : 10-IN. RESISTIVITY, 1-FT RESOLUTION
AST30    .OHMM  : 30 ARRAY INDUCTION 30
AST90    .OHMM  : 90-IN. RESISTIVITY, 1-FT RESOLUTION
CALI_SPCS.IN    : CALIPER FROM RESISTIVITY
DPHI_SLDT.DEC   : DENSITY POROSITY LIMESTONE
DT       .US/F  : INTERVAL TRANSIT TIME
DTC      .US/F  : COMPRESSIONAL-WAVE INTERVAL TRANSIT TIME ACAUSTIC SLOWNESS
DTS      .US/F  : DELTA SHEAR
DTSM     .US/F  : Delta-T Shear Slowness
GR       .GAPI  : GAMMA RAY FROM CEMENTBOND LOG
GR_STGC  .GAPI  : GAMMA RAY
NPHI_LS  .DEC   : NEUTRON POROSITY LIMESTONE
PEF_SLDT .B/E   : PHOTOELECTRIC FACTOR
QRHO_SLDT.G/C3  : DENSITY CORRECTION
RHOB_SLDT.G/C3  : BULK DENSITY
SPR      .MV    : SPONTANEOUS POTENTIAL FROM RES.
~Params ----------------------------------------------------
~Other -----------------------------------------------------
~ASCII -----------------------------------------------------
# ...
 11292.00000   17.78280   77.82330   86.94180    9.64590    0.04670   63.04900   47.09200   94.29490   93.24560   70.85350   52.31760    0.10070    4.12240   -0.00330    2.63170   26.80250
 11292.50000   17.85390   82.99990   87.98140    9.65870    0.04370   63.08170   47.53880   95.36770   93.34740   70.82300   53.92600    0.09530    4.27160   -0.00330    2.63700   26.58870
 11293.00000   18.11340   81.90490   88.21300    9.65870    0.03940   62.04360   46.13380   94.90190   91.23560   71.42820   56.06890    0.08910    4.44820   -0.00330    2.64460   26.51190
 11293.50000   18.29010   79.53610   87.89950    9.65870    0.03590   60.81550   43.55420   93.24010   89.12370   69.23660   58.21180    0.08520    4.67630   -0.00330    2.64790   27.02680
 11294.00000   18.46680   79.50640   96.08880    9.67000    0.03490   59.88200   41.42050   90.73810   87.01190   65.50720   59.03640    0.08940    4.68670   -0.00330    2.64760   27.27820
 11294.50000   18.32320   78.36890   98.44710    9.69480    0.03860   60.36310   39.76070   87.71950   87.28530   61.40870   59.11400    0.10350    4.56890   -0.00330    2.64500   28.05900
 11295.00000   17.64830   71.75460   84.60070    9.68680    0.04310   61.71080   41.91530   87.63930   90.15670   59.70690   58.44120    0.10980    4.52500   -0.00330    2.63680   27.89470
 11295.50000   16.84150   64.75350   77.06420    9.70120    0.04630   63.05840   43.60510   90.18380   92.66790   61.49610   59.05480    0.11600    4.60650   -0.00330    2.63100   28.03650
 11296.00000   16.21700   61.82050   73.76890    9.73060    0.04770   64.02220   44.20660   92.92130   94.29700   65.39010   61.02530    0.12170    4.63930   -0.00330    2.62880   28.00200
 11296.50000   15.80500   59.79070   76.04490    9.75480    0.04770   64.82160   44.60590   95.45170   95.63580   68.65960   62.76550    0.12870    4.53680   -0.00330    2.62860   27.96750
 11297.00000   15.95240   59.90310   75.78250    9.75870    0.04780   64.92400   44.60590   96.72270   95.97100   69.22180   61.74680    0.13200    4.43830   -0.00330    2.62930   27.93310
 11297.50000   16.19860   60.85250   76.68860    9.76260    0.04780   65.12770   44.81160   97.66040   96.32130   68.07000   59.41660    0.13540    4.40800   -0.00330    2.62920   27.75320
 11298.00000   16.11630   61.54100   81.03260    9.77630    0.04640   65.58980   46.13390   98.14950   97.15860   67.94840   57.62450    0.13740    4.40800   -0.00330    2.63060   28.00800
 11298.50000   16.06800   59.96230   76.14050    9.79000    0.04960   66.19830   47.19170   97.02850   98.11060   69.91050   55.82600    0.13920    4.43220   -0.00330    2.62600   28.26270
 11299.00000   16.47870   57.48670   69.37430    9.80080    0.05840   66.93120   47.27920   96.93140   99.16420   73.63390   54.74680    0.14020    4.50050   -0.00320    2.61030   28.94420
 11299.50000   16.26310   54.60250   69.55690    9.79400    0.06840   67.07350   46.94940   97.31780   99.90780   81.71880   55.81060    0.13820    4.57570   -0.00320    2.59290   29.73230
 11300.00000   16.62440   53.82310   75.10160    9.78730    0.07070   66.10320   45.91190   96.33300   96.93980   90.98630   59.84940    0.11620    4.52680   -0.00320    2.58390   30.52040
 11300.50000   17.10570   74.09730   78.90600    9.75960    0.06870   64.19710   44.74990   94.43250   95.18460   94.71630   63.86200    0.09470    4.42560   -0.00310    2.59340   30.68940
 11301.00000   18.02700   83.31160   87.10350    9.70040    0.06280   61.88250   42.03120   91.51650   91.19840   92.49870   69.09550    0.07710    4.22800   -0.00310    2.60200   31.32660
 11301.50000   19.27220   92.55110  115.37190    9.64840    0.05830   59.75770   38.88420   88.60050   86.98980   88.42270   74.32910    0.07750    4.16750   -0.00300    2.60990   31.88870
 11302.00000   19.72190   95.15990  121.96780    9.62500    0.05500   58.93540   38.16740   86.58180   85.57670   85.59790   76.42250    0.08490    4.25720   -0.00300    2.61410   31.84350
 11302.50000   19.27220   84.42320   94.67890    9.60160    0.05130   59.74690   38.28630   86.73370   86.45650   82.90950   73.04090    0.08930    4.35460   -0.00300    2.62010   31.76360
 11303.00000   19.29650   75.48320   88.18600    9.62260    0.04370   60.51720   39.32370   87.23040   88.02160   80.57150   68.40330    0.08710    4.38390   -0.00290    2.63120   31.88090
 11303.50000   19.81880   73.41390   80.38190    9.64350    0.03430   60.58220   39.31910   87.23880   88.37140   78.30600   63.99590    0.08420    4.46410   -0.00300    2.64650   31.99820
 11304.00000   20.28440   72.40050   80.38190    9.67100    0.02240   59.73970   38.83260   85.85750   86.47960   76.42050   59.58850    0.08230    4.58410   -0.00310    2.66660   32.35130
 11304.50000   20.71000   71.73280   78.66290    9.70270    0.01450   58.48080   38.73750   84.84340   84.02970   74.98340   57.26420    0.08210    4.52210   -0.00310    2.68300   33.05820
 11305.00000   20.97080   71.31990   78.90600    9.71010    0.00880   58.04270   38.10250   84.95920   83.86470   75.05730   56.59810    0.09270    4.47420   -0.00310    2.69340   33.76510
 11305.50000   21.16210   71.94160   79.39520    9.69100    0.00490   58.65720   37.89000   85.80090   84.45780   76.96130   60.62130    0.10430    4.56270   -0.00310    2.70030   34.33810
 11306.00000   21.27460   71.73280   74.77450    9.69380    0.00130   59.44620   39.22760   87.03560   86.13020   81.01300   67.75760    0.12030    4.73680   -0.00310    2.70440   34.94810
 11306.50000   20.96690   70.74270   72.36900    9.69430   -0.00010   60.78180   41.14990   88.53220   87.91950   84.75590   77.11390    0.13630    4.80680   -0.00310    2.70910   35.55820
 11307.00000   20.76630   67.92840   71.26860    9.69890   -0.00050   61.25940   43.27680   89.96560   88.95410   86.97060   84.08810    0.14010    4.70770   -0.00310    2.71140   35.93370
 11307.50000   20.25900   65.40280   70.60250    9.70210    0.00440   61.50140   44.52790   91.28530   89.98870   88.18270   85.41130    0.13420    4.60860   -0.00300    2.70600   36.65490
 11308.00000   20.58770   63.29820   73.04270    9.69970    0.01170   61.41910   44.76610   93.41770   89.98990   90.93460   82.13230    0.11880    4.50940   -0.00300    2.69300   36.95440
 11308.50000   21.87070   63.59220   89.02270    9.69740    0.01400   60.20500   44.16800   94.01000   87.85940   95.16610   75.98690    0.10340    4.46180   -0.00300    2.68690   37.10480
 11309.00000   22.92500   91.36290  114.30780    9.66350    0.01350   58.60480   41.84070   93.00990   86.06690   93.50850   70.63650    0.08760    4.50550   -0.00300    2.68730   37.97000
 11309.50000   24.52220  133.13460  153.93900    9.62960    0.01150   56.90820   38.33310   90.23800   83.09860   85.05370   65.93980    0.06910    4.54640   -0.00300    2.69160   38.80510
 11310.00000   25.16300  148.02170  179.43990    9.59570    0.00890   55.44640   36.26130   86.61560   78.75650   74.63520   63.14030    0.04900    4.57610   -0.00300    2.69670   38.94080
 11310.50000   25.26070  135.43420  181.11030    9.56180    0.00840   54.89520   35.39490   83.42260   77.81400   69.96050   66.48490    0.04740    4.60480   -0.00290    2.69450   38.94660
 11311.00000   25.44820  123.90080  159.07620    9.54920    0.01630   56.33460   34.38290   81.44210   80.97790   69.38930   71.77200    0.05850    4.60910   -0.00290    2.68250   38.82630
 11311.50000   24.65210  109.28310  126.01910    9.58070    0.02650   58.91060   34.30080   84.06690   84.36810   73.06330   77.80760    0.07870    4.49140   -0.00290    2.66510   38.56620
 11312.00000   22.99390  102.95780  112.39110    9.62390    0.04030   61.07180   38.11710   89.00710   88.89560   77.68460   73.59940    0.10990    4.16570   -0.00290    2.64600   38.01640
 11312.50000   20.92000  100.60020  102.91300    9.66870    0.04750   62.23660   42.93290   92.80900   91.37900   78.46670   67.29040    0.10710    3.96280   -0.00290    2.63210   37.91360
 11313.00000   19.31110   94.10160  108.12620    9.70950    0.05180   62.67990   44.39690   92.62730   91.43890   74.72550   61.03230    0.09410    3.90090   -0.00290    2.62300   37.65490
