~Version ---------------------------------------------------
VERS.   2.0 : CWLS log ASCII Standard -VERSION 2.0
WRAP.    NO : One line per depth step
DLM . SPACE : Column Data Section Delimiter
~Well ------------------------------------------------------
STRT .F                 7293.0 : START DEPTH
STOP .F                15081.0 : STOP DEPTH
STEP .F                    0.5 : STEP
NULL .                -9999.25 : NULL VALUE
COMP .                         : COMPANY
WELL .                         : WELL
FLD  .                         : FIELD
LOC  .                         : LOCATION
PROV .                         : PROVINCE
CNTY .                         : COUNTY
STAT .                         : STATE
CTRY .                         : COUNTRY
SRVC .                         : SERVICE COMPANY
DATE .                         : DATE
UWI  .                         : UNIQUE WELL ID
API  .                         : API NUMBER
SLAT .WGS84  5.692772930891202 : SURFACE LATITUDE
SLON .WGS84 4.8118330966239995 : SURFACE LONGITUDE
DATUM.F                2430.86 : DEPTH DATUM ELEV
~Curve Information -----------------------------------------
DEPT     .F     : 
AST10    .OHMM  : 10-IN. RESISTIVITY, 1-FT RESOLUTION
AST30    .OHMM  : 30 ARRAY INDUCTION 30
AST90    .OHMM  : 90-IN. RESISTIVITY, 1-FT RESOLUTION
CALI_SPCS.IN    : CALIPER FROM RESISTIVITY
DPHI_SLDT.DEC   : DENSITY POROSITY LIMESTONE
DT       .US/F  : INTERVAL TRANSIT TIME
DTC      .US/F  : COMPRESSIONAL-WAVE INTERVAL TRANSIT TIME ACAUSTIC SLOWNESS
DTS      .US/F  : DELTA SHEAR
DTSM     .US/F  : Delta-T Shear Slowness
GR       .GAPI  : GAMMA RAY FROM CEMENTBOND LOG
GR_STGC  .GAPI  : GAMMA RAY
NPHI_LS  .DEC   : NEUTRON POROSITY LIMESTONE
PEF_SLDT .B/E   : PHOTOELECTRIC FACTOR
QRHO_SLDT.G/C3  : DENSITY CORRECTION
RHOB_SLDT.G/C3  : BULK DENSITY
SPR      .MV    : SPONTANEOUS POTENTIAL FROM RES.
~Params ----------------------------------------------------
~Other -----------------------------------------------------
~ASCII -----------------------------------------------------
# ...
 8798.00000   -9999.25   -9999.25   -9999.25   -9999.25   -9999.25   -9999.25   -9999.25   -9999.25   -9999.25   -9999.25  112.00250   -9999.25   -9999.25   -0.12490   -9999.25   -9999.25
 8798.50000   -9999.25   -9999.25   -9999.25   -9999.25   -9999.25   -9999.25   -9999.25   -9999.25   -9999.25   -9999.25  108.87900   -9999.25   -9999.25   -0.20020   -9999.25   -9999.25
 8799.00000   -9999.25   -9999.25   -9999.25   -9999.25   -9999.25   -9999.25   -9999.25   -9999.25   -9999.25   -9999.25  110.20870   -9999.25   -9999.25   -0.18660   -9999.25   -9999.25
 8799.50000   -9999.25   -9999.25   -9999.25   -9999.25   -9999.25   -9999.25   -9999.25   -9999.25   -9999.25   -9999.25  113.81540    0.30020   -9999.25   -0.12820   -9999.25   -9999.25
 8800.00000    5.74760    9.30930    9.84140    6.01500    0.57460   46.32000   28.53450   83.63130   63.62420   -9999.25  113.41010    0.30040    4.91390   -0.08530    1.75820   -4.18070
 8800.50000    5.69460    9.30900    9.86410    6.00740    0.59280   47.47760   26.80720   81.24820   66.28090   -9999.25  108.77200    0.30070    6.65550   -0.07440    1.69050   -3.26190
 8801.00000    5.70410    9.49760    9.94650    6.00070    0.61640   53.01410   28.43520   83.21650   69.94970   -9999.25  105.51350    0.30090    7.16430   -0.07320    1.64980   -2.27030
 8801.50000    5.72010    9.52660   10.04610    6.00070    0.62310   63.21810   33.88680   88.28500   86.89530   -9999.25  102.91950    0.29610    6.84330   -0.07830    1.64610   -1.86970
 8802.00000    5.73610    9.51530   10.11720    6.00070    0.61900   74.55670   38.41510   94.29880  108.69390   -9999.25  101.70590    0.28880    6.80320   -0.08320    1.65170   -1.81950
 8802.50000    5.75200    9.43810   10.08590    6.00070    0.61680   74.80900   44.24700  102.15790  112.53100   -9999.25  106.18330    0.29040    6.75300   -0.08470    1.65450   -1.39570
 8803.00000    5.76800    9.36340   10.11120    6.00070    0.61920   70.36700   50.89330  114.87720  106.98150   -9999.25  110.64250    0.29700    6.68890   -0.08300    1.65150   -1.01600
 8803.50000    5.78400    9.30740   10.11610    6.00070    0.62080   71.54330   56.02960  125.87380  107.81450   -9999.25  113.61190    0.29970    6.65100   -0.08200    1.64840   -0.93490
 8804.00000    5.79620    9.23000   10.11570    6.00070    0.62130   73.39130   57.86050  131.13180  111.37780   -9999.25  114.46080    0.29970    6.64810   -0.08320    1.64830   -0.60360
 8804.50000    5.79060    9.18720   10.10990    6.00070    0.62180   75.80970   61.40190  135.38510  114.94120   -9999.25  114.99820    0.29960    6.64520   -0.08450    1.64740   -0.27230
 8805.00000    5.89980    9.14440   10.10050    6.00070    0.62670   77.42300   61.87550  138.20450  117.98000   -9999.25  115.41380    0.29960    6.64230   -0.08440    1.64050    0.05900
 8805.50000    5.97440    9.10160   10.09100    6.00070    0.63220   78.58400   61.71110  137.01250  121.09470   -9999.25  114.18770    0.29950    6.63940   -0.08250    1.63130    0.13070
 8806.00000    5.97420    9.30590   10.08340    6.00070    0.63740   79.28150   60.85450  133.46290  121.24860   -9999.25  111.88250    0.29950    6.63650   -0.08180    1.62070    0.13740
 8806.50000    5.96480    9.43590   10.17690    6.00070    0.64010   78.29950   58.24660  130.38480  119.26720   -9999.25  109.58600    0.29940    6.63370   -0.08350    1.61490    0.14410
 8807.00000    5.91860    9.61210   10.58210    6.00070    0.64350   76.79530   64.06650  136.64460  115.76680   -9999.25  108.39720    0.29940    6.63080   -0.09060    1.61120    0.15090
 8807.50000    5.89930    9.83700   11.00980    6.00070    0.65110   75.35300   72.20450  150.02340  113.96540   -9999.25  108.50790    0.29870    6.62790   -0.09360    1.60020    0.15760
 8808.00000    5.94230    9.92850   11.33760    6.00070    0.66290   75.29940   84.04240  159.11470  114.22730   -9999.25  109.85220    0.28870    6.62500   -0.09080    1.57870    0.16440
 8808.50000    5.85080   10.06700   10.59250    6.00070    0.66950   75.68700   86.60730  161.17210  114.86610   -9999.25  112.32570    0.28040    6.66280   -0.08520    1.55990    0.17110
 8809.00000    5.77850   10.06670   11.06030    6.00070    0.67540   75.66750   74.85950  150.87280  114.85720   -9999.25  114.56070    0.28210    6.80920   -0.08160    1.55030    0.76850
 8809.50000    5.53090   10.03850   11.26690    6.00070    0.67790   75.18990   63.81490  140.63130  114.71530   -9999.25  115.90110    0.29340    6.85340   -0.08220    1.55570    1.42620
 8810.00000    5.64260    9.96010   10.81660    6.00070    0.66870   74.50440   59.44940  136.92810  112.83560   -9999.25  114.28510    0.29930    6.85840   -0.08470    1.56570    1.14680
 8810.50000    5.86280    9.89410   10.35670    6.00070    0.66480   75.19070   60.88120  138.41700  113.08010   -9999.25  111.92920    0.29370    6.91650   -0.08710    1.57200    0.86730
 8811.00000    6.11190    9.92650   10.33250    6.00070    0.67070   76.21980   61.23980  139.13040  115.92790   -9999.25  111.45660    0.27900    7.06200   -0.08820    1.56620    0.58780
 8811.50000    6.72420   10.06520   11.02450    6.00070    0.67730   77.55170   61.06200  140.31890  118.39600   -9999.25  113.97670    0.25950    7.16930   -0.08240    1.55210    0.30840
 8812.00000    6.93790   10.15850   11.40520    6.00070    0.68420   78.30010   60.70500  142.64200  119.38430   -9999.25  113.97500    0.25140    7.16930   -0.07780    1.54040    0.08480
 8812.50000    6.62840   10.15820   10.59000    6.00070    0.68060   76.20160   60.70500  144.93610  116.92490   -9999.25  112.17940    0.24600    6.98120   -0.08160    1.54450    0.08480
 8813.00000    6.59410   10.01780   10.42730    6.00070    0.67170   74.64450   61.14400  147.19980  113.84790   -9999.25  110.54080    0.23210    6.79320   -0.09070    1.55650    0.08480
 8813.50000    6.64240    9.74280   10.14120    6.00070    0.66340   75.50300   61.92720  150.99810  114.67550   -9999.25  111.40060    0.21920    6.70790   -0.09550    1.57170    0.08480
 8814.00000    6.62240    9.97080   10.14090    6.00070    0.65770   76.02470   62.19070  153.81680  115.92720   -9999.25  112.81570    0.21740    6.94060   -0.10010    1.58340    0.08480
 8814.50000    6.65780   10.11010   10.29840    6.00070    0.65750   76.72740   61.79920  153.95050  117.17880   -9999.25  114.11640    0.22280    7.42200   -0.10630    1.58640    0.08480
 8815.00000    7.02810   10.25130   10.55580    6.00070    0.66490   77.53970   59.92770  151.73750  118.18060   -9999.25  113.75800    0.22940    7.90350   -0.10350    1.57700    0.11280
 8815.50000    6.76690   10.25100   10.78610    6.00070    0.67230   76.22330   58.34340  150.56780  117.23390   -9999.25  112.21770    0.22920    8.23250   -0.09880    1.56340    0.72290
 8816.00000    6.39520    9.84060   10.39620    6.00070    0.67490   74.81640   57.70560  150.72320  113.67720   -9999.25  110.48520    0.22650    7.85680   -0.09680    1.55360    0.77440
 8816.50000    6.04470    9.43020    9.68030    6.00070    0.67320   73.86990   57.34680  150.87680  111.82990   -9999.25  109.57770    0.22330    7.26410   -0.09670    1.56060   -0.12900
 8817.00000    6.06320    9.38630    9.83070    6.00070    0.65710   73.34000   57.04220  148.85080  110.62120   -9999.25  110.32430    0.22020    6.76810   -0.09810    1.57650   -0.53520
 8817.50000    6.58120    9.60600   12.23630    6.00070    0.65400   72.71690   57.03610  145.27740  109.68670   -9999.25  108.97710    0.21910    6.60760   -0.09830    1.59080    0.62420
 8818.00000    7.23760   11.72330   14.64190    6.00070    0.65580   72.63430   57.53660  141.36020  109.35590   -9999.25  101.87560    0.22040    6.69190   -0.08880    1.59050    1.56120
 8818.50000    6.92950   11.88700   12.43050    6.00070    0.65140   73.60300   57.87810  139.30060  111.51940   -9999.25   95.41370    0.22300    6.77810   -0.07640    1.58890    0.36700
 8819.00000    6.87110   12.10900   12.43020    6.00070    0.63210   74.37280   57.85090  137.05470  112.51150   -9999.25   92.37240    0.22360    6.71790   -0.06870    1.60650   -1.80120
