~Version ---------------------------------------------------
VERS.   2.0 : CWLS log ASCII Standard -VERSION 2.0
WRAP.    NO : One line per depth step
DLM . SPACE : Column Data Section Delimiter
~Well ------------------------------------------------------
STRT .F                 7293.0 : START DEPTH
STOP .F                15081.0 : STOP DEPTH
STEP .F                    0.5 : STEP
NULL .                -9999.25 : NULL VALUE
COMP .                         : COMPANY
WELL .                         : WELL
FLD  .                         : FIELD
LOC  .                         : LOCATION
PROV .                         : PROVINCE
CNTY .                         : COUNTY
STAT .                         : STATE
CTRY .                         : COUNTRY
SRVC .                         : SERVICE COMPANY
DATE .                         : DATE
UWI  .                         : UNIQUE WELL ID
API  .                         : API NUMBER
SLAT .WGS84  5.692772930891202 : SURFACE LATITUDE
SLON .WGS84 4.8118330966239995 : SURFACE LONGITUDE
DATUM.F                2430.86 : DEPTH DATUM ELEV
~Curve Information -----------------------------------------
DEPT     .F     : 
AST10    .OHMM  : 10-IN. RESISTIVITY, 1-FT RESOLUTION
AST30    .OHMM  : 30 ARRAY INDUCTION 30
AST90    .OHMM  : 90-IN. RESISTIVITY, 1-FT RESOLUTION
CALI_SPCS.IN    : CALIPER FROM RESISTIVITY
DPHI_SLDT.DEC   : DENSITY POROSITY LIMESTONE
DT       .US/F  : INTERVAL TRANSIT TIME
DTC      .US/F  : COMPRESSIONAL-WAVE INTERVAL TRANSIT TIME ACAUSTIC SLOWNESS
DTS      .US/F  : DELTA SHEAR
DTSM     .US/F  : Delta-T Shear Slowness
GR       .GAPI  : GAMMA RAY FROM CEMENTBOND LOG
GR_STGC  .GAPI  : GAMMA RAY
NPHI_LS  .DEC   : NEUTRON POROSITY LIMESTONE
PEF_SLDT .B/E   : PHOTOELECTRIC FACTOR
QRHO_SLDT.G/C3  : DENSITY CORRECTION
RHOB_SLDT.G/C3  : BULK DENSITY
SPR      .MV    : SPONTANEOUS POTENTIAL FROM RES.
~Params ----------------------------------------------------
~Other -----------------------------------------------------
~ASCII -----------------------------------------------------
# ...
 9206.50000    4.38840    8.71620    9.85190    9.81680   -9999.25   81.78180   62.52810  153.07170  125.77060   -9999.25   99.07700   -9999.25   13.33930   -0.02710    1.28980   12.38140
 9207.00000    4.24220    8.17300    9.87880    9.81940   -9999.25   79.68600   58.09930  148.50460  122.38780   -9999.25   96.93870   -9999.25   13.30420   -0.02730    1.29340   12.39060
 9207.50000    4.15300    7.88260   10.09160    9.82200   -9999.25   77.54070   56.02330  144.82500  118.09330   -9999.25   94.85330   -9999.25   13.25900   -0.02950    1.29750   12.39980
 9208.00000    4.14770    8.59280   10.02640    9.82450   -9999.25   75.25320   57.57270  146.22040  113.79880   -9999.25   93.99090   -9999.25   13.40950   -0.03110    1.29980   12.40900
 9208.50000    4.10480    9.05200    9.93050    9.82710   -9999.25   73.54090   61.21900  148.97650  111.18040   -9999.25   94.31430   -9999.25   13.78560   -0.03290    1.30170   12.41820
 9209.00000    4.03190    9.09120   10.33390    9.82970   -9999.25   76.42430   63.95140  150.68850  115.80840   -9999.25   94.86410   -9999.25   14.16180   -0.03400    1.30310   12.81340
 9209.50000    3.92670    8.61240   10.58920    9.83230   -9999.25   79.29420   66.27080  151.27370  120.43640   -9999.25   95.38980   -9999.25   14.22190   -0.03500    1.30170   12.81570
 9210.00000    3.79260    7.97150   10.20050    9.83490   -9999.25   82.03320   66.60760  152.95850  125.42560   -9999.25   96.57150   -9999.25   14.00990   -0.03770    1.29980   12.64940
 9210.50000    3.63250    7.33880   10.13400    9.84220   -9999.25   82.65660   66.72430  154.95820  127.54460   -9999.25   98.43050   -9999.25   13.85760   -0.04310    1.29680   12.83470
 9211.00000    3.77410    7.75630   10.13130    9.84220   -9999.25   80.34910   66.69440  157.17910  124.60500   -9999.25   99.61060   -9999.25   13.73720   -0.04600    1.29380   13.01990
 9211.50000    3.92020    8.58480   10.19150    9.83620   -9999.25   77.64630   66.31290  154.66040  119.17790   -9999.25  100.19740   -9999.25   13.54830   -0.04900    1.29150   13.20510
 9212.00000    3.99020    8.84680   10.31570    9.82920   -9999.25   75.44210   65.81560  150.37580  115.52020   -9999.25   99.17300   -9999.25   13.31980   -0.05000    1.29230   13.97770
 9212.50000    3.98890    8.86540   10.35560    9.82870   -9999.25   75.55320   64.79850  148.05620  113.93150   -9999.25   97.29880   -9999.25   13.08800   -0.04960    1.29580   13.60840
 9213.00000    4.00000    8.49000   10.29990    9.82830   -9999.25   77.42470   64.67130  150.50760  117.23260   -9999.25   96.95210   -9999.25   12.89850   -0.05180    1.30100   13.49420
 9213.50000    3.98640    7.65840    9.99430    9.82770   -9999.25   79.08590   65.66010  153.89070  121.25130   -9999.25   98.79690   -9999.25   12.78770   -0.05490    1.30580   13.38000
 9214.00000    3.69640    6.96060    8.80010    9.82220   -9999.25   80.73760   66.13320  155.00060  124.26180   -9999.25  100.51870   -9999.25   12.76760   -0.05920    1.30830   13.26580
 9214.50000    3.49220    6.86280    8.09570    9.82490   -9999.25   82.16990   64.36080  154.77170  126.38800   -9999.25   99.96980   -9999.25   13.40490   -0.05900    1.30560   13.41780
 9215.00000    3.49600    7.02180    8.45120    9.83470   -9999.25   82.76930   61.63620  151.56990  127.66580   -9999.25   97.85950   -9999.25   14.04210   -0.05430    1.30200   13.43410
 9215.50000    3.64100    7.73720    8.93260    9.83380   -9999.25   80.68190   58.91160  147.72710  124.35880   -9999.25   96.50180   -9999.25   14.37310   -0.05290    1.30190   13.39980
 9216.00000    3.81290    7.77120    9.73710    9.82580   -9999.25   78.59460   56.33580  143.18670  119.98420   -9999.25   97.39740   -9999.25   14.43470   -0.05830    1.30670   12.91570
 9216.50000    3.97980    7.73330   10.45180    9.81780   -9999.25   77.75390   56.30570  144.91080  118.70810   -9999.25   98.37440   -9999.25   14.60050   -0.06000    1.30950   12.57550
 9217.00000    4.15970    7.69440   10.48130    9.81970   -9999.25   77.13070   60.36100  151.14900  117.23230   -9999.25   98.19890   -9999.25   14.77630   -0.05270    1.31030   12.53120
 9217.50000    4.02190    7.51040   10.01170    9.81420   -9999.25   78.09860   63.54600  156.86610  118.28010   -9999.25   96.58890   -9999.25   14.93250   -0.05030    1.31610   12.52120
 9218.00000    3.89770    7.32640    9.13510    9.81110   -9999.25   79.76290   65.54380  158.00460  122.65530   -9999.25   94.76760   -9999.25   15.65070   -0.04610    1.32950   12.64800
 9218.50000    3.65000    7.14250    8.35760    9.81150   -9999.25   80.39870   63.51110  152.01770  123.66080   -9999.25   94.12700   -9999.25   16.74370   -0.04340    1.33780   12.77490
 9219.00000    3.58620    7.07130    8.02610    9.82460   -9999.25   79.68510   60.89960  141.64050  122.48560   -9999.25   98.64240   -9999.25   17.20090   -0.04590    1.34260   12.82560
 9219.50000    3.64780    7.31200    8.12400    9.81510   -9999.25   78.73150   56.78950  127.66260  121.37670   -9999.25  103.66510   -9999.25   16.66930   -0.04650    1.34230   12.83750
 9220.00000    3.78410    7.86280    9.39790    9.80940   -9999.25   77.56100   53.70180  115.81320  117.78200   -9999.25  104.85420   -9999.25   16.04240   -0.04500    1.33500   13.09540
 9220.50000    3.84230    8.41360    9.83540    9.80960   -9999.25   76.03160   52.71770  108.80050  115.11860   -9999.25   99.69630   -9999.25   15.82330   -0.04310    1.32830   13.35330
 9221.00000    3.85900    8.82490    9.74190    9.80970   -9999.25   76.90410   55.56720  108.33790  116.84850   -9999.25   95.82780   -9999.25   15.70620   -0.04370    1.32430   13.49570
 9221.50000    3.81200    8.57550    9.73960    9.80980   -9999.25   78.40810   60.51050  116.11160  118.83830   -9999.25   94.70130   -9999.25   14.87240   -0.04440    1.32450   13.46480
 9222.00000    3.71960    8.15130    9.85790    9.81750   -9999.25   80.26620   64.28610  126.76390  122.01670   -9999.25   99.62450   -9999.25   14.36200   -0.04290    1.32580   13.13170
 9222.50000    3.69200    7.96210    9.82500    9.82520   -9999.25   81.36820   64.74960  133.00370  124.96700   -9999.25  101.81970   -9999.25   14.49230   -0.04230    1.32500   12.95110
 9223.00000    3.63980    7.88670    9.49390    9.81620   -9999.25   81.13250   62.17440  132.56560  125.05190   -9999.25   99.81970   -9999.25   15.09400   -0.04220    1.32590   12.77040
 9223.50000    3.57440    7.95810    9.06110    9.79960   -9999.25   81.90950   61.40360  129.54050  125.39140   -9999.25   97.17340   -9999.25   15.43490   -0.03860    1.32700   12.58980
 9224.00000    3.41100    8.37210    8.94750    9.79290   -9999.25   82.81940   61.57360  127.95320  128.19310   -9999.25   94.85530   -9999.25   14.96030   -0.03770    1.33110   12.43960
 9224.50000    3.37010    8.56660    9.81460    9.79280   -9999.25   83.61440   59.61700  124.18310  128.87230   -9999.25   94.41120   -9999.25   14.48570   -0.03950    1.33670   12.41310
 9225.00000    3.43850    8.80830    9.87300    9.79270   -9999.25   81.48180   57.12610  114.52110  125.24890   -9999.25   94.75200   -9999.25   14.19420   -0.04410    1.33880   12.87590
 9225.50000    3.47830    9.01020    9.87030    9.80150   -9999.25   78.89990   54.16490  107.36730  121.47400   -9999.25   95.41750   -9999.25   13.91660   -0.04880    1.33610   13.33870
 9226.00000    3.53110    8.73350   10.20930    9.81040   -9999.25   77.45030   52.09500  101.28850  117.69900   -9999.25   97.31260   -9999.25   13.83940   -0.05340    1.32870   13.04280
 9226.50000    3.43420    8.04540   10.14400    9.81190   -9999.25   76.83690   50.85210   99.27390  116.90150   -9999.25   98.15450   -9999.25   14.02650   -0.05180    1.32310   12.74690
 9227.00000    3.27130    7.83290    8.98820    9.79460   -9999.25   80.55520   51.77240  102.72700  121.65590   -9999.25   98.84790   -9999.25   14.24160   -0.04450    1.31900   12.45100
 9227.50000    3.32780    7.83100    9.61900    9.79070   -9999.25   82.03740   53.75930  107.75360  125.98570   -9999.25   99.31830   -9999.25   14.38090   -0.04060    1.31490   12.30920
