~Version ---------------------------------------------------
VERS.   2.0 : CWLS log ASCII Standard -VERSION 2.0
WRAP.    NO : One line per depth step
DLM . SPACE : Column Data Section Delimiter
~Well ------------------------------------------------------
STRT .F                 7293.0 : START DEPTH
STOP .F                15081.0 : STOP DEPTH
STEP .F                    0.5 : STEP
NULL .                -9999.25 : NULL VALUE
COMP .                         : COMPANY
WELL .                         : WELL
FLD  .                         : FIELD
LOC  .                         : LOCATION
PROV .                         : PROVINCE
CNTY .                         : COUNTY
STAT .                         : STATE
CTRY .                         : COUNTRY
SRVC .                         : SERVICE COMPANY
DATE .                         : DATE
UWI  .                         : UNIQUE WELL ID
API  .                         : API NUMBER
SLAT .WGS84  5.692772930891202 : SURFACE LATITUDE
SLON .WGS84 4.8118330966239995 : SURFACE LONGITUDE
DATUM.F                2430.86 : DEPTH DATUM ELEV
~Curve Information -----------------------------------------
DEPT     .F     : 
AST10    .OHMM  : 10-IN. RESISTIVITY, 1-FT RESOLUTION
AST30    .OHMM  : 30 ARRAY INDUCTION 30
AST90    .OHMM  : 90-IN. RESISTIVITY, 1-FT RESOLUTION
CALI_SPCS.IN    : CALIPER FROM RESISTIVITY
DPHI_SLDT.DEC   : DENSITY POROSITY LIMESTONE
DT       .US/F  : INTERVAL TRANSIT TIME
DTC      .US/F  : COMPRESSIONAL-WAVE INTERVAL TRANSIT TIME ACAUSTIC SLOWNESS
DTS      .US/F  : DELTA SHEAR
DTSM     .US/F  : Delta-T Shear Slowness
GR       .GAPI  : GAMMA RAY FROM CEMENTBOND LOG
GR_STGC  .GAPI  : GAMMA RAY
NPHI_LS  .DEC   : NEUTRON POROSITY LIMESTONE
PEF_SLDT .B/E   : PHOTOELECTRIC FACTOR
QRHO_SLDT.G/C3  : DENSITY CORRECTION
RHOB_SLDT.G/C3  : BULK DENSITY
SPR      .MV    : SPONTANEOUS POTENTIAL FROM RES.
~Params ----------------------------------------------------
~Other -----------------------------------------------------
~ASCII -----------------------------------------------------
# ...
 10883.50000    3.89850   11.50380   12.27890    9.80120    0.34540   80.84300   60.87310  139.12490  124.23180  114.19880  102.44610    0.28400    7.05680   -0.03980    2.18060   33.02990
 10884.00000    3.93010   11.96930   11.54810    9.79330    0.30590   78.50400   58.29980  127.34800  119.81420  119.05610  101.22900    0.28410    7.11660   -0.04100    2.18430   32.87640
 10884.50000    3.93150   12.15930   11.27150    9.78860    0.31170   77.66710   59.78740  121.26590  117.89610  120.14230  101.09030    0.28420    7.38520   -0.03790    2.13410   32.97790
 10885.00000    3.91890   12.10840   10.93420    9.79740    0.34140   78.16400   62.21660  117.48240  119.35560  117.18950  102.80730    0.28420    7.65380   -0.04170    2.08400   33.07940
 10885.50000    3.90280   11.89080   10.87130    9.79360    0.37430   78.17540   62.63770  115.75180  119.55690  113.37450  104.27220    0.28430    8.02850   -0.04600    2.05270   33.41120
 10886.00000    3.77480   11.67870   10.48100    9.79410    0.41200   78.60900   64.29040  114.47060  119.90920  108.56850  104.31090    0.28440    8.42750   -0.04250    2.00470   33.42650
 10886.50000    3.57300   11.46830   10.26170    9.79470    0.44970   79.20400   65.19760  114.75490  120.86540  103.75160  104.59870    0.28450    8.92260   -0.03890    1.92360   33.34840
 10887.00000    3.46430   11.47440   10.68680    9.79520    0.48290   80.17850   66.12660  115.80000  122.40040  101.42500  105.96430    0.28460    9.30670   -0.04160    1.87420   33.47440
 10887.50000    3.39920   10.86850   10.69190    9.79570    0.49780   81.49770   66.89060  116.57170  125.09300  104.99510  106.37830    0.28460    9.69070   -0.04220    1.86010   33.90680
 10888.00000    3.44700   10.37170   10.79650    9.79630    0.49160   82.53160   66.67200  113.75820  127.60940  110.21060  104.15240    0.28470    9.68030   -0.04380    1.87440   34.33910
 10888.50000    3.62160   10.37680   14.21690    9.79680    0.47800   81.89860   66.07290  108.73530  126.03090  108.31280  100.34490    0.28480    9.37930   -0.05140    1.89380   34.49180
 10889.00000    3.76890   11.28420   15.08430    9.79740    0.46410   80.85300   64.50960  107.36920  124.45240  104.82570   98.21480    0.28490    9.07820   -0.06020    1.91330   33.85830
 10889.50000    3.74260   11.66130   14.13320    9.79790    0.45730   80.61810   64.36870  109.21600  123.65860  107.10850   98.74410    0.28490    9.12140   -0.05630    1.92590   33.55150
 10890.00000    3.71160   10.88370   11.97650    9.79850    0.46390   80.55100   65.20100  114.56310  123.28130  113.12390  100.09190    0.28500    9.19970   -0.05060    1.92080   33.58980
 10890.50000    3.73810   11.03670   11.86660    9.79670    0.46960   81.30470   66.11850  120.42960  124.23750  115.97440  102.29070    0.28510    9.20910   -0.05740    1.90820   33.62810
 10891.00000    3.79220   11.40050   12.27680    9.79330    0.47320   82.12070   66.50130  126.55520  126.70350  113.12890  104.00630    0.28520    9.27200   -0.06640    1.90080   33.66640
 10891.50000    3.84350   11.45340   12.66190    9.77390    0.47540   81.84060   65.75790  128.91280  125.90550  110.46010  105.39960    0.28530    9.40410   -0.06230    1.89710   33.70470
 10892.00000    3.94020   11.51310   12.43360    9.77360    0.46230   81.56170   63.58040  129.40820  124.94210  111.67660  106.08360    0.28530    9.26460   -0.04820    1.91270   33.81460
 10892.50000    4.01180   11.66220   11.97710    9.77320    0.42920   81.18880   61.88130  130.02890  124.23290  115.78550  102.69950    0.28540    8.50010   -0.03430    1.97070   33.74620
 10893.00000    4.06970   11.69470   11.97710    9.77650    0.37780   80.50830   61.51530  133.39350  123.63810  122.09250   98.32520    0.28550    7.73560   -0.02590    2.08770   33.67780
 10893.50000    4.12770   11.56000   12.01420    9.78070    0.32920   79.96860   59.36060  134.79120  122.97930  124.62820   93.09700    0.28560    7.35640   -0.01900    2.19720   33.54230
 10894.00000    4.23470   11.40050   12.01420    9.78490    0.30190   78.81690   57.48990  132.78450  121.17470  122.84140   89.74040    0.28570    7.19350   -0.00990    2.27070   34.01820
 10894.50000    4.33550   11.13000   11.92990    9.78910    0.24340   77.24170   56.26340  127.66490  118.28880  118.64630   91.91540    0.28570    7.22280   -0.00410    2.29140   34.49410
 10895.00000    4.38240   10.85440   11.94020    9.79330    0.24210   76.05010   57.26880  122.54540  115.22890  113.91390   95.49680    0.28580    7.28670   -0.00290    2.29240   33.92670
 10895.50000    4.40830   10.57880   11.90340    9.79330    0.25240   76.82460   58.56420  117.94350  116.10600  112.13550   99.33450    0.28590    7.42430   -0.00300    2.28050   33.29880
 10896.00000    4.41150   10.30330   11.90340    9.79330    0.26570   78.24630   60.23880  117.90980  119.48510  112.77760  103.08120    0.28600    7.71340   -0.01050    2.25190   33.22710
 10896.50000    4.46190   10.24810   12.31470    9.79330    0.27820   79.31090   61.81770  118.56050  121.38550  113.39480  103.97990    0.28600    8.05590   -0.02120    2.22300   33.27450
 10897.00000    4.34310   10.10670   11.71700    9.79330    0.29050   79.24750   61.61210  115.67150  121.28000  110.50750  103.27190    0.28610    8.51630   -0.03060    2.19420   33.40140
 10897.50000    4.00320    9.21230   11.43490    9.79330    0.29740   78.95990   61.54320  112.42710  120.73320  102.16430  102.45650    0.28620    8.62840   -0.02670    2.15650   33.52820
 10898.00000    4.00320    9.16970   11.32940    9.79330    0.32500   78.68570   61.62040  110.46310  120.10530   95.41360  103.11910    0.28630    7.96440   -0.02050    2.16730   33.65510
 10898.50000    4.03340   10.24810   11.19030    9.79330    0.30840   78.88140   61.96780  109.22200  120.39010   91.53630  104.32840    0.28640    7.28520   -0.01610    2.21390   34.28350
 10899.00000    4.10870   10.53700   11.59500    9.78320    0.30170   79.28800   61.97590  106.96020  121.52130   91.69280  105.40580    0.28640    6.78620   -0.01980    2.28480   34.90120
 10899.50000    4.23700   10.53700   12.03760    9.77320    0.22450   79.02190   61.42750  104.81010  120.74460   94.60290  106.05120    0.28650    6.70260   -0.01960    2.32840   34.47420
 10900.00000    4.09130   10.68450   12.05140    9.78090    0.24590   78.33020   60.21500  102.80810  119.57690   98.81380  106.28210    0.28660    7.17470   -0.01680    2.29240   33.91110
 10900.50000    4.07450   10.68450   11.97710    9.78870    0.27180   78.58320   60.36760  102.58650  119.94900  103.57180  106.35650    0.28670    7.64670   -0.01410    2.22410   33.34810
 10901.00000    4.13920   10.68450   12.66190    9.79330    0.29770   78.66660   61.70840  101.57970  120.18950  108.89360  106.35580    0.28670    8.11870   -0.01170    2.13110   32.89760
 10901.50000    4.00730   10.51470   12.46030    9.79130    0.38740   78.71510   62.25020  101.37620  120.16050  112.58390  105.53590    0.28680    8.25770   -0.00860    2.06830   32.28110
 10902.00000    3.88250   10.21380   11.94020    9.78930    0.40740   78.59610   62.36790  102.08370  120.14300  112.72320  104.82620    0.28690    7.94160   -0.00550    2.02380   32.01200
 10902.50000    3.76060    9.23960   11.50580    9.78720    0.40030   78.77020   64.58310  106.69800  120.28710  111.83150  104.11660    0.28700    7.62540   -0.00810    2.01680   32.40560
 10903.00000    3.57120    8.39700   10.71670    9.78520    0.39160   80.11980   67.84880  111.96750  123.61360  111.05040  104.81670    0.28710    7.82970   -0.01080    2.03410   32.89760
 10903.50000    3.70360    8.67380   11.05300    9.78320    0.38570   81.18200   68.27050  110.92900  124.41780  111.76200  106.57000    0.28710    8.27350   -0.01140    2.04960   32.90640
 10904.00000    3.72210    9.64910   11.97710    9.78120    0.39820   81.13070   64.54190  105.09760  124.53990  112.78450  108.56860    0.28720    8.64850   -0.00470    2.04120   32.91520
 10904.50000    3.77290   10.29570   12.39110    9.77910    0.41420   81.88350   61.37600  100.03900  125.90370  111.64980  110.13680    0.28730    8.50470   -0.00620    2.01160   32.92410
