~Version ---------------------------------------------------
VERS.   2.0 : CWLS log ASCII Standard -VERSION 2.0
WRAP.    NO : One line per depth step
DLM . SPACE : Column Data Section Delimiter
~Well ------------------------------------------------------
STRT .F                 7293.0 : START DEPTH
STOP .F                15081.0 : STOP DEPTH
STEP .F                    0.5 : STEP
NULL .                -9999.25 : NULL VALUE
COMP .                         : COMPANY
WELL .                         : WELL
FLD  .                         : FIELD
LOC  .                         : LOCATION
PROV .                         : PROVINCE
CNTY .                         : COUNTY
STAT .                         : STATE
CTRY .                         : COUNTRY
SRVC .                         : SERVICE COMPANY
DATE .                         : DATE
UWI  .                         : UNIQUE WELL ID
API  .                         : API NUMBER
SLAT .WGS84  5.692772930891202 : SURFACE LATITUDE
SLON .WGS84 4.8118330966239995 : SURFACE LONGITUDE
DATUM.F                2430.86 : DEPTH DATUM ELEV
~Curve Information -----------------------------------------
DEPT     .F     : 
AST10    .OHMM  : 10-IN. RESISTIVITY, 1-FT RESOLUTION
AST30    .OHMM  : 30 ARRAY INDUCTION 30
AST90    .OHMM  : 90-IN. RESISTIVITY, 1-FT RESOLUTION
CALI_SPCS.IN    : CALIPER FROM RESISTIVITY
DPHI_SLDT.DEC   : DENSITY POROSITY LIMESTONE
DT       .US/F  : INTERVAL TRANSIT TIME
DTC      .US/F  : COMPRESSIONAL-WAVE INTERVAL TRANSIT TIME ACAUSTIC SLOWNESS
DTS      .US/F  : DELTA SHEAR
DTSM     .US/F  : Delta-T Shear Slowness
GR       .GAPI  : GAMMA RAY FROM CEMENTBOND LOG
GR_STGC  .GAPI  : GAMMA RAY
NPHI_LS  .DEC   : NEUTRON POROSITY LIMESTONE
PEF_SLDT .B/E   : PHOTOELECTRIC FACTOR
QRHO_SLDT.G/C3  : DENSITY CORRECTION
RHOB_SLDT.G/C3  : BULK DENSITY
SPR      .MV    : SPONTANEOUS POTENTIAL FROM RES.
~Params ----------------------------------------------------
~Other -----------------------------------------------------
~ASCII -----------------------------------------------------
# ...
 10475.00000   12.60890   27.23920   23.90480    9.78250   -0.02260   72.78790   56.49810  120.02650  109.31280  130.74500  110.25300    0.22350    5.64320   -0.00330    2.74280   21.66530
 10475.50000   11.38350   21.80790   19.93800    9.79190   -0.00490   74.05270   58.53390  123.28100  111.08960  130.17490  107.44550    0.23100    5.76360   -0.00330    2.72160   21.59810
 10476.00000   11.29880   22.21580   20.62710    9.79370   -0.00900   75.91430   60.75590  127.05740  114.68470  131.58350  108.20470    0.23600    5.76090   -0.00330    2.73030   21.59810
 10476.50000   12.18480   24.82860   23.48420    9.79360   -0.02380   76.99060   60.06700  128.22170  117.09650  133.51120  110.98550    0.24100    5.64840   -0.00320    2.75380   21.59810
 10477.00000   13.05920   25.17610   24.29590    9.79350   -0.03540   76.63560   58.60080  128.60470  116.89950  134.84650  114.84800    0.24320    5.49460   -0.00320    2.77490   21.62050
 10477.50000   12.65400   24.48590   23.70820    9.79350   -0.03530   75.80070   56.43940  127.57320  115.33870  135.99690  118.86400    0.24320    5.29370   -0.00320    2.76910   21.73260
 10478.00000   12.66730   24.48590   23.12420    9.79340   -0.02590   74.73540   55.89640  124.65000  113.13710  137.47040  124.15980    0.24260    5.09280   -0.00320    2.75110   21.84470
 10478.50000   13.19060   24.48590   23.12420    9.79330   -0.02230   74.43160   56.08110  122.66710  112.36110  137.34630  126.37230    0.24130    5.03760   -0.00320    2.74790   21.95680
 10479.00000   13.44360   24.94390   23.12420    9.79330   -0.02650   74.56570   56.00830  122.43350  112.55440  136.10930  126.31050    0.24000    5.01250   -0.00310    2.75620   22.01220
 10479.50000   13.80580   25.23460   23.12420    9.79320   -0.03280   74.47800   55.45240  122.57320  112.62350  134.49890  124.33950    0.23890    5.00250   -0.00310    2.76730   22.40520
 10480.00000   13.97690   25.52850   23.55680    9.79310   -0.03410   74.30580   55.50290  122.46140  112.35680  134.45770  122.36850    0.23770    5.09170   -0.00310    2.76730   22.40860
 10480.50000   14.19500   26.98800   24.75030    9.79300   -0.03000   74.01860   55.70500  122.18200  112.04360  135.38630  121.39770    0.23610    5.20310   -0.00310    2.76100   22.16410
 10481.00000   14.33580   26.00600   24.90350    9.77480   -0.02470   73.81910   55.92640  122.09880  111.73040  137.26240  121.96800    0.23440    5.24320   -0.00310    2.75270   22.09000
 10481.50000   14.46050   25.64700   24.82680    9.77460   -0.02550   73.71140   55.50060  121.68280  111.41720  139.13840  122.53830    0.23260    5.10620   -0.00300    2.75130   22.03080
 10482.00000   14.35620   25.06080   24.29590    9.77700   -0.03020   73.31810   55.36800  121.26670  111.06920  139.83610  122.33660    0.23180    4.92780   -0.00300    2.75920   22.38500
 10482.50000   14.46050   24.48590   23.19590    9.77950   -0.03110   73.16490   55.37920  120.76630  110.58200  137.59520  122.21470    0.23160    4.83200   -0.00300    2.76410   23.00030
 10483.00000   14.19500   23.23210   22.21420    9.78190   -0.02470   73.17850   55.81290  120.65640  110.22710  135.38630  124.50600    0.23240    4.84100   -0.00300    2.75650   23.59620
 10483.50000   13.05920   21.97820   20.75490    9.78430   -0.01550   74.14300   56.88870  120.96620  111.64270  136.29680  128.48000    0.23730    4.86470   -0.00300    2.73980   23.56270
 10484.00000   11.96040   20.62860   19.27210    9.78670   -0.00520   75.62930   58.23720  123.36150  114.71200  137.95890  131.65970    0.24320    4.88850   -0.00300    2.71960   22.95190
 10484.50000   12.35730   20.53320   19.69320    9.78910   -0.00280   76.69520   59.29980  127.12600  116.77280  137.77420  129.19090    0.24680    4.91220   -0.00290    2.71480   22.34100
 10485.00000   12.94660   20.72440   19.69320    9.79150   -0.00470   76.66740   58.83320  128.21820  116.83550  126.87790  126.73220    0.24290    4.84840   -0.00290    2.71830   22.12360
 10485.50000   13.30350   21.60680   20.94820    9.79400   -0.00940   75.69620   57.58320  127.53960  115.30710  115.79070  129.20220    0.23740    4.78460   -0.00290    2.72750   22.16850
 10486.00000   13.68540   23.00480   21.34000    9.79640   -0.01740   74.43630   56.43120  123.32220  112.98950  107.40670  132.99960    0.23340    4.70360   -0.00290    2.73970   22.21340
 10486.50000   14.07950   24.97720   22.42100    9.79880   -0.01470   73.29320   56.25320  121.97410  111.04140  114.73490  133.81050    0.23430    4.69160   -0.00290    2.73340   22.53620
 10487.00000   14.32710   25.52850   23.92350    9.79950   -0.00570   73.66630   57.08000  122.38980  111.38590  125.58600  131.76630    0.24220    4.79190   -0.00280    2.71930   22.85660
 10487.50000   13.67680   23.20310   22.24020    9.79770    0.00120   75.31010   57.41390  122.42790  113.45650  136.20780  129.84600    0.25040    4.93010   -0.00280    2.70870   23.17700
 10488.00000   13.60760   21.70710   20.69080    9.79590   -0.00120   76.33290   57.88500  123.80580  116.05250  140.47990  128.42690    0.25100    5.12510   -0.00280    2.71380   23.40650
 10488.50000   13.55230   21.50690   20.69080    9.79410    0.00070   76.42730   58.45250  125.49450  116.20910  144.18070  128.70150    0.24740    5.24830   -0.00280    2.70630   23.31560
 10489.00000   13.46490   21.60680   21.07780    9.79230    0.01240   75.88950   57.99680  126.23930  115.52010  148.32680  133.11780    0.24550    5.28340   -0.00280    2.68830   23.24430
 10489.50000   13.10150   23.35650   21.87370    9.80630    0.02410   75.21850   57.14190  124.29700  113.60960  154.39280  138.55910    0.25190    5.13580   -0.00270    2.67060   23.38620
 10490.00000   13.69140   25.95040   25.82340    9.80950    0.02740   75.20770   57.44540  122.91870  114.25480  162.54280  147.81510    0.26090    5.01250   -0.00270    2.66090   23.52820
 10490.50000   14.67280   31.26950   28.17860    9.80500    0.02870   75.89920   58.40810  122.70330  115.39500  169.22940  149.82390    0.26690    5.03260   -0.00270    2.66160   23.67020
 10491.00000   16.02700   36.64100   30.06680    9.80040    0.03470   76.20340   59.14340  125.08610  115.52020  175.91590  166.95950    0.27000    5.29890   -0.00270    2.65350   23.81220
 10491.50000   13.79510   32.33990   24.09270    9.79590    0.04200   76.68640   59.24520  127.93870  116.81480  178.77520  160.11540    0.27330    5.54510   -0.00270    2.63850   23.74760
 10492.00000   11.30190   22.43230   16.96170    9.78900    0.03450   77.34950   58.74790  129.05940  118.17190  168.00850  152.18960    0.27500    5.62440   -0.00260    2.65770   23.66340
 10492.50000    9.33610   14.43910   13.93420    9.79130    0.01880   77.74510   57.46800  133.12530  118.99670  149.41030  139.01810    0.27420    5.31340   -0.00260    2.68010   23.70770
 10493.00000    9.46280   14.50610   13.72060    9.79360    0.00780   77.93150   56.70920  136.86080  119.05930  141.25030  131.23030    0.26680    5.19910   -0.00260    2.69930   23.75190
 10493.50000   10.02830   15.75230   14.49770    9.79600    0.00480   77.39450   57.30460  138.63930  118.84010  136.82900  131.33810    0.26190    5.12290   -0.00260    2.70160   24.39360
 10494.00000   10.58820   17.22570   16.01200    9.79830    0.00270   76.35770   57.36930  136.89620  115.99000  137.53910  134.76500    0.26860    5.04880   -0.00260    2.70660   24.90700
 10494.50000   11.26330   18.69920   17.61120    9.80060   -0.00320   76.65560   56.74820  134.51580  116.35960  140.80400  136.73310    0.27740    4.85590   -0.00270    2.71670   24.76150
 10495.00000   12.05340   20.15620   19.45150    9.80300   -0.00960   77.31320   54.86400  133.08890  117.93180  146.61350  135.85130    0.27980    4.66150   -0.00280    2.72900   24.45130
 10495.50000   12.34740   21.53290   19.75410    9.80530   -0.01500   76.78440   54.77280  131.17340  117.43070  149.77970  132.44840    0.27960    4.61130   -0.00290    2.73700   24.09350
 10496.00000   13.08770   21.84650   19.51160    9.80770   -0.01360   76.16230   54.30040  128.32460  115.83340  143.52830  127.81310    0.27240    4.79190   -0.00290    2.73200   23.82510
