~Version ---------------------------------------------------
VERS.   2.0 : CWLS log ASCII Standard -VERSION 2.0
WRAP.    NO : One line per depth step
DLM . SPACE : Column Data Section Delimiter
~Well ------------------------------------------------------
STRT .F                 7293.0 : START DEPTH
STOP .F                15081.0 : STOP DEPTH
STEP .F                    0.5 : STEP
NULL .                -9999.25 : NULL VALUE
COMP .                         : COMPANY
WELL .                         : WELL
FLD  .                         : FIELD
LOC  .                         : LOCATION
PROV .                         : PROVINCE
CNTY .                         : COUNTY
STAT .                         : STATE
CTRY .                         : COUNTRY
SRVC .                         : SERVICE COMPANY
DATE .                         : DATE
UWI  .                         : UNIQUE WELL ID
API  .                         : API NUMBER
SLAT .WGS84  5.692772930891202 : SURFACE LATITUDE
SLON .WGS84 4.8118330966239995 : SURFACE LONGITUDE
DATUM.F                2430.86 : DEPTH DATUM ELEV
~Curve Information -----------------------------------------
DEPT     .F     : 
AST10    .OHMM  : 10-IN. RESISTIVITY, 1-FT RESOLUTION
AST30    .OHMM  : 30 ARRAY INDUCTION 30
AST90    .OHMM  : 90-IN. RESISTIVITY, 1-FT RESOLUTION
CALI_SPCS.IN    : CALIPER FROM RESISTIVITY
DPHI_SLDT.DEC   : DENSITY POROSITY LIMESTONE
DT       .US/F  : INTERVAL TRANSIT TIME
DTC      .US/F  : COMPRESSIONAL-WAVE INTERVAL TRANSIT TIME ACAUSTIC SLOWNESS
DTS      .US/F  : DELTA SHEAR
DTSM     .US/F  : Delta-T Shear Slowness
GR       .GAPI  : GAMMA RAY FROM CEMENTBOND LOG
GR_STGC  .GAPI  : GAMMA RAY
NPHI_LS  .DEC   : NEUTRON POROSITY LIMESTONE
PEF_SLDT .B/E   : PHOTOELECTRIC FACTOR
QRHO_SLDT.G/C3  : DENSITY CORRECTION
RHOB_SLDT.G/C3  : BULK DENSITY
SPR      .MV    : SPONTANEOUS POTENTIAL FROM RES.
~Params ----------------------------------------------------
~Other -----------------------------------------------------
~ASCII -----------------------------------------------------
# ...
 10045.00000   49.53960  139.59800  177.12630    9.07090    0.01990   60.66500   36.71410   81.12290   87.35920   64.16180   47.53360    0.07370    4.33000   -0.00280    2.67890   13.15610
 10045.50000   50.50110  116.49360  160.67730    9.12490    0.02290   61.31610   37.67950   82.85470   88.56260   63.73160   47.99430    0.07760    4.23280   -0.00280    2.67380   12.98000
 10046.00000   53.96370  106.16510  123.35120    9.20670    0.02990   61.90030   38.84200   84.87670   89.76600   63.42920   51.36490    0.08030    4.19450   -0.00280    2.66500   13.03440
 10046.50000   55.45870   81.94240   95.89580    9.30380    0.03670   62.24270   39.17280   87.67120   90.96940   62.67270   57.79000    0.08360    4.19560   -0.00280    2.65150   13.24250
 10047.00000   56.26280   61.69910   68.12380    9.34270    0.04040   62.62200   40.62290   89.26900   91.64070   62.50090   63.09860    0.08920    4.20440   -0.00280    2.64040   13.67800
 10047.50000   55.47590   55.44780   65.02660    9.37650    0.03620   63.14010   41.63230   89.45110   92.67890   64.11920   65.07370    0.09580    4.24440   -0.00280    2.64590   14.30570
 10048.00000   54.95610   53.78600   60.81200    9.45880    0.02660   63.63590   42.16640   89.28530   93.12930   71.22090   68.55070    0.10440    4.28430   -0.00280    2.65820   14.62970
 10048.50000   55.19980   51.55820   54.32860    9.57290    0.02520   63.63200   42.59370   89.09490   93.49390   80.07450   75.11630    0.11320    4.33960   -0.00280    2.66770   15.07180
 10049.00000   56.03010   49.33030   46.97860    9.59620    0.02730   63.90090   42.35050   89.54200   93.94120   94.28100   84.93760    0.12180    4.45590   -0.00280    2.66340   15.51390
 10049.50000   55.43770   47.76720   44.63310    9.53330    0.03250   64.38320   43.37750   90.75090   94.95390  106.50140   91.25220    0.12520    4.57230   -0.00280    2.65550   15.95600
 10050.00000   53.11700   47.86920   44.21110    9.47050    0.04050   64.89710   45.06040   92.92350   95.84370  112.69000   94.99550    0.13180    4.70530   -0.00280    2.64260   16.39810
 10050.50000   52.89880   50.24250   46.51260    9.40760    0.04380   65.50200   46.19290   95.30070   96.82040  111.50260   92.92540    0.13850    4.71210   -0.00280    2.63710   16.75300
 10051.00000   56.43000   50.69560   47.58970    9.35100    0.04410   65.71030   45.76780   97.03520   97.11750  106.55840   90.48970    0.13830    4.70290   -0.00280    2.63560   16.89740
 10051.50000   45.56150   46.95380   45.92120    9.38550    0.03950   65.30650   46.14750   97.28940   96.29680  102.90650   91.81880    0.13620    4.69920   -0.00280    2.64330   17.13410
 10052.00000   37.34750   42.66060   40.91000    9.43350    0.02930   64.66560   46.21020   97.30220   95.27050  101.98520   99.77270    0.13600    4.70920   -0.00280    2.65800   17.37080
 10052.50000   32.17400   38.36730   35.89890    9.46900    0.02370   64.09570   45.60440   97.31500   94.50420  105.46450  106.16080    0.13950    4.76940   -0.00280    2.67440   18.44170
 10053.00000   25.89310   34.07410   32.20430    9.58270    0.01630   64.21330   45.40440   97.53040   94.40490  113.45930  112.39360    0.14970    4.70420   -0.00280    2.68520   18.86080
 10053.50000   22.08660   29.78090   25.97450    9.68020    0.01500   65.81990   47.58210   99.57350   94.45630  125.11060  119.97500    0.17670    4.67910   -0.00280    2.68630   18.85510
 10054.00000   19.71310   25.48760   21.90650    9.73880    0.02160   68.57900   50.92260  103.64410  103.11700  130.77340  130.00640    0.20730    4.79950   -0.00280    2.67640   18.84630
 10054.50000   16.73450   23.65820   22.41510    9.78810    0.02460   72.61800   54.42180  113.11280  110.84440  136.76810  136.67220    0.24330    5.02010   -0.00280    2.67030   18.83740
 10055.00000   16.34930   23.43330   23.04240    9.78040    0.01710   76.48390   59.18990  120.95570  115.36300  136.42100  131.85010    0.24340    5.05020   -0.00280    2.67870   18.82860
 10055.50000   15.89580   23.31900   22.71840    9.78040    0.00810   78.09590   62.85440  122.71800  119.57030  133.61140  125.82250    0.23130    5.05020   -0.00280    2.69280   18.81970
 10056.00000   16.07710   23.31410   22.19240    9.78180   -0.00120   77.06270   63.75310  118.94320  117.96710  128.99530  119.79480    0.21900    5.05020   -0.00280    2.70880   19.05790
 10056.50000   16.98300   25.88810   23.56570    9.79230   -0.00160   75.58440   62.87310  114.77460  114.33400  127.38230  117.58460    0.21600    5.00010   -0.00280    2.71350   19.16740
 10057.00000   19.08340   34.38000   30.50970    9.80280    0.00840   74.76910   61.09100  110.67870  112.83150  131.10240  130.02830    0.22120    4.95490   -0.00280    2.70330   18.94610
 10057.50000   20.68540   42.87190   37.43920    9.80740    0.03080   76.78180   59.58380  110.06870  115.28370  139.69520  140.55770    0.24350    4.87970   -0.00280    2.66920   19.14110
 10058.00000   24.70290   51.92240   47.90790    9.80320    0.05900   79.47230   60.68980  114.28670  121.15920  150.27810  151.08720    0.26590    4.72090   -0.00280    2.60730   19.33610
 10058.50000   29.53700   81.43530   65.24800    9.79910    0.07890   83.64390   62.57810  123.46310  127.60800  160.55410  156.67500    0.28260    4.50640   -0.00280    2.57910   19.53110
 10059.00000   38.15150  110.94820  107.09570    9.79230    0.09090   86.77130   65.88200  131.05580  133.01320  171.08930  166.35920    0.29210    4.29180   -0.00280    2.55760   19.72600
 10059.50000   41.04530  131.32510  124.40010    9.78480    0.09800   88.52620   69.00020  136.24380  138.41830  178.81510  171.06140    0.29460    4.06730   -0.00280    2.54460   19.51330
 10060.00000   40.45740  149.15070  128.82160    9.77730    0.10200   88.98440   69.44730  136.66780  138.47600  179.80610  176.33600    0.29370    4.03720   -0.00280    2.53940   19.19870
 10060.50000   39.76380  170.59860  147.34160    9.75040    0.10340   88.84500   70.51260  135.93880  137.92450  199.52980  183.16250    0.28490    4.05910   -0.00280    2.53520   18.88410
 10061.00000   38.97340  198.78050  155.76510    9.71310    0.10100   88.30740   70.64390  136.56410  136.99760  201.00730  189.21130    0.27670    4.16850   -0.00280    2.53820   18.56940
 10061.50000   35.99790  211.12070  124.80480    9.63430    0.09620   87.56350   69.32850  137.49870  136.02700  199.16040  191.02340    0.27160    4.27790   -0.00280    2.54450   18.31530
 10062.00000   34.79340  157.16770  103.13260    9.57450    0.08980   86.78920   68.03140  137.82970  134.83110  192.49830  189.60660    0.27200    4.31800   -0.00280    2.55970   18.43210
 10062.50000   35.15760  104.03500   89.47830    9.53450    0.08270   85.96810   67.35910  137.37180  132.94890  185.83620  183.47620    0.27440    4.29130   -0.00280    2.57260   18.63950
 10063.00000   30.17420   85.00970   69.56160    9.49460    0.07670   85.23830   67.33610  137.45100  131.92800  179.21370  175.61600    0.27300    4.28790   -0.00280    2.58090   19.06920
 10063.50000   24.71960   65.98450   53.43360    9.44730    0.07300   85.00720   66.89220  139.18260  131.72480  166.13820  167.75580    0.26150    4.38220   -0.00280    2.58540   19.49890
 10064.00000   19.77680   46.95920   37.97590    9.38920    0.06910   85.08020   66.87300  141.01530  131.52170  165.07810  159.89570    0.25120    4.56080   -0.00280    2.59130   19.57290
 10064.50000   17.94030   30.86880   29.38490    9.34020    0.05730   84.75450   66.67810  142.59690  131.02230  162.29660  152.03550    0.24090    4.68910   -0.00280    2.60910   19.55160
 10065.00000   16.69390   28.66330   27.01200    9.32740    0.03540   83.27160   64.85050  142.44890  129.95450  152.32330  139.34040    0.23330    4.64230   -0.00280    2.64490   19.10210
 10065.50000   16.06410   28.00700   26.53740    9.31470    0.01510   80.40780   62.10960  139.54590  124.33430  134.77750  129.15220    0.21670    4.60890   -0.00280    2.68510   18.54610
 10066.00000   14.19270   25.00780   22.30160    9.30470    0.02430   76.67760   61.43020  134.03950  115.75000  121.22970  118.76130    0.21320    4.77480   -0.00280    2.67160   18.42070
