~Version ---------------------------------------------------
VERS.   2.0 : CWLS log ASCII Standard -VERSION 2.0
WRAP.    NO : One line per depth step
DLM . SPACE : Column Data Section Delimiter
~Well ------------------------------------------------------
STRT .F                 7293.0 : START DEPTH
STOP .F                15081.0 : STOP DEPTH
STEP .F                    0.5 : STEP
NULL .                -9999.25 : NULL VALUE
COMP .                         : COMPANY
WELL .                         : WELL
FLD  .                         : FIELD
LOC  .                         : LOCATION
PROV .                         : PROVINCE
CNTY .                         : COUNTY
STAT .                         : STATE
CTRY .                         : COUNTRY
SRVC .                         : SERVICE COMPANY
DATE .                         : DATE
UWI  .                         : UNIQUE WELL ID
API  .                         : API NUMBER
SLAT .WGS84  5.692772930891202 : SURFACE LATITUDE
SLON .WGS84 4.8118330966239995 : SURFACE LONGITUDE
DATUM.F                2430.86 : DEPTH DATUM ELEV
~Curve Information -----------------------------------------
DEPT     .F     : 
AST10    .OHMM  : 10-IN. RESISTIVITY, 1-FT RESOLUTION
AST30    .OHMM  : 30 ARRAY INDUCTION 30
AST90    .OHMM  : 90-IN. RESISTIVITY, 1-FT RESOLUTION
CALI_SPCS.IN    : CALIPER FROM RESISTIVITY
DPHI_SLDT.DEC   : DENSITY POROSITY LIMESTONE
DT       .US/F  : INTERVAL TRANSIT TIME
DTC      .US/F  : COMPRESSIONAL-WAVE INTERVAL TRANSIT TIME ACAUSTIC SLOWNESS
DTS      .US/F  : DELTA SHEAR
DTSM     .US/F  : Delta-T Shear Slowness
GR       .GAPI  : GAMMA RAY FROM CEMENTBOND LOG
GR_STGC  .GAPI  : GAMMA RAY
NPHI_LS  .DEC   : NEUTRON POROSITY LIMESTONE
PEF_SLDT .B/E   : PHOTOELECTRIC FACTOR
QRHO_SLDT.G/C3  : DENSITY CORRECTION
RHOB_SLDT.G/C3  : BULK DENSITY
SPR      .MV    : SPONTANEOUS POTENTIAL FROM RES.
~Params ----------------------------------------------------
~Other -----------------------------------------------------
~ASCII -----------------------------------------------------
# ...
 12560.50000    5.24650   19.20900   32.47590    9.81370    0.60710   68.14340   56.46370  129.14470   99.18770  132.60010  113.50530    0.29950   11.29120   -0.06830    1.72070 -174.30750
 12561.00000    5.52170   28.74450   47.92640    9.80380    0.63480   66.85170   55.37460  128.29690   99.14520  126.88430  113.49740    0.29960   13.02680   -0.08490    1.64230 -174.32160
 12561.50000    5.38710   26.02230   48.37260    9.80400    0.66680   72.70610   56.22740  127.93080  110.04860  118.88450  114.26540    0.29960   14.18740   -0.07300    1.58690 -174.33580
 12562.00000    4.73810   19.54920   48.37260    9.80420    0.69880   77.64580   56.83680  127.56480  120.90950  114.42490  114.97670    0.29960   13.68170   -0.06620    1.52730 -174.25820
 12562.50000    4.56000   16.40940   53.56300    9.80680    0.69650   80.23870   55.51040  127.49340  123.29390  119.25710  115.18350    0.29960   12.45070   -0.06760    1.52880 -174.30680
 12563.00000    5.11760   26.12340   66.90280    9.81290    0.65520   77.67300   54.18400  129.28390  116.48640  129.13300  114.77070    0.29960   11.18460   -0.05900    1.58760 -174.61230
 12563.50000    5.95530   47.65930   87.93390    9.81910    0.59190   74.29190   51.90190  129.64390  112.17450  137.67040  114.11260    0.29960    9.77800   -0.03820    1.66850 -174.51350
 12564.00000    6.98410   50.45780  310.05620    9.82520    0.52860   75.77700   48.62620  125.93130  115.82430  142.56480  113.52870    0.29970    8.37140   -0.03310    1.79110 -174.19320
 12564.50000    7.00290   39.75570  219.77840    9.81530    0.43790   75.50750   46.39050  123.76550  115.56970  144.01070  113.41440    0.29970    7.46720   -0.04190    1.91370 -173.87290
 12565.00000    6.95970   38.66580   72.38520    9.81550    0.39740   74.23950   47.75620  125.40850  111.75010  144.10200  113.64560    0.29970    7.56420   -0.03660    1.99260 -173.87290
 12565.50000    6.69720   28.81160   55.32850    9.81570    0.35680   74.00660   49.25400  125.39610  112.19040  145.09540  115.19790    0.29970    7.74140   -0.02190    2.14020 -173.87290
 12566.00000    6.62890   23.22730   47.48440    9.81590    0.31620   74.47680   50.71560  126.83510  112.85350  146.99710  117.94530    0.29770    6.97020   -0.01010    2.24820 -173.63950
 12566.50000    7.38980   36.51820   42.29110    9.81610    0.23160   74.47420   52.93200  130.80610  112.76860  150.62810  120.61540    0.29060    6.36260   -0.01620    2.32350 -173.32440
 12567.00000    8.31680   43.41390   46.18260    9.74220    0.17250   74.96290   54.43890  135.91830  112.72620  155.04140  122.69460    0.28620    6.21010   -0.01510    2.39880 -172.79780
 12567.50000    8.56680   42.65780   39.45190    9.60120    0.14870   77.43200   54.95310  137.44130  113.44770  158.12830  122.03780    0.28940    6.86940   -0.01290    2.45470 -172.27120
 12568.00000    9.21780   31.82880   44.50220    9.56290    0.16390   80.09010   56.29450  135.36900  120.18160  158.64960  120.04960    0.29600    7.65180   -0.00750    2.40740 -172.15140
 12568.50000    9.71360   58.07850   48.54160    9.50760    0.19740   80.98720   58.57780  134.57630  127.28330  157.31330  120.27470    0.29850    8.43410   -0.00200    2.37340 -172.58110
 12569.00000    9.86670   63.77220   49.73610    9.51310    0.22980   85.69620   60.08770  136.44770  133.72010  155.81390  122.84210    0.29910    8.66420   -0.00040    2.31970 -172.58110
 12569.50000    8.67230   31.82880   42.60990    9.45950    0.24320   90.10460   61.38050  141.59430  138.95450  155.99200  125.18170    0.29910    7.83440   -0.00210    2.29880 -172.71270
 12570.00000    7.53880   28.37280   33.70210    9.47800    0.24360   86.33250   61.32380  145.23400  135.45280  155.73430  124.47170   -9999.25    7.00460   -0.00610    2.29650 -172.62030
 12570.50000    6.46140   25.01450   30.57760    9.59390    0.24070   82.60890   61.26710  144.90700  125.57880  153.27420  123.28440   -9999.25    6.79870   -0.01250    2.29880 -171.94610
 12571.00000    5.43760   19.20900   25.52310    9.69240    0.24710   79.86680   59.85610  140.23330  123.33690  149.62010  123.80940   -9999.25    7.02850   -0.02910    2.28590 -171.53710
 12571.50000    5.03210   18.33930   24.93860    9.79360    0.25350   76.78830   58.68760  133.89720  119.37500  150.43350  123.93070   -9999.25    7.19360   -0.03820    2.21930 -171.52580
 12572.00000    5.43590   25.93640   34.63480    9.76420    0.29520   73.68370   58.31850  132.59510  109.96150  155.82520  122.01600   -9999.25    7.62590   -0.02130    2.12690 -171.51450
 12572.50000    5.41990   45.05320   38.01640    9.72610    0.40470   75.53400   58.71300  135.83840  114.27300  157.48690  118.54530   -9999.25    8.83490   -0.00490    2.03450 -171.50320
 12573.00000    4.84180   37.94350   29.05830    9.76800    0.52210   78.95060   61.71010  141.71650  120.96660  151.35630  115.16720   -9999.25   10.57960   -0.00440    1.89450 -171.22020
 12573.50000    4.35210   23.77170   25.88030    9.80590    0.62740   80.19550   62.33340  144.30130  122.81290  141.05440  112.15930   -9999.25   12.32420   -0.01500    1.66430 -171.54280
 12574.00000    4.06110   26.42760   28.52480    9.80700    0.68760   81.11260   60.49220  138.47580  125.00050  135.56490  109.15140   -9999.25   13.73980   -0.02860    1.50830 -171.86540
 12574.50000    3.71450   30.24730   32.47590    9.80970    0.69960   84.29600   52.58620  124.64720  130.14880  138.29340  104.71480   -9999.25   14.92880   -0.04570    1.38200 -171.95640
 12575.00000    3.24270   20.61770   29.46500    9.81240    0.69960   81.61570   44.44050  111.64530  120.75990  144.59360  101.30120   -9999.25   15.70930   -0.04940    1.31120 -171.54160
 12575.50000    3.06400   13.63360   29.32880    9.81220    0.69950   75.90190   40.46680  100.88640  109.01740  145.04210  100.21200   -9999.25   15.73640   -0.05310    1.28900 -171.54450
 12576.00000    3.26460   21.31800   43.28220    9.81010    0.69950   73.88020   42.49080  103.27940  112.67280  140.88580  100.39040   -9999.25   15.39240   -0.05380    1.27880 -171.74760
 12576.50000    3.05720   23.66180   31.33970    9.80790    0.69940   78.58360   49.92770  110.76610  118.26320  134.83470  101.52050   -9999.25   14.98930   -0.04870    1.27640 -171.54370
 12577.00000    2.60610   11.71390   17.78240    9.80580    0.69930   82.23570   57.36470  119.77940  118.55830  129.51650  103.55420   -9999.25   14.78140   -0.04360    1.27510 -171.33980
 12577.50000    2.51040    9.19570   17.13540    9.80050    0.69930   83.61920   60.87640  124.19940  119.87700  130.19020  105.27070   -9999.25   15.08530   -0.04050    1.27500 -171.13590
 12578.00000    2.74200   18.10400   30.47690    9.76340    0.69920   84.75200   55.94790  119.28240  121.17250  137.59690  105.35090   -9999.25   15.71060   -0.03990    1.27500 -170.94630
 12578.50000    3.02770   37.60580   50.65800    9.71350    0.69920   84.60010   50.84040  112.34330  124.06600  144.07000  105.21050   -9999.25   16.33600   -0.03640    1.27100 -171.08850
 12579.00000    2.98480   37.25900   70.46430    9.74050    0.69910   81.78080   54.22040  122.43200  128.56260  146.64650  107.07540   -9999.25   16.96130   -0.03010    1.26780 -171.56050
 12579.50000    2.91150   30.04260   74.42550    9.78320    0.69910   80.37060   55.74650  131.43070  126.14160  146.08010  109.77030   -9999.25   17.20500   -0.02370    1.27310 -171.96200
 12580.00000    2.82800   23.54080   65.20610    9.80900    0.69900   82.14200   46.73300  116.72540  122.61220  145.53410  112.65440   -9999.25   16.06320   -0.02270    1.29200 -172.35180
 12580.50000    2.76230   17.00080   51.93100    9.80970    0.69900   83.07990   38.18800  102.86860  122.52200  145.63810  114.24450   -9999.25   14.66100   -0.03810    1.31340 -172.74160
 12581.00000    2.52690   11.53920   38.46840    9.81040    0.69890   89.90000   31.43410   88.42610  123.11620  145.31320  114.15700   -9999.25   13.79290   -0.05560    1.33470 -173.08040
 12581.50000    2.52420   11.43280   32.93040    9.81100    0.69880  102.35970   26.36910   78.92350  127.48150  141.21250  110.19140   -9999.25   14.52940   -0.06560    1.35950 -173.09170
