~Version ---------------------------------------------------
VERS.   2.0 : CWLS log ASCII Standard -VERSION 2.0
WRAP.    NO : One line per depth step
DLM . SPACE : Column Data Section Delimiter
~Well ------------------------------------------------------
STRT .F                 7293.0 : START DEPTH
STOP .F                15081.0 : STOP DEPTH
STEP .F                    0.5 : STEP
NULL .                -9999.25 : NULL VALUE
COMP .                         : COMPANY
WELL .                         : WELL
FLD  .                         : FIELD
LOC  .                         : LOCATION
PROV .                         : PROVINCE
CNTY .                         : COUNTY
STAT .                         : STATE
CTRY .                         : COUNTRY
SRVC .                         : SERVICE COMPANY
DATE .                         : DATE
UWI  .                         : UNIQUE WELL ID
API  .                         : API NUMBER
SLAT .WGS84  5.692772930891202 : SURFACE LATITUDE
SLON .WGS84 4.8118330966239995 : SURFACE LONGITUDE
DATUM.F                2430.86 : DEPTH DATUM ELEV
~Curve Information -----------------------------------------
DEPT     .F     : 
AST10    .OHMM  : 10-IN. RESISTIVITY, 1-FT RESOLUTION
AST30    .OHMM  : 30 ARRAY INDUCTION 30
AST90    .OHMM  : 90-IN. RESISTIVITY, 1-FT RESOLUTION
CALI_SPCS.IN    : CALIPER FROM RESISTIVITY
DPHI_SLDT.DEC   : DENSITY POROSITY LIMESTONE
DT       .US/F  : INTERVAL TRANSIT TIME
DTC      .US/F  : COMPRESSIONAL-WAVE INTERVAL TRANSIT TIME ACAUSTIC SLOWNESS
DTS      .US/F  : DELTA SHEAR
DTSM     .US/F  : Delta-T Shear Slowness
GR       .GAPI  : GAMMA RAY FROM CEMENTBOND LOG
GR_STGC  .GAPI  : GAMMA RAY
NPHI_LS  .DEC   : NEUTRON POROSITY LIMESTONE
PEF_SLDT .B/E   : PHOTOELECTRIC FACTOR
QRHO_SLDT.G/C3  : DENSITY CORRECTION
RHOB_SLDT.G/C3  : BULK DENSITY
SPR      .MV    : SPONTANEOUS POTENTIAL FROM RES.
~Params ----------------------------------------------------
~Other -----------------------------------------------------
~ASCII -----------------------------------------------------
# ...
 12130.50000   15.65990   39.65420   40.51430    9.80160    0.02320   67.88710   50.14590   98.18140  101.17270  132.05320  106.98760    0.17570    7.10680   -0.00270    2.66240 -176.27340
 12131.00000   15.11730   38.75270   40.23030    9.79700    0.04180   68.77880   49.12570   96.80070  102.41340  126.42020  102.20310    0.18160    7.47120   -0.00270    2.63040 -175.79200
 12131.50000   14.45760   37.52190   39.65930    9.79390    0.05920   67.98410   47.47170   95.78500  101.60430  117.92450   97.00730    0.17960    7.65710   -0.00270    2.60190 -175.31070
 12132.00000   13.69650   36.16190   40.03320    9.79680    0.06450   66.90500   46.52120   96.01860   98.63120  110.31150   91.40700    0.17150    7.19720   -0.00270    2.60270 -174.82930
 12132.50000   13.65680   35.66750   39.79290    9.79760    0.06030   65.38890   45.42170   97.43960   96.47830  105.40040   90.32080    0.15730    6.65990   -0.00260    2.61240 -175.23640
 12133.00000   13.18870   35.50720   40.29220    9.79550    0.05470   64.21880   43.72650   98.46650   95.21590  105.56190   90.25380    0.14310    6.12250   -0.00260    2.62220 -175.34720
 12133.50000   12.92120   36.34410   42.33810    9.79330    0.04980   63.92410   43.05510   99.31490   93.80360  109.05330   93.51280    0.13270    6.02890   -0.00260    2.62400 -173.46260
 12134.00000   12.53340   40.06180   42.34400    9.79690    0.05190   64.86270   43.26370  101.97110   94.65790  113.05690   97.68620    0.13270    5.99210   -0.00260    2.60240 -171.68130
 12134.50000   12.45370   42.55420   51.82930    9.79490    0.07240   65.56640   43.55520  103.33830   97.26570  115.94500   99.09020    0.13420    6.03230   -0.00260    2.57110 -168.91360
 12135.00000   12.35430   49.81800   59.30380    9.79460    0.09270   65.04870   42.68390   98.43330   96.26580  117.59730   95.64180    0.13480    6.27910   -0.00260    2.53750 -168.23200
 12135.50000   11.53650   43.65910   48.26880    9.80090    0.10910   63.97830   41.09520   92.24910   93.74150  117.65940   91.82930    0.12240    6.69580   -0.00260    2.52330 -168.42760
 12136.00000   10.37500   34.15540   40.32440    9.79940    0.10870   63.10830   40.33590   88.35980   92.47000  115.92700   91.50230    0.11630    7.11240   -0.00260    2.52850 -168.15080
 12136.50000    9.49960   27.67430   34.77390    9.79400    0.10320   62.82910   41.05130   91.00370   92.13050  113.16140   92.51850    0.12230    7.28100   -0.00250    2.53660 -167.16770
 12137.00000    8.78450   26.06070   29.43670    9.79570    0.09780   64.17170   44.57100   94.70770   93.27690  109.56180   92.02510    0.13240    7.28600   -0.00250    2.54410 -166.32270
 12137.50000    8.60990   25.58540   29.53130    9.79740    0.09400   65.71840   48.16150   98.19930   96.46710  106.30430   92.31070    0.14250    7.14760   -0.00250    2.55070 -165.47770
 12138.00000    8.48540   25.35240   31.03070    9.79900    0.08890   67.23810   51.73540  101.88880  100.50840  104.16510   94.21190    0.14490    6.89180   -0.00250    2.56170 -164.88790
 12138.50000    8.29390   25.55080   31.42040    9.79330    0.08330   68.16550   53.01060  101.03950  101.70620  105.87020   96.63210    0.14460    6.66660   -0.00250    2.57060 -164.68080
 12139.00000    8.18930   26.04230   30.56290    9.79330    0.08040   68.09080   51.49220   97.44500  101.44950  109.20970   97.18130    0.14310    6.66990   -0.00250    2.57220 -164.27730
 12139.50000    8.11210   26.53380   30.66140    9.79950    0.08490   67.60240   48.22440   95.06120  100.88190  112.55200   96.86840    0.14160    6.83150   -0.00250    2.56420 -164.02710
 12140.00000    8.03500   27.02530   31.82700    9.79920    0.09430   65.73170   44.19060   93.92200   96.62780  116.80170   97.83710    0.13900    7.04660   -0.00240    2.54980 -162.43450
 12140.50000    7.99220   27.51680   32.63200    9.79510    0.10820   63.28450   41.77720   93.34200   91.98110  120.19790   98.32890    0.13320    7.11250   -0.00240    2.52760 -160.05900
 12141.00000    7.78570   27.84800   33.25390    9.79360    0.12480   61.85060   39.86050   93.39180   90.51040  121.35770   94.09090    0.12730    7.07120   -0.00240    2.49950 -160.04180
 12141.50000    7.71680   28.18360   35.38730    9.79940    0.14350   62.58030   39.97820   93.49920   90.37930  119.63730   87.90340    0.12630    7.14980   -0.00240    2.46790 -160.34370
 12142.00000    7.60790   28.52310   36.39880    9.79140    0.16230   63.57060   43.06560   93.89210   93.66250  116.49330   85.33560    0.12690    7.31960   -0.00240    2.43620 -161.25480
 12142.50000    7.51610   28.53380   36.18770    9.78970    0.16380   65.15710   44.94430   93.64220   97.05220  112.23770   85.86900    0.12750    7.51640   -0.00240    2.43120 -162.16590
 12143.00000    7.50760   29.07850   36.87800    9.78960    0.15690   66.09570   46.10930   92.80920   97.83930  109.33360   86.93340    0.12800    7.59570   -0.00240    2.44140 -163.07700
 12143.50000    7.54460   33.01530   41.56060    9.78940    0.14200   66.24720   45.49240   91.26280   98.29590  108.19430   86.88490    0.12770    7.41230   -0.00230    2.46230 -163.98800
 12144.00000    7.56540   35.18610   45.81180    9.78930    0.12710   66.08860   44.72120   92.44770   98.20820  105.88930   86.81240    0.12260    7.15470   -0.00230    2.49150 -164.52170
 12144.50000    7.58610   34.71350   45.97160    9.78920    0.11210   65.96280   43.95000   95.07140   97.59580  102.10020   86.33530    0.11740    7.05520   -0.00230    2.51260 -164.48910
 12145.00000    7.60310   34.72650   46.27070    9.78900    0.10760   65.48430   43.97090   95.36970   96.98330  100.22970   85.90250    0.11240    6.99400   -0.00230    2.52640 -164.45660
 12145.50000    7.61770   36.05120   48.93550    9.78890    0.10720   65.15790   44.38150   97.04890   96.43150  101.90930   86.40560    0.11060    6.99820   -0.00230    2.52680 -164.42400
 12146.00000    7.65290   37.60000   55.90430    9.78660    0.11110   65.38350   45.03080   97.76980   96.44990  104.89110   88.10630    0.10840    6.87660   -0.00230    2.51920 -164.39150
 12146.50000    7.66870   39.21550   56.09970    9.78430    0.11510   65.89090   45.71630   97.15820   97.28430  107.93440   90.57890    0.10580    6.72100   -0.00230    2.51260 -164.35890
 12147.00000    7.49490   38.06270   51.91040    9.78190    0.11690   66.21400   46.17000   97.93570   98.35750  112.43560   91.85820    0.10420    6.55680   -0.00220    2.51240 -164.32630
 12147.50000    7.30810   35.16070   48.25670    9.78550    0.10800   66.42360   46.61710  100.14900   98.46010  116.93670   90.97370    0.10400    6.52040   -0.00220    2.52490 -164.29380
 12148.00000    7.19120   33.85090   44.68820    9.78680    0.09270   66.30990   46.43830  101.20380   98.22410  120.53840   89.89450    0.10800    6.62720   -0.00220    2.54690 -164.18200
 12148.50000    7.11240   32.78330   42.28640    9.77870    0.08220   66.37170   46.21470  101.85700   98.30520  118.05150   90.72800    0.11450    6.73410   -0.00220    2.56720 -163.80920
 12149.00000    7.10170   32.49310   43.36180    9.77870    0.07630   66.80440   46.18040  104.32700   99.04090  113.72840   92.02550    0.12110    6.81720   -0.00220    2.57910 -163.04390
 12149.50000    7.09090   34.49270   45.57240    9.78010    0.07450   67.22610   46.61710  106.89980  100.12820  110.91110   91.97030    0.12110    6.82850   -0.00220    2.58300 -162.15800
 12150.00000    7.08020   40.05050   41.35570    9.78030    0.07140   67.38170   48.33830  106.53640  100.16560  113.93290   90.60150    0.11990    6.71360   -0.00220    2.58730 -161.31010
 12150.50000    7.06940   38.66880   39.38950    9.77100    0.06470   67.18910   49.32510  104.11900  100.05860  121.74170   90.73850    0.11950    6.54860   -0.00210    2.60230 -162.37010
 12151.00000    7.03000   34.64300   37.79010    9.77260    0.05490   66.51700   49.43440  100.33230   99.52490  128.11790   94.32790    0.12540    6.35640   -0.00210    2.61950 -162.62400
 12151.50000    6.82770   34.66370   37.21970    9.76900    0.04960   65.70970   48.54200   99.06180   97.41710  131.10720   99.02110    0.13360    6.16920   -0.00210    2.62480 -162.87790
