~Version ---------------------------------------------------
VERS.   2.0 : CWLS log ASCII Standard -VERSION 2.0
WRAP.    NO : One line per depth step
DLM . SPACE : Column Data Section Delimiter
~Well ------------------------------------------------------
STRT .F                 7293.0 : START DEPTH
STOP .F                15081.0 : STOP DEPTH
STEP .F                    0.5 : STEP
NULL .                -9999.25 : NULL VALUE
COMP .                         : COMPANY
WELL .                         : WELL
FLD  .                         : FIELD
LOC  .                         : LOCATION
PROV .                         : PROVINCE
CNTY .                         : COUNTY
STAT .                         : STATE
CTRY .                         : COUNTRY
SRVC .                         : SERVICE COMPANY
DATE .                         : DATE
UWI  .                         : UNIQUE WELL ID
API  .                         : API NUMBER
SLAT .WGS84  5.692772930891202 : SURFACE LATITUDE
SLON .WGS84 4.8118330966239995 : SURFACE LONGITUDE
DATUM.F                2430.86 : DEPTH DATUM ELEV
~Curve Information -----------------------------------------
DEPT     .F     : 
AST10    .OHMM  : 10-IN. RESISTIVITY, 1-FT RESOLUTION
AST30    .OHMM  : 30 ARRAY INDUCTION 30
AST90    .OHMM  : 90-IN. RESISTIVITY, 1-FT RESOLUTION
CALI_SPCS.IN    : CALIPER FROM RESISTIVITY
DPHI_SLDT.DEC   : DENSITY POROSITY LIMESTONE
DT       .US/F  : INTERVAL TRANSIT TIME
DTC      .US/F  : COMPRESSIONAL-WAVE INTERVAL TRANSIT TIME ACAUSTIC SLOWNESS
DTS      .US/F  : DELTA SHEAR
DTSM     .US/F  : Delta-T Shear Slowness
GR       .GAPI  : GAMMA RAY FROM CEMENTBOND LOG
GR_STGC  .GAPI  : GAMMA RAY
NPHI_LS  .DEC   : NEUTRON POROSITY LIMESTONE
PEF_SLDT .B/E   : PHOTOELECTRIC FACTOR
QRHO_SLDT.G/C3  : DENSITY CORRECTION
RHOB_SLDT.G/C3  : BULK DENSITY
SPR      .MV    : SPONTANEOUS POTENTIAL FROM RES.
~Params ----------------------------------------------------
~Other -----------------------------------------------------
~ASCII -----------------------------------------------------
# ...
 15054.50000   20.44800   19.48800   24.29610    6.03620    0.00640   60.63350   39.84180   84.15800   88.17760   36.61210   36.31800   -9999.25    2.95870   -0.00220    2.69920 -100.62040
 15055.00000   19.76930   26.20170   37.50520    6.00550    0.01200   60.60340   40.20750   84.15660   87.99400   36.61340   36.33350   -9999.25    2.95700   -0.00340    2.68930 -102.22170
 15055.50000   17.09740   24.89790   42.18070    6.00550    0.02440   60.45760   40.42430   84.15520   87.81030   36.61470   36.34910   -9999.25    2.91840   -0.00710    2.67380 -103.82300
 15056.00000   14.42550   15.30840   35.70020    6.00560    0.03190   60.39560   40.52690   84.40910   87.81130   36.61600   36.35130   -9999.25    2.90400   -0.00790    2.65640 -105.61870
 15056.50000   12.00740   15.02730   25.49590    6.00570    0.03450   60.34980   40.55200   84.59770   87.81220   36.61740   36.26690   -9999.25    2.90400   -9999.25    2.65090 -107.80230
 15057.00000   13.52410   15.30840   26.37710    6.00580    0.03550   60.33760   40.57710   84.59250   87.81310   36.61870   36.56770   -9999.25    2.90400   -9999.25    2.64870 -109.98580
 15057.50000   15.71300   19.76550   23.96850    6.00590    0.03550   60.43220   41.01100   84.71330   87.85330   36.62000   36.02830   -9999.25    2.90380   -9999.25    2.64860 -112.16940
 15058.00000   16.83840   24.25770   29.02740    6.00600    0.03570   60.55210   41.04180   84.86560   88.09110   36.62140   36.09870   -9999.25    2.90350   -9999.25    2.64870 -114.35300
 15058.50000   21.72530   24.01790   26.67060    6.00600    0.03520   60.73410   41.07260   85.01780   88.35600   36.62270   36.16910   -9999.25    2.90330   -9999.25    2.64870 -116.53660
 15059.00000   21.42540   21.89380   23.02520    6.00610    0.03530   60.83480   41.06350   85.90890   88.51850   36.62400   36.22550   -9999.25    2.90310   -9999.25    2.64860 -124.52010
 15059.50000   19.80270   20.62420   20.16160    6.00620    0.03560   60.88270   40.64530   85.23740   88.70900   36.62530   36.22580   -9999.25    2.90280   -9999.25    2.64850 -129.07940
 15060.00000   17.56510   21.17260   20.60220    6.00630    0.03550   60.99280   40.46470   85.06370   88.87470   36.62670   36.22610   -9999.25    2.90260   -9999.25    2.64870 -141.89160
 15060.50000   14.64060   23.52370   20.22400    6.00640    0.03520   61.11170   40.57330   86.01660   89.11710   36.62800   36.22650   -9999.25    2.90240   -9999.25    2.64880 -142.69040
 15061.00000   12.87060   23.33610   19.19220    6.00650    0.03520   61.17880   40.55250   86.15140   89.25910   36.62930   36.22680   -9999.25    2.90220   -9999.25    2.64890 -142.89710
 15061.50000    9.70330   19.96260   17.41160    6.00660    0.03510   61.28490   40.55440   86.05560   89.47920   36.63070   36.22710   -9999.25    2.90190   -9999.25    2.64910 -143.15670
 15062.00000    8.77740   17.50970   17.27650    6.00670    0.03510   61.32140   40.56190   84.90000   89.69940   36.63200   36.22750   -9999.25    2.90170   -9999.25    2.64900 -142.39450
 15062.50000   10.18580   21.49180   25.53980    6.00680    0.03500   61.53950   40.56950   86.17650   89.91950   36.63330   36.22780   -9999.25    2.90150   -9999.25    2.64890 -142.38580
 15063.00000   13.67850   32.90200   39.33070    6.00690    0.03500   61.65750   40.57710   86.60880   90.13960   36.63460   36.22810   -9999.25    2.90120   -9999.25    2.64880 -143.99000
 15063.50000   17.40920   46.61770   58.53390    6.00690    0.03500   61.80960   40.58470   86.60670   90.35980   36.63600   36.22840   -9999.25    2.90100   -9999.25    2.64890 -143.99610
 15064.00000   16.83400   64.96760   92.17490    6.00700    0.03500   62.01810   40.59230   86.60460   90.57990   36.63730   36.22880   -9999.25    2.90080   -9999.25    2.64890 -144.06430
 15064.50000   17.12130   58.33390   75.77330    6.00710    0.03500   62.21660   40.59980   86.60240   90.88670   36.63860   36.22910   -9999.25    2.90050   -9999.25    2.64890 -144.13250
 15065.00000   17.83740   49.88940   38.44790    6.00720    0.03500   62.34940   40.60740   86.60030   91.15030   36.63990   36.22940   -9999.25    2.90030   -9999.25    2.64890 -144.34450
 15065.50000   19.81010   57.89510   37.16380    6.00730    0.03500   62.44770   40.61500   86.59820   91.41390   36.64130   36.22980   -9999.25    2.90010   -9999.25    2.64900 -145.13160
 15066.00000   20.92910   62.02630   44.31790    6.00740    0.03500   62.52630   40.62260   86.59600   91.53870   36.64260   36.34290   -9999.25    2.89990   -9999.25    2.64900 -145.91870
 15066.50000   19.80270   56.19010   39.06470    6.00750    0.03510   62.57190   40.63020   86.59390   91.63520   36.64390   36.23770   -9999.25    2.89960   -9999.25    2.64900 -146.73170
 15067.00000   22.96730   50.35390   33.56250    6.00760    0.03510   62.57400   40.63780   86.59180   91.67720   36.64530   36.24340   -9999.25    2.89940   -9999.25    2.64900 -147.64810
 15067.50000   22.28960   53.79650   35.15400    6.00770    0.03510   62.65460   40.64530   86.58960   91.73410   36.64660   36.24910   -9999.25    2.89920   -9999.25    2.64910 -148.56460
 15068.00000   20.52810   67.48610   46.93840    6.00780    0.03520   62.68350   40.65290   86.58750   91.79100   36.64510   36.25480   -9999.25    2.89890   -9999.25    2.64890 -148.73840
 15068.50000   23.34710   75.69990   58.88210    6.00790    0.03520   62.65570   40.66050   86.58540   91.83650   36.64560   36.26050   -9999.25    2.89870   -9999.25    2.64880 -148.91230
 15069.00000   21.97620   67.40700   53.41850    6.00790    0.03520   62.74720   40.66810   86.58320   91.83650   36.65440   36.26620   -9999.25    2.89850   -9999.25    2.64880 -149.34360
 15069.50000   20.33020   54.48010   39.89970    6.00800    0.03530   62.77780   40.67570   86.58110   91.95180   36.66310   36.27190   -9999.25    2.89820   -9999.25    2.64880 -149.29040
 15070.00000   22.70520   49.42930   46.48710    6.00810    0.03530   62.85280   40.68330   86.57900   92.17220   36.67190   36.39990   -9999.25    2.89800   -9999.25    2.64890 -149.20490
 15070.50000   22.59310   60.87940   52.51640    6.00820    0.03530   62.99490   40.69080   86.57680   92.39380   36.68070   36.31430   -9999.25    2.89780   -9999.25    2.64900 -149.07100
 15071.00000   19.42130   53.02730   44.03270    6.00830    0.03540   63.13700   40.69840   86.57470   92.66320   36.68950   36.30940   -9999.25    2.89760   -9999.25    2.64910 -148.93710
 15071.50000   17.83950   41.34650   31.15270    6.00840    0.03540   63.27420   40.70600   86.57260   92.93260   36.69820   36.30460   -9999.25    2.89730   -9999.25    2.64890 -148.54010
 15072.00000   21.09500   40.91120   41.51240    6.00850    0.03550   63.44240   40.71360   86.57040   93.18070   36.70700   36.29980   -9999.25    2.89710   -9999.25    2.64890 -148.65600
 15072.50000   24.29270   49.52270   42.28280    6.00860    0.03540   63.58060   40.72120   86.56830   93.39660   36.71580   36.29490   -9999.25    2.89690   -9999.25    2.64890 -148.86680
 15073.00000   23.42350   54.94120   35.04280    6.00870    0.03540   63.65330   40.72870   86.56620   93.54420   36.72450   36.29010   -9999.25    2.89660   -9999.25    2.64900 -148.95660
 15073.50000   23.61020   48.69000   32.61290    6.00880    0.03550   63.65330   40.73630   86.56400   93.53640   36.73330   36.28520   -9999.25    2.89640   -9999.25    2.64900 -148.20890
 15074.00000   22.89140   40.37380   31.52980    6.00880    0.03560   63.61980   40.74390   86.70280   93.51170   36.74210   36.42600   -9999.25    2.89620   -9999.25    2.64910 -147.46130
 15074.50000   22.32840   36.36450   29.12360    6.00890    0.03540   63.55220   40.75150   86.56200   93.41990   36.75080   36.27220   -9999.25    2.89590   -9999.25    2.64910 -146.71370
 15075.00000   21.12720   33.82810   27.42340    6.00900    0.03540   63.54960   40.75910   86.53380   93.30970   36.75960   36.26710   -9999.25    2.89570   -9999.25    2.64920 -146.12130
 15075.50000   20.20710   31.63840   27.50530    6.00910    0.03550   63.44600   40.76670   86.53380   93.13210   36.76840   36.26210   -9999.25    2.89550   -9999.25    2.64920 -145.28450
