~Version ---------------------------------------------------
VERS.   2.0 : CWLS log ASCII Standard -VERSION 2.0
WRAP.    NO : One line per depth step
DLM . SPACE : Column Data Section Delimiter
~Well ------------------------------------------------------
STRT .F                 7293.0 : START DEPTH
STOP .F                15081.0 : STOP DEPTH
STEP .F                    0.5 : STEP
NULL .                -9999.25 : NULL VALUE
COMP .                         : COMPANY
WELL .                         : WELL
FLD  .                         : FIELD
LOC  .                         : LOCATION
PROV .                         : PROVINCE
CNTY .                         : COUNTY
STAT .                         : STATE
CTRY .                         : COUNTRY
SRVC .                         : SERVICE COMPANY
DATE .                         : DATE
UWI  .                         : UNIQUE WELL ID
API  .                         : API NUMBER
SLAT .WGS84  5.692772930891202 : SURFACE LATITUDE
SLON .WGS84 4.8118330966239995 : SURFACE LONGITUDE
DATUM.F                2430.86 : DEPTH DATUM ELEV
~Curve Information -----------------------------------------
DEPT     .F     : 
AST10    .OHMM  : 10-IN. RESISTIVITY, 1-FT RESOLUTION
AST30    .OHMM  : 30 ARRAY INDUCTION 30
AST90    .OHMM  : 90-IN. RESISTIVITY, 1-FT RESOLUTION
CALI_SPCS.IN    : CALIPER FROM RESISTIVITY
DPHI_SLDT.DEC   : DENSITY POROSITY LIMESTONE
DT       .US/F  : INTERVAL TRANSIT TIME
DTC      .US/F  : COMPRESSIONAL-WAVE INTERVAL TRANSIT TIME ACAUSTIC SLOWNESS
DTS      .US/F  : DELTA SHEAR
DTSM     .US/F  : Delta-T Shear Slowness
GR       .GAPI  : GAMMA RAY FROM CEMENTBOND LOG
GR_STGC  .GAPI  : GAMMA RAY
NPHI_LS  .DEC   : NEUTRON POROSITY LIMESTONE
PEF_SLDT .B/E   : PHOTOELECTRIC FACTOR
QRHO_SLDT.G/C3  : DENSITY CORRECTION
RHOB_SLDT.G/C3  : BULK DENSITY
SPR      .MV    : SPONTANEOUS POTENTIAL FROM RES.
~Params ----------------------------------------------------
~Other -----------------------------------------------------
~ASCII -----------------------------------------------------
# ...
 13807.50000   20.76060   80.70900   96.56840    9.55150    0.08970   62.03730   42.59830   94.79410   90.97420  154.70150  147.85110    0.07070    5.43770   -0.02250    2.54800 -224.20600
 13808.00000   20.09170   66.99400   72.53330    9.52160    0.06680   61.28470   40.55620   93.14110   90.76350  174.49080  149.81840    0.08020    5.36860   -0.01410    2.60240 -223.77290
 13808.50000   20.34190   63.76390   69.95140    9.52280    0.05180   59.28310   39.61760   91.26160   85.81650  180.03910  164.37650    0.08590    5.19560   -0.00800    2.63280 -223.58910
 13809.00000   20.92210   62.98060   71.92310    9.52400    0.03980   58.35600   36.64410   86.05760   84.44860  194.63260  170.05140    0.09040    5.08790   -0.00320    2.64970 -223.19610
 13809.50000   21.36510   62.59310   70.60250    9.52950    0.03240   57.76970   35.79610   83.06070   83.15420  204.87510  175.87770    0.09480    5.16530   -0.00320    2.65000 -223.19610
 13810.00000   21.44380   64.15860   70.16820    9.52570    0.04840   57.74950   34.60920   84.28320   83.11620  202.53920  175.87780    0.09760    5.43500   -0.00360    2.62440 -223.19610
 13810.50000   21.34710   66.58390   70.23020    9.52180    0.07380   58.10960   32.81770   87.30830   83.86500  193.18410  169.44170    0.09780    5.97280   -0.00380    2.57910 -223.09460
 13811.00000   21.57800   66.82950   70.38540    9.49840    0.10170   58.59190   33.02830   88.61850   84.78270  183.82900  161.96410    0.08950    6.47230   -0.00400    2.53020 -222.59020
 13811.50000   22.14600   66.17160   70.54050    9.46900    0.13020   59.07420   34.19540   88.75240   85.62090  171.29010  154.48650    0.08030    6.48640   -0.00420    2.48130 -222.08570
 13812.00000   21.35630   66.71200   70.60250    9.45800    0.15870   59.37610   35.95180   86.63430   86.08980  166.64500  149.51200    0.07320    6.08060   -0.00820    2.43340 -221.41100
 13812.50000   21.03470   69.41420   73.04270    9.45250    0.18560   59.80920   38.00490   84.32450   86.85290  162.68270  129.80990    0.07100    5.81120   -0.02750    2.40060 -220.69620
 13813.00000   22.96250   78.49820   95.31210    9.41900    0.17910   59.97910   40.02370   83.94570   87.01180  163.05200  136.63300    0.07040    6.01990   -0.04640    2.40950 -220.81070
 13813.50000   23.02700   83.16320  106.14090    9.30030    0.15120   59.58050   39.35950   85.31920   86.41100  174.08510  149.48320    0.07520    6.21600   -0.03600    2.45500 -221.11970
 13814.00000   22.58110   73.76910   86.46930    9.18150    0.12100   59.97480   38.69530   85.37960   87.14270  191.64170  184.65510    0.08710    6.04320   -0.01120    2.50140 -221.42870
 13814.50000   21.66720   68.67020   71.92310    9.13760    0.10810   60.07770   37.44610   84.90710   87.49400  207.82110  207.35490    0.09400    5.88600   -0.00210    2.51940 -221.73770
 13815.00000   22.14010   70.82400   75.56720    9.15780    0.12790   59.58740   35.31950   84.08600   87.20610  215.01740  205.89670    0.09930    5.79810   -0.01650    2.46900 -221.98490
 13815.50000   22.35210   73.04540   92.21570    9.25860    0.15840   59.75690   34.33940   82.99490   86.80430  212.75430  202.38850    0.10100    5.56140   -0.02720    2.43770 -221.09620
 13816.00000   20.66830   60.41980  100.09170    9.28890    0.15520   59.65760   34.45380   81.68220   86.61090  207.59670  198.88030    0.11210    4.97080   -0.03060    2.44310 -220.03530
 13816.50000   18.60420   45.96060   49.64810    9.28890    0.12240   59.35230   36.13390   84.43400   86.00240  199.36750  193.86250    0.11370    4.28870   -0.01510    2.50190 -218.95050
 13817.00000   17.44110   44.83910   48.73650    9.29400    0.09820   58.52280   36.84070   87.09020   84.38320  188.14090  181.63640    0.10460    4.04870   -0.00360    2.54790 -220.38390
 13817.50000   18.75650   54.30180   60.58060    9.30240    0.08080   57.21420   34.96410   84.12620   83.00970  179.25420  169.41030    0.09050    4.24480   -0.00830    2.57220 -222.28100
 13818.00000   19.55230   66.77100   75.91500    9.29900    0.07830   55.65900   33.32870   79.30300   79.99440  157.37330  157.18430    0.07860    4.78700   -0.01080    2.56920 -224.17810
 13818.50000   19.62320   78.18190   83.93420    9.29900    0.13860   55.01950   32.30990   75.55020   77.99310  151.74380  149.09200    0.07840    5.32910   -0.00670    2.47350 -224.99470
 13819.00000   19.18320   79.15350   83.93420    9.34940    0.26630   56.42440   33.03640   75.36190   79.00370  148.38810  124.39520    0.08020    6.72240   -0.00310    2.29190 -225.18440
 13819.50000   18.45420   79.15350   88.18600    9.39990    0.32780   58.11720   34.88060   79.28570   84.33830  143.50860  110.90140    0.07820    8.11560   -0.00300    2.08530 -225.13620
 13820.00000   18.85440   79.15350  104.72660    9.50080    0.46300   60.08680   37.74950   84.51190   86.46200  136.99070   98.18500    0.07340    8.99280   -0.00390    2.00170 -225.08810
 13820.50000   19.23990   79.15350  123.48470    9.60180    0.49010   61.09760   39.57100   89.03880   88.67900  131.37550   95.74500    0.07440    8.49370   -0.00780    1.87510 -225.03990
 13821.00000   19.67540   81.13400  126.18320    9.66210    0.42660   60.10380   39.58360   91.59650   87.66130  132.00220  101.07600    0.07940    7.65020   -0.00450    1.93420 -224.99170
 13821.50000   19.67040   80.53590  123.86630    9.74140    0.36300   58.29430   38.77860   88.93140   84.43900  142.38480  114.10760    0.09730    6.96210   -0.00530    1.99220 -224.94360
 13822.00000   18.05840   74.37730  119.72830    9.80060    0.29950   56.33870   36.14940   84.32170   80.59150  156.08630  129.82690    0.12350    7.04400   -0.01170    2.26480 -223.21980
 13822.50000   16.31670   57.76290   80.38190    9.81750    0.26170   55.26570   33.51190   79.58250   78.41920  165.72460  139.17470    0.13440    7.35040   -0.01450    2.29480 -222.25340
 13823.00000   16.04040   56.70230   80.88020    9.81530    0.29390   54.36050   32.18950   76.53600   77.46540  169.09300  130.82430    0.13220    8.18430   -0.00880    2.19840 -221.53880
 13823.50000   16.96460   57.05390   83.41710    9.81350    0.39740   54.09620   32.46730   75.73360   76.98580  158.37020  119.42170    0.11830    9.17000   -0.00280    2.07910 -221.31270
 13824.00000   17.58570   64.55860   78.63170    9.81350    0.49390   53.92720   32.54170   74.82050   76.56130  147.49030  108.32860    0.10310   10.23520   -0.00270    2.00760 -221.52900
 13824.50000   18.07460   67.40930   74.87020    9.81350    0.59050   53.79130   32.30970   74.52970   76.04640  132.59840   97.81880    0.08780   10.45100   -0.00780    1.79290 -221.74520
 13825.00000   19.11640   80.19420   79.15060    9.81350    0.60790   54.18660   33.20390   76.97730   76.63260  120.00590   88.73820    0.07250   10.44260   -0.02000    1.71460 -222.41190
 13825.50000   20.20170   94.06790   90.11400    9.81350    0.62530   56.25010   35.47950   80.67470   81.48650  109.86270   81.80790    0.06820   10.58170   -0.03210    1.66410 -223.11020
 13826.00000   20.89510  121.71100   85.24080    9.81350    0.64270   58.44110   36.96100   82.68550   84.63860  102.31420   76.31120    0.06760   10.73920   -0.03850    1.63430 -223.85190
 13826.50000   22.68990  204.43190   98.09470    9.81350    0.67310   58.95180   37.00530   82.83510   85.69720   99.11570   74.75780    0.06810   11.01380   -0.04100    1.57860 -224.27040
 13827.00000   25.47750  279.09640  123.86630    9.81070    0.70000   57.92350   36.44550   81.74390   83.65930  101.65500   74.75780    0.07740   12.08450   -0.04170    1.50150 -223.18500
 13827.50000   25.92420  286.07940  131.75960    9.79650    0.70010   56.79160   36.34940   79.01590   81.66330  108.73440   82.31460    0.09370   15.72780   -0.04250    1.40760 -222.44930
 13828.00000   22.84380  183.48990  121.07730    9.78870    0.70010   55.96580   37.96770   76.28790   80.34610  116.17600   94.32480    0.14760   20.01590   -0.04250    1.30940 -223.69800
 13828.50000   19.16450   61.81890   75.75890    9.79030    0.70020   57.34920   40.23440   77.10370   82.05480  125.81740  108.91840    0.15860   20.01590   -0.03960    1.29640 -225.19450
