~Version ---------------------------------------------------
VERS.   2.0 : CWLS log ASCII Standard -VERSION 2.0
WRAP.    NO : One line per depth step
DLM . SPACE : Column Data Section Delimiter
~Well ------------------------------------------------------
STRT .F                 7293.0 : START DEPTH
STOP .F                15081.0 : STOP DEPTH
STEP .F                    0.5 : STEP
NULL .                -9999.25 : NULL VALUE
COMP .                         : COMPANY
WELL .                         : WELL
FLD  .                         : FIELD
LOC  .                         : LOCATION
PROV .                         : PROVINCE
CNTY .                         : COUNTY
STAT .                         : STATE
CTRY .                         : COUNTRY
SRVC .                         : SERVICE COMPANY
DATE .                         : DATE
UWI  .                         : UNIQUE WELL ID
API  .                         : API NUMBER
SLAT .WGS84  5.692772930891202 : SURFACE LATITUDE
SLON .WGS84 4.8118330966239995 : SURFACE LONGITUDE
DATUM.F                2430.86 : DEPTH DATUM ELEV
~Curve Information -----------------------------------------
DEPT     .F     : 
AST10    .OHMM  : 10-IN. RESISTIVITY, 1-FT RESOLUTION
AST30    .OHMM  : 30 ARRAY INDUCTION 30
AST90    .OHMM  : 90-IN. RESISTIVITY, 1-FT RESOLUTION
CALI_SPCS.IN    : CALIPER FROM RESISTIVITY
DPHI_SLDT.DEC   : DENSITY POROSITY LIMESTONE
DT       .US/F  : INTERVAL TRANSIT TIME
DTC      .US/F  : COMPRESSIONAL-WAVE INTERVAL TRANSIT TIME ACAUSTIC SLOWNESS
DTS      .US/F  : DELTA SHEAR
DTSM     .US/F  : Delta-T Shear Slowness
GR       .GAPI  : GAMMA RAY FROM CEMENTBOND LOG
GR_STGC  .GAPI  : GAMMA RAY
NPHI_LS  .DEC   : NEUTRON POROSITY LIMESTONE
PEF_SLDT .B/E   : PHOTOELECTRIC FACTOR
QRHO_SLDT.G/C3  : DENSITY CORRECTION
RHOB_SLDT.G/C3  : BULK DENSITY
SPR      .MV    : SPONTANEOUS POTENTIAL FROM RES.
~Params ----------------------------------------------------
~Other -----------------------------------------------------
~ASCII -----------------------------------------------------
# ...
 14216.00000   29.11070  203.38860  217.27780    9.33210   -0.02120   52.07210   30.08860   70.67210   72.81720   87.25720   65.11860    0.01520    3.41470   -0.00100    2.74440 -220.58450
 14216.50000   30.93530  242.72390  278.79920    9.31920   -0.02010   52.31320   30.10030   72.44490   73.57840   87.49200   66.18630    0.01270    3.42880   -0.00100    2.74420 -220.43210
 14217.00000   30.47170  324.71580  439.01020    9.31920   -0.01930   51.92780   29.60860   71.77190   72.74290   83.80750   63.85540    0.01130    3.46020   -0.00100    2.74310 -220.27980
 14217.50000   30.34870  431.98850  508.47490    9.31620   -0.02260   51.47860   29.65750   71.13720   72.12790   79.35660   59.65540    0.01080    3.44970   -0.00100    2.74630 -220.12740
 14218.00000   30.40290  497.46690  586.66500    9.30870   -0.02550   51.31410   30.02600   72.06540   71.89970   74.78200   56.14410    0.01030    3.40000   -0.00100    2.75280 -219.97510
 14218.50000   31.48160  413.01140  610.40650    9.30910   -0.02900   52.12120   30.87390   73.72680   73.44590   75.26600   57.05210    0.01110    3.36650   -0.00120    2.75870 -219.82270
 14219.00000   32.50840  376.00420  408.34770    9.29550   -0.03210   53.55740   31.79140   75.17430   74.92720   81.78740   62.35560    0.01210    3.39160   -0.00140    2.76490 -219.54530
 14219.50000   33.59630  338.16150  381.52320    9.28190   -0.03390   54.53220   32.26080   75.62810   77.49350   93.72230   68.78850    0.01370    3.50000   -0.00150    2.76790 -218.88100
 14220.00000   34.55070  292.65290  345.61730    9.27290   -0.03430   54.43890   32.73010   75.04700   77.58560  103.96620   80.96490    0.01550    3.58530   -0.00170    2.76820 -218.41530
 14220.50000   31.15340  285.30900  297.07700    9.26510   -0.03460   54.15550   33.19950   74.24770   77.31910  111.92730   92.16120    0.01820    3.57920   -0.00190    2.76940 -217.94970
 14221.00000   31.81550  307.73680  319.93530    9.26760   -0.02960   54.11270   33.64670   73.78610   77.05260  110.04260   90.39060    0.01920    3.38200   -0.00210    2.76120 -218.35320
 14221.50000   30.45940  326.84180  342.42960    9.26200   -0.01700   54.56130   33.63360   73.97960   77.62600  105.33540   84.56430    0.01920    3.14980   -0.00230    2.73470 -217.91730
 14222.00000   30.26010  349.82170  356.46090    9.26370    0.00960   55.32910   32.87630   74.91940   78.92870  101.61450   79.90330    0.01580    2.89190   -0.00250    2.69330 -217.20660
 14222.50000   30.00370  356.36500  389.86060    9.26470    0.02370   55.75190   31.93300   76.26490   79.55710   99.93860   83.70030    0.01050    2.79840   -0.00260    2.66730 -216.76790
 14223.00000   29.47300  333.30050  383.88850    9.25460    0.03630   55.27830   32.38640   77.18810   78.65000   99.76440   91.30110    0.00670    2.75150   -0.00260    2.65040 -216.83990
 14223.50000   29.74740  318.86380  393.48980    9.24700    0.03980   54.30230   32.70480   77.21150   77.46640  103.21080   95.33910    0.00530    2.73120   -0.00250    2.64190 -216.91200
 14224.00000   30.39750  369.10030  393.48980    9.24300    0.03780   54.01450   32.04310   75.44020   76.25440  109.27660   95.06680    0.00610    2.78270   -0.00250    2.64630 -216.68950
 14224.50000   34.02190  360.96110  378.00440    9.24780    0.03660   53.43300   31.31680   72.82110   75.80850  117.49800   98.54100    0.00770    2.90240   -0.00250    2.64670 -216.13370
 14225.00000   37.24340  351.99040  571.79890    9.24390    0.03740   53.58830   32.18590   71.73370   75.82940  121.18050  105.63180    0.00870    2.97730   -0.00240    2.64610 -215.34340
 14225.50000   35.96280  447.87680  409.36550    9.24000    0.03640   53.75340   32.72510   71.14360   76.03300  121.63300  110.21160    0.00870    2.94460   -0.00240    2.64650 -214.36980
 14226.00000   33.44020  464.78820  354.26470    9.24210    0.03360   54.64910   32.88140   71.66370   77.27990  121.56810  107.81020    0.00870    2.86360   -0.00240    2.65150 -213.39630
 14226.50000   32.98780  519.45130  335.10660    9.24820    0.03140   56.10560   33.64670   73.34820   79.78360  122.45210  101.15510    0.00610    2.81060   -0.00230    2.65540 -212.42270
 14227.00000   32.43410  503.64950  337.18410    9.25430    0.02980   58.37250   36.05020   76.74410   84.95960  121.30400   94.82860    0.00320    2.82620   -0.00230    2.65850 -211.60960
 14227.50000   32.09230  388.55490  329.55140    9.26030    0.02600   60.74930   39.38430   83.75470   87.31190  116.26550   90.48170    0.00180    2.84840   -0.00220    2.66460 -210.63580
 14228.00000   32.31310  291.99950  277.72070    9.26990    0.01920   61.29530   42.66890   88.58590   89.34730  109.78330   88.82590    0.00130    2.93790   -0.00220    2.67430 -209.42220
 14228.50000   30.06820  221.68200  217.76910    9.27880    0.00900   60.97940   43.68510   92.61440   89.08120  107.06510   90.69490    0.00290    3.05900   -0.00220    2.69240 -207.71730
 14229.00000   27.53350  168.29810  165.57710    9.27880   -0.00170   60.63410   42.94110   92.57370   88.26210  112.92320  100.35130    0.01740    3.28480   -0.00210    2.71000 -206.88420
 14229.50000   24.18380  114.91420  106.66020    9.28620   -0.01180   60.24610   42.98210   91.51020   87.55560  124.14730  112.80340    0.03130    3.62070   -0.00210    2.72750 -205.94790
 14230.00000   22.08170   74.65050   66.24190    9.30470   -0.02000   61.36270   43.30140   92.28960   88.79140  137.82160  128.60960    0.06220    3.95740   -0.00210    2.74470 -205.01150
 14230.50000   20.64150   58.98800   59.24720    9.31970   -0.02320   63.67530   43.54760   93.87590   92.15430  144.84420  138.30610    0.09820    4.09790   -0.00200    2.74950 -204.24410
 14231.00000   19.51280   51.54030   59.24720    9.32100   -0.02600   66.08440   45.56350   97.01380   96.54340  153.01450  146.13320    0.10650    4.11220   -0.00200    2.75440 -203.69600
 14231.50000   17.43990   45.83320   48.62060    9.32220   -0.02400   68.41090   47.32700  104.58390  101.18910  162.52210  149.61130    0.10670    4.04140   -0.00200    2.75060 -203.06910
 14232.00000   16.20090   39.56070   42.83730    9.33990   -0.02260   69.68740   49.27630  109.38530  104.95660  172.52090  158.98740    0.10690    4.01930   -0.00190    2.74740 -202.59840
 14232.50000   15.05620   34.81500   36.25660    9.34340   -0.02270   69.29780   51.10070  113.29670  103.98920  181.43730  170.00580    0.11060    4.12630   -0.00190    2.74970 -202.23200
 14233.00000   14.53980   31.44620   34.14940    9.34690   -0.02430   67.50030   50.37210  111.65830  100.17980  202.20740  192.08730    0.12540    4.21400   -0.00180    2.75100 -201.86550
 14233.50000   14.06410   30.11530   32.34130    9.38670   -0.02460   64.36240   46.88360  105.45670   94.72560  213.08130  214.16880    0.14300    4.17930   -0.00180    2.75060 -201.67200
 14234.00000   13.49100   27.50100   31.06830    9.38990   -0.02460   60.42390   41.92700   94.58800   89.02830  221.90300  236.25040    0.16060    4.06740   -0.00190    2.75110 -200.92370
 14234.50000   13.19110   25.64700   26.87040    9.39060   -0.02430   56.30910   36.09590   84.52560   80.22190  214.79850  240.97080    0.17220    3.98810   -0.00200    2.75090 -201.65070
 14235.00000   14.57750   27.55740   29.48710    9.50580   -0.02290   54.67280   33.72900   79.67800   78.06770  200.11970  220.71940    0.17280    3.96450   -0.00200    2.74990 -202.73230
 14235.50000   15.64550   29.93520   33.97960    9.47530   -0.02520   56.28320   34.07520   80.87480   80.00520  185.44080  188.47850    0.15930    3.93050   -0.00210    2.75470 -203.71150
 14236.00000   16.77420   47.00260   38.92610    9.44480   -0.03430   58.77430   35.98840   85.51440   84.67090  178.46110  156.23760    0.13530    3.85280   -0.00210    2.77030 -204.60700
 14236.50000   19.19330   65.46460   52.27440    9.45520   -0.04260   61.31130   38.42630   91.49690   90.56860  136.60480  113.82130    0.10800    3.75040   -0.00220    2.78550 -205.50250
 14237.00000   21.48870   83.45340   68.69060    9.45780   -0.04750   62.65480   39.40210   96.32500   91.83800  128.02770   88.87420    0.08470    3.61080   -0.00230    2.78770 -206.21890
