~Version ---------------------------------------------------
VERS.   2.0 : CWLS log ASCII Standard -VERSION 2.0
WRAP.    NO : One line per depth step
DLM . SPACE : Column Data Section Delimiter
~Well ------------------------------------------------------
STRT .F                1564.0 : START DEPTH
STOP .F               10564.0 : STOP DEPTH
STEP .F                   0.5 : STEP
NULL .               -9999.25 : NULL VALUE
COMP .                        : COMPANY
WELL .                        : WELL
FLD  .                        : FIELD
LOC  .                        : LOCATION
PROV .                        : PROVINCE
CNTY .                        : COUNTY
STAT .                        : STATE
CTRY .                        : COUNTRY
SRVC .                        : SERVICE COMPANY
DATE .                        : DATE
UWI  .                        : UNIQUE WELL ID
API  .                        : API NUMBER
SLAT .WGS84 6.036189877335097 : SURFACE LATITUDE
SLON .WGS84 3.144340008327603 : SURFACE LONGITUDE
DATUM.F                1708.0 : DEPTH DATUM ELEV
~Curve Information -----------------------------------------
DEPT.F     : 1 MEASURED DEPTH
NPOR.DEC   : NEUTRON POROSITY
DPHI.DEC   : DENSITY POROSITY
CALD.IN    : CALIPER FROM DENSITY LOG
DRHO.G/C3  : BULK DENSITY CORRECTION
PEF .B/E   : PHOTOELECTRIC FACTOR
RHOB.G/C3  : BULK DENSITY
DTCO.US/F  : DELTA-T COMPRESSIONAL
DTSM.US/F  : DELTA-T SHEAR
GRR .GAPI  : GAMMA RAY FROM RESISTIVITY LOG
ILD .OHMM  : INDUCTION DEEP RESISTIVITY
SPR .MV    : SPONTANEOUS POTENTIAL FROM RESISTIVITY LOG
SFLU.OHMM  : SHALLOW FOCUSED RESISTIVITY (UNAVERAGED)
ILM .OHMM  : INDUCTION MEDIUM RESISTIVITY
DT  .US/F  : DELTA-T (INTERVAL TRANSIT TIME)
DTL .US/F  : DELTA-T LONG SPACING
~Params ----------------------------------------------------
~Other -----------------------------------------------------
~ASCII -----------------------------------------------------
# ...
 9959.00000    0.08530    0.03410    6.21960    0.01400   -9999.25    2.65170   -9999.25   -9999.25  104.91940    3.61950  -14.65570   13.95400    4.47530   74.98080   84.76390
 9959.50000    0.11940    0.04970    6.23500    0.01240   -9999.25    2.62440   -9999.25   -9999.25  105.95260    3.28260  -14.60460   13.02350    3.85320   80.91290   93.74900
 9960.00000    0.16940    0.09650    6.24180    0.01520   -9999.25    2.54930   -9999.25   -9999.25  107.37590    2.91480  -14.55340    7.32150    3.31750   86.40210   97.03060
 9960.50000    0.25230    0.14020    6.24860    0.02450   -9999.25    2.46950   -9999.25   -9999.25  106.93120    2.58820  -14.50230    3.22200    2.88110   90.05020   94.99360
 9961.00000    0.28900    0.15550    6.25000    0.04930   -9999.25    2.43880   -9999.25   -9999.25  106.39540    2.39740  -14.45110    2.50100    2.62110   91.71870   93.13550
 9961.50000    0.29600    0.15110    6.25140    0.07370   -9999.25    2.45960   -9999.25   -9999.25  108.14660    2.26260  -14.40000    2.32960    2.38450   91.96850   98.94100
 9962.00000    0.30610    0.13750    6.23600    0.10040   -9999.25    2.48110   -9999.25   -9999.25  110.66250    2.13530  -14.34890    2.45340    2.16930   92.28530  111.79930
 9962.50000    0.30770    0.12630    6.21860    0.10830   -9999.25    2.49690   -9999.25   -9999.25  111.05960    2.03460  -14.29770    2.61690    2.05190   92.98390  116.00820
 9963.00000    0.30930    0.11990    6.20110    0.10370   -9999.25    2.50620   -9999.25   -9999.25  109.17600    1.94310  -14.48490    2.99200    1.96380   93.07040  108.49860
 9963.50000    0.31490    0.12490    6.15190    0.09290   -9999.25    2.49260   -9999.25   -9999.25  107.52240    1.85570  -15.11920    3.24130    1.87950   93.45860  100.30980
 9964.00000    0.33400    0.14480    6.07370    0.07870   -9999.25    2.45480   -9999.25   -9999.25  105.58050    1.77230  -15.75350    3.00110    1.79880   97.25150   97.17920
 9964.50000    0.34860    0.17610    5.99090    0.06430   -9999.25    2.40840   -9999.25   -9999.25  104.81110    1.69290  -16.34330    2.49430    1.72160  101.74000  100.19610
 9965.00000    0.34940    0.19000    5.94700    0.05850   -9999.25    2.38160   -9999.25   -9999.25  106.06130    1.65610  -16.71090    2.13080    1.69280  106.27090  103.42760
 9965.50000    0.35100    0.19390    5.96260    0.05280   -9999.25    2.37970   -9999.25   -9999.25  108.83020    1.65010  -16.87700    1.99210    1.68240  110.39340  106.42940
 9966.00000    0.35750    0.19240    6.03700    0.04700   -9999.25    2.38270   -9999.25   -9999.25  111.15600    1.65290  -16.90270    1.85940    1.69160  110.86820  106.47130
 9966.50000    0.36270    0.18900    6.11150    0.04130   -9999.25    2.39070   -9999.25   -9999.25  111.44170    1.68580  -16.96910    1.75840    1.78380  106.31630  103.43070
 9967.00000    0.33050    0.17960    6.13500    0.03480   -9999.25    2.40490   -9999.25   -9999.25  110.49960    1.85970  -17.00610    1.74700    1.90600  101.22030   97.88430
 9967.50000    0.28910    0.15980    6.15300    0.02740   -9999.25    2.44190   -9999.25   -9999.25  107.21770    2.07170  -17.03880    1.78130    2.12660   94.36970   94.60010
 9968.00000    0.22980    0.13410    6.15800    0.02410   -9999.25    2.50820   -9999.25   -9999.25  101.50770    2.30780  -17.07150    2.06130    2.54290   85.64620   91.72070
 9968.50000    0.15560    0.09750    6.15520    0.01990   -9999.25    2.55200   -9999.25   -9999.25   91.25540    2.78030  -17.10430    2.70270    3.12480   77.60520   89.74960
 9969.00000    0.12820    0.06880    6.18060    0.01560   -9999.25    2.59660   -9999.25   -9999.25   75.00370    3.45300  -17.13700    3.87840    3.91900   70.88530   87.83400
 9969.50000    0.10970    0.05110    6.22360    0.01140   -9999.25    2.62800   -9999.25   -9999.25   61.78260    4.28830  -17.16980    5.94690    4.91500   65.75700   79.71080
 9970.00000    0.09990    0.04120    6.22970    0.00830   -9999.25    2.64510   -9999.25   -9999.25   54.06980    5.34960  -17.76410    9.11860    6.16430   62.54880   69.16350
 9970.50000    0.09560    0.03400    6.22600    0.00520   -9999.25    2.65360   -9999.25   -9999.25   48.32200    6.94230  -18.49160   13.79210    7.73090   61.56400   62.74830
 9971.00000    0.09130    0.03230    6.22230    0.00340   -9999.25    2.65480   -9999.25   -9999.25   44.25290    9.00920  -19.43210   17.84820    9.69580   61.58930   61.92590
 9971.50000    0.09200    0.03510    6.21860    0.00430   -9999.25    2.65090   -9999.25   -9999.25   39.63400   11.40770  -20.03180   20.07580   11.88630   62.17110   64.04930
 9972.00000    0.09300    0.03930    6.21490    0.00510   -9999.25    2.64350   -9999.25   -9999.25   36.49940   12.95030  -20.46000   21.42630   14.05270   63.42880   65.52580
 9972.50000    0.09400    0.04360    6.21120    0.00470   -9999.25    2.63420   -9999.25   -9999.25   36.49660   13.89280  -20.57280   22.78670   15.91910   64.77700   66.28170
 9973.00000    0.09480    0.04810    6.20750    0.00310   -9999.25    2.62660   -9999.25   -9999.25   37.46780   14.71260  -20.68570   21.90210   16.05700   66.13290   66.55250
 9973.50000    0.09540    0.05330    6.20380   -0.00050   -9999.25    2.61730   -9999.25   -9999.25   37.92850   15.46960  -20.42460   19.56830   15.93710   67.96690   66.77050
 9974.00000    0.09770    0.05610    6.20010   -0.00880   -9999.25    2.61150   -9999.25   -9999.25   37.81210   15.17910  -19.97590   17.60050   15.73350   69.60480   65.69500
 9974.50000    0.10570    0.05810    6.19640   -0.00880   -9999.25    2.61050   -9999.25   -9999.25   38.28650   14.06680  -19.52730   17.17820   14.78190   70.72200   65.61860
 9975.00000    0.11410    0.05870    6.19270   -0.00810   -9999.25    2.60930   -9999.25   -9999.25   40.43170   12.74570  -19.18900   16.43250   12.09280   71.47690   67.31370
 9975.50000    0.12070    0.05870    6.18900   -0.00560   -9999.25    2.60760   -9999.25   -9999.25   44.13690   11.67460  -19.00680   14.24640    9.91320   71.58340   68.96710
 9976.00000    0.12050    0.06010    6.18530   -0.00350   -9999.25    2.60240   -9999.25   -9999.25   45.81610   10.81910  -18.33180   12.58610    9.45710   71.11090   70.29400
 9976.50000    0.11890    0.06670    6.18280   -0.00160   -9999.25    2.59280   -9999.25   -9999.25   46.27880   10.12920  -17.05700   11.84380    9.02190   70.49170   71.15150
 9977.00000    0.11750    0.07350    6.18860    0.00020   -9999.25    2.58110   -9999.25   -9999.25   46.64190    9.48330  -17.08710   11.66220    8.63040   70.65950   72.15510
 9977.50000    0.11850    0.07760    6.19450    0.00030   -9999.25    2.57550   -9999.25   -9999.25   48.34290    9.07340  -17.43760   11.43310    8.40350   71.23880   73.77220
 9978.00000    0.12390    0.07650    6.20030    0.00030   -9999.25    2.57800   -9999.25   -9999.25   51.55500    8.94640  -17.69960   11.24540    8.18260   72.11800   74.96760
 9978.50000    0.12940    0.07430    6.20620    0.00030   -9999.25    2.58440   -9999.25   -9999.25   52.58480    8.82980  -17.85280   11.11380    8.03050   73.15910   74.35010
 9979.00000    0.13480    0.07270    6.21200    0.00030   -9999.25    2.58620   -9999.25   -9999.25   51.06550    8.62910  -17.58530   10.89790    7.95650   73.80160   73.28170
 9979.50000    0.13520    0.07170    6.21790    0.00030   -9999.25    2.58660   -9999.25   -9999.25   49.70480    7.36520  -17.36020   10.67680    7.88320   73.11070   72.30650
 9980.00000    0.13180    0.07000    6.22010    0.00030   -9999.25    2.59080   -9999.25   -9999.25   51.77120    3.45280  -17.13510   10.75150    7.86610   72.18960   71.05410
 9980.50000    0.12910    0.06740    6.22100   -0.00020   -9999.25    2.59580   -9999.25   -9999.25   54.38900    1.91510  -17.03050   10.88730    7.86650   70.88160   71.06260
 9981.00000    0.12890    0.06800    6.22200   -0.00080   -9999.25    2.59500   -9999.25   -9999.25   57.51970    1.84890  -17.03050   10.20760    7.55320   71.32800   72.23200
 9981.50000    0.12910    0.06980    6.22290   -0.00140   -9999.25    2.58960   -9999.25   -9999.25   60.61400    1.85440  -17.03050    9.62010    7.13470   72.83440   73.40150
