~Version ---------------------------------------------------
VERS.   2.0 : CWLS log ASCII Standard -VERSION 2.0
WRAP.    NO : One line per depth step
DLM . SPACE : Column Data Section Delimiter
~Well ------------------------------------------------------
STRT .F                1564.0 : START DEPTH
STOP .F               10564.0 : STOP DEPTH
STEP .F                   0.5 : STEP
NULL .               -9999.25 : NULL VALUE
COMP .                        : COMPANY
WELL .                        : WELL
FLD  .                        : FIELD
LOC  .                        : LOCATION
PROV .                        : PROVINCE
CNTY .                        : COUNTY
STAT .                        : STATE
CTRY .                        : COUNTRY
SRVC .                        : SERVICE COMPANY
DATE .                        : DATE
UWI  .                        : UNIQUE WELL ID
API  .                        : API NUMBER
SLAT .WGS84 6.036189877335097 : SURFACE LATITUDE
SLON .WGS84 3.144340008327603 : SURFACE LONGITUDE
DATUM.F                1708.0 : DEPTH DATUM ELEV
~Curve Information -----------------------------------------
DEPT.F     : 1 MEASURED DEPTH
NPOR.DEC   : NEUTRON POROSITY
DPHI.DEC   : DENSITY POROSITY
CALD.IN    : CALIPER FROM DENSITY LOG
DRHO.G/C3  : BULK DENSITY CORRECTION
PEF .B/E   : PHOTOELECTRIC FACTOR
RHOB.G/C3  : BULK DENSITY
DTCO.US/F  : DELTA-T COMPRESSIONAL
DTSM.US/F  : DELTA-T SHEAR
GRR .GAPI  : GAMMA RAY FROM RESISTIVITY LOG
ILD .OHMM  : INDUCTION DEEP RESISTIVITY
SPR .MV    : SPONTANEOUS POTENTIAL FROM RESISTIVITY LOG
SFLU.OHMM  : SHALLOW FOCUSED RESISTIVITY (UNAVERAGED)
ILM .OHMM  : INDUCTION MEDIUM RESISTIVITY
DT  .US/F  : DELTA-T (INTERVAL TRANSIT TIME)
DTL .US/F  : DELTA-T LONG SPACING
~Params ----------------------------------------------------
~Other -----------------------------------------------------
~ASCII -----------------------------------------------------
# ...
 4554.00000    0.53520    0.49450   11.92980    0.07580    2.78540    1.86250   56.79500  111.99870   85.02380    4.46730  -29.09590    3.31820    3.14600   -9999.25   -9999.25
 4554.50000    0.46490    0.46950   11.95770    0.08980    2.75710    1.88980   58.80030  113.76650   85.86970    4.24110  -23.77340    2.66530    3.23730   -9999.25   -9999.25
 4555.00000    0.31400    0.38440   11.87770    0.10160    2.77680    2.00930   60.66700  114.39530   80.48060    4.16740  -20.66360    2.81590    3.55410   -9999.25   -9999.25
 4555.50000    0.16320    0.34960   11.37270    0.09970    2.79660    2.08560   60.60200  114.38770   69.94180    4.17740  -19.74920    3.47590    3.96740   -9999.25   -9999.25
 4556.00000    0.12410    0.33530   10.71500    0.09700    2.75590    2.13280   58.34680  111.02280   59.23180    4.19980  -19.65980    5.31460    4.46770   -9999.25   -9999.25
 4556.50000    0.11560    0.34320   10.12570    0.09420    2.63120    2.13910   55.97040  106.95850   57.20820    4.31250  -19.67440    9.66830    4.97030   -9999.25   -9999.25
 4557.00000    0.15160    0.36460   10.07940    0.09150    2.53930    2.08350   54.75170  102.88890   59.41290    4.39080  -19.79140   13.11340    4.74290   -9999.25   -9999.25
 4557.50000    0.20490    0.41200   10.61680    0.09030    2.47770    2.02790   55.51090  102.61670   65.50820    4.46300  -18.93820   13.78120    4.33740   -9999.25   -9999.25
 4558.00000    0.26790    0.43870   11.82070    0.09080    2.43410    1.99010   64.12000  112.97210   71.76820    4.46780  -17.45020    9.47660    3.96770   -9999.25   -9999.25
 4558.50000    0.52090    0.46150   12.77590    0.09140    2.40040    1.92930   71.14470  126.36820   76.05680    4.34740  -15.91010    5.65690    3.62940   -9999.25   -9999.25
 4559.00000    0.58570    0.46670   12.82920    0.09100    2.44580    1.91510   76.47770  131.85690   81.50420    4.24320  -13.82240    3.91970    3.31800   -9999.25   -9999.25
 4559.50000    0.43840    0.44210   12.40340    0.07690    2.52360    1.92140   76.62890  130.21150   87.01780    4.21730  -11.73460    3.39990    3.34920   -9999.25   -9999.25
 4560.00000    0.28890    0.36500   11.75900    0.05090    2.98530    2.04650   71.58020  119.58290   84.96520    4.20620  -11.58350    3.05400    3.43930   -9999.25   -9999.25
 4560.50000    0.13950    0.33910   11.21750    0.02070    3.65910    2.14760   63.67700  109.91970   75.22320    4.70120  -11.60430    3.15910    4.12270   -9999.25   -9999.25
 4561.00000    0.07350    0.29550   10.14960    0.01310    4.34780    2.26190   57.51090  101.88110   58.42720    5.84740  -12.73810    4.95310    5.20700   -9999.25   -9999.25
 4561.50000    0.04420    0.14410    9.49800    0.00670    5.03650    2.50430   54.03070  102.60500   43.94190    7.00600  -14.65050    9.52550    6.57950   -9999.25   -9999.25
 4562.00000    0.02670    0.00880    9.41130    0.00530    5.22250    2.60310   52.34250  104.02940   32.77750    8.39400  -17.90230   20.05560    8.84960   -9999.25   -9999.25
 4562.50000    0.01940   -0.00150    9.39930    0.00680    5.09180    2.70430   50.53930  104.21020   29.92030   10.14100  -21.28240   35.12690   12.35770   -9999.25   -9999.25
 4563.00000    0.02100   -0.00020    9.38730    0.00880    4.70240    2.71500   48.35630   97.30610   30.13210   14.50480  -24.14600   42.44260   17.19840   -9999.25   -9999.25
 4563.50000    0.02330    0.00580    9.40310    0.01460    4.31570    2.69970   46.17330   94.86010   32.61100   20.74640  -26.12940   47.40980   22.91070   -9999.25   -9999.25
 4564.00000    0.02980    0.03030    9.44240    0.02410    3.92890    2.65890   45.81980   92.57020   37.67930   22.21290  -27.52830   46.91630   22.94930   -9999.25   -9999.25
 4564.50000    0.04210    0.07750    9.48170    0.03610    3.59110    2.55800   45.72380   92.18910   46.76360   18.08190  -27.96570   39.22380   16.70170   -9999.25   -9999.25
 4565.00000    0.07050    0.12520    9.61790    0.04570    3.31340    2.45840   47.24190   94.35810   56.80620   13.44070  -27.45880   23.06730   10.77500   -9999.25   -9999.25
 4565.50000    0.11500    0.17400    9.87870    0.06110    3.04770    2.39550   54.24460  100.39060   65.74600   10.41150  -26.99870   11.73000    8.14260   -9999.25   -9999.25
 4566.00000    0.16860    0.21140   10.30570    0.06520    2.78200    2.35480   63.33000  112.42670   71.45260    8.08580  -27.06870    6.48870    6.32390   -9999.25   -9999.25
 4566.50000    0.19900    0.21460   10.69360    0.06930    2.60300    2.34750   72.09850  124.46280   74.56890    6.27960  -27.90470    4.37320    4.91140   -9999.25   -9999.25
 4567.00000    0.22740    0.20420   10.88470    0.07560    2.50980    2.37020   78.31060  135.99990   75.16420    4.87680  -29.09300    3.58340    4.10840   -9999.25   -9999.25
 4567.50000    0.23780    0.17310   10.73150    0.08080    2.45280    2.40960   82.12060  145.45540   73.93140    4.30740  -30.28120    3.32500    3.91650   -9999.25   -9999.25
 4568.00000    0.23750    0.15790   10.56930    0.07510    2.43960    2.43940   82.21270  145.37170   71.82110    3.87960  -30.88430    3.58010    3.73350   -9999.25   -9999.25
 4568.50000    0.20110    0.15630   10.49580    0.05940    2.46160    2.44490   79.45560  140.23410   70.18040    3.56580  -31.20010    3.74140    3.55900   -9999.25   -9999.25
 4569.00000    0.16980    0.15640   10.22260    0.04790    2.48580    2.44330   76.55640  136.01600   69.52950    3.45960  -32.00510    3.96720    3.43920   -9999.25   -9999.25
 4569.50000    0.16340    0.15670    9.91890    0.06640    2.50970    2.44290   74.41250  132.90430   68.62820    3.45460  -32.63570    4.33360    3.41680   -9999.25   -9999.25
 4570.00000    0.16740    0.16390    9.83690    0.08460    2.56140    2.43460   72.05810  128.28410   68.75860    3.49040  -33.78450    4.91560    3.41510   -9999.25   -9999.25
 4570.50000    0.18530    0.18240    9.86910    0.09590    2.61300    2.41030   68.94540  123.92720   71.19710    3.60460  -34.95580    5.25310    3.44360   -9999.25   -9999.25
 4571.00000    0.22100    0.21160   10.17730    0.10710    2.64550    2.35560   66.33320  125.25600   77.30600    3.74520  -35.34290    4.81620    3.48600   -9999.25   -9999.25
 4571.50000    0.27410    0.25590   10.48560    0.11090    2.61700    2.27750   68.63190  132.31220   84.55860    3.89130  -34.89210    3.98650    3.54690   -9999.25   -9999.25
 4572.00000    0.33980    0.31220   10.94100    0.11070    2.57210    2.19930   74.11510  142.08540   88.46890    3.99090  -33.15870    3.51600    3.62010   -9999.25   -9999.25
 4572.50000    0.35760    0.32100   11.39850    0.10920    2.53140    2.16430   79.40920  151.16530   86.97820    4.04940  -31.08030    3.55300    3.68070   -9999.25   -9999.25
 4573.00000    0.33990    0.31700   11.47670    0.09760    2.51810    2.17310   82.88080  154.03680   80.98460    4.08560  -30.22780    3.59300    3.69550   -9999.25   -9999.25
 4573.50000    0.30600    0.27590   11.13030    0.08930    2.51810    2.20130   82.12650  147.23670   71.44840    4.06680  -29.58190    3.62880    3.71050   -9999.25   -9999.25
 4574.00000    0.24570    0.23470   10.75250    0.08540    2.56970    2.31630   79.61670  138.16940   61.55970    4.03140  -30.27680    3.58160    3.72550   -9999.25   -9999.25
 4574.50000    0.18530    0.16390   10.37900    0.08110    2.62820    2.42170   77.41870  133.87420   52.18000    3.99630  -32.24170    3.52040    3.74050   -9999.25   -9999.25
 4575.00000    0.15920    0.15350   10.21770    0.07260    2.66120    2.41050   75.77290  130.84280   47.72730    3.96760  -34.87270    3.60290    3.81290   -9999.25   -9999.25
 4575.50000    0.15900    0.19410   10.13920    0.05400    2.67860    2.31800   71.41630  126.47190   47.30700    3.96760  -37.64850    4.31950    3.81320   -9999.25   -9999.25
 4576.00000    0.18870    0.27910   10.19200    0.03730    2.69600    2.20370   65.44250  119.52810   51.68600    3.97800  -39.74020    5.80190    3.81320   -9999.25   -9999.25
 4576.50000    0.24150    0.41620   10.47610    0.02470    2.68830    2.05110   60.08360  116.41390   62.36550    3.99720  -38.62420    7.19540    3.75520   -9999.25   -9999.25
