~Version ---------------------------------------------------
VERS.   2.0 : CWLS log ASCII Standard -VERSION 2.0
WRAP.    NO : One line per depth step
DLM . SPACE : Column Data Section Delimiter
~Well ------------------------------------------------------
STRT .F                1564.0 : START DEPTH
STOP .F               10564.0 : STOP DEPTH
STEP .F                   0.5 : STEP
NULL .               -9999.25 : NULL VALUE
COMP .                        : COMPANY
WELL .                        : WELL
FLD  .                        : FIELD
LOC  .                        : LOCATION
PROV .                        : PROVINCE
CNTY .                        : COUNTY
STAT .                        : STATE
CTRY .                        : COUNTRY
SRVC .                        : SERVICE COMPANY
DATE .                        : DATE
UWI  .                        : UNIQUE WELL ID
API  .                        : API NUMBER
SLAT .WGS84 6.036189877335097 : SURFACE LATITUDE
SLON .WGS84 3.144340008327603 : SURFACE LONGITUDE
DATUM.F                1708.0 : DEPTH DATUM ELEV
~Curve Information -----------------------------------------
DEPT.F     : 1 MEASURED DEPTH
NPOR.DEC   : NEUTRON POROSITY
DPHI.DEC   : DENSITY POROSITY
CALD.IN    : CALIPER FROM DENSITY LOG
DRHO.G/C3  : BULK DENSITY CORRECTION
PEF .B/E   : PHOTOELECTRIC FACTOR
RHOB.G/C3  : BULK DENSITY
DTCO.US/F  : DELTA-T COMPRESSIONAL
DTSM.US/F  : DELTA-T SHEAR
GRR .GAPI  : GAMMA RAY FROM RESISTIVITY LOG
ILD .OHMM  : INDUCTION DEEP RESISTIVITY
SPR .MV    : SPONTANEOUS POTENTIAL FROM RESISTIVITY LOG
SFLU.OHMM  : SHALLOW FOCUSED RESISTIVITY (UNAVERAGED)
ILM .OHMM  : INDUCTION MEDIUM RESISTIVITY
DT  .US/F  : DELTA-T (INTERVAL TRANSIT TIME)
DTL .US/F  : DELTA-T LONG SPACING
~Params ----------------------------------------------------
~Other -----------------------------------------------------
~ASCII -----------------------------------------------------
# ...
 8142.00000    0.26390    0.07380   10.51190    0.03380    3.66900    2.58490   71.31390  142.23430  110.91040   11.53470  -15.75730   12.93740    9.95570   -9999.25   -9999.25
 8142.50000    0.26440    0.08000   10.54860    0.02970    3.65020    2.57300   73.49710  145.33680  112.88860   11.62020  -15.87520   12.31390   10.10210   -9999.25   -9999.25
 8143.00000    0.26490    0.07760   10.50310    0.02790    3.62870    2.57780   75.67100  147.03170  114.19620   11.70640  -16.19200   12.30050   10.59120   -9999.25   -9999.25
 8143.50000    0.25070    0.05970   10.44480    0.02580    3.61410    2.60380   76.56160  148.72380  113.58030   11.79330  -16.21070   12.90430   11.36010   -9999.25   -9999.25
 8144.00000    0.23680    0.04210   10.44130    0.02180    3.59850    2.64140   75.96010  147.57540  110.27170   11.85680  -16.13000   14.15780   11.46090   -9999.25   -9999.25
 8144.50000    0.22690    0.03140   10.43320    0.01540    3.58200    2.65810   75.34700  144.54520  107.38990   11.88260  -16.04940   15.13480   11.54370   -9999.25   -9999.25
 8145.00000    0.22320    0.03160   10.44020    0.00680    3.53020    2.65410   75.19310  142.07430  107.31840   11.93740  -15.96880   15.79120   11.54370   -9999.25   -9999.25
 8145.50000    0.21970    0.03510   10.46330    0.01040    3.51820    2.64890   74.76800  140.09460  107.97930   12.26610  -15.88810   16.00040   11.42710   -9999.25   -9999.25
 8146.00000    0.22100    0.04020   10.48570    0.02040    3.50620    2.64010   72.40380  139.53550  105.88170   12.48670  -15.80750   15.89220   11.44250   -9999.25   -9999.25
 8146.50000    0.23190    0.04740   10.50820    0.03520    3.47700    2.62710   71.11250  139.98740   99.49040   12.39810  -15.84930   15.53280   11.00340   -9999.25   -9999.25
 8147.00000    0.24040    0.05730   10.52050    0.05030    3.42930    2.61060   71.36550  138.83540   98.51750   11.50790  -15.87390   15.17810   10.43570   -9999.25   -9999.25
 8147.50000    0.24950    0.07660   10.52050    0.06470    3.35680    2.57430   71.78830  138.61890  102.05960   10.83700  -15.89840   14.54360    9.89720   -9999.25   -9999.25
 8148.00000    0.26960    0.09800   10.53460    0.08910    3.32740    2.54460   70.15900  142.87180  105.05270   10.20520  -15.92300   13.80770    9.38650   -9999.25   -9999.25
 8148.50000    0.28760    0.10830   10.56550    0.10620    3.29470    2.52320   69.90490  149.52460  105.41920    9.76480  -15.94870   12.75920    8.90220   -9999.25   -9999.25
 8149.00000    0.30560    0.11140   10.72830    0.11100    3.26330    2.51930   71.89310  154.26580  105.63120    9.59780  -15.97670   11.90160    8.66000   -9999.25   -9999.25
 8149.50000    0.29810    0.11030   10.88260    0.11810    3.25640    2.52070   75.44930  156.71780  107.70340    9.38950  -16.00470   11.03180    8.66000   -9999.25   -9999.25
 8150.00000    0.26890    0.08550   11.03040    0.12540    3.24010    2.57470   78.89870  157.16820  108.74370    9.23620  -16.03270   10.76210    8.65350   -9999.25   -9999.25
 8150.50000    0.24470    0.05020   11.06110    0.15540    3.22370    2.61490   81.01510  155.02610  108.32140    9.09550  -16.06070   11.01330    8.55090   -9999.25   -9999.25
 8151.00000    0.24020    0.04860   10.89790    0.15610    3.20690    2.62600   81.22540  152.37370  107.28270    8.95680  -16.08860   11.50710    8.47270   -9999.25   -9999.25
 8151.50000    0.23850    0.06810   10.61920    0.15180    3.18110    2.59640   81.76350  149.71270  105.61040    8.82030  -16.11550   11.83780    8.39360   -9999.25   -9999.25
 8152.00000    0.24120    0.08340   10.66540    0.14750    3.15300    2.56840   79.00940  148.62100  105.06850    8.68590  -16.09790   11.92420    8.31530   -9999.25   -9999.25
 8152.50000    0.26710    0.09500   10.80560    0.14870    3.13200    2.54700   75.60490  148.07530  105.67910    8.68390  -16.05760   11.76460    8.23760   -9999.25   -9999.25
 8153.00000    0.26750    0.09430   10.88910    0.15170    3.17380    2.55200   73.87390  147.28110  107.59440    8.77510  -16.01720   11.28910    8.16070   -9999.25   -9999.25
 8153.50000    0.25970    0.08080   10.98300    0.16070    3.29730    2.57410   74.38010  145.40620  108.02210    8.81030  -15.97680   10.84050    8.08450   -9999.25   -9999.25
 8154.00000    0.25780    0.06630   10.99590    0.16970    3.37820    2.59620   76.77660  145.64400  108.04870    8.66320  -15.93640   10.43310    8.06510   -9999.25   -9999.25
 8154.50000    0.26810    0.07550   10.92580    0.17290    3.41320    2.58620   77.17700  148.08350  107.99160    8.23020  -15.89600   10.18200    7.99760   -9999.25   -9999.25
 8155.00000    0.28870    0.08460   10.82550    0.17320    3.40170    2.56010   76.43290  153.21390  106.95300    8.00330  -15.85570   10.12770    7.82290   -9999.25   -9999.25
 8155.50000    0.30070    0.10610   10.87280    0.15720    3.28460    2.53170   76.58270  158.68240  105.58510    7.81740  -15.81530    9.93960    7.53700   -9999.25   -9999.25
 8156.00000    0.30610    0.10800   11.21860    0.14980    3.14570    2.51840   77.67390  162.70340  103.59060    7.77750  -15.77490    9.54620    7.32020   -9999.25   -9999.25
 8156.50000    0.31110    0.09750   11.47430    0.16120    3.05150    2.55260   78.45100  166.60960  103.11840    7.76710  -15.72020    9.13750    7.32540   -9999.25   -9999.25
 8157.00000    0.30480    0.07400   11.29980    0.17170    3.05150    2.59030   78.52230  166.49490  102.93510    7.76680  -15.56550    9.03660    7.34800   -9999.25   -9999.25
 8157.50000    0.29860    0.05120   11.16740    0.17370    3.11220    2.62280   79.71490  161.12440  104.03750    7.69810  -15.41090    9.28100    7.37060   -9999.25   -9999.25
 8158.00000    0.29760    0.05070   11.21210    0.16040    3.21360    2.62180   82.15900  156.83420  107.19960    7.59770  -15.25630    9.68940    7.30490   -9999.25   -9999.25
 8158.50000    0.30790    0.05620   11.31540    0.15040    3.28970    2.61470   81.82740  157.30520  109.03950    7.44450  -15.10170    9.87990    7.23490   -9999.25   -9999.25
 8159.00000    0.30430    0.05840   11.41870    0.15230    3.30310    2.61010   80.09470  158.78590  109.40260    7.36410  -14.94700    9.54960    7.16560   -9999.25   -9999.25
 8159.50000    0.30040    0.05370   11.46810    0.16210    3.31640    2.61530   78.63920  160.26670  109.47530    7.29780  -14.79240    9.18940    7.09690   -9999.25   -9999.25
 8160.00000    0.29650    0.04730   11.49890    0.17190    3.35570    2.62540   79.09000  159.85640  110.75160    7.23200  -14.63880    8.90760    7.02900   -9999.25   -9999.25
 8160.50000    0.29020    0.04390   11.53000    0.17880    3.36920    2.63420   79.09070  158.38850  113.91920    7.16690  -14.58810    8.71510    6.96160   -9999.25   -9999.25
 8161.00000    0.28090    0.04530   11.56130    0.17570    3.41100    2.63210   78.54590  156.43710  118.19980    7.10230  -14.53750    8.66900    6.89490   -9999.25   -9999.25
 8161.50000    0.27630    0.04690   11.59260    0.17000    3.50010    2.63050   80.14410  154.70630  119.18640    7.04060  -14.53720    8.65810    6.82890   -9999.25   -9999.25
 8162.00000    0.27650    0.04560   11.62400    0.17130    3.61150    2.63470   80.87850  154.55340  117.26780    6.98710  -14.46240    8.63430    6.76410   -9999.25   -9999.25
 8162.50000    0.28020    0.03710   11.65530    0.17770    3.68940    2.64580   80.16810  155.05370  112.76050    6.94210  -14.17620    8.58440    6.70020   -9999.25   -9999.25
 8163.00000    0.28280    0.02900   11.68660    0.18290    3.75480    2.66150   78.74870  154.20020  110.86100    6.91920  -14.05930    8.56450    6.63690   -9999.25   -9999.25
 8163.50000    0.28490    0.03500   11.71920    0.18490    3.75540    2.64890   78.66520  151.82330  111.07420    6.89640  -13.94240    8.50720    6.57420   -9999.25   -9999.25
 8164.00000    0.28670    0.05300   11.76880    0.18560    3.65480    2.61620   79.75200  151.46660  111.84510    6.78030  -13.82550    8.47540    6.51210   -9999.25   -9999.25
 8164.50000    0.28850    0.06900   11.81630    0.18610    3.49850    2.60050   79.13070  152.15790  111.15340    6.66540  -13.75340    8.32880    6.45050   -9999.25   -9999.25
