~Version ---------------------------------------------------
VERS.   2.0 : CWLS log ASCII Standard -VERSION 2.0
WRAP.    NO : One line per depth step
DLM . SPACE : Column Data Section Delimiter
~Well ------------------------------------------------------
STRT .F                1564.0 : START DEPTH
STOP .F               10564.0 : STOP DEPTH
STEP .F                   0.5 : STEP
NULL .               -9999.25 : NULL VALUE
COMP .                        : COMPANY
WELL .                        : WELL
FLD  .                        : FIELD
LOC  .                        : LOCATION
PROV .                        : PROVINCE
CNTY .                        : COUNTY
STAT .                        : STATE
CTRY .                        : COUNTRY
SRVC .                        : SERVICE COMPANY
DATE .                        : DATE
UWI  .                        : UNIQUE WELL ID
API  .                        : API NUMBER
SLAT .WGS84 6.036189877335097 : SURFACE LATITUDE
SLON .WGS84 3.144340008327603 : SURFACE LONGITUDE
DATUM.F                1708.0 : DEPTH DATUM ELEV
~Curve Information -----------------------------------------
DEPT.F     : 1 MEASURED DEPTH
NPOR.DEC   : NEUTRON POROSITY
DPHI.DEC   : DENSITY POROSITY
CALD.IN    : CALIPER FROM DENSITY LOG
DRHO.G/C3  : BULK DENSITY CORRECTION
PEF .B/E   : PHOTOELECTRIC FACTOR
RHOB.G/C3  : BULK DENSITY
DTCO.US/F  : DELTA-T COMPRESSIONAL
DTSM.US/F  : DELTA-T SHEAR
GRR .GAPI  : GAMMA RAY FROM RESISTIVITY LOG
ILD .OHMM  : INDUCTION DEEP RESISTIVITY
SPR .MV    : SPONTANEOUS POTENTIAL FROM RESISTIVITY LOG
SFLU.OHMM  : SHALLOW FOCUSED RESISTIVITY (UNAVERAGED)
ILM .OHMM  : INDUCTION MEDIUM RESISTIVITY
DT  .US/F  : DELTA-T (INTERVAL TRANSIT TIME)
DTL .US/F  : DELTA-T LONG SPACING
~Params ----------------------------------------------------
~Other -----------------------------------------------------
~ASCII -----------------------------------------------------
# ...
 6348.00000    0.08710    0.13220    8.63360    0.07580    2.68430    2.44600   74.81900  138.37390   43.74870    9.26980   -2.73650   15.78790   11.55750   -9999.25   -9999.25
 6348.50000    0.06060    0.07250    8.57830    0.06840    2.80660    2.57710   69.63130  126.20110   38.35800    9.72240   -5.24550   33.03060   14.36790   -9999.25   -9999.25
 6349.00000    0.05610    0.06060    8.54920    0.06360    2.78940    2.61670   65.19950  119.30030   43.60140   10.52170   -8.50490   41.46230   13.85460   -9999.25   -9999.25
 6349.50000    0.08370    0.06040    8.58950    0.05070    2.74250    2.60650   61.76720  116.10360   52.61880   11.67180  -11.23830   32.88790   12.49310   -9999.25   -9999.25
 6350.00000    0.11080    0.07770    8.69590    0.04500    2.69560    2.57580   59.57250  113.95140   56.04030   11.53170  -12.88960   21.01150   13.26090   -9999.25   -9999.25
 6350.50000    0.13250    0.09140    8.80230    0.04010    2.65210    2.55310   59.81380  114.19200   54.14810   11.49090  -14.39150   15.22180   15.02740   -9999.25   -9999.25
 6351.00000    0.13270    0.09090    8.90870    0.03990    2.62800    2.55160   64.85920  117.32480   46.47260   11.67770  -15.44760   13.05660   13.57390   -9999.25   -9999.25
 6351.50000    0.12090    0.08860    8.97240    0.03920    2.62400    2.55610   67.08040  118.85570   41.06150   11.45450  -16.48040   12.27200   12.15990   -9999.25   -9999.25
 6352.00000    0.12120    0.10560    9.01240    0.03620    2.61020    2.53750   65.75470  119.65130   41.91920   10.42820  -17.50890   12.10660   10.89320   -9999.25   -9999.25
 6352.50000    0.13480    0.15050    9.05250    0.03050    2.52780    2.43640   62.02330  119.87280   48.73810    9.37750  -18.53770   11.38520    8.93890   -9999.25   -9999.25
 6353.00000    0.17770    0.20550    9.15200    0.02330    2.50860    2.37430   60.13550  119.89920   58.19580    8.43600  -19.29620    9.64170    8.05260   -9999.25   -9999.25
 6353.50000    0.19990    0.23700    9.22860    0.02430    2.48950    2.31530   61.87640  120.41160   65.41500    8.10150  -19.97140    8.87700    7.42510   -9999.25   -9999.25
 6354.00000    0.22200    0.24520    9.35580    0.03760    2.47310    2.29060   63.90960  120.97870   70.66910    7.95180  -19.71690    8.76070    7.37470   -9999.25   -9999.25
 6354.50000    0.24750    0.24460    9.49440    0.05390    2.47270    2.27580   65.02640  118.55250   75.44200    7.66390  -17.03560    8.84600    7.24190   -9999.25   -9999.25
 6355.00000    0.27430    0.24320    9.59840    0.08760    2.47630    2.29210   64.27750  117.94550   83.16540    7.20440  -14.47090    8.91240    6.95100   -9999.25   -9999.25
 6355.50000    0.31410    0.24280    9.89960    0.11330    2.43600    2.29770   64.57340  119.16900   88.42280    7.00980  -11.90620    8.94070    6.67180   -9999.25   -9999.25
 6356.00000    0.35390    0.28060   10.29860    0.12230    2.36700    2.24440   68.64390  125.12000   87.69300    6.88260   -9.28640    8.64750    6.42780   -9999.25   -9999.25
 6356.50000    0.33270    0.30550   10.52190    0.11820    2.32500    2.17600   74.46010  135.20930   82.37610    6.88260   -6.67240    7.93420    6.25550   -9999.25   -9999.25
 6357.00000    0.30960    0.30170   10.51060    0.12400    2.30850    2.18710   79.44320  143.15090   74.49300    6.88260   -3.71930    7.43460    6.42180   -9999.25   -9999.25
 6357.50000    0.27390    0.29550   10.38410    0.13680    2.35760    2.22150   82.52660  145.78190   68.79960    7.05000   -2.30960    7.35360    6.76600   -9999.25   -9999.25
 6358.00000    0.25510    0.26210    9.95020    0.14160    2.47980    2.27290   80.56830  140.74200   67.30220    7.39830   -2.30790    8.03130    7.23830   -9999.25   -9999.25
 6358.50000    0.24540    0.21270    9.78260    0.13170    2.54560    2.33580   78.01460  133.37930   72.13600    7.76420   -1.94550    8.86960    7.74360   -9999.25   -9999.25
 6359.00000    0.23380    0.18650    9.99730    0.11730    2.60120    2.39230   75.79430  126.24150   78.51620    8.19730   -1.66430    9.57610    8.07050   -9999.25   -9999.25
 6359.50000    0.23330    0.17090    9.99730    0.11210    2.65080    2.41380   73.34490  120.05440   83.80820    8.39920   -1.38310    9.92630    8.23460   -9999.25   -9999.25
 6360.00000    0.27290    0.17820   10.02170    0.11550    2.60720    2.40540   71.03620  112.96110   87.37850    8.41220   -1.23420    9.89800    8.22970   -9999.25   -9999.25
 6360.50000    0.30250    0.19830   10.29810    0.12010    2.53320    2.37170   69.33230  105.54010   90.56990    8.34310   -1.31400    9.82730    8.06070   -9999.25   -9999.25
 6361.00000    0.34850    0.21570   10.48250    0.12460    2.45920    2.32810   66.99570  103.87840   92.89450    7.94610   -1.59060    9.59280    7.20740   -9999.25   -9999.25
 6361.50000    0.39430    0.24870   10.90360    0.13530    2.37590    2.28360   67.15640  110.01210   94.04980    7.55700   -1.87080    8.69410    6.60000   -9999.25   -9999.25
 6362.00000    0.42300    0.26760   11.40730    0.14880    2.35250    2.24710   69.86590  121.79770   94.53340    7.18690   -2.15110    7.54970    6.20540   -9999.25   -9999.25
 6362.50000    0.41080    0.27960   11.89370    0.16320    2.34410    2.23020   74.78990  134.24770   94.64630    6.83490   -2.36330    7.00990    5.91300   -9999.25   -9999.25
 6363.00000    0.39610    0.27840   12.00300    0.17440    2.33570    2.23020   79.46420  151.31290   93.92400    6.60600   -2.20140    6.64010    5.91070   -9999.25   -9999.25
 6363.50000    0.39280    0.27220   12.17590    0.18340    2.32740    2.23830   80.69320  164.07330   91.87970    6.44150   -1.75890    6.44480    5.94060   -9999.25   -9999.25
 6364.00000    0.40110    0.26550   12.19110    0.19230    2.36570    2.25520   81.38170  167.21340   90.64070    6.28110   -1.26820    6.31330    5.96420   -9999.25   -9999.25
 6364.50000    0.41040    0.25280   12.18730    0.20120    2.39350    2.28180   80.89760  165.87470   90.30440    6.13970   -0.70020    6.40740    5.92550   -9999.25   -9999.25
 6365.00000    0.42060    0.23690   12.16980    0.20370    2.39350    2.30990   79.57210  163.40770   90.82690    6.09750    0.08560    6.55230    5.87640   -9999.25   -9999.25
 6365.50000    0.42080    0.22880   12.52540    0.20240    2.36990    2.31860   79.85250  163.09360   90.82910    6.12460    1.28160    6.55530    5.85570   -9999.25   -9999.25
 6366.00000    0.39530    0.23550   13.22650    0.19950    2.34150    2.30920   82.05800  163.50430   89.29810    6.18310    1.65150    6.49250    5.85570   -9999.25   -9999.25
 6366.50000    0.37900    0.24330   13.21370    0.19590    2.31310    2.29750   81.70650  161.45380   87.25370    6.29500    1.95040    6.44310    5.79940   -9999.25   -9999.25
 6367.00000    0.37670    0.26360   12.92010    0.19110    2.28460    2.25790   81.62680  157.14910   87.32370    6.29500    2.61770    6.39760    5.72750   -9999.25   -9999.25
 6367.50000    0.38520    0.29950   12.64040    0.18640    2.25620    2.22350   82.93930  157.05650   88.84570    6.19850    2.24220    6.35660    5.69650   -9999.25   -9999.25
 6368.00000    0.39080    0.31130   12.56710    0.18180    2.23790    2.19010   85.38210  159.89960   89.93180    6.09990    1.74570    6.31590    5.69650   -9999.25   -9999.25
 6368.50000    0.36860    0.32320   12.88320    0.17800    2.22820    2.16170   86.43440  162.80240   90.25430    6.19090    1.15090    6.39750    5.88950   -9999.25   -9999.25
 6369.00000    0.35310    0.35300   13.06880    0.16420    2.22820    2.11040   85.89080  163.37350   90.05720    6.38460    0.55610    6.51580    6.15220   -9999.25   -9999.25
 6369.50000    0.33660    0.36680   12.67210    0.14800    2.22820    2.08030   86.92370  164.58980   90.03060    6.69880   -0.17040    6.92840    6.42660   -9999.25   -9999.25
 6370.00000    0.29660    0.35500   12.24050    0.13320    2.24100    2.09000   85.97630  163.24840   91.32700    7.02860   -0.08360    7.37470    6.71330   -9999.25   -9999.25
 6370.50000    0.28480    0.34500   11.83250    0.12980    2.29150    2.11650   81.49850  157.62670   94.26590    7.26280    0.40800    7.80380    6.94830   -9999.25   -9999.25
