~Version ---------------------------------------------------
VERS.   2.0 : CWLS log ASCII Standard -VERSION 2.0
WRAP.    NO : One line per depth step
DLM . SPACE : Column Data Section Delimiter
~Well ------------------------------------------------------
STRT .F                1564.0 : START DEPTH
STOP .F               10564.0 : STOP DEPTH
STEP .F                   0.5 : STEP
NULL .               -9999.25 : NULL VALUE
COMP .                        : COMPANY
WELL .                        : WELL
FLD  .                        : FIELD
LOC  .                        : LOCATION
PROV .                        : PROVINCE
CNTY .                        : COUNTY
STAT .                        : STATE
CTRY .                        : COUNTRY
SRVC .                        : SERVICE COMPANY
DATE .                        : DATE
UWI  .                        : UNIQUE WELL ID
API  .                        : API NUMBER
SLAT .WGS84 6.036189877335097 : SURFACE LATITUDE
SLON .WGS84 3.144340008327603 : SURFACE LONGITUDE
DATUM.F                1708.0 : DEPTH DATUM ELEV
~Curve Information -----------------------------------------
DEPT.F     : 1 MEASURED DEPTH
NPOR.DEC   : NEUTRON POROSITY
DPHI.DEC   : DENSITY POROSITY
CALD.IN    : CALIPER FROM DENSITY LOG
DRHO.G/C3  : BULK DENSITY CORRECTION
PEF .B/E   : PHOTOELECTRIC FACTOR
RHOB.G/C3  : BULK DENSITY
DTCO.US/F  : DELTA-T COMPRESSIONAL
DTSM.US/F  : DELTA-T SHEAR
GRR .GAPI  : GAMMA RAY FROM RESISTIVITY LOG
ILD .OHMM  : INDUCTION DEEP RESISTIVITY
SPR .MV    : SPONTANEOUS POTENTIAL FROM RESISTIVITY LOG
SFLU.OHMM  : SHALLOW FOCUSED RESISTIVITY (UNAVERAGED)
ILM .OHMM  : INDUCTION MEDIUM RESISTIVITY
DT  .US/F  : DELTA-T (INTERVAL TRANSIT TIME)
DTL .US/F  : DELTA-T LONG SPACING
~Params ----------------------------------------------------
~Other -----------------------------------------------------
~ASCII -----------------------------------------------------
# ...
 2185.00000    0.44270    0.70030   13.88540    0.07480    2.58610    1.43190  113.12930  187.01350   79.29830    1.12390   -5.06690    1.13490    1.02640   -9999.25   -9999.25
 2185.50000    0.45530    0.70020   15.37880    0.07270    2.65840    1.42150  118.05660  187.00760   84.28630    1.11470   -5.47800    1.05550    1.04230   -9999.25   -9999.25
 2186.00000    0.45220    0.70010   15.79210    0.07060    2.70400    1.51040  116.82980  187.01500   89.87870    1.11470   -4.74240    1.05900    1.05710   -9999.25   -9999.25
 2186.50000    0.42050    0.66570   14.37950    0.07020    2.73070    1.63040  113.68850  187.03220   89.37410    1.11470   -3.48810    1.08100    1.07220   -9999.25   -9999.25
 2187.00000    0.38860    0.54940   12.65170    0.07690    2.72640    1.72990  108.30230  187.04940   84.57830    1.11470   -2.69660    1.08260    1.08760   -9999.25   -9999.25
 2187.50000    0.36100    0.46740   10.99570    0.09090    2.74140    1.92650  104.94330  187.06650   79.72490    1.12570   -2.75710    1.04210    1.10310   -9999.25   -9999.25
 2188.00000    0.34930    0.42430    9.99490    0.10500    2.85510    2.07040  101.17690  187.08370   77.43040    1.15720   -4.16550    1.00550    1.12390   -9999.25   -9999.25
 2188.50000    0.33820    0.23110    8.95910    0.10920    2.97080    2.28650   96.57490  187.10090   76.48590    1.18020   -5.31570    1.02420    1.15560   -9999.25   -9999.25
 2189.00000    0.32840    0.19220    8.43750    0.11220    3.00860    2.39670   89.52120  187.11810   78.31270    1.20080   -4.45930    1.16730    1.18830   -9999.25   -9999.25
 2189.50000    0.32460    0.17380    8.19920    0.11840    2.89550    2.41070   83.49090  186.04960   82.68670    1.22160   -0.66820    1.32190    1.22180   -9999.25   -9999.25
 2190.00000    0.33540    0.21430    8.22120    0.11790    2.77510    2.37790   81.90110  183.76690   86.50570    1.24290    3.75640    1.33680    1.25620   -9999.25   -9999.25
 2190.50000    0.35050    0.27520    8.61100    0.11570    2.59120    2.28040   85.98890  180.94940   88.21800    1.24400    7.23840    1.31330    1.27830   -9999.25   -9999.25
 2191.00000    0.37330    0.30560    9.20560    0.12000    2.42000    2.18060   93.95230  176.34270   88.71000    1.23440    6.12150    1.30530    1.27550   -9999.25   -9999.25
 2191.50000    0.40020    0.33600    9.79890    0.13000    2.41230    2.14010   99.32050  174.58870   88.46320    1.22450    2.56770    1.29990    1.25950   -9999.25   -9999.25
 2192.00000    0.42100    0.34510   10.06350    0.14080    2.49720    2.11760  102.89520  173.61620   87.52200    1.21040   -1.23810    1.28010    1.23720   -9999.25   -9999.25
 2192.50000    0.41710    0.33050   10.09760    0.13540    2.66150    2.12890  106.63270  173.55110   85.96030    1.19640   -1.86130    1.25530    1.21740   -9999.25   -9999.25
 2193.00000    0.38280    0.30840    9.61110    0.11340    2.80200    2.17780  107.55910  173.66800   83.65890    1.18660   -0.74150    1.23100    1.20040   -9999.25   -9999.25
 2193.50000    0.35040    0.28490    9.05560    0.08350    2.87250    2.22900  105.55670  173.78480   82.23320    1.18100    1.06560    1.20710    1.17980   -9999.25   -9999.25
 2194.00000    0.32150    0.24250    8.58470    0.06410    3.02710    2.29450  100.30630  173.90160   84.62020    1.18100    1.62820    1.18520    1.17350   -9999.25   -9999.25
 2194.50000    0.30420    0.20280    8.36730    0.04780    3.08880    2.36360   95.57160  173.67810   89.20280    1.18100    0.60700    1.16470    1.16930   -9999.25   -9999.25
 2195.00000    0.30170    0.17980    8.36350    0.02880    3.15200    2.39820   91.15120  170.33720   93.33520    1.19170    0.83410    1.14460    1.17150   -9999.25   -9999.25
 2195.50000    0.30370    0.17340    8.36050    0.01700    3.23470    2.41340   88.10500  164.61260   92.58650    1.20440    1.21250    1.12480    1.17640   -9999.25   -9999.25
 2196.00000    0.30570    0.16790    8.36950    0.00630    3.31510    2.42480   86.12210  157.79090   85.55760    1.22920    1.03780    1.14570    1.19100   -9999.25   -9999.25
 2196.50000    0.29660    0.16240    8.37850    0.00450    3.36230    2.43540   83.79660  151.19740   79.43330    1.25780    0.42750    1.17890    1.20710   -9999.25   -9999.25
 2197.00000    0.29250    0.15590    8.39680    0.00640    3.37940    2.44600   81.58740  146.29880   75.27600    1.28100   -1.67870    1.19490    1.22340   -9999.25   -9999.25
 2197.50000    0.29530    0.15170    8.45300    0.00880    3.38860    2.45110   80.36020  141.84030   74.76460    1.28740   -4.17630    1.18980    1.24000   -9999.25   -9999.25
 2198.00000    0.30470    0.15000    8.50910    0.01150    3.37120    2.45450   79.32790  138.43880   75.67370    1.27950   -6.65450    1.17270    1.24210   -9999.25   -9999.25
 2198.50000    0.31440    0.15320    8.56530    0.01440    3.31800    2.45290   79.81950  136.00950   76.72810    1.21800   -8.58240    1.22950    1.23370   -9999.25   -9999.25
 2199.00000    0.31900    0.16220    8.61260    0.01730    3.18640    2.43100   81.68790  136.31120   79.26610    1.14980   -8.38580    1.33260    1.21170   -9999.25   -9999.25
 2199.50000    0.32370    0.17580    8.64860    0.01730    3.00520    2.40440   83.45030  137.27820   81.49900    1.07390   -6.89200    1.40700    1.15800   -9999.25   -9999.25
 2200.00000    0.32850    0.19690    8.69030    0.01710    2.84250    2.37750   85.17530  137.88410   80.33450    0.98730   -5.17820    1.28360    1.08390   -9999.25   -9999.25
 2200.50000    0.33210    0.21190    8.71560    0.01890    2.70650    2.34490   86.46390  137.70900   77.42600    0.93720   -6.99590    1.00790    1.00550   -9999.25   -9999.25
 2201.00000    0.33450    0.22550    8.73020    0.02490    2.62990    2.32050   86.70700  135.30800   73.71580    0.88970  -13.48490    0.79180    0.93270   -9999.25   -9999.25
 2201.50000    0.33990    0.24470    8.74790    0.02470    2.62490    2.28430   86.44070  132.21990   71.97990    0.85670  -19.89000    0.72220    0.89250   -9999.25   -9999.25
 2202.00000    0.35520    0.28930    8.77540    0.02270    2.62530    2.20120   84.74230  130.24100   71.93980    0.82820  -23.80010    0.72240    0.86890   -9999.25   -9999.25
 2202.50000    0.37060    0.37610    8.88250    0.02210    2.62780    2.08580   89.68750  134.67850   72.51040    0.81190  -24.20640    0.73330    0.86040   -9999.25   -9999.25
 2203.00000    0.38600    0.41700    9.29670    0.02570    2.66600    2.01330   94.98660  140.63880   74.16570    0.81150  -22.91840    0.75170    0.86400   -9999.25   -9999.25
 2203.50000    0.40920    0.43880    9.87630    0.04200    2.69740    1.96390  100.08720  143.45660   75.75150    0.84210  -20.61060    0.82360    0.88860   -9999.25   -9999.25
 2204.00000    0.41020    0.44440   10.03420    0.05360    2.75610    1.94420  103.51950  143.70150   76.39470    0.88110  -15.62610    0.92990    0.91720   -9999.25   -9999.25
 2204.50000    0.38130    0.40660    9.83720    0.06200    2.82830    1.98100  103.00990  143.72240   75.91280    0.92200  -10.61110    1.03530    0.94670   -9999.25   -9999.25
 2205.00000    0.34080    0.36340    9.23120    0.06520    2.95220    2.06030   98.50440  143.70490   75.06470    0.95760   -7.54010    0.99300    0.98260   -9999.25   -9999.25
 2205.50000    0.29170    0.31690    8.67310    0.07440    2.99830    2.15780   92.40800  143.27900   74.92180    0.99250   -7.99050    0.90130    1.02510   -9999.25   -9999.25
 2206.00000    0.25900    0.26590    8.01770    0.08900    2.92550    2.23730   88.40160  140.20190   75.81170    1.02870  -12.30320    1.07030    1.06930   -9999.25   -9999.25
 2206.50000    0.24770    0.26820    7.93740    0.08630    2.83060    2.25800   83.15590  134.51610   77.54790    1.06620  -16.70210    1.55740    1.08530   -9999.25   -9999.25
 2207.00000    0.26930    0.30330    8.08360    0.07700    2.73570    2.16340   81.22370  132.70710   77.73950    1.06850  -19.89920    1.78440    1.09310   -9999.25   -9999.25
 2207.50000    0.29600    0.37240    8.58740    0.07320    2.64880    2.06730   82.17200  133.37320   78.49800    1.06800  -21.10830    1.58170    1.09260   -9999.25   -9999.25
