~Version ---------------------------------------------------
VERS.   2.0 : CWLS log ASCII Standard -VERSION 2.0
WRAP.    NO : One line per depth step
DLM . SPACE : Column Data Section Delimiter
~Well ------------------------------------------------------
STRT .F                1564.0 : START DEPTH
STOP .F               10564.0 : STOP DEPTH
STEP .F                   0.5 : STEP
NULL .               -9999.25 : NULL VALUE
COMP .                        : COMPANY
WELL .                        : WELL
FLD  .                        : FIELD
LOC  .                        : LOCATION
PROV .                        : PROVINCE
CNTY .                        : COUNTY
STAT .                        : STATE
CTRY .                        : COUNTRY
SRVC .                        : SERVICE COMPANY
DATE .                        : DATE
UWI  .                        : UNIQUE WELL ID
API  .                        : API NUMBER
SLAT .WGS84 6.036189877335097 : SURFACE LATITUDE
SLON .WGS84 3.144340008327603 : SURFACE LONGITUDE
DATUM.F                1708.0 : DEPTH DATUM ELEV
~Curve Information -----------------------------------------
DEPT.F     : 1 MEASURED DEPTH
NPOR.DEC   : NEUTRON POROSITY
DPHI.DEC   : DENSITY POROSITY
CALD.IN    : CALIPER FROM DENSITY LOG
DRHO.G/C3  : BULK DENSITY CORRECTION
PEF .B/E   : PHOTOELECTRIC FACTOR
RHOB.G/C3  : BULK DENSITY
DTCO.US/F  : DELTA-T COMPRESSIONAL
DTSM.US/F  : DELTA-T SHEAR
GRR .GAPI  : GAMMA RAY FROM RESISTIVITY LOG
ILD .OHMM  : INDUCTION DEEP RESISTIVITY
SPR .MV    : SPONTANEOUS POTENTIAL FROM RESISTIVITY LOG
SFLU.OHMM  : SHALLOW FOCUSED RESISTIVITY (UNAVERAGED)
ILM .OHMM  : INDUCTION MEDIUM RESISTIVITY
DT  .US/F  : DELTA-T (INTERVAL TRANSIT TIME)
DTL .US/F  : DELTA-T LONG SPACING
~Params ----------------------------------------------------
~Other -----------------------------------------------------
~ASCII -----------------------------------------------------
# ...
 1587.00000    0.42040   -9999.25   -9999.25   -9999.25   -9999.25   -9999.25   -9999.25   -9999.25   57.96800   -9999.25   -9999.25   -9999.25   -9999.25   -9999.25   -9999.25
 1587.50000    0.40790   -9999.25   -9999.25   -9999.25   -9999.25   -9999.25   -9999.25   -9999.25   53.91020   -9999.25   -9999.25   -9999.25   -9999.25   -9999.25   -9999.25
 1588.00000    0.39970   -9999.25   -9999.25   -9999.25   -9999.25   -9999.25   -9999.25   -9999.25   47.50670   -9999.25   -9999.25   -9999.25   -9999.25   -9999.25   -9999.25
 1588.50000    0.39970   -9999.25   -9999.25   -9999.25   -9999.25   -9999.25   -9999.25   -9999.25   45.36810   -9999.25   -9999.25   -9999.25   -9999.25   -9999.25   -9999.25
 1589.00000    0.40940   -9999.25   -9999.25   -9999.25   -9999.25   -9999.25   -9999.25   -9999.25   47.82320   -9999.25   -9999.25   -9999.25   -9999.25   -9999.25   -9999.25
 1589.50000    0.43920   -9999.25   -9999.25   -9999.25   -9999.25   -9999.25   -9999.25   -9999.25   51.66630   -9999.25   -9999.25   -9999.25   -9999.25   -9999.25   -9999.25
 1590.00000    0.47090   -9999.25   -9999.25   -9999.25   -9999.25   -9999.25   -9999.25   -9999.25   55.90270   -9999.25   -9999.25   -9999.25   -9999.25   -9999.25   -9999.25
 1590.50000    0.48280   -9999.25   -9999.25   -9999.25   -9999.25   -9999.25   -9999.25   -9999.25   59.33090   -9999.25   -9999.25   -9999.25   -9999.25   -9999.25   -9999.25
 1591.00000    0.47600   -9999.25   -9999.25   -9999.25   -9999.25   -9999.25   -9999.25   -9999.25   58.47560   -9999.25   -9999.25   -9999.25   -9999.25   -9999.25   -9999.25
 1591.50000    0.46820   -9999.25   -9999.25   -9999.25   -9999.25   -9999.25   -9999.25   -9999.25   55.40650   -9999.25   -9999.25   -9999.25   -9999.25   -9999.25   -9999.25
 1592.00000    0.45750    0.42400    7.10110   -0.25250    5.49220    2.00080   95.94300  138.14710   53.77080 2007.49620    4.74410    1.67220 2042.52810   -9999.25   -9999.25
 1592.50000    0.44980    0.36150    7.38580   -0.25020    4.44020    2.04660   94.69380  138.18170   59.61050 2011.71500   -0.60850    0.20280 2047.99610   -9999.25   -9999.25
 1593.00000    0.44300    0.35900    8.15520   -0.18220    3.68880    2.09200   94.94820  138.16290   68.30330 2007.11060   -6.62640    0.20100 2011.50510   -9999.25   -9999.25
 1593.50000    0.41470    0.39070    8.85720   -0.10100    3.22950    2.07430   96.29270  138.18510   79.65450 2002.51770  -11.68520    0.26460 1492.42910   -9999.25   -9999.25
 1594.00000    0.39350    0.42120    9.92880   -0.02900    2.96890    2.02180   97.85800  138.14570   85.71740 1984.83200  -12.01100    0.83580 1147.74450   -9999.25   -9999.25
 1594.50000    0.37490    0.41600   10.93220    0.04270    2.88390    1.97940   99.54590  138.16390   86.35000 1466.26120  -10.49500    1.44210  882.66620   -9999.25   -9999.25
 1595.00000    0.36610    0.39360   10.59060    0.08830    2.87670    2.00780  100.41100  138.21440   84.67080  615.00670   -6.04720    1.26140  403.29450   -9999.25   -9999.25
 1595.50000    0.37420    0.37110    9.74980    0.08750    2.96920    2.03700  101.81910  138.15360   82.53320   17.51180   -5.41240    0.98370    9.22660   -9999.25   -9999.25
 1596.00000    0.39530    0.34760    9.25720    0.06710    3.10080    2.12810  102.09250  138.12500   81.70960    0.68160   -5.48150    0.85770    0.79990   -9999.25   -9999.25
 1596.50000    0.42240    0.28470    9.02770    0.05410    3.16110    2.26100  101.66640  138.15770   81.19020    0.58990   -6.16890    1.05290    0.62820   -9999.25   -9999.25
 1597.00000    0.44380    0.22520    8.97510    0.04800    3.11890    2.33860  100.90220  138.20040   81.69700    0.67030   -5.05000    1.13820    0.64460   -9999.25   -9999.25
 1597.50000    0.45060    0.20350    8.95600    0.03540    3.03190    2.36600  100.13800  138.19470   83.12180    0.78900   -3.07050    1.08930    0.70760   -9999.25   -9999.25
 1598.00000    0.42790    0.20070    8.95550    0.02800    2.95340    2.36890   99.37370  138.23760   81.70250    0.80960   -2.07110    0.96740    0.77400   -9999.25   -9999.25
 1598.50000    0.36060    0.19820    8.97470    0.02320    2.88430    2.37150   98.53660  138.19480   75.14690    0.76660   -2.54990    0.85360    0.80340   -9999.25   -9999.25
 1599.00000    0.32500    0.19580    9.00870    0.01840    2.85720    2.37710   97.80440  138.16650   67.61220    0.73040   -5.18800    0.78160    0.83470   -9999.25   -9999.25
 1599.50000    0.31070    0.19580    9.09130    0.01360    2.85420    2.37240   97.53340  138.16370   61.63290    0.71350   -8.62500    0.85350    0.86720   -9999.25   -9999.25
 1600.00000    0.28850    0.20220    9.17960    0.00880    2.92680    2.36580   97.19730  138.15900   61.54630    0.70210  -12.06200    1.40190    0.86630   -9999.25   -9999.25
 1600.50000    0.28560    0.20410    9.18870    0.00770    3.06040    2.36230   96.54890  138.15760   67.43770    0.71640  -14.59910    2.12240    0.83630   -9999.25   -9999.25
 1601.00000    0.30980    0.20190    9.16020    0.00910    3.17830    2.36480   95.80400  138.18750   72.45380    0.74420  -15.01410    2.19570    0.81600   -9999.25   -9999.25
 1601.50000    0.33940    0.19750    9.11380    0.01110    3.25720    2.37120   95.03550  138.20950   75.66180    0.77300  -15.02330    1.53380    0.82560   -9999.25   -9999.25
 1602.00000    0.36710    0.19650    9.09810    0.01310    3.31460    2.37170   94.23730  138.18690   78.30280    0.80300  -11.54950    0.90940    0.83540   -9999.25   -9999.25
 1602.50000    0.36670    0.19880    9.08460    0.01500    3.34930    2.37130   93.41300  138.15040   80.71730    0.83410   -7.97580    0.64740    0.84410   -9999.25   -9999.25
 1603.00000    0.34080    0.19940    9.07110    0.01820    3.34380    2.37100   93.24270  138.15540   79.39620    0.86030   -5.53870    0.63190    0.87140   -9999.25   -9999.25
 1603.50000    0.31150    0.19930    9.05770    0.02120    3.33520    2.37120   93.93900  138.24330   73.67840    0.87580   -5.48460    0.68440    0.90510   -9999.25   -9999.25
 1604.00000    0.28170    0.19920    9.04510    0.02420    3.32650    2.37180   94.51470  138.25990   66.96540    0.89170   -8.16500    1.05830    0.94020   -9999.25   -9999.25
 1604.50000    0.26780    0.19930    9.04490    0.02700    3.31790    2.36900   94.49070  138.24670   63.27700    0.90770  -10.73570    2.40560    0.97670   -9999.25   -9999.25
 1605.00000    0.27540    0.20020    9.05820    0.02790    3.32140    2.36590   94.41370  138.20580   67.07390    0.93480  -11.79840    3.70610    0.99210   -9999.25   -9999.25
 1605.50000    0.28770    0.20120    9.16810    0.02760    3.32970    2.36490   94.54950  138.21380   74.44150    0.96700  -11.69740    3.36730    0.98700   -9999.25   -9999.25
 1606.00000    0.30710    0.20180    9.27240    0.02660    3.33560    2.36610   94.87310  138.21180   81.73920    0.99830   -8.41740    1.83900    0.98970   -9999.25   -9999.25
 1606.50000    0.32650    0.20120    9.31490    0.02550    3.33720    2.36690   95.05240  138.19960   84.94880    1.02710   -5.42840    0.89010    0.99250   -9999.25   -9999.25
 1607.00000    0.33240    0.20060    9.32100    0.02440    3.32490    2.36740   95.12610  138.20590   83.44080    1.05680   -2.81080    0.72380    0.98940   -9999.25   -9999.25
 1607.50000    0.32980    0.20000    9.29230    0.02440    3.32840    2.36830   95.19980  138.20280   79.92510    1.08470   -1.01550    0.81080    0.98500   -9999.25   -9999.25
 1608.00000    0.32490    0.19930    9.27510    0.02520    3.35600    2.37070   95.25080  138.16980   78.32260    1.05880   -0.88630    0.90080    0.98470   -9999.25   -9999.25
 1608.50000    0.32190    0.19940    9.26570    0.03040    3.38630    2.37020   95.25480  138.22150   78.63620    1.03270   -1.80470    0.99520    0.96930   -9999.25   -9999.25
 1609.00000    0.32140    0.20180    9.28170    0.04050    3.35740    2.36150   95.26210  138.20010   80.34600    1.02260   -2.72300    0.99010    0.94580   -9999.25   -9999.25
 1609.50000    0.33990    0.20990    9.35150    0.05530    3.20860    2.31900   95.31740  138.16200   82.10690    1.01640   -3.55650    0.98510    0.91760   -9999.25   -9999.25
