~Version ---------------------------------------------------
VERS.   2.0 : CWLS log ASCII Standard -VERSION 2.0
WRAP.    NO : One line per depth step
DLM . SPACE : Column Data Section Delimiter
~Well ------------------------------------------------------
STRT .F                1564.0 : START DEPTH
STOP .F               10564.0 : STOP DEPTH
STEP .F                   0.5 : STEP
NULL .               -9999.25 : NULL VALUE
COMP .                        : COMPANY
WELL .                        : WELL
FLD  .                        : FIELD
LOC  .                        : LOCATION
PROV .                        : PROVINCE
CNTY .                        : COUNTY
STAT .                        : STATE
CTRY .                        : COUNTRY
SRVC .                        : SERVICE COMPANY
DATE .                        : DATE
UWI  .                        : UNIQUE WELL ID
API  .                        : API NUMBER
SLAT .WGS84 6.036189877335097 : SURFACE LATITUDE
SLON .WGS84 3.144340008327603 : SURFACE LONGITUDE
DATUM.F                1708.0 : DEPTH DATUM ELEV
~Curve Information -----------------------------------------
DEPT.F     : 1 MEASURED DEPTH
NPOR.DEC   : NEUTRON POROSITY
DPHI.DEC   : DENSITY POROSITY
CALD.IN    : CALIPER FROM DENSITY LOG
DRHO.G/C3  : BULK DENSITY CORRECTION
PEF .B/E   : PHOTOELECTRIC FACTOR
RHOB.G/C3  : BULK DENSITY
DTCO.US/F  : DELTA-T COMPRESSIONAL
DTSM.US/F  : DELTA-T SHEAR
GRR .GAPI  : GAMMA RAY FROM RESISTIVITY LOG
ILD .OHMM  : INDUCTION DEEP RESISTIVITY
SPR .MV    : SPONTANEOUS POTENTIAL FROM RESISTIVITY LOG
SFLU.OHMM  : SHALLOW FOCUSED RESISTIVITY (UNAVERAGED)
ILM .OHMM  : INDUCTION MEDIUM RESISTIVITY
DT  .US/F  : DELTA-T (INTERVAL TRANSIT TIME)
DTL .US/F  : DELTA-T LONG SPACING
~Params ----------------------------------------------------
~Other -----------------------------------------------------
~ASCII -----------------------------------------------------
# ...
 2783.00000    0.38830    0.28310   11.48080    0.08840    3.32570    2.22330   67.48160  159.49070   62.27220    1.08420  -22.24850    3.88760    1.01340   -9999.25   -9999.25
 2783.50000    0.37810    0.25440   11.70530    0.08510    3.40880    2.27660   64.87280  150.75470   58.72530    1.12200  -21.25480    2.23270    1.01840   -9999.25   -9999.25
 2784.00000    0.39540    0.25050   11.74760    0.07920    3.32550    2.28080   64.85310  149.70470   60.41510    1.16400  -21.29640    2.24220    0.96690   -9999.25   -9999.25
 2784.50000    0.41980    0.25750   11.84460    0.07340    3.22700    2.27260   68.01410  160.79800   68.56070    1.19010  -21.85020  491.20330    0.88330   -9999.25   -9999.25
 2785.00000    0.43960    0.26870   12.08030    0.07960    3.13890    2.25030   72.04180  177.84350   78.02600    1.18670  -22.40410  969.62110    0.83600   -9999.25   -9999.25
 2785.50000    0.44830    0.28400   12.52080    0.07970    3.10600    2.22670   76.18580  188.89420   83.04180    1.15800  -22.44280  493.69750    0.81940   -9999.25   -9999.25
 2786.00000    0.44610    0.29750   13.72350    0.06690    3.08900    2.20430   73.72130  184.20840   82.77660    1.12630  -22.40870    3.11660    0.82040   -9999.25   -9999.25
 2786.50000    0.43780    0.30590   14.49090    0.05580    3.11090    2.19050   71.29130  174.19000   81.51600    1.10060  -22.21180    1.62270    0.84230   -9999.25   -9999.25
 2787.00000    0.42880    0.29380   14.04880    0.05920    3.21980    2.20710   70.07490  168.95130   79.67660    1.09390  -21.75550    2.50640    0.88480   -9999.25   -9999.25
 2787.50000    0.41150    0.27440   13.60670    0.06890    3.24870    2.24600   68.65550  163.71250   77.62440    1.08720  -21.46850  491.37700    0.92960   -9999.25   -9999.25
 2788.00000    0.40610    0.27860   12.85340    0.07000    3.14360    2.24110   66.33340  155.03990   75.55450    1.06810  -21.26000  982.18650    0.94460   -9999.25   -9999.25
 2788.50000    0.41900    0.29480   11.76540    0.07000    3.00610    2.19650   64.48660  148.60910   74.26450    1.03120  -21.05960  481.82220    0.89980   -9999.25   -9999.25
 2789.00000    0.44380    0.31100   11.59970    0.07480    2.86840    2.14240   64.27350  148.07500   73.96780    0.97460  -20.85930    2.51540    0.84320   -9999.25   -9999.25
 2789.50000    0.47050    0.36350   12.36800    0.07790    2.76220    2.08580   64.22750  148.03810   74.28020    0.88740  -20.65900    1.11120    0.77080   -9999.25   -9999.25
 2790.00000    0.50830    0.39490   13.26290    0.09010    2.67530    2.03220   64.28130  148.03110   74.51800    0.78890  -20.45860    1.40990    0.65080   -9999.25   -9999.25
 2790.50000    0.52180    0.41170   13.86820    0.09580    2.60660    2.00580   64.33510  148.01030   74.95290    0.71430  -20.49610    1.70260    0.54790   -9999.25   -9999.25
 2791.00000    0.51790    0.40950   14.18390    0.10130    2.59110    2.00880   64.30230  148.02040   76.16020    0.66190  -21.27000    1.51400    0.50190   -9999.25   -9999.25
 2791.50000    0.49770    0.39810   15.39290    0.09350    2.60590    2.02780   64.26750  148.06890   78.01970    0.63950  -22.04390    1.21050    0.49070   -9999.25   -9999.25
 2792.00000    0.45420    0.36570   16.22390    0.08650    2.67330    2.07310   64.23270  148.07990   79.21860    0.64200  -22.49860    1.12770    0.50330   -9999.25   -9999.25
 2792.50000    0.39180    0.32680   17.01980    0.08110    2.80490    2.14040   64.19800  147.97460   79.46370    0.65490  -22.69530    1.20750    0.54390   -9999.25   -9999.25
 2793.00000    0.36700    0.29850   16.92140    0.07810    2.95970    2.21040   64.17380  147.98610   78.33160    0.70260  -22.54140    1.40880    0.61660   -9999.25   -9999.25
 2793.50000    0.35340    0.26240   15.55080    0.07620    3.09450    2.26310   64.16760  148.04010   74.80120    0.75550  -22.12200    1.44580    0.72000   -9999.25   -9999.25
 2794.00000    0.34690    0.23360   13.58110    0.07470    3.22930    2.31370   64.16140  148.07150   71.88250    0.88650  -21.67830    1.40360    0.83390   -9999.25   -9999.25
 2794.50000    0.34630    0.20680   11.61140    0.07780    3.36410    2.36190   64.13890  147.78640   71.52090    1.04020  -21.23460    1.38040    0.95850   -9999.25   -9999.25
 2795.00000    0.33590    0.18500   11.40230    0.08080    3.41340    2.38790   63.38590  144.82310   71.82420    1.22060  -20.75160    1.40420    1.10170   -9999.25   -9999.25
 2795.50000    0.31370    0.17910   11.23220    0.08190    3.38940    2.40660   61.55160  138.61660   70.17400    1.47230  -20.02440    1.47870    1.21700   -9999.25   -9999.25
 2796.00000    0.31060    0.20640   10.95120    0.08090    3.29930    2.36760   61.11890  136.01000   66.88340    1.51280  -19.32060    1.62870    1.27100   -9999.25   -9999.25
 2796.50000    0.32990    0.24490   10.95220    0.07850    3.20930    2.31440   61.57950  138.87820   65.41460    1.48880  -19.26460    1.78710    1.28470   -9999.25   -9999.25
 2797.00000    0.36530    0.26450   11.03440    0.07330    3.15510    2.26010   62.01600  140.35480   67.38700    1.42580  -19.24200    2.05840    1.21360   -9999.25   -9999.25
 2797.50000    0.39900    0.28220   11.51190    0.06930    3.06620    2.22950   62.39560  141.42120   70.43130    1.37960  -19.21950    2.35720    1.10450   -9999.25   -9999.25
 2798.00000    0.42280    0.29430   12.36470    0.07350    3.02350    2.20050   64.10790  147.59180   71.03840    1.31610  -19.19690    2.34780    1.04700   -9999.25   -9999.25
 2798.50000    0.43670    0.29280   12.39570    0.09110    2.98070    2.20520   66.58550  157.23110   70.26920    1.22970  -19.17440    2.36780    1.03210   -9999.25   -9999.25
 2799.00000    0.43160    0.28390   11.70510    0.10630    2.94070    2.22500   69.06320  163.75050   69.47390    1.13790  -19.18140  497.88740    1.00720   -9999.25   -9999.25
 2799.50000    0.45360    0.27980   11.64660    0.11000    2.94120    2.23080   71.54090  172.87750   70.04700    1.05860  -19.20130  996.52720    0.94210   -9999.25   -9999.25
 2800.00000    0.48900    0.29110   12.10180    0.11040    2.94650    2.21700   73.99530  184.32140   73.19100    1.02210  -19.27280  546.02040    0.89210   -9999.25   -9999.25
 2800.50000    0.46250    0.28540   12.02290    0.11100    2.96710    2.21570   74.39080  184.73690   76.27230    1.00450  -19.36890   19.85190    0.87230   -9999.25   -9999.25
 2801.00000    0.43190    0.26440   11.72680    0.11490    2.99260    2.25510   73.18050  179.55320   77.36310    1.00190  -19.46510    3.92410    0.90800   -9999.25   -9999.25
 2801.50000    0.44100    0.24680   11.49100    0.11800    3.03220    2.28880   72.37140  176.63400   74.91370    1.00740  -19.93510    3.11280    0.93440   -9999.25   -9999.25
 2802.00000    0.47140    0.21620   10.98530    0.11340    3.14580    2.32300   71.74030  172.49040   72.31040    1.02560  -20.57720    2.45940    0.92700   -9999.25   -9999.25
 2802.50000    0.35610    0.18760   10.98190    0.09710    3.25940    2.37180   67.57690  157.81090   71.23500    1.15720  -20.65560    2.03510    0.92670   -9999.25   -9999.25
 2803.00000    0.20480    0.15880   11.19110    0.07240    3.49730    2.45070   59.55320  131.16820   68.25870    1.35850  -19.90190    2.37820    1.13890   -9999.25   -9999.25
 2803.50000    0.11290    0.08450   11.04290    0.05500    4.04380    2.52970   53.07800  110.58910   57.59410    1.93460  -19.42570    2.98350    1.55910   -9999.25   -9999.25
 2804.00000    0.05110   -0.00850   10.73750    0.04840    4.72110    2.67990   52.00560  106.31310   39.92250    2.69550  -19.06650    4.60660    2.23710   -9999.25   -9999.25
 2804.50000   -0.01080   -0.08370   10.68180    0.05030    4.84070    2.82590   52.91420  107.83950   23.59670    3.66620  -18.70740   11.84100    3.12450   -9999.25   -9999.25
 2805.00000   -0.02110   -0.11670   10.67970    0.05170    4.73560    2.90570   52.60050  107.73170   15.95170    4.98640  -18.51070   59.04340    4.40240   -9999.25   -9999.25
 2805.50000   -0.01670   -0.06200   10.66790    0.04360    4.35120    2.85390   50.74680  103.66350   17.53790   11.32250  -18.55360  501.02190    6.51380   -9999.25   -9999.25
