~Version ---------------------------------------------------
VERS.   2.0 : CWLS log ASCII Standard -VERSION 2.0
WRAP.    NO : One line per depth step
DLM . SPACE : Column Data Section Delimiter
~Well ------------------------------------------------------
STRT .F                1564.0 : START DEPTH
STOP .F               10564.0 : STOP DEPTH
STEP .F                   0.5 : STEP
NULL .               -9999.25 : NULL VALUE
COMP .                        : COMPANY
WELL .                        : WELL
FLD  .                        : FIELD
LOC  .                        : LOCATION
PROV .                        : PROVINCE
CNTY .                        : COUNTY
STAT .                        : STATE
CTRY .                        : COUNTRY
SRVC .                        : SERVICE COMPANY
DATE .                        : DATE
UWI  .                        : UNIQUE WELL ID
API  .                        : API NUMBER
SLAT .WGS84 6.036189877335097 : SURFACE LATITUDE
SLON .WGS84 3.144340008327603 : SURFACE LONGITUDE
DATUM.F                1708.0 : DEPTH DATUM ELEV
~Curve Information -----------------------------------------
DEPT.F     : 1 MEASURED DEPTH
NPOR.DEC   : NEUTRON POROSITY
DPHI.DEC   : DENSITY POROSITY
CALD.IN    : CALIPER FROM DENSITY LOG
DRHO.G/C3  : BULK DENSITY CORRECTION
PEF .B/E   : PHOTOELECTRIC FACTOR
RHOB.G/C3  : BULK DENSITY
DTCO.US/F  : DELTA-T COMPRESSIONAL
DTSM.US/F  : DELTA-T SHEAR
GRR .GAPI  : GAMMA RAY FROM RESISTIVITY LOG
ILD .OHMM  : INDUCTION DEEP RESISTIVITY
SPR .MV    : SPONTANEOUS POTENTIAL FROM RESISTIVITY LOG
SFLU.OHMM  : SHALLOW FOCUSED RESISTIVITY (UNAVERAGED)
ILM .OHMM  : INDUCTION MEDIUM RESISTIVITY
DT  .US/F  : DELTA-T (INTERVAL TRANSIT TIME)
DTL .US/F  : DELTA-T LONG SPACING
~Params ----------------------------------------------------
~Other -----------------------------------------------------
~ASCII -----------------------------------------------------
# ...
 3381.00000    0.02660   -0.11580    8.42440    0.01950    5.00160    2.90720   51.10940   95.14710   10.86470   49.05490  -43.81970 1473.78830   48.63360   -9999.25   -9999.25
 3381.50000    0.03610   -0.10030    8.40120    0.01320    4.73790    2.87920   51.55580   95.24350   14.31630   55.17810  -44.58180 1319.96900   57.81520   -9999.25   -9999.25
 3382.00000    0.04900   -0.08480    8.35120    0.00760    4.54910    2.84070   52.21830   95.37540   19.51150   47.22530  -45.13080  573.42140   57.12100   -9999.25   -9999.25
 3382.50000    0.06560   -0.06060    8.27850    0.00200    4.30780    2.81520   51.76110   95.38960   24.24000   27.68250  -45.67970  139.78260   35.04150   -9999.25   -9999.25
 3383.00000    0.08290   -0.03750    8.30630   -0.00170    4.01400    2.77180   50.92220   95.15960   27.69700   16.82770  -46.22860   45.63700   20.68480   -9999.25   -9999.25
 3383.50000    0.11520    0.03560    8.34080   -0.00080    3.76420    2.66880   50.63600   94.96130   31.29440   10.22920  -46.36890   30.29820   12.58830   -9999.25   -9999.25
 3384.00000    0.16470    0.11740    8.43630   -0.00220    3.62900    2.48970   55.09150  101.24920   38.01010    5.48240  -45.95020   27.39380    7.68350   -9999.25   -9999.25
 3384.50000    0.20250    0.18030    8.62530   -0.00390    3.49610    2.39830   61.10430  108.84560   47.09690    4.31190  -45.53150   19.87500    4.64430   -9999.25   -9999.25
 3385.00000    0.18910    0.18590    8.88970   -0.00540    3.41280    2.38790   65.92250  114.80970   51.61110    4.21030  -45.23070   11.79460    2.86830   -9999.25   -9999.25
 3385.50000    0.14800    0.16680    9.08210   -0.00370    3.56750    2.40720   64.03500  113.30160   44.83390    4.25510  -45.07970    6.27380    3.02950   -9999.25   -9999.25
 3386.00000    0.06650    0.10610    9.01440    0.00130    3.99720    2.56570   57.82570  106.81180   30.38420    4.34420  -45.14350    6.20810    3.85520   -9999.25   -9999.25
 3386.50000    0.02070    0.00840    8.59960    0.00890    4.66110    2.74790   55.36660  100.50990   17.39770    4.46130  -45.53230   13.85580    5.31690   -9999.25   -9999.25
 3387.00000    0.00200   -0.08700    8.58570    0.01630    4.83870    2.87600   56.46400   97.85480   10.60280    4.89940  -45.74820   56.60300    6.33230   -9999.25   -9999.25
 3387.50000   -0.00170   -0.13410    8.57180    0.01530    4.95150    2.93170   55.46370   96.45040    9.21420    6.13830  -46.04080  326.26920    7.53670   -9999.25   -9999.25
 3388.00000    0.00130   -0.14360    8.62470    0.01140    5.01940    2.95780   51.66500   95.04590    9.54480    8.43290  -46.39090  831.42020   13.90640   -9999.25   -9999.25
 3388.50000    0.00750   -0.14200    8.63650    0.00810    4.88860    2.95160   49.22190   95.51590   10.52340   18.09610  -46.73850 1258.29640   25.40500   -9999.25   -9999.25
 3389.00000    0.01380   -0.13870    8.64490    0.00510    4.86340    2.94530   49.44830   96.67940   11.91450   40.65160  -47.07080 1043.54130   34.75300   -9999.25   -9999.25
 3389.50000    0.02330   -0.13220    8.64730    0.00220    4.99450    2.93450   50.06130   97.91530   13.73550   63.64990  -47.23140  542.00200   45.65580   -9999.25   -9999.25
 3390.00000    0.02890   -0.12630    8.64960    0.00130    4.88910    2.92300   51.15710   96.74590   14.37860   56.60870  -47.63660  244.81960   45.95000   -9999.25   -9999.25
 3390.50000    0.03050   -0.12280    8.65200    0.00240    4.83020    2.91840   52.18270   96.15850   15.20570   45.22370  -48.19540   97.44900   46.20020   -9999.25   -9999.25
 3391.00000    0.02640   -0.12300    8.65440    0.00460    4.81990    2.91960   51.66070   96.73090   13.84670   43.79940  -49.20570   69.01780   48.45170   -9999.25   -9999.25
 3391.50000    0.02020   -0.12940    8.65680    0.00610    4.79950    2.92730   50.97400   97.24560   12.00980   55.61140  -50.54800  112.98430   76.61850   -9999.25   -9999.25
 3392.00000    0.00930   -0.13370    8.66830    0.00670    4.74860    2.93540   50.09020   97.31790   10.40830   68.79270  -51.71000  577.76970  252.83920   -9999.25   -9999.25
 3392.50000    0.00620   -0.13320    8.69630    0.00610    4.72020    2.93600   49.20650   96.76610    9.55760   59.26280  -52.83150 1547.05190  947.63620   -9999.25   -9999.25
 3393.00000    0.00660   -0.12420    8.71280    0.00450    4.67410    2.92320   47.51230   96.79840    9.53650   40.55050  -53.73900 1885.73330 1174.59230   -9999.25   -9999.25
 3393.50000    0.01400   -0.01380    8.73210    0.00290    4.34240    2.84280   46.97410   98.55130   10.38400   14.85710  -54.64640 1340.28090  426.01490   -9999.25   -9999.25
 3394.00000    0.04670    0.09650    8.95240    0.00010    3.94900    2.54520   48.69350  102.70370   14.27410    8.35910  -55.55390  672.63400   22.65950   -9999.25   -9999.25
 3394.50000    0.10630    0.20690    9.18750   -0.00390    3.55870    2.38120   55.16160  118.89810   24.70160    5.44470  -55.87360  174.18000    7.45620   -9999.25   -9999.25
 3395.00000    0.16090    0.25020    9.49980   -0.00730    3.16840    2.27300   63.50760  139.34690   38.09800    3.56550  -55.98190   33.31650    3.03460   -9999.25   -9999.25
 3395.50000    0.18200    0.27650    9.90610   -0.00680    2.96620    2.23390   68.09540  151.99010   46.87670    3.41530  -55.73300    8.05820    2.24380   -9999.25   -9999.25
 3396.00000    0.17690    0.25500    9.85160    0.00020    3.08120    2.32060   65.40050  142.39290   45.89380    3.52130  -55.11630    4.67330    2.62310   -9999.25   -9999.25
 3396.50000    0.09530    0.14470    9.21520    0.01050    3.49620    2.55070   60.20920  126.01050   35.06180    3.54190  -54.41110    4.64680    3.27180   -9999.25   -9999.25
 3397.00000    0.04160   -0.02470    8.90630    0.01660    4.39690    2.68400   58.04220  115.03640   23.70910    3.45290  -53.80620   10.39790    4.12140   -9999.25   -9999.25
 3397.50000    0.01190   -0.07330    8.79110    0.01600    5.14790    2.84750   57.71990  105.68690   15.77820    3.50220  -53.22680   49.02040    5.03000   -9999.25   -9999.25
 3398.00000    0.00180   -0.14710    8.77720    0.01440    5.73840    2.92680   56.74810   96.63430   11.32540    4.93420  -52.71310  209.42740    5.93090   -9999.25   -9999.25
 3398.50000    0.00370   -0.15060    8.78190    0.01280    5.49260    2.96410   53.01510   90.57070   10.11990    7.24910  -52.19940  452.27380    8.77020   -9999.25   -9999.25
 3399.00000    0.00820   -0.13060    8.80300    0.01540    4.88520    2.94740   49.91500   90.47000   11.54420   10.29590  -51.68570  554.56140   13.08460   -9999.25   -9999.25
 3399.50000    0.02630   -0.10950    8.89910    0.01810    4.45310    2.88290   50.83030   90.36940   16.18260   11.34960  -51.36470  477.20940   12.96830   -9999.25   -9999.25
 3400.00000    0.06010   -0.04850    9.01820    0.02030    4.02100    2.84830   53.56390   90.64340   23.94550   10.17070  -51.26220  130.13660   10.06480   -9999.25   -9999.25
 3400.50000    0.10450   -0.00940    9.08070    0.02230    3.80770    2.74730   56.73100   90.73900   35.56070    8.17150  -51.15980   37.28310    7.37990   -9999.25   -9999.25
 3401.00000    0.13400   -0.00290    9.13590    0.02430    3.79470    2.71540   60.16300   90.50390   42.71260    6.59140  -51.39350   11.04450    5.76670   -9999.25   -9999.25
 3401.50000    0.15860    0.00680    9.15710    0.03740    3.80930    2.69540   63.09670   91.93360   41.85490    5.31690  -51.73670    6.26570    4.79980   -9999.25   -9999.25
 3402.00000    0.17540    0.04160    9.14280    0.04240    3.80950    2.65970   66.19640   94.42730   38.37770    4.50990  -52.18600    7.28710    3.99500   -9999.25   -9999.25
 3402.50000    0.18020    0.06090    9.18170    0.02750    3.76140    2.60590   68.28780   96.92370   37.72210    3.74540  -53.61230    8.41790    3.42970   -9999.25   -9999.25
 3403.00000    0.17650    0.07250    9.17660    0.01380    3.60070    2.58200   67.71150   99.27640   40.39470    3.12280  -55.19730    7.54390    3.20370   -9999.25   -9999.25
 3403.50000    0.18700    0.08280    9.09380    0.00870    3.46260    2.56680   67.44140  102.68660   40.16530    2.97970  -56.88870    5.22650    2.99220   -9999.25   -9999.25
