~Version ---------------------------------------------------
VERS.   2.0 : CWLS log ASCII Standard -VERSION 2.0
WRAP.    NO : One line per depth step
DLM . SPACE : Column Data Section Delimiter
~Well ------------------------------------------------------
STRT .F                1564.0 : START DEPTH
STOP .F               10564.0 : STOP DEPTH
STEP .F                   0.5 : STEP
NULL .               -9999.25 : NULL VALUE
COMP .                        : COMPANY
WELL .                        : WELL
FLD  .                        : FIELD
LOC  .                        : LOCATION
PROV .                        : PROVINCE
CNTY .                        : COUNTY
STAT .                        : STATE
CTRY .                        : COUNTRY
SRVC .                        : SERVICE COMPANY
DATE .                        : DATE
UWI  .                        : UNIQUE WELL ID
API  .                        : API NUMBER
SLAT .WGS84 6.036189877335097 : SURFACE LATITUDE
SLON .WGS84 3.144340008327603 : SURFACE LONGITUDE
DATUM.F                1708.0 : DEPTH DATUM ELEV
~Curve Information -----------------------------------------
DEPT.F     : 1 MEASURED DEPTH
NPOR.DEC   : NEUTRON POROSITY
DPHI.DEC   : DENSITY POROSITY
CALD.IN    : CALIPER FROM DENSITY LOG
DRHO.G/C3  : BULK DENSITY CORRECTION
PEF .B/E   : PHOTOELECTRIC FACTOR
RHOB.G/C3  : BULK DENSITY
DTCO.US/F  : DELTA-T COMPRESSIONAL
DTSM.US/F  : DELTA-T SHEAR
GRR .GAPI  : GAMMA RAY FROM RESISTIVITY LOG
ILD .OHMM  : INDUCTION DEEP RESISTIVITY
SPR .MV    : SPONTANEOUS POTENTIAL FROM RESISTIVITY LOG
SFLU.OHMM  : SHALLOW FOCUSED RESISTIVITY (UNAVERAGED)
ILM .OHMM  : INDUCTION MEDIUM RESISTIVITY
DT  .US/F  : DELTA-T (INTERVAL TRANSIT TIME)
DTL .US/F  : DELTA-T LONG SPACING
~Params ----------------------------------------------------
~Other -----------------------------------------------------
~ASCII -----------------------------------------------------
# ...
 5152.00000    0.29350    0.39050   10.39630    0.07390    2.40480    2.04360   68.28660  106.86580   75.80580    4.44600  -35.15890    4.70670    3.54200   -9999.25   -9999.25
 5152.50000    0.38520    0.43180   10.47770    0.07530    2.38120    1.95510   62.86700  100.70980   81.67980    5.08300  -32.23360    4.46170    3.89630   -9999.25   -9999.25
 5153.00000    0.41980    0.47150   10.57740    0.07680    2.34120    1.91540   63.53270   99.11800   84.10410    5.38510  -28.57710    4.61090    4.43000   -9999.25   -9999.25
 5153.50000    0.44680    0.48850   10.67240    0.07870    2.27900    1.87800   65.16900  103.54100   85.68840    5.24490  -25.53710    5.31730    4.37810   -9999.25   -9999.25
 5154.00000    0.47540    0.50040   11.19030    0.08100    2.21150    1.84860   69.05660  113.35320   87.22490    4.81320  -24.27180    5.32790    4.00300   -9999.25   -9999.25
 5154.50000    0.52150    0.50080   12.13340    0.08500    2.14310    1.85450   74.66780  124.87190   88.41170    4.50360  -23.34870    4.74010    3.60500   -9999.25   -9999.25
 5155.00000    0.52530    0.47650   12.76590    0.08910    2.10740    1.88150   78.86110  131.83820   88.72190    4.29190  -23.44560    3.98640    3.31240   -9999.25   -9999.25
 5155.50000    0.44680    0.41100   12.60360    0.09180    2.18080    2.00530   76.64140  130.44830   87.61190    4.26210  -24.36760    3.36930    3.28620   -9999.25   -9999.25
 5156.00000    0.31820    0.34550   11.27400    0.08450    2.41210    2.07050   72.30910  125.06630   81.82700    4.26230  -26.11520    2.90130    3.62320   -9999.25   -9999.25
 5156.50000    0.27320    0.27270    9.94720    0.07530    2.64340    2.18450   67.52640  118.35350   70.72110    4.43870  -28.12330    2.75720    4.22130   -9999.25   -9999.25
 5157.00000    0.12920    0.19990    9.14880    0.07180    2.97020    2.36310   65.31860  116.73700   54.58830    4.62660  -31.16440    3.18820    5.00510   -9999.25   -9999.25
 5157.50000    0.08100    0.13490    8.90560    0.07110    3.07490    2.52780   63.17480  114.64250   40.29640    4.91350  -33.69020    5.95960    5.92260   -9999.25   -9999.25
 5158.00000    0.06190    0.07760    8.79190    0.05700    2.98780    2.59560   59.19310  109.68640   34.62740    5.37370  -34.36470   10.16970    6.36820   -9999.25   -9999.25
 5158.50000    0.05830    0.06680    8.76740    0.04320    2.81670    2.59470   55.06650  104.32200   33.89160    5.91240  -35.03910   15.21860    6.73960   -9999.25   -9999.25
 5159.00000    0.06210    0.08440    8.76860    0.03550    2.67030    2.56560   55.76430  101.47990   34.38100    6.50510  -35.71360   18.50200    6.97350   -9999.25   -9999.25
 5159.50000    0.07880    0.10270    8.80850    0.02960    2.53670    2.49530   54.00780   98.55110   34.98710    7.00620  -36.05720   21.67100    7.00120   -9999.25   -9999.25
 5160.00000    0.10570    0.17090    8.97050    0.02420    2.47180    2.40910   51.38990   97.64990   38.41970    6.64070  -36.42070   24.29820    6.71310   -9999.25   -9999.25
 5160.50000    0.13720    0.22430    9.23130    0.02420    2.44170    2.32180   53.38830  101.01560   49.06160    6.08840  -36.47380   20.59580    5.90770   -9999.25   -9999.25
 5161.00000    0.20490    0.25130    9.36550    0.02420    2.44080    2.27180   57.81840  105.02320   63.26540    5.73560  -35.96950   11.14640    5.19890   -9999.25   -9999.25
 5161.50000    0.26540    0.28100    9.69450    0.02200    2.46760    2.21100   60.03440  107.71520   76.48620    5.48900  -35.36210    5.45840    4.82510   -9999.25   -9999.25
 5162.00000    0.29850    0.35710    9.92070    0.01720    2.52570    2.10170   65.37560  113.97590   84.72630    5.30410  -33.97160    4.22340    4.80030   -9999.25   -9999.25
 5162.50000    0.35230    0.39620    9.98610    0.01000    2.61640    2.04160   76.63010  128.17400   80.62590    5.28000  -30.38130    4.55860    4.96690   -9999.25   -9999.25
 5163.00000    0.25330    0.37980   10.00750    0.00860    2.73000    2.05020   83.37900  138.79190   69.25710    5.34910  -26.45500    5.16190    5.30180   -9999.25   -9999.25
 5163.50000    0.11960    0.36350    9.98810    0.00830    3.00680    2.08270   81.51870  139.13080   54.21430    6.09710  -21.82100    6.28530    6.95740   -9999.25   -9999.25
 5164.00000    0.07260    0.30610    9.67760    0.02640    3.37550    2.20750   74.08990  128.06880   40.68410    7.14640  -19.04300    8.99200    9.28300   -9999.25   -9999.25
 5164.50000    0.04270    0.22270    8.94340    0.04150    3.84170    2.42350   58.89860  118.66900   34.60840    8.37630  -17.30390   16.81610   12.38590   -9999.25   -9999.25
 5165.00000    0.02670    0.05810    8.85190    0.05340    3.81520    2.58900   52.57390  109.59190   34.18580    9.90750  -17.89100   29.62990   14.99600   -9999.25   -9999.25
 5165.50000    0.03770    0.02090    8.83880    0.05010    3.71130    2.64400   52.35140  110.15040   36.17550   11.89860  -20.25390   44.03340   15.77760   -9999.25   -9999.25
 5166.00000    0.05200    0.01840    8.84240    0.04040    3.83790    2.67690   54.97660  110.53130   41.24370   16.55260  -21.51250   41.84510   17.20360   -9999.25   -9999.25
 5166.50000    0.05420    0.01480    8.84600    0.02920    4.13850    2.68500   56.40420  108.33010   47.49730   21.67030  -22.94770   33.86210   19.53660   -9999.25   -9999.25
 5167.00000    0.05410    0.01460    8.83970    0.01990    4.33540    2.68500   56.99570  107.74650   48.99650   26.81720  -24.31280   29.17270   23.00910   -9999.25   -9999.25
 5167.50000    0.05210    0.01590    8.81910    0.01630    4.53220    2.68320   56.51070  108.02260   45.52510   29.32050  -25.87650   29.74280   28.90130   -9999.25   -9999.25
 5168.00000    0.04740    0.02100    8.79860    0.01290    4.69330    2.67630   54.64360  106.17250   38.89240   32.05750  -28.69140   38.68180   29.03320   -9999.25   -9999.25
 5168.50000    0.04300    0.02770    8.77800    0.01290    4.66810    2.66510   52.48790  104.89010   33.28940   34.13480  -31.90980   56.11430   29.17640   -9999.25   -9999.25
 5169.00000    0.04220    0.03240    8.75740    0.01310    4.60410    2.65490   50.43310  104.76480   29.59380   35.49510  -33.92830   84.96780   29.89940   -9999.25   -9999.25
 5169.50000    0.04380    0.03530    8.77830    0.01380    4.46430    2.64870   49.39910  104.66570   27.30940   36.90970  -35.94680  108.64440   32.23470   -9999.25   -9999.25
 5170.00000    0.03980    0.03580    8.81260    0.02560    4.28780    2.64910   48.97470  103.86560   26.09490   38.32380  -37.32740  119.15620   37.71160   -9999.25   -9999.25
 5170.50000    0.03610    0.03140    8.84980    0.04420    4.03650    2.65470   49.03470  102.94560   25.86600   38.93490  -37.62400  115.22290   44.11910   -9999.25   -9999.25
 5171.00000    0.03580    0.02640    8.92100    0.06020    3.66690    2.66140   49.46920  103.40830   27.79130   39.40990  -37.14830  107.60990   44.79980   -9999.25   -9999.25
 5171.50000    0.04510    0.02730    8.99220    0.07820    3.20380    2.66460   50.85000  105.28770   33.08090   34.27050  -34.99940   90.58020   40.18430   -9999.25   -9999.25
 5172.00000    0.06090    0.06870    9.09150    0.09340    2.74080    2.53100   52.40360  106.82670   40.12290   21.55200  -32.89270   57.44540   30.03840   -9999.25   -9999.25
 5172.50000    0.09270    0.15960    9.22370    0.10190    2.43020    2.33700   50.81060  106.20590   46.31940   13.72220  -30.96390   33.30630   18.46750   -9999.25   -9999.25
 5173.00000    0.18050    0.25830    9.56040    0.10960    2.39470    2.24760   49.67860  103.40070   53.35820   10.76270  -29.29320   17.18150   11.25710   -9999.25   -9999.25
 5173.50000    0.27060    0.33440   10.82710    0.12290    2.34430    2.14350   52.90030  102.22580   65.22600    9.02520  -26.70280   10.19330    6.94090   -9999.25   -9999.25
 5174.00000    0.48290    0.39000   11.62270    0.14340    2.29630    2.05820   64.32790  120.07970   75.80670    7.92310  -22.49920    6.83400    5.37500   -9999.25   -9999.25
 5174.50000    0.54730    0.40020   12.09850    0.17480    2.27330    2.03170   79.98580  142.74240   81.74390    6.95560  -17.56700    5.18720    4.79680   -9999.25   -9999.25
