~Version ---------------------------------------------------
VERS.   2.0 : CWLS log ASCII Standard -VERSION 2.0
WRAP.    NO : One line per depth step
DLM . SPACE : Column Data Section Delimiter
~Well ------------------------------------------------------
STRT .F                1564.0 : START DEPTH
STOP .F               10564.0 : STOP DEPTH
STEP .F                   0.5 : STEP
NULL .               -9999.25 : NULL VALUE
COMP .                        : COMPANY
WELL .                        : WELL
FLD  .                        : FIELD
LOC  .                        : LOCATION
PROV .                        : PROVINCE
CNTY .                        : COUNTY
STAT .                        : STATE
CTRY .                        : COUNTRY
SRVC .                        : SERVICE COMPANY
DATE .                        : DATE
UWI  .                        : UNIQUE WELL ID
API  .                        : API NUMBER
SLAT .WGS84 6.036189877335097 : SURFACE LATITUDE
SLON .WGS84 3.144340008327603 : SURFACE LONGITUDE
DATUM.F                1708.0 : DEPTH DATUM ELEV
~Curve Information -----------------------------------------
DEPT.F     : 1 MEASURED DEPTH
NPOR.DEC   : NEUTRON POROSITY
DPHI.DEC   : DENSITY POROSITY
CALD.IN    : CALIPER FROM DENSITY LOG
DRHO.G/C3  : BULK DENSITY CORRECTION
PEF .B/E   : PHOTOELECTRIC FACTOR
RHOB.G/C3  : BULK DENSITY
DTCO.US/F  : DELTA-T COMPRESSIONAL
DTSM.US/F  : DELTA-T SHEAR
GRR .GAPI  : GAMMA RAY FROM RESISTIVITY LOG
ILD .OHMM  : INDUCTION DEEP RESISTIVITY
SPR .MV    : SPONTANEOUS POTENTIAL FROM RESISTIVITY LOG
SFLU.OHMM  : SHALLOW FOCUSED RESISTIVITY (UNAVERAGED)
ILM .OHMM  : INDUCTION MEDIUM RESISTIVITY
DT  .US/F  : DELTA-T (INTERVAL TRANSIT TIME)
DTL .US/F  : DELTA-T LONG SPACING
~Params ----------------------------------------------------
~Other -----------------------------------------------------
~ASCII -----------------------------------------------------
# ...
 10545.00000   -9999.25    0.00100    6.02240   -0.00450   -9999.25    2.70710   -9999.25   -9999.25   -9999.25    7.37790  -10.81420   11.46190    7.24150   62.40270   63.26050
 10545.50000   -9999.25    0.00380    6.02110   -0.00670   -9999.25    2.69960   -9999.25   -9999.25   -9999.25    7.50830  -11.18240    9.68440    7.50750   62.60300   63.79090
 10546.00000   -9999.25    0.00700    6.01980   -0.00880   -9999.25    2.69860   -9999.25   -9999.25   -9999.25    7.65440  -11.56640    9.79310    7.72070   63.31580   65.50860
 10546.50000   -9999.25    0.00750    6.01850   -0.01090   -9999.25    2.69690   -9999.25   -9999.25   -9999.25    7.63280  -11.95040   10.44870    7.64070   64.20040   66.56870
 10547.00000   -9999.25    0.00810    6.01720   -0.01280   -9999.25    2.69650   -9999.25   -9999.25   -9999.25    7.52320  -12.60190   10.00300    7.50700   64.31470   66.33450
 10547.50000   -9999.25    0.00860    6.01590   -0.01460   -9999.25    2.69580   -9999.25   -9999.25   -9999.25    7.40130  -13.62900    9.36700    7.37560   64.14800   65.32160
 10548.00000   -9999.25    0.01060    6.01460   -0.01520   -9999.25    2.68850   -9999.25   -9999.25   -9999.25    7.27710  -14.63980    9.28490    7.25340   64.03310   64.93520
 10548.50000   -9999.25    0.01530    6.01510   -0.01520   -9999.25    2.68250   -9999.25   -9999.25   -9999.25    7.17310  -15.43160    9.46720    7.13490   64.12890   64.93520
 10549.00000   -9999.25    0.01660    6.01630   -0.01480   -9999.25    2.68090   -9999.25   -9999.25   -9999.25    7.08540  -16.15310    9.59500    7.01830   64.88990   65.20530
 10549.50000   -9999.25    0.01430    6.01750   -0.01210   -9999.25    2.68450   -9999.25   -9999.25   -9999.25    6.99810  -17.00700    9.17660    6.90360   65.64420   65.80390
 10550.00000   -9999.25    0.01010    6.01880   -0.00940   -9999.25    2.69180   -9999.25   -9999.25   -9999.25    6.90210  -17.66210    8.69360    6.80020   65.91660   66.24320
 10550.50000   -9999.25    0.00710    6.02000   -0.00660   -9999.25    2.69570   -9999.25   -9999.25   -9999.25    6.83410  -18.30530    8.35810    6.72530   65.88410   66.27090
 10551.00000   -9999.25    0.00720    6.02120   -0.00390   -9999.25    2.69570   -9999.25   -9999.25   -9999.25    6.77160  -18.86360    8.41440    6.69310   65.89350   66.29670
 10551.50000   -9999.25    0.00720    6.02240   -0.00120   -9999.25    2.69570   -9999.25   -9999.25   -9999.25    6.72770  -19.23570    8.43720    6.63250   65.90850   66.46500
 10552.00000   -9999.25    0.00680    6.02370    0.00080   -9999.25    2.69850   -9999.25   -9999.25   -9999.25    6.71690  -19.29780    8.21870    6.59820   66.04970   66.83370
 10552.50000   -9999.25    0.00310    6.02490    0.00050   -9999.25    2.70510   -9999.25   -9999.25   -9999.25    6.72470  -19.27720    7.96990    6.64560   66.23210   67.20350
 10553.00000   -9999.25   -0.00300    6.02610   -0.00100   -9999.25    2.71340   -9999.25   -9999.25   -9999.25    6.74410  -19.25650    8.07280    6.71110   66.29840   67.67740
 10553.50000   -9999.25   -0.00730    6.02730   -0.00260   -9999.25    2.72230   -9999.25   -9999.25   -9999.25    6.80120  -19.23590    8.30530    6.77320   66.21960   67.60930
 10554.00000   -9999.25   -0.00730    6.02860   -0.00410   -9999.25    2.72330   -9999.25   -9999.25   -9999.25    6.87730  -19.21940    8.47130    6.86650   65.92740   67.00820
 10554.50000   -9999.25   -0.00150    6.02980   -0.00560   -9999.25    2.71850   -9999.25   -9999.25   -9999.25    6.97800  -19.24240    8.65940    7.15320   65.80320   66.40720
 10555.00000   -9999.25    0.00510    6.03100   -0.00670   -9999.25    2.70170   -9999.25   -9999.25   -9999.25    7.00030  -18.82560    9.21810    7.33300   65.67890   66.31390
 10555.50000   -9999.25    0.01050    6.03220   -0.00630   -9999.25    2.69190   -9999.25   -9999.25   -9999.25    6.99350  -18.58120    9.93160    7.40100   65.51360   66.82970
 10556.00000   -9999.25    0.01200    6.03350   -0.00590   -9999.25    2.68870   -9999.25   -9999.25   -9999.25    6.99520  -18.56270   10.10340    7.25260   65.50000   66.82720
 10556.50000   -9999.25    0.01310    6.03470   -0.00540   -9999.25    2.68680   -9999.25   -9999.25   -9999.25    7.04620  -18.54430    9.41130    7.10600   65.63040   66.68760
 10557.00000   -9999.25    0.01300    6.03590   -0.00500   -9999.25    2.68700   -9999.25   -9999.25   -9999.25    7.09750  -18.85240    8.22250    6.96240   65.93160   66.57840
 10557.50000   -9999.25    0.01120    6.03710   -0.00390   -9999.25    2.68860   -9999.25   -9999.25   -9999.25   -9999.25   -9999.25    7.68180    6.95190   -9999.25   -9999.25
 10558.00000   -9999.25    0.00760    6.03840   -0.00240   -9999.25    2.69880   -9999.25   -9999.25   -9999.25   -9999.25   -9999.25    8.04590    6.99900   -9999.25   -9999.25
 10558.50000   -9999.25    0.00670    6.03960   -0.00090   -9999.25    2.69750   -9999.25   -9999.25   -9999.25   -9999.25   -9999.25    9.73540    7.17820   -9999.25   -9999.25
 10559.00000   -9999.25    0.00670    6.04080    0.00050   -9999.25    2.69710   -9999.25   -9999.25   -9999.25   -9999.25   -9999.25   10.86490    7.44260   -9999.25   -9999.25
 10559.50000   -9999.25    0.00660    6.04200    0.00200   -9999.25    2.69900   -9999.25   -9999.25   -9999.25   -9999.25   -9999.25   11.00550    7.50770   -9999.25   -9999.25
 10560.00000   -9999.25    0.00590    6.04320    0.00200   -9999.25    2.69960   -9999.25   -9999.25   -9999.25   -9999.25   -9999.25   10.19640    7.47970   -9999.25   -9999.25
 10560.50000   -9999.25    0.00470    6.04450    0.00170   -9999.25    2.70140   -9999.25   -9999.25   -9999.25   -9999.25   -9999.25    9.76910    7.45780   -9999.25   -9999.25
 10561.00000   -9999.25    0.00270    6.04570    0.00090   -9999.25    2.70340   -9999.25   -9999.25   -9999.25   -9999.25   -9999.25    9.68190    7.45880   -9999.25   -9999.25
 10561.50000   -9999.25    0.00020    6.04690   -0.00020   -9999.25    2.70790   -9999.25   -9999.25   -9999.25   -9999.25   -9999.25   -9999.25   -9999.25   -9999.25   -9999.25
 10562.00000   -9999.25   -0.00120    6.04660   -0.00040   -9999.25    2.70950   -9999.25   -9999.25   -9999.25   -9999.25   -9999.25   -9999.25   -9999.25   -9999.25   -9999.25
 10562.50000   -9999.25    0.00090    6.04480   -0.00060   -9999.25    2.70750   -9999.25   -9999.25   -9999.25   -9999.25   -9999.25   -9999.25   -9999.25   -9999.25   -9999.25
 10563.00000   -9999.25    0.00400    6.04300   -0.00080   -9999.25    2.70330   -9999.25   -9999.25   -9999.25   -9999.25   -9999.25   -9999.25   -9999.25   -9999.25   -9999.25
 10563.50000   -9999.25    0.00710    6.04120   -0.00120   -9999.25    2.69850   -9999.25   -9999.25   -9999.25   -9999.25   -9999.25   -9999.25   -9999.25   -9999.25   -9999.25
 10564.00000   -9999.25    0.00920    6.03940   -0.00150   -9999.25    2.69590   -9999.25   -9999.25   -9999.25   -9999.25   -9999.25   -9999.25   -9999.25   -9999.25   -9999.25
