~Version ---------------------------------------------------
VERS.   2.0 : CWLS log ASCII Standard -VERSION 2.0
WRAP.    NO : One line per depth step
DLM . SPACE : Column Data Section Delimiter
~Well ------------------------------------------------------
STRT .F                1564.0 : START DEPTH
STOP .F               10564.0 : STOP DEPTH
STEP .F                   0.5 : STEP
NULL .               -9999.25 : NULL VALUE
COMP .                        : COMPANY
WELL .                        : WELL
FLD  .                        : FIELD
LOC  .                        : LOCATION
PROV .                        : PROVINCE
CNTY .                        : COUNTY
STAT .                        : STATE
CTRY .                        : COUNTRY
SRVC .                        : SERVICE COMPANY
DATE .                        : DATE
UWI  .                        : UNIQUE WELL ID
API  .                        : API NUMBER
SLAT .WGS84 6.036189877335097 : SURFACE LATITUDE
SLON .WGS84 3.144340008327603 : SURFACE LONGITUDE
DATUM.F                1708.0 : DEPTH DATUM ELEV
~Curve Information -----------------------------------------
DEPT.F     : 1 MEASURED DEPTH
NPOR.DEC   : NEUTRON POROSITY
DPHI.DEC   : DENSITY POROSITY
CALD.IN    : CALIPER FROM DENSITY LOG
DRHO.G/C3  : BULK DENSITY CORRECTION
PEF .B/E   : PHOTOELECTRIC FACTOR
RHOB.G/C3  : BULK DENSITY
DTCO.US/F  : DELTA-T COMPRESSIONAL
DTSM.US/F  : DELTA-T SHEAR
GRR .GAPI  : GAMMA RAY FROM RESISTIVITY LOG
ILD .OHMM  : INDUCTION DEEP RESISTIVITY
SPR .MV    : SPONTANEOUS POTENTIAL FROM RESISTIVITY LOG
SFLU.OHMM  : SHALLOW FOCUSED RESISTIVITY (UNAVERAGED)
ILM .OHMM  : INDUCTION MEDIUM RESISTIVITY
DT  .US/F  : DELTA-T (INTERVAL TRANSIT TIME)
DTL .US/F  : DELTA-T LONG SPACING
~Params ----------------------------------------------------
~Other -----------------------------------------------------
~ASCII -----------------------------------------------------
# ...
 5750.00000    0.08430    0.08720    9.21450    0.06130    4.28890    2.55760   77.03490  163.59870   44.52580   11.19980  -15.82690   11.41980   12.02780   -9999.25   -9999.25
 5750.50000    0.07100    0.04340    9.06320    0.05470    4.57450    2.61730   63.99300  129.93400   39.81300   13.75780  -15.15150   17.69170   16.14990   -9999.25   -9999.25
 5751.00000    0.05760    0.02810    9.01110    0.04810    4.59790    2.65330   54.16270  110.62380   38.89340   19.35400  -14.25650   27.39320   23.05770   -9999.25   -9999.25
 5751.50000    0.04330    0.02710    8.97670    0.04150    4.58910    2.66610   51.16020  103.74260   38.87880   27.80450  -13.19520   43.16320   34.01500   -9999.25   -9999.25
 5752.00000    0.04150    0.04680    8.98570    0.03640    4.34780    2.62930   49.57180   97.31070   39.85660   36.79880  -12.40610   71.37090   47.44290   -9999.25   -9999.25
 5752.50000    0.04230    0.10210    9.05680    0.04050    3.42950    2.49070   49.38420   94.52930   42.92990   36.69480  -11.93710  109.50300   50.01600   -9999.25   -9999.25
 5753.00000    0.06110    0.20340    9.11950    0.03990    2.79420    2.41560   55.70840  116.15450   50.67190   26.07760  -11.72060  111.53980   34.09370   -9999.25   -9999.25
 5753.50000    0.11540    0.35340    9.68990    0.03140    2.61040    2.21610   70.69340  147.04730   61.38700   16.61270  -11.88790   67.89220   22.63150   -9999.25   -9999.25
 5754.00000    0.20290    0.46710   10.45050    0.02830    2.26280    2.01370   81.29770  162.79050   72.82790   10.58310  -12.05510   27.95300   12.08960   -9999.25   -9999.25
 5754.50000    0.33460    0.54390   10.88770    0.03560    2.13840    1.75650   84.11640  173.32130   80.89760    7.92580  -12.24390    9.17070    6.19050   -9999.25   -9999.25
 5755.00000    0.49180    0.59290   11.31350    0.05190    2.01390    1.71360   84.87380  176.03600   85.88140    5.98590  -12.44510    5.93380    4.18570   -9999.25   -9999.25
 5755.50000    0.54960    0.62300   12.36780    0.06550    1.88950    1.66040   84.10670  173.56170   87.81510    4.52080  -12.62740    5.11460    3.61290   -9999.25   -9999.25
 5756.00000    0.60380    0.65270   12.61060    0.05790    1.80480    1.60460   80.22490  167.37930   87.73950    4.00240  -12.80980    5.10380    3.11840   -9999.25   -9999.25
 5756.50000    0.59180    0.66920   11.89630    0.04400    1.74650    1.56720   73.37270  151.95720   85.36550    3.60540  -12.25100    5.15090    2.90020   -9999.25   -9999.25
 5757.00000    0.43450    0.65330   11.78000    0.03020    1.74060    1.57690   69.20220  142.38330   81.52430    3.54180  -10.94220    5.14360    2.94800   -9999.25   -9999.25
 5757.50000    0.30180    0.60510   11.67680    0.01630    1.85960    1.62600   63.48050  132.80940   72.51150    3.79740   -9.02590    4.97330    3.27940   -9999.25   -9999.25
 5758.00000    0.13730    0.52340   11.21840    0.01050    2.58820    1.72590   53.78130  112.88900   56.70350    4.16030   -7.70400    4.96620    4.42690   -9999.25   -9999.25
 5758.50000    0.04900    0.33210    9.54630    0.01780    3.38210    2.19900   46.76590   97.50900   41.73730    5.28940   -7.75370    6.09100    6.05470   -9999.25   -9999.25
 5759.00000    0.02880    0.19490    9.24740    0.02920    4.17610    2.43810   48.09000   99.99120   34.71470    6.77000   -8.76350   12.68720    8.28110   -9999.25   -9999.25
 5759.50000    0.01950    0.06120    8.99390    0.03900    4.89550    2.58370   51.13330  105.04210   35.28880    8.66490  -10.44410   41.84780   11.32610   -9999.25   -9999.25
 5760.00000    0.02000    0.02120    8.99400    0.03480    5.14090    2.65750   52.51120  105.14560   40.01330   15.55690  -12.12880   81.08870   16.95230   -9999.25   -9999.25
 5760.50000    0.02990    0.01750    9.06200    0.02390    5.18120    2.68350   51.18660  103.06530   44.34240   29.86290  -13.82140  113.01310   25.84270   -9999.25   -9999.25
 5761.00000    0.03900    0.02110    9.14390    0.01520    5.18670    2.67290   50.36510  100.98490   47.87420   61.07120  -15.71960  122.29560   39.39560   -9999.25   -9999.25
 5761.50000    0.04330    0.02660    9.18710    0.00880    5.17670    2.66490   50.30780  100.06480   48.23280  117.64190  -17.21660  131.47000   61.49300   -9999.25   -9999.25
 5762.00000    0.04830    0.03000    9.21570    0.00650    5.06230    2.65820   50.87640  100.36660   45.82620  124.02840  -19.41290  135.03210   85.03470   -9999.25   -9999.25
 5762.50000    0.05170    0.03170    9.24330    0.00620    4.97220    2.65530   50.90870  100.62290   42.99530   92.14610  -21.60930  128.12710   85.41650   -9999.25   -9999.25
 5763.00000    0.05640    0.03400    9.25680    0.00880    4.89430    2.65150   50.60210  100.62460   42.00620   58.93190  -23.68020  115.02800   78.44650   -9999.25   -9999.25
 5763.50000    0.06060    0.03870    9.26440    0.01040    4.78130    2.64520   50.84780  100.37170   42.80370   49.90890  -25.43660  106.66810   64.09780   -9999.25   -9999.25
 5764.00000    0.06270    0.04380    9.26090    0.01180    4.62900    2.63400   50.42500  100.04020   45.51410   42.79400  -27.19300   93.56030   57.93640   -9999.25   -9999.25
 5764.50000    0.06320    0.04920    9.27710    0.01330    4.50800    2.62470   50.37560   99.94130   48.22650   42.26820  -28.26430   81.93790   54.88190   -9999.25   -9999.25
 5765.00000    0.06380    0.05320    9.28220    0.01470    4.37240    2.61990   50.86700   99.02480   50.87580   44.50390  -28.40070   71.13510   52.54180   -9999.25   -9999.25
 5765.50000    0.06320    0.05350    9.28160    0.01940    4.30160    2.61960   51.15680   97.46630   52.51770   48.12650  -28.38360   65.89990   50.59480   -9999.25   -9999.25
 5766.00000    0.05870    0.05360    9.28110    0.02760    4.23080    2.61180   50.09800   95.90780   51.82230   55.60720  -27.91580   67.48900   49.68730   -9999.25   -9999.25
 5766.50000    0.05250    0.05580    9.28060    0.03470    4.12790    2.56580   51.59030   94.69070   49.92240   54.34550  -27.44800   71.70570   49.30940   -9999.25   -9999.25
 5767.00000    0.04840    0.12910    9.28010    0.03610    3.48520    2.46850   49.61010   94.69240   47.08540   44.49580  -26.92150   74.62660   48.50430   -9999.25   -9999.25
 5767.50000    0.05240    0.23020    9.39480    0.03220    2.96260    2.37120   47.85330   94.77210   45.54540   33.49900  -25.28530   70.99660   38.74320   -9999.25   -9999.25
 5768.00000    0.08480    0.37570    9.91920    0.03020    2.63380    2.11850   50.34680   98.27120   47.29650   21.15690  -23.05410   47.56550   26.81070   -9999.25   -9999.25
 5768.50000    0.13710    0.45660   10.75900    0.04190    2.32630    2.01460   52.46720  106.16160   55.01120   13.36200  -20.82280   20.67690   12.79200   -9999.25   -9999.25
 5769.00000    0.23850    0.48050   11.53300    0.05730    2.16640    1.87820   52.88950  107.69730   64.54470    9.90000  -18.59160   10.41630    6.10330   -9999.25   -9999.25
 5769.50000    0.35240    0.49020   12.81170    0.07840    2.11730    1.86660   56.25560  103.72350   72.33140    7.47000  -16.27600    5.27520    4.76920   -9999.25   -9999.25
 5770.00000    0.46640    0.47070   13.28960    0.09690    2.11500    1.91170   62.03560  104.91110   76.30600    6.24940  -12.49710    3.92370    3.97290   -9999.25   -9999.25
 5770.50000    0.48740    0.43810   13.34620    0.11540    2.10900    1.96330   76.96950  121.30790   79.12230    5.46570   -8.57080    3.88770    3.80420   -9999.25   -9999.25
 5771.00000    0.45880    0.41820   13.09190    0.12410    2.12750    1.99890   90.38930  143.30140   82.75060    4.72300   -4.68180    4.00060    3.69050   -9999.25   -9999.25
 5771.50000    0.44150    0.40290   12.97630    0.12900    2.16710    2.01570   98.89440  153.43230   83.91500    4.17250   -2.27140    4.36700    3.55990   -9999.25   -9999.25
 5772.00000    0.42600    0.38450   12.85370    0.13360    2.23660    2.03240   95.32030  154.80230   84.40070    3.93790   -0.01540    4.56130    3.55000   -9999.25   -9999.25
 5772.50000    0.40900    0.37310   12.63150    0.13880    2.32260    2.05640   92.14510  160.18250   84.89000    3.89420    0.91630    4.74700    3.55000   -9999.25   -9999.25
