~Version ---------------------------------------------------
VERS.   2.0 : CWLS log ASCII Standard -VERSION 2.0
WRAP.    NO : One line per depth step
DLM . SPACE : Column Data Section Delimiter
~Well ------------------------------------------------------
STRT .F                1564.0 : START DEPTH
STOP .F               10564.0 : STOP DEPTH
STEP .F                   0.5 : STEP
NULL .               -9999.25 : NULL VALUE
COMP .                        : COMPANY
WELL .                        : WELL
FLD  .                        : FIELD
LOC  .                        : LOCATION
PROV .                        : PROVINCE
CNTY .                        : COUNTY
STAT .                        : STATE
CTRY .                        : COUNTRY
SRVC .                        : SERVICE COMPANY
DATE .                        : DATE
UWI  .                        : UNIQUE WELL ID
API  .                        : API NUMBER
SLAT .WGS84 6.036189877335097 : SURFACE LATITUDE
SLON .WGS84 3.144340008327603 : SURFACE LONGITUDE
DATUM.F                1708.0 : DEPTH DATUM ELEV
~Curve Information -----------------------------------------
DEPT.F     : 1 MEASURED DEPTH
NPOR.DEC   : NEUTRON POROSITY
DPHI.DEC   : DENSITY POROSITY
CALD.IN    : CALIPER FROM DENSITY LOG
DRHO.G/C3  : BULK DENSITY CORRECTION
PEF .B/E   : PHOTOELECTRIC FACTOR
RHOB.G/C3  : BULK DENSITY
DTCO.US/F  : DELTA-T COMPRESSIONAL
DTSM.US/F  : DELTA-T SHEAR
GRR .GAPI  : GAMMA RAY FROM RESISTIVITY LOG
ILD .OHMM  : INDUCTION DEEP RESISTIVITY
SPR .MV    : SPONTANEOUS POTENTIAL FROM RESISTIVITY LOG
SFLU.OHMM  : SHALLOW FOCUSED RESISTIVITY (UNAVERAGED)
ILM .OHMM  : INDUCTION MEDIUM RESISTIVITY
DT  .US/F  : DELTA-T (INTERVAL TRANSIT TIME)
DTL .US/F  : DELTA-T LONG SPACING
~Params ----------------------------------------------------
~Other -----------------------------------------------------
~ASCII -----------------------------------------------------
# ...
 8717.00000    0.24220    0.04960   11.77660    0.05530    2.98820    2.62430   75.32820  144.35180   95.22680    7.25230   -6.46270    9.07280    7.49200   -9999.25   -9999.25
 8717.50000    0.24540    0.04970   11.75830    0.06130    3.05630    2.62450   75.32650  144.70400   98.81450    7.25080   -6.47020    9.00100    7.46590   -9999.25   -9999.25
 8718.00000    0.25120    0.05150   11.74000    0.06420    3.13840    2.62100   75.87510  145.84590  101.79650    7.13670   -6.44910    8.84710    7.43980   -9999.25   -9999.25
 8718.50000    0.25420    0.05650   11.72160    0.06610    3.21940    2.61530   76.30450  148.08020  102.01570    6.98830   -6.48290    8.68640    7.33090   -9999.25   -9999.25
 8719.00000    0.25710    0.05910   11.70330    0.06740    3.24490    2.60850   76.56640  149.62470  101.25460    6.90370   -6.55610    8.53350    7.18070   -9999.25   -9999.25
 8719.50000    0.25910    0.06120   11.67930    0.06530    3.27170    2.59900   77.16520  150.10100  101.11470    6.90250   -6.62930    8.40060    7.15960   -9999.25   -9999.25
 8720.00000    0.25850    0.06510   11.65360    0.05810    3.24940    2.58940   77.35050  150.59990  102.21560    6.90200   -6.92170    8.35170    7.16370   -9999.25   -9999.25
 8720.50000    0.24970    0.06930   11.62800    0.05090    3.22490    2.58890   77.53710  149.29030  103.73640    6.90160   -7.07310    8.32920    7.15960   -9999.25   -9999.25
 8721.00000    0.24040    0.06850   11.60230    0.04740    3.22480    2.59330   78.05000  147.99090  104.57100    6.90110   -6.99590    8.39690    7.15560   -9999.25   -9999.25
 8721.50000    0.24010    0.06410   11.57670    0.04480    3.24420    2.59950   77.48490  148.11500  103.66340    6.90060   -7.04640    8.50560    7.15150   -9999.25   -9999.25
 8722.00000    0.24380    0.06240   11.48930    0.04610    3.26060    2.60230   77.00440  147.78990   99.96780    6.91760   -7.10540    8.61590    7.14750   -9999.25   -9999.25
 8722.50000    0.24700    0.06210   11.46960    0.04960    3.29280    2.60240   76.80110  147.74050   95.30710    6.94410   -7.10800    8.71510    7.14690   -9999.25   -9999.25
 8723.00000    0.24850    0.06240   11.44590    0.05430    3.34140    2.60210   77.04610  149.32320   94.49620    6.95250   -7.04590    8.63560    7.14690   -9999.25   -9999.25
 8723.50000    0.25020    0.06350   11.41370    0.05780    3.38630    2.60150   76.81890  150.54220   96.08700    6.96090   -6.97490    8.49560    7.14680   -9999.25   -9999.25
 8724.00000    0.25500    0.06490   11.38140    0.06120    3.36890    2.60180   77.40210  150.65990   99.90750    6.96930   -6.88070    8.41700    7.14660   -9999.25   -9999.25
 8724.50000    0.25850    0.06280   11.34920    0.06460    3.33210    2.60500   77.77180  150.47880  103.23010    6.94070   -6.76000    8.39990    7.14630   -9999.25   -9999.25
 8725.00000    0.25600    0.05710   11.30450    0.06790    3.30800    2.61120   77.46230  150.14740  106.24190    6.93150   -6.72190    8.39930    7.14590   -9999.25   -9999.25
 8725.50000    0.25180    0.05210   11.25560    0.06990    3.28640    2.61960   77.16510  149.47860  107.73740    6.92230   -6.68380    8.41250    7.14540   -9999.25   -9999.25
 8726.00000    0.25380    0.04980   11.20670    0.07180    3.29530    2.62500   76.98770  148.95100  107.87310    6.91310   -6.64570    8.42740    7.14500   -9999.25   -9999.25
 8726.50000    0.26260    0.04710   11.15780    0.07360    3.32300    2.62940   77.84760  149.13490  108.09170    6.90390   -6.60620    8.39430    7.14450   -9999.25   -9999.25
 8727.00000    0.26680    0.04370   11.10890    0.07560    3.36460    2.63440   78.25950  149.14080  108.88160    6.87560   -6.56250    8.34310    7.11410   -9999.25   -9999.25
 8727.50000    0.26970    0.04050   11.06820    0.08290    3.37090    2.63710   77.92690  148.94770  109.68210    6.80710   -6.62500    8.31310    7.04350   -9999.25   -9999.25
 8728.00000    0.26990    0.04540   11.04970    0.08900    3.33970    2.63330   76.82770  147.18300  109.20100    6.77420   -6.81850    8.31530    6.99250   -9999.25   -9999.25
 8728.50000    0.26990    0.04860   11.04930    0.09440    3.27710    2.62700   76.78680  148.03200  108.41160    6.74860   -7.01190    8.32580    6.96090   -9999.25   -9999.25
 8729.00000    0.27120    0.05060   11.04890    0.10250    3.21640    2.62340   77.23760  149.71430  107.68900    6.69110   -7.20540    8.26060    6.92110   -9999.25   -9999.25
 8729.50000    0.27060    0.05050   11.04440    0.11390    3.15920    2.62430   77.52950  151.07560  106.57280    6.62810   -7.39890    8.19590    6.86590   -9999.25   -9999.25
 8730.00000    0.26980    0.04980   11.00430    0.12930    3.09350    2.62510   77.88910  151.77920  107.79800    6.56570   -7.59240    8.07200    6.81120   -9999.25   -9999.25
 8730.50000    0.26910    0.05090   10.95150    0.14620    3.03680    2.62310   77.87250  150.76000  110.46940    6.51010   -7.71390    7.94550    6.75620   -9999.25   -9999.25
 8731.00000    0.27070    0.05700   10.87110    0.14960    3.02730    2.61490   79.29830  148.74910  113.49920    6.47240   -7.75750    7.85600    6.66560   -9999.25   -9999.25
 8731.50000    0.26870    0.06190   10.76880    0.14930    3.03880    2.60420   80.15190  150.07340  114.35130    6.43490   -7.80110    7.79850    6.56370   -9999.25   -9999.25
 8732.00000    0.26570    0.06380   10.72500    0.14750    3.06980    2.60000   80.16160  152.20560  110.94400    6.39770   -7.84480    7.79670    6.54660   -9999.25   -9999.25
 8732.50000    0.25910    0.06160   10.70050    0.14570    3.11940    2.60310   79.96460  151.69820  106.38480    6.39480   -7.88840    8.04130    6.56470   -9999.25   -9999.25
 8733.00000    0.25110    0.05930   10.59790    0.14050    3.17060    2.60930   79.60830  150.78520  101.63380    6.39330   -7.93200    8.28900    6.61610   -9999.25   -9999.25
 8733.50000    0.24490    0.05980   10.43650    0.13040    3.24120    2.60780   81.08910  149.61570   99.87300    6.39300   -7.97560    8.48510    6.66790   -9999.25   -9999.25
 8734.00000    0.23970    0.06670   10.34590    0.11440    3.31170    2.59800   79.52930  149.60610  100.89770    6.42410   -8.01930    8.59940    6.72010   -9999.25   -9999.25
 8734.50000    0.23880    0.07680   10.32340    0.10480    3.38230    2.57460   79.39000  150.61690  103.41430    6.51180   -8.06290    8.64930    6.79970   -9999.25   -9999.25
 8735.00000    0.24490    0.08610   10.31240    0.09520    3.45700    2.56080   79.00890  149.26620  107.73020    6.64980   -7.92810    8.49000    6.96940   -9999.25   -9999.25
 8735.50000    0.24930    0.08870   10.28620    0.08530    3.56840    2.55680   77.30210  148.59280  109.83980    6.84070   -7.87300    8.36800    7.32060   -9999.25   -9999.25
 8736.00000    0.23290    0.08690   10.13390    0.07690    3.67490    2.57710   77.59470  147.97650  108.36730    7.46170   -7.88640    8.33270    7.68950   -9999.25   -9999.25
 8736.50000    0.20600    0.06800    9.97230    0.06980    3.75970    2.59990   76.28660  143.99930   99.84600    8.25280   -7.89990    8.82880    8.52790   -9999.25   -9999.25
 8737.00000    0.18360    0.05360    9.82940    0.05810    3.76260    2.62430   74.38430  139.58760   88.99770    9.12770   -7.91020   11.11950    9.74650   -9999.25   -9999.25
 8737.50000    0.16130    0.03500    9.71470    0.04180    3.75870    2.65400   73.04870  134.34190   79.69600   10.00790   -7.92460   15.01220   11.20210   -9999.25   -9999.25
 8738.00000    0.14180    0.02550    9.60000    0.02220    3.77330    2.67160   71.77810  129.36440   72.23720   11.07890   -7.34790   18.24610   12.75680   -9999.25   -9999.25
 8738.50000    0.12680    0.01780    9.48600    0.01300    3.80940    2.68040   69.90420  124.66720   65.99440   12.41440   -6.72120   20.21140   14.02310   -9999.25   -9999.25
 8739.00000    0.11970    0.01470    9.38600    0.00750    3.91420    2.68500   66.59880  120.56930   62.50050   13.91090   -6.31670   21.93720   15.04230   -9999.25   -9999.25
 8739.50000    0.11690    0.01320    9.29950    0.00310    4.01880    2.68600   64.24120  119.70860   63.89020   14.91920   -5.97370   24.31110   15.71430   -9999.25   -9999.25
