~Version ---------------------------------------------------
VERS.   2.0 : CWLS log ASCII Standard -VERSION 2.0
WRAP.    NO : One line per depth step
DLM . SPACE : Column Data Section Delimiter
~Well ------------------------------------------------------
STRT .F                1564.0 : START DEPTH
STOP .F               10564.0 : STOP DEPTH
STEP .F                   0.5 : STEP
NULL .               -9999.25 : NULL VALUE
COMP .                        : COMPANY
WELL .                        : WELL
FLD  .                        : FIELD
LOC  .                        : LOCATION
PROV .                        : PROVINCE
CNTY .                        : COUNTY
STAT .                        : STATE
CTRY .                        : COUNTRY
SRVC .                        : SERVICE COMPANY
DATE .                        : DATE
UWI  .                        : UNIQUE WELL ID
API  .                        : API NUMBER
SLAT .WGS84 6.036189877335097 : SURFACE LATITUDE
SLON .WGS84 3.144340008327603 : SURFACE LONGITUDE
DATUM.F                1708.0 : DEPTH DATUM ELEV
~Curve Information -----------------------------------------
DEPT.F     : 1 MEASURED DEPTH
NPOR.DEC   : NEUTRON POROSITY
DPHI.DEC   : DENSITY POROSITY
CALD.IN    : CALIPER FROM DENSITY LOG
DRHO.G/C3  : BULK DENSITY CORRECTION
PEF .B/E   : PHOTOELECTRIC FACTOR
RHOB.G/C3  : BULK DENSITY
DTCO.US/F  : DELTA-T COMPRESSIONAL
DTSM.US/F  : DELTA-T SHEAR
GRR .GAPI  : GAMMA RAY FROM RESISTIVITY LOG
ILD .OHMM  : INDUCTION DEEP RESISTIVITY
SPR .MV    : SPONTANEOUS POTENTIAL FROM RESISTIVITY LOG
SFLU.OHMM  : SHALLOW FOCUSED RESISTIVITY (UNAVERAGED)
ILM .OHMM  : INDUCTION MEDIUM RESISTIVITY
DT  .US/F  : DELTA-T (INTERVAL TRANSIT TIME)
DTL .US/F  : DELTA-T LONG SPACING
~Params ----------------------------------------------------
~Other -----------------------------------------------------
~ASCII -----------------------------------------------------
# ...
 6946.00000    0.35180    0.28870   12.42100    0.08080    2.77000    2.21810   64.14760  137.05530   72.78840    9.81450    9.79870    8.46600    7.68550   -9999.25   -9999.25
 6946.50000    0.28290    0.28360   12.09460    0.06210    2.90820    2.22580   64.16510  134.18250   67.15370   10.19910   10.13120    8.55570    9.88480   -9999.25   -9999.25
 6947.00000    0.23350    0.26240   11.52910    0.06650    3.06230    2.25850   65.55380  134.74940   63.52200   10.19910   10.07710   10.96260   13.34900   -9999.25   -9999.25
 6947.50000    0.22520    0.23530   10.98400    0.08040    3.13010    2.29110   68.07330  135.90540   61.48550   10.07030    9.49580   17.35420   14.71570   -9999.25   -9999.25
 6948.00000    0.24700    0.24180   10.95740    0.08580    3.03630    2.28110   67.78830  135.11640   61.50020    9.43990    8.83920   26.65870   14.42890   -9999.25   -9999.25
 6948.50000    0.29530    0.27490   11.46690    0.08770    2.75740    2.21340   64.13500  124.95420   63.38110    9.07350    8.15960   27.66340    9.74660   -9999.25   -9999.25
 6949.00000    0.37190    0.33860   12.08680    0.09170    2.47970    2.15400   59.53100  116.90820   68.34140    9.00840    7.56860   18.96430    7.11620   -9999.25   -9999.25
 6949.50000    0.42150    0.35670   12.78560    0.10370    2.28770    2.09630   58.22210  115.27950   74.64090    8.65910    7.13910   10.13540    6.19830   -9999.25   -9999.25
 6950.00000    0.44340    0.34170   13.33610    0.14900    2.16680    2.10690   63.23030  120.72360   77.88140    8.11350    6.85490    6.48050    6.02480   -9999.25   -9999.25
 6950.50000    0.43620    0.32560   13.56730    0.17210    2.16650    2.13100   72.78880  130.95870   79.21680    7.71960    7.09090    5.92820    5.94680   -9999.25   -9999.25
 6951.00000    0.43100    0.30860   13.59470    0.19240    2.19710    2.17550   79.62820  139.82190   78.78230    7.15900    7.34200    6.03510    5.86870   -9999.25   -9999.25
 6951.50000    0.43380    0.30180   13.41730    0.20040    2.23320    2.20050   81.75300  142.33810   78.41080    6.01940    7.63270    6.18490    5.73010   -9999.25   -9999.25
 6952.00000    0.43790    0.30220   13.10310    0.19710    2.28850    2.19420   80.15650  138.89480   79.13890    5.87820    7.44120    6.63780    5.56900   -9999.25   -9999.25
 6952.50000    0.44190    0.30530   12.89670    0.18680    2.35170    2.19020   78.46090  134.56110   79.54240    5.92810    6.54770    6.67600    5.37850   -9999.25   -9999.25
 6953.00000    0.44460    0.30280   12.97090    0.17660    2.33760    2.19490   78.17320  131.17950   80.51620    5.95760    5.10730    6.50440    5.24760   -9999.25   -9999.25
 6953.50000    0.45470    0.31440   13.10180    0.16140    2.29390    2.18630   76.87660  125.73990   82.08530    5.95780    4.09230    6.27970    5.25790   -9999.25   -9999.25
 6954.00000    0.49950    0.33720   13.30570    0.15870    2.25550    2.14190   75.21820  121.30990   84.41920    5.95810    3.24690    6.19740    5.31960   -9999.25   -9999.25
 6954.50000    0.52960    0.35610   13.54510    0.15530    2.21970    2.11280   74.93910  117.99400   86.21480    5.95880    2.40160    6.14100    5.08180   -9999.25   -9999.25
 6955.00000    0.54730    0.36540   13.83620    0.15200    2.18710    2.08880   75.06690  117.64930   85.71720    5.97250    1.66470    6.00990    4.90540   -9999.25   -9999.25
 6955.50000    0.55310    0.40110   13.69820    0.14610    2.15070    2.04750   76.32340  122.80510   83.58570    6.01470    1.52160    5.77870    4.82470   -9999.25   -9999.25
 6956.00000    0.53730    0.43650   13.76900    0.13760    2.14930    2.00950   78.32460  133.69320   81.63360    6.07880    2.17610    5.55400    4.92730   -9999.25   -9999.25
 6956.50000    0.51370    0.45610   14.01340    0.12810    2.17090    1.93880   81.11630  146.56560   81.06670    6.18700    3.23940    5.50840    5.03200   -9999.25   -9999.25
 6957.00000    0.50300    0.46660   14.35970    0.12240    2.19250    1.91720   83.76630  156.76730   81.38650    6.29710    4.25180    5.61460    5.26490   -9999.25   -9999.25
 6957.50000    0.49580    0.46660   13.89120    0.11440    2.21440    1.91450   84.06060  166.07170   81.92030    6.40920    3.70240    5.98860    5.53340   -9999.25   -9999.25
 6958.00000    0.49940    0.46140   13.56300    0.10640    2.19480    1.92280   81.64850  168.53940   83.95430    6.43740    2.57360    6.21100    5.74390   -9999.25   -9999.25
 6958.50000    0.52080    0.46760   13.42740    0.10460    2.11680    1.89570   75.64180  164.82510   85.19810    6.37840    1.74310    6.29840    5.58580   -9999.25   -9999.25
 6959.00000    0.58130    0.49210   13.76830    0.10290    2.06530    1.85940   72.40250  161.58290   84.79740    6.31400    1.11420    6.29920    5.24920   -9999.25   -9999.25
 6959.50000    0.64930    0.52460   14.32990    0.10120    2.01370    1.82310   70.88350  158.94440   81.58590    6.21780    0.48530    6.22940    4.76660   -9999.25   -9999.25
 6960.00000    0.70040    0.54310   14.89150    0.10000    1.96210    1.78950   71.97610  158.02140   80.57720    6.09170    0.34040    5.94580    4.58720   -9999.25   -9999.25
 6960.50000    0.70000    0.55160   14.92870    0.09980    1.96240    1.76970   77.00530  161.73210   81.03320    5.97580    0.67830    5.45230    4.49330   -9999.25   -9999.25
 6961.00000    0.69950    0.54940   14.66420    0.10010    1.96740    1.76920   87.18710  175.92310   82.12770    5.86220    1.01620    5.11990    4.67030   -9999.25   -9999.25
 6961.50000    0.69910    0.53940   14.53270    0.10100    1.97230    1.78570   94.26170  184.83720   81.86690    5.75080    1.35410    5.05810    4.84400   -9999.25   -9999.25
 6962.00000    0.69690    0.51500   14.42560    0.10190    1.97730    1.83510   96.01570  186.69420   81.79400    5.65330    2.03530    5.20410    4.96930   -9999.25   -9999.25
 6962.50000    0.64720    0.47270   14.31850    0.10510    1.99870    1.89960   98.20020  180.79940   84.10110    5.64230    2.73440    5.28160    5.02550   -9999.25   -9999.25
 6963.00000    0.54010    0.43180   14.09290    0.10960    2.08310    1.94080  101.13230  169.08110   87.06490    5.74530    3.22530    5.31710    5.08220   -9999.25   -9999.25
 6963.50000    0.49940    0.37660   13.86740    0.11560    2.21060    1.99400  101.77720  163.37010   87.69630    6.12620    3.80780    5.49200    5.29590   -9999.25   -9999.25
 6964.00000    0.46310    0.29420   13.64180    0.13000    2.33200    2.04730   97.97900  162.04680   87.84800    6.53230    4.18390    6.11630    5.72620   -9999.25   -9999.25
 6964.50000    0.42780    0.24520   13.14980    0.14340    2.42800    2.28120   92.58000  162.10240   87.61150    6.95810    4.49170    6.75640    6.30980   -9999.25   -9999.25
 6965.00000    0.40310    0.19650   12.68550    0.15670    2.52400    2.36290   85.71320  160.68030   86.19410    7.40820    4.79950    7.23940    6.95290   -9999.25   -9999.25
 6965.50000    0.37450    0.16030   12.29280    0.17010    2.61660    2.43650   82.56670  158.07370   83.79820    7.88740    5.10500    7.71540    7.64770   -9999.25   -9999.25
 6966.00000    0.36060    0.13420   11.98060    0.17120    2.67210    2.47180   80.23780  153.81830   83.18000    8.33860    5.07910    8.20120    7.80330   -9999.25   -9999.25
 6966.50000    0.35240    0.14530   11.80120    0.16580    2.72760    2.46800   77.78960  148.96900   83.44410    8.43860    4.84120    8.57590    7.93210   -9999.25   -9999.25
 6967.00000    0.35400    0.17300   11.83790    0.15140    2.78010    2.42410   76.26550  148.32130   84.61640    8.43950    4.60330    9.25520    7.87320   -9999.25   -9999.25
 6967.50000    0.35980    0.20720   11.93770    0.13470    2.78780    2.36550   73.93480  149.60690   85.85190    8.44040    4.16190    9.25930    7.73470   -9999.25   -9999.25
 6968.00000    0.38720    0.23980   12.07260    0.13150    2.69700    2.30790   72.20700  151.19810   87.01420    8.35060    3.64520    9.10170    7.66680   -9999.25   -9999.25
 6968.50000    0.38940    0.25770   12.33600    0.13180    2.59570    2.27410   72.38280  152.80970   87.77190    8.20740    3.16370    8.75060    7.59960   -9999.25   -9999.25
