~Version ---------------------------------------------------
VERS.   2.0 : CWLS log ASCII Standard -VERSION 2.0
WRAP.    NO : One line per depth step
DLM . SPACE : Column Data Section Delimiter
~Well ------------------------------------------------------
STRT .F                1564.0 : START DEPTH
STOP .F               10564.0 : STOP DEPTH
STEP .F                   0.5 : STEP
NULL .               -9999.25 : NULL VALUE
COMP .                        : COMPANY
WELL .                        : WELL
FLD  .                        : FIELD
LOC  .                        : LOCATION
PROV .                        : PROVINCE
CNTY .                        : COUNTY
STAT .                        : STATE
CTRY .                        : COUNTRY
SRVC .                        : SERVICE COMPANY
DATE .                        : DATE
UWI  .                        : UNIQUE WELL ID
API  .                        : API NUMBER
SLAT .WGS84 6.036189877335097 : SURFACE LATITUDE
SLON .WGS84 3.144340008327603 : SURFACE LONGITUDE
DATUM.F                1708.0 : DEPTH DATUM ELEV
~Curve Information -----------------------------------------
DEPT.F     : 1 MEASURED DEPTH
NPOR.DEC   : NEUTRON POROSITY
DPHI.DEC   : DENSITY POROSITY
CALD.IN    : CALIPER FROM DENSITY LOG
DRHO.G/C3  : BULK DENSITY CORRECTION
PEF .B/E   : PHOTOELECTRIC FACTOR
RHOB.G/C3  : BULK DENSITY
DTCO.US/F  : DELTA-T COMPRESSIONAL
DTSM.US/F  : DELTA-T SHEAR
GRR .GAPI  : GAMMA RAY FROM RESISTIVITY LOG
ILD .OHMM  : INDUCTION DEEP RESISTIVITY
SPR .MV    : SPONTANEOUS POTENTIAL FROM RESISTIVITY LOG
SFLU.OHMM  : SHALLOW FOCUSED RESISTIVITY (UNAVERAGED)
ILM .OHMM  : INDUCTION MEDIUM RESISTIVITY
DT  .US/F  : DELTA-T (INTERVAL TRANSIT TIME)
DTL .US/F  : DELTA-T LONG SPACING
~Params ----------------------------------------------------
~Other -----------------------------------------------------
~ASCII -----------------------------------------------------
# ...
 7544.00000    0.20410    0.06530   10.16120    0.00690    2.90070    2.59580   73.74690  128.33140   94.36970   11.67740  -20.95500   13.15110   11.40670   -9999.25   -9999.25
 7544.50000    0.20250    0.06480   10.17200    0.00720    2.96870    2.59760   73.06860  128.23300   91.53410   11.74000  -20.88790   13.15680   11.40550   -9999.25   -9999.25
 7545.00000    0.20260    0.06420   10.18180    0.00750    2.97790    2.60060   72.30560  128.16450   91.17460   11.80300  -21.15800   13.26720   11.40430   -9999.25   -9999.25
 7545.50000    0.20270    0.06410   10.19150    0.00780    2.97810    2.60180   72.35220  128.11520   92.38530   11.79330  -21.32070   13.37980   11.40320   -9999.25   -9999.25
 7546.00000    0.20310    0.06500   10.20130    0.00730    2.98550    2.59970   72.55120  128.20320   93.47340   11.74810  -21.28990   13.48340   11.40200   -9999.25   -9999.25
 7546.50000    0.19740    0.06620   10.21100    0.00470    3.01030    2.59780   72.36060  128.12920   93.70310   11.73680  -21.16440   13.49950   11.40120   -9999.25   -9999.25
 7547.00000    0.19360    0.06810   10.21630    0.00230    2.99010    2.59380   72.39720  128.18160   93.76080   11.73680  -21.22560   13.39130   11.40120   -9999.25   -9999.25
 7547.50000    0.19300    0.07210   10.22030    0.00070    2.88170    2.58570   72.96010  128.55540   96.65100   11.67320  -21.28690   13.26900   11.40120   -9999.25   -9999.25
 7548.00000    0.19350    0.07680   10.22440   -0.00090    2.75610    2.57830   73.08660  129.11670   99.70940   11.60930  -21.32410   13.08440   11.41460   -9999.25   -9999.25
 7548.50000    0.19400    0.08050   10.22850   -0.00260    2.61730    2.57300   73.18580  129.64110  101.29390   11.54570  -21.37880   12.92150   11.44970   -9999.25   -9999.25
 7549.00000    0.19460    0.07990   10.23250   -0.00380    2.54390    2.57280   73.22970  129.83790  100.41700   11.42570  -21.46940   12.83670   11.48490   -9999.25   -9999.25
 7549.50000    0.19630    0.08010   10.23660   -0.00300    2.48740    2.57340   73.25110  130.00200   99.54390   11.29930  -21.67210   12.81610   11.51060   -9999.25   -9999.25
 7550.00000    0.19690    0.08150   10.25610   -0.00210    2.47540    2.57080   73.30020  129.88570   99.08930   11.17430  -21.70910   12.90200   11.51050   -9999.25   -9999.25
 7550.50000    0.19730    0.08290   10.29020   -0.00130    2.55360    2.56840   73.32540  129.82540   98.75970   11.06200  -21.65740   12.92610   11.49420   -9999.25   -9999.25
 7551.00000    0.19750    0.08420   10.36100   -0.00050    2.63140    2.56640   73.23300  129.95380   98.51570   11.04790  -21.59590   12.90620   11.45350   -9999.25   -9999.25
 7551.50000    0.20150    0.08610   10.41830    0.00060    2.70920    2.56420   73.40120  130.17960   98.35250   11.03390  -21.46420   12.90410   11.41290   -9999.25   -9999.25
 7552.00000    0.20580    0.08750   10.43720    0.00220    2.79440    2.56030   73.94250  130.46430   99.10300   11.01990  -21.47940   12.85390   11.35240   -9999.25   -9999.25
 7552.50000    0.20000    0.09040   10.45050    0.00350    2.87320    2.55570   74.29040  130.56650  102.01180   11.00590  -21.52400   12.69480   11.28300   -9999.25   -9999.25
 7553.00000    0.20020    0.09190   10.44400    0.00440    2.89140    2.55290   74.28830  131.19130  105.85400   10.99190  -21.56860   12.62150   11.21410   -9999.25   -9999.25
 7553.50000    0.20440    0.09370   10.43750    0.00520    2.90100    2.55040   74.33520  131.34590  108.18420   10.97830  -21.61320   12.58370   11.18310   -9999.25   -9999.25
 7554.00000    0.20860    0.09530   10.43100    0.00610    2.90690    2.54830   74.77870  131.31840  107.92040   10.96650  -21.65780   12.59890   11.18300   -9999.25   -9999.25
 7554.50000    0.21270    0.09700   10.42450    0.00710    2.91870    2.54510   75.20610  131.31430  104.94010   10.95470  -21.59010   12.63440   11.18300   -9999.25   -9999.25
 7555.00000    0.21560    0.09790   10.41800    0.00820    2.93130    2.54240   75.30190  131.25140  101.90910   10.94290  -21.47360   12.69200   11.18290   -9999.25   -9999.25
 7555.50000    0.21690    0.09980   10.41150    0.01010    2.94220    2.53970   75.29510  131.35570  100.54560   10.93120  -21.35720   12.61380   11.18290   -9999.25   -9999.25
 7556.00000    0.21600    0.10150   10.40500    0.01230    2.92670    2.53630   75.21840  131.50670  101.02400   10.91940  -21.24070   12.60330   11.18280   -9999.25   -9999.25
 7556.50000    0.21490    0.10180   10.39850    0.01490    2.85890    2.53670   75.21690  131.43860  102.38240   10.90770  -21.44590   12.56900   11.18280   -9999.25   -9999.25
 7557.00000    0.21330    0.10050   10.39190    0.01810    2.78620    2.53870   75.23670  131.12830  103.59280   10.89370  -21.78310   12.54650   11.18270   -9999.25   -9999.25
 7557.50000    0.21170    0.09670   10.38540    0.02130    2.70230    2.54640   75.25180  131.31540  104.98350   10.87190  -21.77820   12.57220   11.18260   -9999.25   -9999.25
 7558.00000    0.21340    0.08780   10.36740    0.02690    2.66350    2.56200   75.31370  132.12080  106.66930   10.85020  -21.77290   12.60090   11.18260   -9999.25   -9999.25
 7558.50000    0.21290    0.07860   10.34390    0.03290    2.62540    2.57570   75.26440  132.15850  108.08780   10.82860  -21.74710   12.59160   11.18250   -9999.25   -9999.25
 7559.00000    0.20600    0.07440   10.32050    0.03900    2.62180    2.58360   75.27570  132.20330  107.38380   10.80700  -21.66700   12.65490   11.18250   -9999.25   -9999.25
 7559.50000    0.19980    0.07400   10.29700    0.03780    2.63160    2.58470   75.25850  132.23930  104.72960   10.78540  -21.58690   12.71720   11.18240   -9999.25   -9999.25
 7560.00000    0.20010    0.07830   10.27350    0.03400    2.65780    2.57680   75.23260  132.19900  102.30180   10.76390  -21.50680   12.65630   11.18230   -9999.25   -9999.25
 7560.50000    0.20570    0.08280   10.25000    0.03010    2.70910    2.56860   75.23390  132.18350  101.22590   10.74240  -21.42680   12.58610   11.18230   -9999.25   -9999.25
 7561.00000    0.21290    0.08430   10.22660    0.02630    2.76910    2.56460   75.26600  132.20050  101.62210   10.72730  -21.37360   12.59130   11.18230   -9999.25   -9999.25
 7561.50000    0.21850    0.08240   10.20310    0.02720    2.81580    2.56810   75.23580  132.11640  101.44390   10.71350  -21.38030   12.56560   11.18230   -9999.25   -9999.25
 7562.00000    0.21960    0.08070   10.19250    0.02740    2.84330    2.56890   75.20180  132.13490   99.36200   10.69970  -21.39840   12.56280   11.17950   -9999.25   -9999.25
 7562.50000    0.21750    0.08250   10.19750    0.02860    2.86220    2.56870   75.13650  132.22220   97.06210   10.68590  -21.42330   12.48620   11.12210   -9999.25   -9999.25
 7563.00000    0.21370    0.08330   10.19520    0.02720    2.85350    2.56750   74.83610  132.49000   97.67020   10.67210  -21.44820   12.43280   11.06500   -9999.25   -9999.25
 7563.50000    0.20980    0.08480   10.19260    0.02560    2.83570    2.56510   75.20910  133.34250  101.12750   10.65890  -21.47310   12.41010   11.00820   -9999.25   -9999.25
 7564.00000    0.20830    0.08680   10.16590    0.02200    2.83290    2.56130   75.36870  134.06020  104.54080   10.65000  -21.49810   12.36970   10.95170   -9999.25   -9999.25
 7564.50000    0.20670    0.08810   10.14860    0.01760    2.83670    2.55980   75.28120  134.14260  103.91910   10.64100  -21.49980   12.15100   10.89550   -9999.25   -9999.25
 7565.00000    0.20350    0.08790   10.13620    0.01450    2.82920    2.56030   75.27290  133.91090  100.22440   10.63200  -21.37610   12.05140   10.85490   -9999.25   -9999.25
 7565.50000    0.20010    0.08690   10.12370    0.01150    2.81410    2.56070   75.26330  133.33400   94.63850   10.62310  -21.33090   12.08370   10.83100   -9999.25   -9999.25
 7566.00000    0.20070    0.08540   10.11130    0.00940    2.82510    2.56370   75.25370  132.58050   91.21630   10.61420  -21.27990   12.32330   10.80710   -9999.25   -9999.25
 7566.50000    0.20190    0.08290   10.09890    0.00820    2.83990    2.56790   75.07710  132.37210   90.33830   10.60520  -21.23820   12.50750   10.78330   -9999.25   -9999.25
