~Version ---------------------------------------------------
VERS.   2.0 : CWLS log ASCII Standard -VERSION 2.0
WRAP.    NO : One line per depth step
DLM . SPACE : Column Data Section Delimiter
~Well ------------------------------------------------------
STRT .F                1564.0 : START DEPTH
STOP .F               10564.0 : STOP DEPTH
STEP .F                   0.5 : STEP
NULL .               -9999.25 : NULL VALUE
COMP .                        : COMPANY
WELL .                        : WELL
FLD  .                        : FIELD
LOC  .                        : LOCATION
PROV .                        : PROVINCE
CNTY .                        : COUNTY
STAT .                        : STATE
CTRY .                        : COUNTRY
SRVC .                        : SERVICE COMPANY
DATE .                        : DATE
UWI  .                        : UNIQUE WELL ID
API  .                        : API NUMBER
SLAT .WGS84 6.036189877335097 : SURFACE LATITUDE
SLON .WGS84 3.144340008327603 : SURFACE LONGITUDE
DATUM.F                1708.0 : DEPTH DATUM ELEV
~Curve Information -----------------------------------------
DEPT.F     : 1 MEASURED DEPTH
NPOR.DEC   : NEUTRON POROSITY
DPHI.DEC   : DENSITY POROSITY
CALD.IN    : CALIPER FROM DENSITY LOG
DRHO.G/C3  : BULK DENSITY CORRECTION
PEF .B/E   : PHOTOELECTRIC FACTOR
RHOB.G/C3  : BULK DENSITY
DTCO.US/F  : DELTA-T COMPRESSIONAL
DTSM.US/F  : DELTA-T SHEAR
GRR .GAPI  : GAMMA RAY FROM RESISTIVITY LOG
ILD .OHMM  : INDUCTION DEEP RESISTIVITY
SPR .MV    : SPONTANEOUS POTENTIAL FROM RESISTIVITY LOG
SFLU.OHMM  : SHALLOW FOCUSED RESISTIVITY (UNAVERAGED)
ILM .OHMM  : INDUCTION MEDIUM RESISTIVITY
DT  .US/F  : DELTA-T (INTERVAL TRANSIT TIME)
DTL .US/F  : DELTA-T LONG SPACING
~Params ----------------------------------------------------
~Other -----------------------------------------------------
~ASCII -----------------------------------------------------
# ...
 9315.00000    0.35550    0.09640    7.72810    0.00940    3.59150    2.54470  100.27670  183.35340  109.84290    5.78670  -28.47060    7.51410    5.84580   -9999.25   -9999.25
 9315.50000    0.35710    0.10770    7.73730    0.01080    3.64210    2.52430  101.44840  183.27330  107.84110    5.60720  -28.74420    7.34430    5.89310   -9999.25   -9999.25
 9316.00000    0.36070    0.12360    7.74740    0.02730    3.69490    2.49710  100.81590  183.17090  104.66820    5.33610  -28.46440    7.87880    5.89530   -9999.25   -9999.25
 9316.50000    0.37060    0.13380    7.77080    0.04530    3.72190    2.47790   99.94480  183.07910  102.71640    5.12280  -27.81660    8.49470    5.66230   -9999.25   -9999.25
 9317.00000    0.36990    0.14270    7.79410    0.05920    3.72900    2.46250  100.58020  183.08770  105.02350    4.93440  -26.32090    8.49060    5.32630   -9999.25   -9999.25
 9317.50000    0.35270    0.14210    7.81750    0.07230    3.72340    2.46550  100.63890  183.33220  111.88120    4.75290  -24.52040    8.03230    4.95080   -9999.25   -9999.25
 9318.00000    0.33190    0.11970    7.80100    0.08530    3.74380    2.50190   98.74920  185.10720  117.63290    4.57810  -21.81190    7.48290    4.63430   -9999.25   -9999.25
 9318.50000    0.31400    0.08810    7.76600    0.09280    3.78110    2.55980   96.12410  187.03430  117.82280    4.40970  -19.10350    6.76280    4.43010   -9999.25   -9999.25
 9319.00000    0.30160    0.06050    7.73690    0.09730    3.86350    2.61310   93.92410  188.51670  114.98810    4.33710  -16.51410    6.26810    4.40750   -9999.25   -9999.25
 9319.50000    0.28920    0.03830    7.73430    0.08880    3.90330    2.65150   92.46380  188.88090  113.48630    4.30160  -13.73980    6.20000    4.40750   -9999.25   -9999.25
 9320.00000    0.26210    0.03450    7.73290    0.06330    3.93960    2.65250   88.71340  188.84120  111.08630    4.28520  -12.06640    6.58760    4.45090   -9999.25   -9999.25
 9320.50000    0.23670    0.03770    7.73150    0.03430    3.97280    2.64540   85.59590  186.23630  104.62530    4.28520  -10.80420    7.20390    4.55930   -9999.25   -9999.25
 9321.00000    0.21970    0.04150    7.72430    0.01850    4.00600    2.63780   80.67120  179.01560   94.15050    4.44770   -9.73220    7.97820    4.83590   -9999.25   -9999.25
 9321.50000    0.20280    0.04320    7.69770    0.01170    4.00610    2.63500   76.08020  167.99300   85.59830    4.87320   -9.00640    8.85210    5.22750   -9999.25   -9999.25
 9322.00000    0.19620    0.04310    7.67110    0.01120    3.95060    2.63570   73.75450  157.65070   83.14330    5.31170   -8.77570   10.01420    5.65080   -9999.25   -9999.25
 9322.50000    0.19440    0.04250    7.64450    0.01550    3.80480    2.63630   72.41110  153.51420   84.39210    5.63070   -8.65030   12.34690    6.10850   -9999.25   -9999.25
 9323.00000    0.20870    0.04410    7.61780    0.02090    3.66650    2.63490   70.99320  150.88770   88.65960    5.85270   -8.66040   13.92990    6.52230   -9999.25   -9999.25
 9323.50000    0.23420    0.05510    7.61450    0.02700    3.52830    2.60140   69.68700  149.24520   93.31300    5.85900   -8.68060   13.73440    6.52230   -9999.25   -9999.25
 9324.00000    0.26450    0.14840    7.61320    0.03210    3.39010    2.48450   69.89840  148.77460   97.69170    5.60440   -8.60960   10.81770    6.27860   -9999.25   -9999.25
 9324.50000    0.29480    0.22310    7.61190    0.03600    3.35900    2.30860   70.78960  149.20890  102.40520    5.16860   -8.62170    8.26650    5.75450   -9999.25   -9999.25
 9325.00000    0.33690    0.29640    7.61270    0.04930    3.33450    2.17250   73.86660  161.44260  106.69960    4.74060   -8.63330    7.00120    5.19790   -9999.25   -9999.25
 9325.50000    0.38010    0.34770    7.82550    0.06600    3.28980    2.10730   81.77090  175.21480  109.65340    4.33220   -8.59450    6.12880    4.68750   -9999.25   -9999.25
 9326.00000    0.40670    0.35830    7.89310    0.09990    3.27130    2.10330   88.96340  186.49220  108.71950    3.90890   -8.57670    5.24270    4.22790   -9999.25   -9999.25
 9326.50000    0.41510    0.35180    7.94250    0.13110    3.28290    2.11230   94.12600  186.12300  107.22980    3.52910   -8.71960    4.43400    3.85080   -9999.25   -9999.25
 9327.00000    0.41550    0.33090    8.00160    0.15080    3.31020    2.15050   99.84520  185.02400  107.44820    3.21360   -8.84320    3.95310    3.49820   -9999.25   -9999.25
 9327.50000    0.41140    0.30760    8.14930    0.17040    3.34530    2.18730  102.78210  185.13390  108.58930    3.00730   -8.87490    3.85120    3.15070   -9999.25   -9999.25
 9328.00000    0.40170    0.29420    8.30310    0.17490    3.38040    2.20980  100.81800  186.88380  108.82070    2.81410   -8.87770    3.85690    2.83780   -9999.25   -9999.25
 9328.50000    0.39210    0.28090    8.33380    0.16660    3.43810    2.24040  102.87720  189.02920  108.82850    2.65250   -8.80390    3.90910    2.70510   -9999.25   -9999.25
 9329.00000    0.37990    0.25140    7.96340    0.15540    3.59090    2.28130  105.98320  189.82580  109.25510    2.61620   -8.73000    3.67540    2.65290   -9999.25   -9999.25
 9329.50000    0.34310    0.19390    7.78770    0.14190    3.83520    2.36740  109.18600  170.55260  109.30920    2.63660   -8.52750    3.38740    2.81550   -9999.25   -9999.25
 9330.00000    0.29350    0.14610    7.70790    0.12010    4.07940    2.45990  107.85180  146.56760  103.77740    2.89920   -8.37280    3.15750    3.16980   -9999.25   -9999.25
 9330.50000    0.24380    0.08990    7.53680    0.08870    4.32370    2.55090  103.82190  126.75800   92.96290    3.37600   -8.21740    3.13470    3.62380   -9999.25   -9999.25
 9331.00000    0.17400    0.05980    7.41270    0.07090    4.56800    2.60570   93.99780  124.93840   78.31400    4.02740   -7.67610    3.78600    4.65980   -9999.25   -9999.25
 9331.50000    0.12990    0.03330    7.40850    0.04760    4.98720    2.64840   79.58570  123.76660   65.72900    4.75580   -7.37050    6.08020    5.99190   -9999.25   -9999.25
 9332.00000    0.10660    0.02850    7.40440    0.02700    5.16130    2.65900   70.07080  119.13390   60.00950    5.77770   -7.23540   11.20890    7.70480   -9999.25   -9999.25
 9332.50000    0.09790    0.02650    7.40020    0.00650    5.23960    2.66550   64.28380  115.90780   59.07790    8.05300   -6.85420   22.38410    9.68450   -9999.25   -9999.25
 9333.00000    0.09960    0.02560    7.39610    0.00530    5.21660    2.66630   60.80900  115.81540   60.64800   10.10190   -6.70810   35.75140   11.57320   -9999.25   -9999.25
 9333.50000    0.10990    0.02760    7.40100    0.00620    5.07050    2.66510   62.13530  120.83700   64.27920   11.70770   -6.67650   43.66150   15.14690   -9999.25   -9999.25
 9334.00000    0.12730    0.03260    7.42540    0.00820    4.94260    2.65090   63.92570  125.59780   70.24880   12.72420   -6.67960   35.41850   15.21400   -9999.25   -9999.25
 9334.50000    0.14160    0.03820    7.44990    0.01010    4.90620    2.64380   66.64280  131.43310   76.82750   13.07910   -6.71680   24.04090   14.39000   -9999.25   -9999.25
 9335.00000    0.15050    0.03960    7.48470    0.01010    4.90610    2.64300   67.20780  133.24460   81.87330   12.81730   -6.86870   17.18230   13.42990   -9999.25   -9999.25
 9335.50000    0.15100    0.03820    7.52180    0.00960    4.82640    2.64780   67.31930  133.32950   83.42020   12.06920   -7.02060   13.59240   13.23840   -9999.25   -9999.25
 9336.00000    0.15120    0.03610    7.53160    0.01070    4.53920    2.65110   67.95690  134.32950   83.41680   11.38550   -7.31910   13.11600   13.10890   -9999.25   -9999.25
 9336.50000    0.15730    0.04020    7.53220    0.03200    4.17370    2.64060   68.90400  136.37430   83.80270   10.85710   -7.59670   15.01870   12.76850   -9999.25   -9999.25
 9337.00000    0.17850    0.06770    7.53280    0.06660    3.98500    2.60840   71.06520  140.65120   88.89230   10.43640   -7.78780   16.91570   12.46670   -9999.25   -9999.25
 9337.50000    0.21190    0.10410    7.64560    0.08870    3.79770    2.54020   73.77180  145.85170   99.86720   10.05790   -8.30680   14.66280   11.66970   -9999.25   -9999.25
