~Version ---------------------------------------------------
VERS.   2.0 : CWLS log ASCII Standard -VERSION 2.0
WRAP.    NO : One line per depth step
DLM . SPACE : Column Data Section Delimiter
~Well ------------------------------------------------------
STRT .F                1564.0 : START DEPTH
STOP .F               10564.0 : STOP DEPTH
STEP .F                   0.5 : STEP
NULL .               -9999.25 : NULL VALUE
COMP .                        : COMPANY
WELL .                        : WELL
FLD  .                        : FIELD
LOC  .                        : LOCATION
PROV .                        : PROVINCE
CNTY .                        : COUNTY
STAT .                        : STATE
CTRY .                        : COUNTRY
SRVC .                        : SERVICE COMPANY
DATE .                        : DATE
UWI  .                        : UNIQUE WELL ID
API  .                        : API NUMBER
SLAT .WGS84 6.036189877335097 : SURFACE LATITUDE
SLON .WGS84 3.144340008327603 : SURFACE LONGITUDE
DATUM.F                1708.0 : DEPTH DATUM ELEV
~Curve Information -----------------------------------------
DEPT.F     : 1 MEASURED DEPTH
NPOR.DEC   : NEUTRON POROSITY
DPHI.DEC   : DENSITY POROSITY
CALD.IN    : CALIPER FROM DENSITY LOG
DRHO.G/C3  : BULK DENSITY CORRECTION
PEF .B/E   : PHOTOELECTRIC FACTOR
RHOB.G/C3  : BULK DENSITY
DTCO.US/F  : DELTA-T COMPRESSIONAL
DTSM.US/F  : DELTA-T SHEAR
GRR .GAPI  : GAMMA RAY FROM RESISTIVITY LOG
ILD .OHMM  : INDUCTION DEEP RESISTIVITY
SPR .MV    : SPONTANEOUS POTENTIAL FROM RESISTIVITY LOG
SFLU.OHMM  : SHALLOW FOCUSED RESISTIVITY (UNAVERAGED)
ILM .OHMM  : INDUCTION MEDIUM RESISTIVITY
DT  .US/F  : DELTA-T (INTERVAL TRANSIT TIME)
DTL .US/F  : DELTA-T LONG SPACING
~Params ----------------------------------------------------
~Other -----------------------------------------------------
~ASCII -----------------------------------------------------
# ...
 3956.00000    0.03660    0.07860    7.68170    0.04070    3.86370    2.57380   55.41960   97.78900   49.29200   18.75120  -38.78100   30.07480   23.21190   -9999.25   -9999.25
 3956.50000    0.03160    0.07020    7.58080    0.04950    3.89950    2.58860   54.09120   97.46300   49.17690   21.40660  -38.24520   43.39640   27.42440   -9999.25   -9999.25
 3957.00000    0.03250    0.06220    7.51570    0.05840    3.88690    2.60040   52.64440   96.96230   50.53280   24.50750  -37.83210   57.26410   32.29660   -9999.25   -9999.25
 3957.50000    0.03340    0.05760    7.51710    0.06410    3.85710    2.61210   51.10230   96.43070   50.42600   26.47000  -37.41910   71.01560   37.85300   -9999.25   -9999.25
 3958.00000    0.03290    0.06280    7.52520    0.06500    3.68900    2.59360   49.46370   95.89900   48.09820   26.08380  -36.24790   85.43720   37.97690   -9999.25   -9999.25
 3958.50000    0.02960    0.12060    7.54690    0.06200    3.50990    2.52920   47.79110   95.36730   45.22490   20.54930  -34.81260   94.33010   31.57300   -9999.25   -9999.25
 3959.00000    0.03980    0.20800    7.70340    0.05820    3.34610    2.35680   48.82280   96.61540   44.08880   14.55120  -32.15970   87.82050   20.69980   -9999.25   -9999.25
 3959.50000    0.07250    0.29510    8.00340    0.05030    3.18230    2.22600   53.44570  109.33230   47.14340   10.30380  -28.95170   53.37560   12.78520   -9999.25   -9999.25
 3960.00000    0.13380    0.38210    8.66220    0.04250    3.01840    2.11530   58.62370  131.14760   53.40880    7.17410  -25.71630   20.00250    8.78880   -9999.25   -9999.25
 3960.50000    0.19450    0.37860    9.03710    0.03880    2.95230    2.06070   60.24320  134.19850   58.63180    7.02060  -21.79940    8.44780    5.45410   -9999.25   -9999.25
 3961.00000    0.23040    0.36760    9.01370    0.03890    2.96990    2.07120   61.44930  138.10250   59.28160    7.07120  -17.01660    5.29760    5.17540   -9999.25   -9999.25
 3961.50000    0.20770    0.29600    8.59990    0.04250    3.09340    2.16420   63.05670  144.47160   54.77010    7.04750  -14.37570    5.12530    5.73580   -9999.25   -9999.25
 3962.00000    0.11810    0.20680    8.06080    0.06050    3.26440    2.28000   61.95350  142.01300   46.32520    6.99540  -13.39420    7.33820    7.06190   -9999.25   -9999.25
 3962.50000    0.07100    0.10390    7.76500    0.07170    3.43540    2.47210   58.49520  129.38950   36.33200    6.96200  -13.68300   19.43090    8.76150   -9999.25   -9999.25
 3963.00000    0.07340    0.06740    7.69320    0.07690    3.59890    2.56270   56.07370  121.48630   28.47960    6.99660  -14.84530   42.47650    9.43090   -9999.25   -9999.25
 3963.50000    0.08390    0.06710    7.67110    0.07970    3.57730    2.59820   56.27520  120.97860   28.80290    7.27660  -16.00760   58.61580    9.02850   -9999.25   -9999.25
 3964.00000    0.10390    0.08010    7.75890    0.08810    3.54000    2.58570   57.41070  123.35380   40.18640    8.29460  -17.16990   38.82540    8.46100   -9999.25   -9999.25
 3964.50000    0.14550    0.08390    7.95760    0.09690    3.49420    2.57010   57.30110  124.18160   51.71880    9.17080  -17.64970   18.79460    7.92920   -9999.25   -9999.25
 3965.00000    0.16490    0.08400    8.15060    0.10580    3.47400    2.56690   59.61330  131.63540   60.37450    9.23290  -17.12970    9.97780    7.69680   -9999.25   -9999.25
 3965.50000    0.16740    0.08370    8.30480    0.10700    3.48620    2.56680   63.98820  147.60540   63.20270    9.23290  -16.09620    6.66840    7.66360   -9999.25   -9999.25
 3966.00000    0.15790    0.08250    8.33250    0.10070    3.54160    2.56760   67.53910  158.06280   62.91940    8.81960  -15.73310    6.75790    7.80850   -9999.25   -9999.25
 3966.50000    0.13570    0.08060    8.30690    0.09370    3.64720    2.56970   67.77760  161.71120   60.85590    8.42150  -16.24370    7.47320    8.13380   -9999.25   -9999.25
 3967.00000    0.11990    0.07230    8.25550    0.08450    3.81490    2.57960   66.46880  156.42150   59.87180    8.53840  -17.09660    8.95670    8.81880   -9999.25   -9999.25
 3967.50000    0.10900    0.06840    8.27610    0.07060    3.97010    2.59180   64.67970  149.89060   59.68070    9.42570  -18.11530   10.76630    9.86290   -9999.25   -9999.25
 3968.00000    0.09200    0.06780    8.24040    0.05340    4.03470    2.60020   62.44520  140.30100   59.77740   10.22340  -19.02820   12.94150   11.11860   -9999.25   -9999.25
 3968.50000    0.08530    0.07230    8.17260    0.03870    3.77980    2.59140   58.32650  125.45830   61.53830    9.94670  -19.75690   15.55610   12.30560   -9999.25   -9999.25
 3969.00000    0.08610    0.12150    8.29500    0.02830    3.39610    2.53310   56.44330  120.47990   64.29160    8.15430  -20.48560   19.27990   11.84710   -9999.25   -9999.25
 3969.50000    0.09070    0.19130    8.40590    0.01780    3.06560    2.40970   58.08050  118.02660   66.68240    6.45080  -21.07540   20.02810    8.80010   -9999.25   -9999.25
 3970.00000    0.11560    0.38200    8.67810    0.00910    2.77800    2.17740   57.40880  117.19700   66.58050    5.02880  -20.78310   16.40240    6.09940   -9999.25   -9999.25
 3970.50000    0.19990    0.48940    9.18650    0.01710    2.57060    1.90360   59.23930  118.78280   66.54130    4.40310  -19.65380   10.98160    3.92980   -9999.25   -9999.25
 3971.00000    0.30040    0.51380    9.84200    0.03190    2.46460    1.84150   67.92990  134.25340   67.93930    4.12220  -17.65100    5.71020    3.04650   -9999.25   -9999.25
 3971.50000    0.42010    0.51380   10.91710    0.04860    2.42860    1.83130   81.35730  139.58070   70.62840    3.90070  -12.97780    2.71710    2.85230   -9999.25   -9999.25
 3972.00000    0.37250    0.43850   10.99100    0.06740    2.58670    1.85170   93.56430  126.83920   71.93340    3.80240   -9.91520    2.59800    2.89670   -9999.25   -9999.25
 3972.50000    0.27760    0.35320    9.94990    0.08580    2.78880    2.05610  101.08710  112.72210   68.85830    3.77470   -8.31250    2.85850    3.45980   -9999.25   -9999.25
 3973.00000    0.18280    0.27060    8.97010    0.09360    3.23470    2.15400  101.87260  112.30940   58.10980    3.80880   -8.78180    3.97110    4.36620   -9999.25   -9999.25
 3973.50000    0.07430    0.14290    8.19700    0.09430    3.67150    2.32480   92.86520  112.26000   48.12890    3.94950  -10.57230    6.42780    5.30240   -9999.25   -9999.25
 3974.00000    0.06400    0.05330    7.61410    0.09370    4.04840    2.50090   79.81790  109.64390   42.77030    4.82930  -13.17370   10.69630    6.33650   -9999.25   -9999.25
 3974.50000    0.06510    0.04810    7.03440    0.08790    4.31570    2.62320   68.85290  104.25040   44.25120    6.17490  -15.77520   14.00700    7.74520   -9999.25   -9999.25
 3975.00000    0.07450    0.05850    7.40930    0.07620    4.36630    2.63260   62.72780   97.79460   50.01030    8.30290  -18.34070   13.47940    9.54560   -9999.25   -9999.25
 3975.50000    0.09150    0.07290    7.80250    0.06780    4.46130    2.60130   58.02420   94.90040   55.90020   12.23000  -19.59790   11.06760   11.27380   -9999.25   -9999.25
 3976.00000    0.10220    0.08770    7.85020    0.06890    4.40820    2.58060   58.46610   98.36800   55.83120   14.66020  -21.01320   10.24890   13.15120   -9999.25   -9999.25
 3976.50000    0.09700    0.08910    7.77850    0.07380    4.33770    2.56180   58.95620  103.93850   50.40600   14.89320  -22.49540   12.75320   14.54300   -9999.25   -9999.25
 3977.00000    0.09140    0.08980    7.63960    0.07860    4.27950    2.55670   56.54960  106.05800   40.04880   15.08430  -24.20540   25.68030   18.21890   -9999.25   -9999.25
 3977.50000    0.08740    0.09020    7.59460    0.07950    4.22130    2.55400   54.04810  106.04630   31.18890   15.84280  -26.74490   58.36860   19.90690   -9999.25   -9999.25
 3978.00000    0.08440    0.09020    7.57150    0.07890    4.15870    2.55550   51.37700  102.92140   25.39730   19.49300  -28.73500   95.27910   23.16910   -9999.25   -9999.25
 3978.50000    0.08640    0.09050    7.58210    0.07830    4.09230    2.55380   48.62900   94.32110   23.30680   24.34750  -29.97780  102.29170   27.44770   -9999.25   -9999.25
