~Version ---------------------------------------------------
VERS.   2.0 : CWLS log ASCII Standard -VERSION 2.0
WRAP.    NO : One line per depth step
DLM . SPACE : Column Data Section Delimiter
~Well ------------------------------------------------------
STRT .F                  152.0 : START DEPTH
STOP .F                 8366.0 : STOP DEPTH
STEP .F                    0.5 : STEP
NULL .                -9999.25 : NULL VALUE
COMP .                         : COMPANY
WELL .                         : WELL
FLD  .                         : FIELD
LOC  .                         : LOCATION
PROV .                         : PROVINCE
CNTY .                         : COUNTY
STAT .                         : STATE
CTRY .                         : COUNTRY
SRVC .                         : SERVICE COMPANY
DATE .                         : DATE
UWI  .                         : UNIQUE WELL ID
API  .                         : API NUMBER
SLAT .WGS84 2.6385479759627017 : SURFACE LATITUDE
SLON .WGS84  9.088750169529007 : SURFACE LONGITUDE
DATUM.F                4021.82 : DEPTH DATUM ELEV
~Curve Information -----------------------------------------
DEPT .F     : 
DTCO .US/F  : COMPRESSIONAL-WAVE INTERVAL TRANSIT TIME ACOUSTIC SLOWNESS
DTSM .US/F  : SHEAR-WAVE INTERVAL TRANSIT
HCALS.IN    : HILT CALIPER
DT4P .US/F  : COMPRESSIONAL-WAVE INTERVAL TRANSIT TIME ACOUSTIC SLOWNESS, P&S MODE
DT4S .US/F  : SHEAR-WAVE INTERVAL TRANSIT TIME ACOUSTIC SLOWNESS, P&S MODE
DTRP .US/F  : Delta-T Compressional, Receiver Array - Monopole P&S
DTRS .US/F  : INTERVAL TRANSIT TIME FOR RECEIVER ARRAY
DTTP .US/F  : INTERVAL TRANSIT TIME FROM TRANSMITTER ARRAY
DTTS .US/F  : INTERVAL TRANSIT TIME FOR TRANSMITTER ARRAY
GRD  .GAPI  : GAMMA RAY FROM DENSITY LOG
TNPH .DEC   : THERMAL NEUTRON POROSITY
HDRA .G/C3  : DELTA RHO HIP TOOL
PEFZ .B/E   : FORMATION PHETOELECTRIC FACTOR
DPHZ .DEC   : DENSITY POROSITY LIMESTONE
RHOZ .G/C3  : HILT BULK DENSITY
~Params ----------------------------------------------------
~Other -----------------------------------------------------
~ASCII -----------------------------------------------------
# ...
 3763.00000   54.07030   94.20530    9.18250   45.32790   89.24110   42.65230   88.38050   49.60350   89.98650   24.74220    0.01780    0.00270    4.31490    0.00550    2.70690
 3763.50000   54.06570   94.38760    9.18320   45.32790   89.24110   42.52320   88.38050   49.56440   89.98650   24.79790    0.01780    0.00520    4.29520   -0.00820    2.72290
 3764.00000   54.18940   94.35740    9.18350   44.28430   89.22260   42.39410   88.36200   48.73040   89.96800   24.73290    0.01770    0.00540    4.36510   -0.00920    2.72890
 3764.50000   54.34170   93.94930    9.18380   44.05060   89.38920   42.26500   88.52500   48.57270   90.13790   24.54790    0.01800    0.00260    4.40290    0.00730    2.70950
 3765.00000   54.00150   93.61530    9.18280   44.05060   88.91630   42.13580   88.05570   49.05160   89.66170   24.64810    0.01830    0.00030    4.38530    0.01900    2.68320
 3765.50000   52.03720   93.51900    9.17510   44.10210   88.92280   42.06570   88.06230   49.53040   89.66820   26.33800    0.01840   -0.00080    4.30030    0.02040    2.67630
 3766.00000   50.33270   93.55510    9.17870   44.25710   88.88890   42.15460   88.01690   50.00930   89.64410   29.29960    0.01800   -0.00190    4.27570    0.01800    2.67990
 3766.50000   50.13280   93.62240    9.18400   44.41200   89.74620   42.24350   88.87750   50.24220   90.49900   32.05440    0.01770   -0.00300    4.30130    0.01300    2.68960
 3767.00000   50.25870   93.63050    9.17960   44.56700   89.65590   42.33240   88.79290   50.09830   90.40340   34.24490    0.01740   -0.00400    4.35620    0.01120    2.69170
 3767.50000   50.66350   93.27270    9.18800   44.79830   89.36210   42.42140   88.50050   49.88920   90.10830   34.20330    0.01700   -0.00430    4.41540    0.01280    2.68650
 3768.00000   51.12020   92.63070    9.18290   45.31520   88.99020   42.51030   88.12220   49.68010   89.74170   31.57390    0.01670   -0.00710    4.40390    0.01690    2.67660
 3768.50000   51.31020   92.22320    9.18500   45.83220   88.82300   42.59920   87.96230   49.47100   89.56840   28.00850    0.01650   -0.00880    4.36250    0.02410    2.66950
 3769.00000   51.35580   92.17140    9.18480   45.43210   88.78940   42.68020   87.92840   49.26190   89.53480   24.48100    0.01620   -0.00780    4.32100    0.02260    2.67240
 3769.50000   51.45770   92.46150    9.18750   45.18400   88.54080   42.67920   87.67880   49.05280   89.28760   22.86710    0.01650   -0.00450    4.28410    0.01470    2.68650
 3770.00000   51.51490   92.60740    9.18430   45.16670   88.34860   42.67820   87.48770   49.08830   89.09430   23.34120    0.01680   -0.00130    4.33200    0.01000    2.69400
 3770.50000   51.48230   92.74100    9.18580   45.14940   88.07250   42.67720   87.20720   49.21620   88.82210   23.89590    0.01700   -0.00050    4.39840    0.01380    2.68940
 3771.00000   51.37360   92.79260    9.18860   45.13210   88.79490   42.67620   87.92090   49.34420   89.55160   23.64390    0.01800   -0.00210    4.34690    0.02020    2.67800
 3771.50000   51.46920   92.83900    9.18950   45.11480   89.48260   42.67520   88.60980   49.47220   90.23870   23.14160    0.01950   -0.00190    4.05800    0.02400    2.67180
 3772.00000   51.56900   92.98010    9.19250   45.09750   89.78580   42.67480   88.92040   49.60020   90.53500   23.25920    0.02020    0.00030    3.69150    0.02370    2.67250
 3772.50000   51.47340   93.09280    9.19470   45.08030   89.73040   42.67480   88.86270   49.86080   90.48300   24.09540    0.02030    0.00160    3.41300    0.02300    2.67480
 3773.00000   51.32140   93.15100    9.19090   45.09670   89.20280   42.67480   88.33810   50.16090   89.95190   25.79540    0.02020    0.00130    3.39150    0.02230    2.67680
 3773.50000   51.23280   93.07750    9.18720   45.34780   88.84060   42.67480   87.97990   49.95370   89.58610   28.14950    0.01980    0.00010    3.55510    0.02160    2.67740
 3774.00000   50.78930   92.75590    9.18340   45.59890   88.82970   42.67480   87.96900   49.46310   89.57530   29.79390    0.01870   -0.00180    3.78390    0.02130    2.67710
 3774.50000   50.33890   92.86560    9.18880   45.85010   89.12110   42.67480   88.25570   48.97250   89.87080   29.70860    0.01700   -0.00370    3.99070    0.02400    2.67060
 3775.00000   50.02040   92.98090    9.19260   46.10120   89.01260   42.67480   88.14420   48.48190   89.75990   28.86570    0.01530   -0.00370    4.10630    0.02730    2.66520
 3775.50000   49.80420   92.67620    9.18960   46.30850   88.41060   42.67480   87.54080   48.35200   89.16420   28.73850    0.01490   -0.00280    4.02930    0.02640    2.66520
 3776.00000   49.69590   92.20760    9.18960   45.40920   87.88590   42.67480   87.02100   48.29460   88.63520   28.62420    0.01480   -0.00300    4.00730    0.02310    2.66930
 3776.50000   49.65620   91.69310    9.18960   44.50990   87.63510   42.42630   86.77440   48.00680   88.38060   28.07200    0.01520   -0.00420    4.16910    0.02100    2.67530
 3777.00000   49.68410   91.16320    9.18960   43.68130   87.63510   41.85790   86.77440   48.17340   88.38060   26.20100    0.01560   -0.00480    4.36580    0.02100    2.68190
 3777.50000   50.17760   91.37010    9.18960   43.15520   87.63510   41.47010   86.77440   48.34010   88.38060   24.35710    0.01610   -0.00300    4.35460    0.01440    2.69230
 3778.00000   50.67000   92.03230    9.18400   43.64630   87.89220   41.85550   86.99720   48.50680   88.66860   22.79400    0.01650   -0.00040    4.19740    0.00910    2.69670
 3778.50000   50.82760   91.93180    9.18330   44.50890   88.67220   42.39500   87.80640   48.67340   89.42240   21.37230    0.01690    0.00050    4.02430    0.01510    2.69190
 3779.00000   50.92630   91.58170    9.18830   45.52150   88.92610   43.07000   88.06520   48.84010   89.67190   20.01850    0.01710    0.00040    3.86100    0.02240    2.68150
 3779.50000   51.07360   91.82610    9.18960   45.70390   89.22400   43.74510   88.36210   49.01380   89.97040   20.43770    0.01740    0.00010    3.73960    0.02730    2.67100
 3780.00000   51.31410   92.23590    9.18960   45.79080   89.22540   43.49790   88.36480   49.25430   89.97080   22.47540    0.01760   -0.00140    3.74210    0.02820    2.66280
 3780.50000   51.42270   92.65110    9.18960   45.92720   89.22480   42.84180   88.36420   49.49490   89.97020   24.57300    0.01790   -0.00300    3.74900    0.02770    2.66120
 3781.00000   51.47390   92.66140    9.18120   46.06360   89.23630   42.18580   88.37570   49.73540   89.98160   26.08860    0.01950   -0.00110    3.69060    0.02560    2.66630
 3781.50000   51.44200   92.72460    9.17750   46.16980   89.19890   42.04160   88.33830   49.97600   89.94440   27.19400    0.02130    0.00060    3.51250    0.02270    2.67360
 3782.00000   51.54990   92.95370    9.18300   46.19600   89.75060   42.04160   88.86830   50.21650   90.51510   27.43270    0.02280    0.00120    3.40400    0.02130    2.67510
 3782.50000   51.66310   93.16580    9.18700   46.22210   90.40970   42.04160   89.54920   50.27290   91.15510   25.73860    0.02370    0.00080    3.44120    0.02000    2.67590
 3783.00000   51.78740   93.02340    9.18740   46.24820   89.84810   42.04160   88.98750   50.27290   90.59350   23.43310    0.02120   -0.00010    3.82470    0.01860    2.67700
 3783.50000   52.02390   92.78240    9.18650   46.27430   89.80890   42.04160   88.94830   50.27290   90.55420   21.75110    0.01970   -0.00100    4.07150    0.01740    2.67870
 3784.00000   52.15110   92.62590    9.18900   46.29640   89.82870   42.04160   88.96580   50.35930   90.57630   21.06650    0.01910   -0.00120    4.11160    0.01630    2.68040
 3784.50000   51.86100   91.90340    9.18950   46.29640   90.04460   42.17390   89.18410   50.47530   90.79000   20.15230    0.01890   -0.00090    4.00150    0.01660    2.68210
 3785.00000   51.37220   91.33720    9.18940   46.29640   90.04460   42.46560   89.18410   50.59130   90.79000   19.25940    0.01890    0.00030    3.83280    0.01360    2.68460
 3785.50000   51.51920   91.16680    9.18930   46.29640   90.04460   43.16850   89.18410   50.70720   90.79000   19.67830    0.01940    0.00980    3.75650    0.00610    2.70170
