~Version ---------------------------------------------------
VERS.   2.0 : CWLS log ASCII Standard -VERSION 2.0
WRAP.    NO : One line per depth step
DLM . SPACE : Column Data Section Delimiter
~Well ------------------------------------------------------
STRT .F                  152.0 : START DEPTH
STOP .F                 8366.0 : STOP DEPTH
STEP .F                    0.5 : STEP
NULL .                -9999.25 : NULL VALUE
COMP .                         : COMPANY
WELL .                         : WELL
FLD  .                         : FIELD
LOC  .                         : LOCATION
PROV .                         : PROVINCE
CNTY .                         : COUNTY
STAT .                         : STATE
CTRY .                         : COUNTRY
SRVC .                         : SERVICE COMPANY
DATE .                         : DATE
UWI  .                         : UNIQUE WELL ID
API  .                         : API NUMBER
SLAT .WGS84 2.6385479759627017 : SURFACE LATITUDE
SLON .WGS84  9.088750169529007 : SURFACE LONGITUDE
DATUM.F                4021.82 : DEPTH DATUM ELEV
~Curve Information -----------------------------------------
DEPT .F     : 
DTCO .US/F  : COMPRESSIONAL-WAVE INTERVAL TRANSIT TIME ACOUSTIC SLOWNESS
DTSM .US/F  : SHEAR-WAVE INTERVAL TRANSIT
HCALS.IN    : HILT CALIPER
DT4P .US/F  : COMPRESSIONAL-WAVE INTERVAL TRANSIT TIME ACOUSTIC SLOWNESS, P&S MODE
DT4S .US/F  : SHEAR-WAVE INTERVAL TRANSIT TIME ACOUSTIC SLOWNESS, P&S MODE
DTRP .US/F  : Delta-T Compressional, Receiver Array - Monopole P&S
DTRS .US/F  : INTERVAL TRANSIT TIME FOR RECEIVER ARRAY
DTTP .US/F  : INTERVAL TRANSIT TIME FROM TRANSMITTER ARRAY
DTTS .US/F  : INTERVAL TRANSIT TIME FOR TRANSMITTER ARRAY
GRD  .GAPI  : GAMMA RAY FROM DENSITY LOG
TNPH .DEC   : THERMAL NEUTRON POROSITY
HDRA .G/C3  : DELTA RHO HIP TOOL
PEFZ .B/E   : FORMATION PHETOELECTRIC FACTOR
DPHZ .DEC   : DENSITY POROSITY LIMESTONE
RHOZ .G/C3  : HILT BULK DENSITY
~Params ----------------------------------------------------
~Other -----------------------------------------------------
~ASCII -----------------------------------------------------
# ...
 2866.00000   62.43110  109.17120   10.22040  100.10110  155.37680  105.10560  152.85020   95.16800  155.56360   37.95690    0.10090   -0.00150    2.57760    0.07230    2.60760
 2866.50000   59.84710  106.81880   10.19630   99.57250  159.78210  102.17170  157.15840   98.14740  159.43560   31.72050    0.09200   -0.00110    2.67040    0.05270    2.63030
 2867.00000   58.30880  105.21320   10.18840   98.70070  162.51490   99.23780  158.85680   98.14740  163.09870   28.70350    0.09340   -0.00050    2.75870    0.03930    2.64540
 2867.50000   57.01110  103.97820   10.18690   97.53920  163.07850   96.30390  158.98260   97.04870  163.65700   28.53340    0.10110    0.00000    2.87820    0.03600    2.64750
 2868.00000   56.16160  103.01780   10.18700   96.28050  163.24960   93.83150  158.97280   95.52980  163.64520   29.64720    0.10790    0.00050    2.93670    0.03550    2.64840
 2868.50000   55.62520  102.08910   10.16250   95.52750  163.60850   92.45840  158.95470   95.65070  163.62510   30.78460    0.11050    0.00010    2.97850    0.03490    2.65060
 2869.00000   54.97580  101.30460   10.13360   95.47340  163.36650   92.78200  158.93460   95.77160  163.01810   31.92060    0.10970   -0.00090    2.97960    0.03380    2.65310
 2869.50000   54.37950   98.98710   10.10110   95.09200  162.79730   93.11010  158.91450   95.89250  161.43910   33.84520    0.10810   -0.00250    2.96100    0.03330    2.65480
 2870.00000   54.35550   97.61110   10.08210   94.73290  160.76780   93.43810  158.61800   96.01330  159.86010   37.66810    0.10380   -0.00480    2.86940    0.03740    2.63340
 2870.50000   57.88600   97.84270   10.06770   94.39270  158.73840   93.67340  157.81190   96.22840  158.28120   41.88390    0.09810   -0.00560    2.78220    0.04720    2.60800
 2871.00000   60.08900  100.74850   10.04060   95.01180  156.90470   93.29030  156.47280   96.94440  156.70220   50.36670    0.09130   -0.00510    2.66850    0.06080    2.58260
 2871.50000   62.21950  103.54170   10.01530   96.46560  156.02570   93.33110  156.45110   97.74120  156.19410   58.63750    0.08440   -0.00470    2.56120    0.07780    2.56960
 2872.00000   63.59730  106.01250   10.00600   98.41840  157.10470   94.56680  158.55430   98.67440  158.48670   64.31750    0.08530   -0.00420    2.51280    0.08060    2.57680
 2872.50000   64.26060  107.99800    9.99730  100.34920  158.46470   97.70180  160.17320   99.60760  160.61650   62.26190    0.08840   -0.00380    2.50470    0.07360    2.59310
 2873.00000   64.37030  108.97370    9.99660  100.47750  158.86220   98.44700  158.95530   99.20000  160.10180   57.11250    0.08840   -0.00340    2.52490    0.06610    2.59810
 2873.50000   63.89890  108.67050    9.99590  100.86070  144.70110   96.00450  145.55920   93.23550  148.21550   50.78500    0.08710   -0.00310    2.53590    0.06810    2.58830
 2874.00000   62.64610  106.27040    9.99540  101.24380  133.25020   93.15070  141.81560   84.87190  133.63580   43.67680    0.08570   -0.00430    2.50550    0.08010    2.57330
 2874.50000   61.12470  103.40750    9.99530  101.34690  142.40580   94.15640  147.46470   88.63460  146.18720   33.01270    0.08270   -0.00580    2.44970    0.09080    2.55820
 2875.00000   59.92530  101.02890    9.99050  100.15480  160.49090   96.95470  156.26970   96.10110  160.59880   25.24760    0.07620   -0.00670    2.38070    0.09180    2.54800
 2875.50000   59.85300   99.23480    9.96680   99.11530  163.88700   99.63920  163.40150   99.31230  163.84730   21.65710    0.06990   -0.00680    2.32320    0.09400    2.54720
 2876.00000   60.59390   99.11230    9.94510   98.96430  165.75480  100.75700  166.26060   99.31230  166.05930   22.71490    0.06420   -0.00720    2.31430    0.09370    2.54820
 2876.50000   61.62210  100.01960    9.93840   98.91300  167.49020  100.75700  167.20690   98.90860  167.71980   25.15570    0.06080   -0.00690    2.33900    0.09270    2.55340
 2877.00000   62.49570  101.75730    9.94700   98.67350  166.80110   99.40130  166.33400   98.34430  167.18340   26.60320    0.06050   -0.00730    2.36360    0.08980    2.55970
 2877.50000   63.05580  104.31700    9.96740   98.49120  164.79340   98.73710  163.77260   97.78000  164.62270   26.66630    0.06360   -0.00730    2.41400    0.08540    2.57480
 2878.00000   62.85180  105.59230    9.97630   98.53310  162.78560   97.96360  161.21130   97.21570  162.06210   28.01980    0.07070   -0.00730    2.52340    0.07930    2.59040
 2878.50000   62.16880  106.15760    9.97600   98.57510  161.89720   97.19000  159.81810   96.88580  160.86050   31.82090    0.07750   -0.00760    2.58440    0.06600    2.60600
 2879.00000   61.70010  106.21520    9.97210   98.61700  161.13670   96.84370  159.53380   96.58850  160.50190   36.81740    0.08410   -0.00570    2.63920    0.05440    2.61630
 2879.50000   62.02520  106.31990    9.97080  100.22690  160.37620   97.61090  159.53380   96.29120  160.14330   40.98480    0.09000   -0.00100    2.64570    0.05580    2.61690
 2880.00000   63.26130  106.97170    9.97090  101.92570  159.61560   99.22880  159.29440   97.01090  159.78470   46.45720    0.10180    0.00100    2.58340    0.08800    2.56470
 2880.50000   64.49950  107.65180    9.97200  102.24840  158.99810  101.09080  159.04900   98.36280  159.47210   56.70680    0.11150   -0.00100    2.49690    0.13800    2.43130
 2881.00000   65.24220  108.14040    9.97330  102.71850  158.99810  102.53630  158.36130  100.77480  159.29730   66.56860    0.11800   -0.00290    2.40540    0.16410    2.42930
 2881.50000   65.49520  109.06150    9.98720  104.40460  158.99810  103.97010  156.91910  103.58970  159.12260   76.12950    0.11470   -0.00400    2.38320    0.14750    2.44420
 2882.00000   65.16120  109.55750   10.00860  106.65720  158.14540  105.40390  155.12060  106.40460  158.94090   82.54210    0.10960   -0.00430    2.44590    0.11570    2.49570
 2882.50000   64.66840  110.05350   10.03010  109.50680  155.90660  106.83770  153.08090  106.21600  158.74150   85.44260    0.10540   -0.00590    2.51090    0.09010    2.53920
 2883.00000   64.50000  110.54950   10.05160  109.19870  153.03590  105.13670  151.04120  103.36440  158.54200   77.24680    0.10490   -0.00960    2.62230    0.07610    2.57730
 2883.50000   64.37840  111.34230   10.06980  106.65440  150.16520  103.43590  148.85210  100.58930  158.34260   59.16920    0.11540   -0.01080    2.73010    0.06080    2.61540
 2884.00000   62.79950  110.85500   10.07570  104.43060  147.29440  101.76710  146.43280   99.50660  158.14320   41.23130    0.11910   -0.00980    2.79730    0.04690    2.62790
 2884.50000   60.60740  109.50020   10.08160  103.45820  145.90900  101.78690  144.73410   99.37440  158.10710   29.36350    0.12470   -0.00700    2.83480    0.05220    2.62280
 2885.00000   59.65430  108.39080   10.08500  103.45820  148.17040  102.07190  146.24010  100.95550  158.52410   26.60030    0.13290   -0.00480    2.83340    0.06710    2.59520
 2885.50000   59.58930  107.78820   10.07380  103.60740  150.43170  102.35700  150.51200  102.68380  158.94100   25.99910    0.14340   -0.00260    2.82830    0.09220    2.55590
 2886.00000   60.14280  107.79210   10.06260  105.23380  151.46700  102.40650  152.40990  103.06060  159.35790   25.88390    0.14980   -0.00120    2.77710    0.11370    2.51360
 2886.50000   61.02100  108.01160   10.07280  103.49140  149.30180  102.31210  149.50330  102.21380  159.31260   25.76040    0.14320   -0.00010    2.70590    0.11430    2.51390
 2887.00000   61.82790  108.64010   10.09170  102.29680  146.49890  101.77080  146.59360  100.92580  159.09580   24.89070    0.13560    0.00110    2.67280    0.10150    2.53580
 2887.50000   62.36130  109.27560   10.11960  100.79910  143.69610   99.70140  143.68390   99.63790  158.87910   23.02700    0.12800    0.00060    2.64550    0.09200    2.55250
 2888.00000   62.88600  109.80070   10.14600  103.03170  141.61700   98.26170  142.07440  100.33270  158.55500   21.99150    0.12220   -0.00060    2.64260    0.09920    2.54710
 2888.50000   63.38630  110.32580   10.16320  102.94570  141.22830   98.54610  140.99220  101.23530  158.01180   21.75090    0.11850   -0.00230    2.62850    0.10580    2.53550
