~Version ---------------------------------------------------
VERS.   2.0 : CWLS log ASCII Standard -VERSION 2.0
WRAP.    NO : One line per depth step
DLM . SPACE : Column Data Section Delimiter
~Well ------------------------------------------------------
STRT .F                  152.0 : START DEPTH
STOP .F                 8366.0 : STOP DEPTH
STEP .F                    0.5 : STEP
NULL .                -9999.25 : NULL VALUE
COMP .                         : COMPANY
WELL .                         : WELL
FLD  .                         : FIELD
LOC  .                         : LOCATION
PROV .                         : PROVINCE
CNTY .                         : COUNTY
STAT .                         : STATE
CTRY .                         : COUNTRY
SRVC .                         : SERVICE COMPANY
DATE .                         : DATE
UWI  .                         : UNIQUE WELL ID
API  .                         : API NUMBER
SLAT .WGS84 2.6385479759627017 : SURFACE LATITUDE
SLON .WGS84  9.088750169529007 : SURFACE LONGITUDE
DATUM.F                4021.82 : DEPTH DATUM ELEV
~Curve Information -----------------------------------------
DEPT .F     : 
DTCO .US/F  : COMPRESSIONAL-WAVE INTERVAL TRANSIT TIME ACOUSTIC SLOWNESS
DTSM .US/F  : SHEAR-WAVE INTERVAL TRANSIT
HCALS.IN    : HILT CALIPER
DT4P .US/F  : COMPRESSIONAL-WAVE INTERVAL TRANSIT TIME ACOUSTIC SLOWNESS, P&S MODE
DT4S .US/F  : SHEAR-WAVE INTERVAL TRANSIT TIME ACOUSTIC SLOWNESS, P&S MODE
DTRP .US/F  : Delta-T Compressional, Receiver Array - Monopole P&S
DTRS .US/F  : INTERVAL TRANSIT TIME FOR RECEIVER ARRAY
DTTP .US/F  : INTERVAL TRANSIT TIME FROM TRANSMITTER ARRAY
DTTS .US/F  : INTERVAL TRANSIT TIME FOR TRANSMITTER ARRAY
GRD  .GAPI  : GAMMA RAY FROM DENSITY LOG
TNPH .DEC   : THERMAL NEUTRON POROSITY
HDRA .G/C3  : DELTA RHO HIP TOOL
PEFZ .B/E   : FORMATION PHETOELECTRIC FACTOR
DPHZ .DEC   : DENSITY POROSITY LIMESTONE
RHOZ .G/C3  : HILT BULK DENSITY
~Params ----------------------------------------------------
~Other -----------------------------------------------------
~ASCII -----------------------------------------------------
# ...
 6063.00000   55.23340  102.80410    8.93320   61.90290   99.66660   61.15620   98.80270   63.42760  100.41490   46.02260    0.05750    0.00010    4.37940    0.03200    2.65380
 6063.50000   55.44110  103.47270    8.94780   61.67850   99.95350   60.93170   99.08790   63.47750  100.70350   46.08360    0.05500   -0.00010    4.45290    0.03880    2.64160
 6064.00000   55.80230  103.35530    8.95370   61.45540   99.95140   60.70980   99.08930   63.31700  100.69810   46.25050    0.05550   -0.00030    4.47340    0.04190    2.63900
 6064.50000   56.56270  103.13030    8.96000   61.46610   99.97130   60.72050   99.09770   62.36480  100.72780   47.16680    0.05690   -0.00060    4.49400    0.04240    2.63630
 6065.00000   57.60650  103.09960    8.96870   62.41460  100.71630   61.63680   99.83610   63.17410  101.47900   48.31680    0.05900   -0.00150    4.48610    0.04600    2.63200
 6065.50000   59.62790  102.98350    8.97800   63.60200  101.17520   62.82430  100.30980   64.36160  101.92430   49.26120    0.06150   -0.00210    4.44420    0.04790    2.63060
 6066.00000   61.78190  102.86730    8.97710   63.71500  100.99740   62.93070  100.12890   64.48120  101.74970   49.92500    0.06440   -0.00130    4.39350    0.04610    2.63390
 6066.50000   64.34190  102.88820    8.88920   62.95510  100.80000   62.20120   99.93760   63.69160  101.54700   49.21330    0.06920   -0.00080    4.32310    0.03970    2.63950
 6067.00000   65.53140  103.25380    8.83910   62.35530  100.81370   61.60120   99.95160   63.09190  101.56040   46.88470    0.07340   -0.00040    4.29400    0.03690    2.64510
 6067.50000   65.64250  103.58030    8.83160   61.90320  100.57530   61.15470   99.70800   62.63440  101.32690   44.17880    0.07410   -0.00010    4.29320    0.03750    2.65080
 6068.00000   64.31350  103.22360    8.82860   61.55430  100.79020   60.73520   99.92370   62.48910  101.54090   44.12880    0.07350    0.00030    4.24790    0.03090    2.65990
 6068.50000   62.63680  103.73180    8.82420   61.20530  100.54750   59.66480   99.68010   62.42400  101.29900   45.54560    0.07180    0.00150    4.21730    0.02470    2.67100
 6069.00000   60.94820  104.46410    8.84210   60.85630   99.90180   58.59430   99.03070   62.35890  100.65670   45.57280    0.07030    0.00250    4.24110    0.01840    2.67810
 6069.50000   59.33100  103.93510    8.86440   60.50730   99.59350   57.52390   98.73120   62.29380  100.34040   42.54660    0.06960    0.00250    4.30480    0.01850    2.67910
 6070.00000   58.18230  103.21620    8.88680   60.36030  100.14140   57.15810   99.23910   63.55610  100.92280   38.73180    0.06890    0.00190    4.36910    0.01900    2.67860
 6070.50000   57.29670  102.98260    8.90430   60.50850  100.74410   58.90620   99.88010   63.95740  101.49250   35.50180    0.06890    0.00140    4.39150    0.01950    2.67790
 6071.00000   56.87890  103.07010    8.90380   60.39030   99.65040   59.64090   98.78840   62.42480  100.39700   34.10890    0.06870    0.00120    4.38660    0.01970    2.67810
 6071.50000   56.38330  103.13170    8.90330   59.89380   99.53940   59.14450   98.67740   62.45890  100.28610   34.68610    0.06770    0.00110    4.35160    0.01820    2.67970
 6072.00000   56.27670  103.15570    8.92090   59.39730   99.55210   58.64800   98.68670   61.67980  100.30140   36.66530    0.06590    0.00100    4.31140    0.01730    2.68130
 6072.50000   56.58290  103.06660    8.96780   58.90080   99.79430   58.15150   98.93100   59.63270  100.54190   39.27640    0.06110   -0.00330    4.27570    0.01710    2.68290
 6073.00000   57.37070  102.97530    8.99140   58.48640  100.14590   57.74090   99.27730   59.21470  100.89810   39.56860    0.05760   -0.00910    4.29300    0.01610    2.68450
 6073.50000   58.59710  103.04510    8.98660   58.68680  100.39750   57.92980   99.53470   59.42730  101.14490   39.06900    0.05710   -0.01400    4.31480    0.01470    2.68480
 6074.00000   59.92280  102.99050    8.96330   59.33020  100.20560   58.57300   99.34260   60.07060  100.95310   38.88600    0.05930   -0.01080    4.32380    0.01510    2.68490
 6074.50000   60.82670  102.90230    8.92750   59.92770  100.38410   59.18220   99.52210   60.65610  101.13090   39.61310    0.06070   -0.00660    4.34610    0.01970    2.67730
 6075.00000   61.63510  102.80780    8.89160   59.88990  100.16090   59.08240   99.29840   61.55450  100.90820   41.18870    0.06260   -0.00470    4.37860    0.02800    2.65310
 6075.50000   61.68660  102.85500    8.85610   59.85210   99.79510   58.39690   98.92840   62.70030  100.54650   41.92380    0.06370   -0.00490    4.41100    0.03450    2.65300
 6076.00000   61.22420  102.93990    8.83620   59.81440   98.99060   57.71140   98.09790   63.84600   99.76470   40.01960    0.06400   -0.00370    4.43150    0.03510    2.65930
 6076.50000   59.98390  102.55130    8.83610   59.84510   98.26740   57.02590   97.40200   64.99180   99.01750   37.40050    0.06380   -0.00120    4.41290    0.02920    2.67130
 6077.00000   58.37320  102.47380    8.83600   60.52300   97.35660   56.34040   96.48900   65.75370   98.10770   34.87250    0.06320    0.00070    4.37480    0.02200    2.67260
 6077.50000   57.55690  102.22560    8.82780   61.20100   97.50620   55.90940   96.63870   66.17770   98.25780   32.24320    0.06240    0.00010    4.38140    0.02330    2.67310
 6078.00000   56.89220  102.12960    8.83310   61.41890   97.61880   55.64990   96.75210   66.58530   98.36950   31.21260    0.06160   -0.00260    4.43370    0.02710    2.65870
 6078.50000   56.20730  101.90690    8.85290   61.21230   97.27430   55.39040   96.39190   66.99300   98.03810   31.30680    0.06020   -0.00390    4.49750    0.03100    2.65920
 6079.00000   55.77770  101.36180    8.87670   60.83870   96.55060   55.13090   95.68810   67.40060   97.29750   32.47520    0.05830   -0.00180    4.47050    0.02480    2.66630
 6079.50000   55.71020  100.49890    8.90060   60.73870   96.89790   55.74130   96.02890   67.04850   97.65030   32.80180    0.05620    0.00020    4.44610    0.02240    2.67510
 6080.00000   55.89410  100.74170    8.92450   62.41740   97.93360   58.67620   96.71540   66.18840   98.69220   32.89600    0.05450    0.00070    4.40070    0.02100    2.67720
 6080.50000   56.30890  101.58630    8.94840   64.59800   97.77950   63.68410   96.90880   66.55340   98.57100   33.16370    0.05510    0.00080    4.36630    0.02320    2.67510
 6081.00000   56.92580  101.88880    8.95310   66.51110   98.22720   65.73480   97.35640   67.26870   99.23200   35.04670    0.05790    0.00140    4.34430    0.02160    2.67500
 6081.50000   57.41450  102.20270    8.95720   66.95480   98.59930   66.20510   97.73240   67.68730   99.83450   37.75430    0.06160    0.00410    4.32240    0.01420    2.68820
 6082.00000   58.01420  102.86280    8.94230   67.58190   98.89300   66.82080   98.02090   68.32570   99.93000   40.60080    0.06480    0.00560    4.25720    0.00720    2.69820
 6082.50000   58.68340  103.00180    8.92480   68.14360   99.38490   67.39270   98.51400   68.87740  100.02550   42.90740    0.06580    0.00520    4.22450    0.00710    2.69660
 6083.00000   59.09390  102.88260    8.90720   68.43190   98.99860   67.68100   98.12230   69.16570   99.75750   43.57260    0.06260    0.00430    4.22560    0.01280    2.68650
 6083.50000   59.27110  103.15150    8.89480   68.72030   98.92500   67.96920   98.05840   69.45400   99.67590   43.32790    0.06170    0.00290    4.27820    0.01920    2.67640
 6084.00000   59.27720  103.34210    8.90290   68.71360   98.99080   67.95820   98.12410   69.45160   99.74170   42.21660    0.06210    0.00160    4.35340    0.02460    2.66630
 6084.50000   59.14280  103.27870    8.90790   68.27570   99.07310   67.52030   98.20640   69.01380   99.82390   40.47340    0.06700   -0.00070    4.40350    0.02970    2.65600
 6085.00000   58.16670  103.17880    8.90930   67.83790   99.15810   67.08240   98.29140   68.57600   99.90880   39.88770    0.07270   -0.00260    4.39490    0.03230    2.65350
 6085.50000   57.72270  103.43440    8.90930   67.40010   99.48440   66.64450   98.61630   68.13820  100.23610   39.95680    0.07610   -0.00370    4.35150    0.03310    2.65500
