~Version ---------------------------------------------------
VERS.   2.0 : CWLS log ASCII Standard -VERSION 2.0
WRAP.    NO : One line per depth step
DLM . SPACE : Column Data Section Delimiter
~Well ------------------------------------------------------
STRT .F                  152.0 : START DEPTH
STOP .F                 8366.0 : STOP DEPTH
STEP .F                    0.5 : STEP
NULL .                -9999.25 : NULL VALUE
COMP .                         : COMPANY
WELL .                         : WELL
FLD  .                         : FIELD
LOC  .                         : LOCATION
PROV .                         : PROVINCE
CNTY .                         : COUNTY
STAT .                         : STATE
CTRY .                         : COUNTRY
SRVC .                         : SERVICE COMPANY
DATE .                         : DATE
UWI  .                         : UNIQUE WELL ID
API  .                         : API NUMBER
SLAT .WGS84 2.6385479759627017 : SURFACE LATITUDE
SLON .WGS84  9.088750169529007 : SURFACE LONGITUDE
DATUM.F                4021.82 : DEPTH DATUM ELEV
~Curve Information -----------------------------------------
DEPT .F     : 
DTCO .US/F  : COMPRESSIONAL-WAVE INTERVAL TRANSIT TIME ACOUSTIC SLOWNESS
DTSM .US/F  : SHEAR-WAVE INTERVAL TRANSIT
HCALS.IN    : HILT CALIPER
DT4P .US/F  : COMPRESSIONAL-WAVE INTERVAL TRANSIT TIME ACOUSTIC SLOWNESS, P&S MODE
DT4S .US/F  : SHEAR-WAVE INTERVAL TRANSIT TIME ACOUSTIC SLOWNESS, P&S MODE
DTRP .US/F  : Delta-T Compressional, Receiver Array - Monopole P&S
DTRS .US/F  : INTERVAL TRANSIT TIME FOR RECEIVER ARRAY
DTTP .US/F  : INTERVAL TRANSIT TIME FROM TRANSMITTER ARRAY
DTTS .US/F  : INTERVAL TRANSIT TIME FOR TRANSMITTER ARRAY
GRD  .GAPI  : GAMMA RAY FROM DENSITY LOG
TNPH .DEC   : THERMAL NEUTRON POROSITY
HDRA .G/C3  : DELTA RHO HIP TOOL
PEFZ .B/E   : FORMATION PHETOELECTRIC FACTOR
DPHZ .DEC   : DENSITY POROSITY LIMESTONE
RHOZ .G/C3  : HILT BULK DENSITY
~Params ----------------------------------------------------
~Other -----------------------------------------------------
~ASCII -----------------------------------------------------
# ...
 5143.00000   54.21310  102.37080    8.85520   51.99940  101.97160   50.59130  101.09410   52.97040  102.73220   64.44560    0.08860    0.01120    3.42510    0.00940    2.71410
 5143.50000   53.56900  101.98730    8.80750   50.08830  100.33160   48.94050   99.34520   50.87990  101.18760   60.44410    0.09180    0.01210    3.43860   -0.00970    2.73670
 5144.00000   53.48130  101.14250    8.80700   49.90740   98.11400   48.78620   97.12650   50.68000   98.96950   54.67600    0.09410   -0.00050    3.48290   -0.01480    2.73720
 5144.50000   54.72310  100.37340    8.82470   51.73890   96.61870   49.86920   95.68170   53.02770   97.42710   48.05070    0.09050   -0.00540    3.51600   -0.00680    2.72000
 5145.00000   56.70630   99.91080    8.84190   57.04290   94.94180   55.17250   94.00530   58.33220   95.61940   43.64450    0.08400   -0.00540    3.54420   -0.00230    2.69980
 5145.50000   60.16040   99.60460    8.85410   62.11810   93.65300   60.47590   92.79050   63.21080   93.94760   43.31470    0.07910   -0.00440    3.60630    0.01560    2.66920
 5146.00000   62.66170   99.75330    8.84620   63.35040   93.65300   62.22930   92.79050   64.12310   93.94760   46.54920    0.07800   -0.00400    3.70430    0.03610    2.63860
 5146.50000   63.26940  100.10160    8.81090   63.18200   95.41060   61.99200   94.39580   64.00170   94.58640   51.86960    0.07760   -0.00370    3.79470    0.05460    2.62060
 5147.00000   64.09750  100.85790    8.81820   61.76860   97.59570   60.57930   96.24500   62.58890   97.76960   58.00880    0.07880   -0.00280    3.88500    0.05600    2.61890
 5147.50000   64.21060  101.26890    8.86790   60.64840   98.86220   59.52010   97.22200   61.42640  100.95280   65.65380    0.08020   -0.00180    3.90430    0.05230    2.61910
 5148.00000   62.46310  101.08560    8.84260   60.18840  100.00100   59.05990   98.19890   60.96620  103.22350   69.80160    0.08100   -0.00080    3.86240    0.05140    2.62110
 5148.50000   61.14500  100.33920    8.81250   59.72840  100.58970   58.59970   98.02610   60.50600  103.48890   67.06970    0.07970    0.00030    3.78590    0.04640    2.62570
 5149.00000   60.74350   99.97240    8.79400   58.97330  100.38360   57.81630   96.45480   59.77050  102.60420   61.25620    0.07730    0.00180    3.76240    0.03530    2.65160
 5149.50000   60.31610  100.19990    8.77550   57.95070   99.63920   56.79510   94.66490   58.74740  101.71840   52.76550    0.07490    0.00360    3.74410    0.02300    2.67920
 5150.00000   59.63870  100.40720    8.72270   56.92800   98.09220   55.77400   92.87500   57.72430   99.61570   39.94410    0.07110    0.00190    3.68290    0.00980    2.70600
 5150.50000   59.28480  100.37620    8.68960   55.71840   96.54510   54.52710   91.08510   56.54020   97.34750   30.05470    0.05730   -0.00100    3.60840    0.00010    2.70860
 5151.00000   59.13220   99.88580    8.72610   54.46490   93.63700   53.32810   90.22250   55.24900   94.57360   22.76700    0.04230    0.00440    3.61020   -0.00030    2.70930
 5151.50000   58.69130   98.83050    8.79610   55.28650   90.97990   54.09950   89.84690   56.10640   91.72700   20.01990    0.02940    0.00360    3.75410    0.00580    2.69410
 5152.00000   58.63560   97.57140    8.86610   56.69120   90.26960   55.53430   89.32430   57.61630   91.08720   20.90050    0.02290    0.00170    4.00630    0.02170    2.67240
 5152.50000   58.24380   95.82190    8.90040   57.54740   91.71130   56.40160   90.81270   59.76820   92.48960   23.74040    0.02380   -0.00020    4.13480    0.02790    2.66330
 5153.00000   57.76560   94.39940    8.90040   58.40370   92.90580   57.25760   92.00670   61.37550   93.68160   26.69050    0.02550   -0.00130    4.14610    0.02480    2.66400
 5153.50000   57.85990   94.18620    8.90040   58.86950   93.86030   57.74830   92.99470   61.76830   94.61020   27.62030    0.02730   -0.00180    4.15600    0.02210    2.67360
 5154.00000   59.26350   94.51200    8.91120   56.93400   94.32180   55.41540   93.44700   58.57790   95.07990   26.23590    0.02870   -0.00140    4.17070    0.01800    2.68420
 5154.50000   60.26740   95.00110    8.95110   53.16470   95.02030   51.64650   94.14560   54.21030   95.77840   25.47480    0.02860   -0.00120    4.19530    0.01230    2.69480
 5155.00000   61.15950   96.17710    9.01100   50.12800   95.71890   48.94730   94.84420   50.94170   96.61280   26.38190    0.02710   -0.00120    4.25270    0.00770    2.69830
 5155.50000   61.24970   98.54620    9.07590   49.26730   96.14630   48.14610   95.23730   50.03990   97.52040   28.49800    0.02650   -0.00120    4.42190    0.01150    2.69510
 5156.00000   59.94190  100.78050    9.10350   49.70170   94.77290   48.57040   93.86450   50.48130   98.40900   29.63320    0.02630   -0.00120    4.52630    0.01750    2.68620
 5156.50000   59.58020  103.49820    9.07930   49.90740   93.85600   48.78620   92.96250   50.60580   98.09480   29.30400    0.02740   -0.00080    4.98970    0.02110    2.67740
 5157.00000   60.00330  104.84260    8.95510   49.90740   94.95570   48.32010   94.06230   50.48960   97.78060   29.21960    0.02850    0.00120    4.96450    0.02430    2.66840
 5157.50000   60.49750  105.78240    8.82990   49.19640   96.05540   47.21770   93.72420   50.37330   97.46650   30.79640    0.03070    0.00310    4.71330    0.02910    2.65930
 5158.00000   60.51220  104.61940    8.79470   48.36300   95.59530   46.39200   92.80980   50.19700   96.81040   32.60030    0.03300    0.00120    4.45580    0.03390    2.65230
 5158.50000   60.10800  103.12100    8.79470   47.98700   94.62610   46.61950   92.08060   50.01980   95.55760   31.81590    0.03560   -0.00220    4.41430    0.03870    2.64530
 5159.00000   59.74420  101.07960    8.79640   47.98700   93.65680   46.84690   92.60250   49.84250   94.42310   28.58200    0.03800   -0.00490    4.41660    0.03990    2.64110
 5159.50000   59.57930   98.69710    8.79900   47.98700   93.79920   46.86580   92.93670   50.04650   94.54680   25.49450    0.04020   -0.00550    4.41380    0.04030    2.64140
 5160.00000   59.86820   97.32470    8.80150   47.98700   93.94580   46.86580   93.08310   50.89130   94.69340   25.05530    0.04230   -0.00460    4.42590    0.03940    2.64540
 5160.50000   60.33370   96.27350    8.82320   48.47590   94.09250   47.33020   93.22940   52.31580   94.84000   26.99070    0.04400   -0.00370    4.42460    0.03480    2.65750
 5161.00000   60.18090   96.45670    8.85170   49.92000   94.47950   48.03670   93.61300   53.83670   95.22980   29.21050    0.04450   -0.00320    4.38640    0.02560    2.66950
 5161.50000   59.73590   97.07250    8.86520   50.84560   94.85490   48.74320   93.99220   55.35760   95.60210   28.95090    0.04090   -0.00290    4.36180    0.02000    2.68060
 5162.00000   59.94570   97.90210    8.87870   51.77110   95.07910   48.75360   94.21130   56.70380   95.83110   26.67730    0.03550   -0.00220    4.38820    0.02390    2.67470
 5162.50000   60.51270   98.49020    8.89210   52.66530   95.50970   48.55660   94.64220   57.86840   96.26140   26.65140    0.02900   -0.00150    4.40720    0.02320    2.67050
 5163.00000   61.42170   99.40570    8.91180   53.46370   95.77570   48.35970   94.90850   59.03300   96.52670   28.65530    0.02630   -0.00030    4.41100    0.02150    2.67690
 5163.50000   62.13710  100.10990    8.92070   54.26210   95.54940   49.65130   94.67090   60.19760   96.31040   31.23740    0.02520    0.00490    4.39950    0.01690    2.68600
 5164.00000   62.51590   99.66500    8.89280   56.30890   94.83760   52.93700   93.96460   60.76920   95.59390   30.80770    0.02490    0.00990    4.40280    0.01450    2.68360
 5164.50000   62.78190   99.33840    8.86000   58.30630   94.49660   56.37720   93.63420   61.01100   95.24370   28.19780    0.02630    0.01480    4.48200    0.01450    2.68090
 5165.00000   62.78090   98.50070    8.83990   60.14970   94.49660   59.02850   93.63420   61.25280   95.24370   25.83160    0.02790    0.01980    4.56110    0.01160    2.69870
 5165.50000   62.22690   97.77250    8.83260   60.14970   94.49660   59.02850   93.63420   61.02820   95.24370   25.81230    0.03090    0.02420    4.64210    0.00070    2.70860
