~Version ---------------------------------------------------
VERS.   2.0 : CWLS log ASCII Standard -VERSION 2.0
WRAP.    NO : One line per depth step
DLM . SPACE : Column Data Section Delimiter
~Well ------------------------------------------------------
STRT .F                  152.0 : START DEPTH
STOP .F                 8366.0 : STOP DEPTH
STEP .F                    0.5 : STEP
NULL .                -9999.25 : NULL VALUE
COMP .                         : COMPANY
WELL .                         : WELL
FLD  .                         : FIELD
LOC  .                         : LOCATION
PROV .                         : PROVINCE
CNTY .                         : COUNTY
STAT .                         : STATE
CTRY .                         : COUNTRY
SRVC .                         : SERVICE COMPANY
DATE .                         : DATE
UWI  .                         : UNIQUE WELL ID
API  .                         : API NUMBER
SLAT .WGS84 2.6385479759627017 : SURFACE LATITUDE
SLON .WGS84  9.088750169529007 : SURFACE LONGITUDE
DATUM.F                4021.82 : DEPTH DATUM ELEV
~Curve Information -----------------------------------------
DEPT .F     : 
DTCO .US/F  : COMPRESSIONAL-WAVE INTERVAL TRANSIT TIME ACOUSTIC SLOWNESS
DTSM .US/F  : SHEAR-WAVE INTERVAL TRANSIT
HCALS.IN    : HILT CALIPER
DT4P .US/F  : COMPRESSIONAL-WAVE INTERVAL TRANSIT TIME ACOUSTIC SLOWNESS, P&S MODE
DT4S .US/F  : SHEAR-WAVE INTERVAL TRANSIT TIME ACOUSTIC SLOWNESS, P&S MODE
DTRP .US/F  : Delta-T Compressional, Receiver Array - Monopole P&S
DTRS .US/F  : INTERVAL TRANSIT TIME FOR RECEIVER ARRAY
DTTP .US/F  : INTERVAL TRANSIT TIME FROM TRANSMITTER ARRAY
DTTS .US/F  : INTERVAL TRANSIT TIME FOR TRANSMITTER ARRAY
GRD  .GAPI  : GAMMA RAY FROM DENSITY LOG
TNPH .DEC   : THERMAL NEUTRON POROSITY
HDRA .G/C3  : DELTA RHO HIP TOOL
PEFZ .B/E   : FORMATION PHETOELECTRIC FACTOR
DPHZ .DEC   : DENSITY POROSITY LIMESTONE
RHOZ .G/C3  : HILT BULK DENSITY
~Params ----------------------------------------------------
~Other -----------------------------------------------------
~ASCII -----------------------------------------------------
# ...
 1486.00000   54.06570  119.54010    9.04930   -9999.25   -9999.25   -9999.25   -9999.25   -9999.25   -9999.25   33.33580    0.30870   -9999.25   -9999.25   -9999.25   -9999.25
 1486.50000   48.48290  120.28890    9.03930   -9999.25   -9999.25   -9999.25   -9999.25   -9999.25   -9999.25   33.89180    0.30990   -9999.25   -9999.25   -9999.25   -9999.25
 1487.00000   50.13130  121.31900    9.03670   -9999.25   -9999.25   -9999.25   -9999.25   -9999.25   -9999.25   33.13180    0.31950   -9999.25   -9999.25   -9999.25   -9999.25
 1487.50000   51.97090  122.34910    9.03870   -9999.25   -9999.25   -9999.25   -9999.25   -9999.25   -9999.25   31.06760    0.33070   -9999.25   -9999.25   -9999.25   -9999.25
 1488.00000   53.29880  122.58280    9.03800   -9999.25   -9999.25   -9999.25   -9999.25   -9999.25   -9999.25   30.85380    0.33070   -9999.25   -9999.25   -9999.25   -9999.25
 1488.50000   54.52280  121.91140    9.03670   -9999.25   -9999.25   -9999.25   -9999.25   -9999.25   -9999.25   33.49830    0.32420   -9999.25   -9999.25   -9999.25   -9999.25
 1489.00000   54.73510  120.90150    9.03530   -9999.25   -9999.25   -9999.25   -9999.25   -9999.25   -9999.25   35.98100    0.35100   -9999.25   -9999.25   -9999.25   -9999.25
 1489.50000   54.87620  120.14540    9.03400   -9999.25   -9999.25   -9999.25   -9999.25   -9999.25   -9999.25   36.79030    0.38580   -9999.25   -9999.25   -9999.25   -9999.25
 1490.00000   55.14980  120.01230    9.03280   82.85790  119.56210   53.65170  115.52760   77.15510  115.20680   37.15950    0.40980    0.07560    2.77150    0.29980    1.72690
 1490.50000   55.94610  120.07790    9.66260   74.00410  114.52120   53.65170  114.41780   72.62890  111.92100   37.54940    0.41120    0.07080    2.72730    0.36960    1.98140
 1491.00000   57.52370  122.63870   11.40680   65.90180  109.66710   53.65170  115.25360   66.91130  104.15360   43.18230    0.38970    0.05670    2.40480    0.52870    1.99420
 1491.50000   61.96890  126.74300   13.13010   63.50260  110.38260   54.32270  118.32640   72.34270  103.73130   48.24950    0.35890    0.00120    1.95520    0.59490    2.00700
 1492.00000   70.34000  130.84720   13.80620   69.38650  114.01350   58.77540  128.22910   82.27370  119.94530   54.11860    0.30760   -0.00200    2.00270    0.50650    2.11540
 1492.50000   83.97750  136.94380   10.01530   75.87560  118.22550   61.55010  144.49400   90.59860  129.65400   60.71270    0.22530   -0.00280    2.14920    0.27660    2.28580
 1493.00000   93.86930  142.57190    9.99560   72.40840  117.11840   63.19150  131.52430   80.71550  126.75510   66.83350    0.14950   -0.00280    2.28650    0.18700    2.41230
 1493.50000   96.00820  147.75790    9.99500   67.92400  112.04350   64.73180  115.97960   73.42730  112.74700   68.74760    0.12810   -0.00310    2.39800    0.13760    2.47580
 1494.00000   95.91040  151.67560    9.99980   70.25710  113.22960   65.81460  114.80660   77.15270  108.14440   69.15230    0.12730   -0.00450    2.42840    0.13710    2.46600
 1494.50000   93.92110  155.37650   10.01760   74.31190  118.14490   66.89740  128.02650   84.82340  108.14440   69.47420    0.14160   -0.00600    2.47270    0.14560    2.45300
 1495.00000   92.77200  156.00490   10.03930   77.79020  123.02750   67.01460  136.54400   89.75580  111.17970   69.70060    0.14660   -0.00660    2.49170    0.15770    2.44080
 1495.50000   92.31460  155.98620   10.06340   77.80110  126.40440   65.70830  137.45150   89.95980  115.24790   69.67150    0.14530   -0.00670    2.54930    0.15620    2.44100
 1496.00000   91.70970  155.61580   10.06290   75.74590  126.70420   63.00900  135.53080   88.18070  116.16460   65.23030    0.13460   -0.00570    2.67330    0.13910    2.44500
 1496.50000   90.86460  154.90090   10.03830   72.42540  125.26380   60.99260  135.53080   84.47630  116.16460   60.89680    0.12190   -0.00360    2.79690    0.10000    2.53220
 1497.00000   89.72150  153.32180    9.98030   71.57900  124.35240   61.65350  131.94780   81.64360  116.98830   55.51160    0.10690   -0.00140    2.90970    0.06330    2.63330
 1497.50000   87.26650  151.87110    9.91940   77.83910  128.78670   68.61890  134.83280   80.94010  127.03690   50.55460    0.08950    0.00110    2.95510    0.04330    2.63050
 1498.00000   83.38410  147.36270    9.85840   93.07200  153.29720   96.14540  150.24220   85.53270  135.76960   49.97840    0.08280    0.00430    2.95780    0.04920    2.61500
 1498.50000   79.45520  141.72610    9.85740   99.48400  153.13980  109.28020  151.79190   88.33130  125.31690   52.91840    0.09590    0.00800    2.95360    0.06580    2.59950
 1499.00000   75.34600  135.72360    9.87170   93.43680  123.98230  112.41810  125.93550   73.35540  114.77200   57.05080    0.10910    0.00860    2.96270    0.07900    2.58400
 1499.50000   72.30270  128.86240    9.88730   91.42620  113.51900  113.05250  117.14520   68.87150  112.84560   60.93050    0.11680    0.00210    2.94870    0.08080    2.57370
 1500.00000   70.59000  122.53600    9.92720   96.74930  128.55160  114.19140  128.72350   77.51350  114.89630   63.92530    0.11800   -0.00250    2.93080    0.08080    2.57710
 1500.50000   69.95080  121.60820    9.96710  102.85530  148.17430  116.50410  150.29220   89.80310  117.29770   65.54370    0.11860   -0.00120    2.91490    0.07770    2.59140
 1501.00000   70.06510  121.84000    9.97770  103.64000  153.95470  118.08040  155.15830   90.38570  119.45360   64.81520    0.11560    0.00090    2.89950    0.07010    2.60590
 1501.50000   70.35390  122.43410    9.97990  102.81080  146.70240  118.16210  149.86150   88.43560  119.79880   63.16300    0.11250    0.00320    2.88400    0.05870    2.62050
 1502.00000   70.81500  123.10520    9.98400  100.95820  132.89450  117.06790  139.38140   83.65600  118.34300   62.50220    0.12140    0.00550    2.87500    0.04740    2.63500
 1502.50000   71.35860  123.92590    9.98810   96.15710  117.23700  105.83990  122.00790   75.92100  114.69230   62.83510    0.13510    0.00490    2.86020    0.03760    2.64360
 1503.00000   70.88710  124.75430    9.99360   87.40760  113.11810   91.72850  117.17770   68.18600  110.66680   63.23130    0.14190   -0.00140    2.84150    0.04530    2.61960
 1503.50000   69.74780  124.82170   10.02580   77.46340  113.63720   87.49160  123.21010   65.68740  107.33620   61.67940    0.14700   -0.00180    2.81850    0.06780    2.57870
 1504.00000   69.16590  123.90670   10.05580   75.62540  114.21430   88.18730  125.01050   68.12820  106.34780   58.00230    0.15060   -0.00140    2.79190    0.09870    2.53900
 1504.50000   69.55880  122.82150   10.11050   78.31530  116.75150   87.84970  125.14310   70.28290  108.62080   54.72630    0.15100   -0.00110    2.76400    0.12390    2.50140
 1505.00000   70.37410  122.71570   10.17510   77.73490  118.76400   83.49360  124.66660   72.27070  112.79230   54.65780    0.14570   -0.00080    2.79320    0.13770    2.47160
 1505.50000   72.72310  123.82150   10.19250   78.32620  120.77200   79.08850  123.97620   73.75280  117.25540   55.79110    0.13890   -0.00060    2.81460    0.14910    2.45830
 1506.00000   75.78590  126.32290   10.19580   82.22040  121.13850   77.01330  123.17830   76.44340  117.86700   56.47130    0.13870   -0.00100    2.76780    0.15250    2.44500
 1506.50000   78.26570  131.53740   10.20150   83.11610  118.70160   79.09850  121.22630   77.84800  116.58160   56.80010    0.15120   -0.00200    2.69530    0.15690    2.44160
 1507.00000   79.70930  134.05920   10.20520   81.73240  117.60380   79.74090  119.27430   78.09740  115.63290   57.26520    0.16800   -0.00200    2.60050    0.15610    2.44290
 1507.50000   81.09520  136.88110   10.19750   81.07420  117.28980   79.98150  118.38220   78.34350  116.89340   58.51010    0.18030   -0.00190    2.50390    0.15360    2.45370
 1508.00000   82.25680  138.74330   10.18960   81.39990  118.81650   80.22210  120.29510   78.73340  118.15390   61.27970    0.18780   -0.00210    2.40730    0.14080    2.46620
 1508.50000   82.66460  140.47950   10.18170   81.96640  121.64250   80.79200  125.11150   79.36460  119.16600   66.10250    0.18760   -0.00270    2.39470    0.13570    2.47860
