~Version ---------------------------------------------------
VERS.   2.0 : CWLS log ASCII Standard -VERSION 2.0
WRAP.    NO : One line per depth step
DLM . SPACE : Column Data Section Delimiter
~Well ------------------------------------------------------
STRT .F                  152.0 : START DEPTH
STOP .F                 8366.0 : STOP DEPTH
STEP .F                    0.5 : STEP
NULL .                -9999.25 : NULL VALUE
COMP .                         : COMPANY
WELL .                         : WELL
FLD  .                         : FIELD
LOC  .                         : LOCATION
PROV .                         : PROVINCE
CNTY .                         : COUNTY
STAT .                         : STATE
CTRY .                         : COUNTRY
SRVC .                         : SERVICE COMPANY
DATE .                         : DATE
UWI  .                         : UNIQUE WELL ID
API  .                         : API NUMBER
SLAT .WGS84 2.6385479759627017 : SURFACE LATITUDE
SLON .WGS84  9.088750169529007 : SURFACE LONGITUDE
DATUM.F                4021.82 : DEPTH DATUM ELEV
~Curve Information -----------------------------------------
DEPT .F     : 
DTCO .US/F  : COMPRESSIONAL-WAVE INTERVAL TRANSIT TIME ACOUSTIC SLOWNESS
DTSM .US/F  : SHEAR-WAVE INTERVAL TRANSIT
HCALS.IN    : HILT CALIPER
DT4P .US/F  : COMPRESSIONAL-WAVE INTERVAL TRANSIT TIME ACOUSTIC SLOWNESS, P&S MODE
DT4S .US/F  : SHEAR-WAVE INTERVAL TRANSIT TIME ACOUSTIC SLOWNESS, P&S MODE
DTRP .US/F  : Delta-T Compressional, Receiver Array - Monopole P&S
DTRS .US/F  : INTERVAL TRANSIT TIME FOR RECEIVER ARRAY
DTTP .US/F  : INTERVAL TRANSIT TIME FROM TRANSMITTER ARRAY
DTTS .US/F  : INTERVAL TRANSIT TIME FOR TRANSMITTER ARRAY
GRD  .GAPI  : GAMMA RAY FROM DENSITY LOG
TNPH .DEC   : THERMAL NEUTRON POROSITY
HDRA .G/C3  : DELTA RHO HIP TOOL
PEFZ .B/E   : FORMATION PHETOELECTRIC FACTOR
DPHZ .DEC   : DENSITY POROSITY LIMESTONE
RHOZ .G/C3  : HILT BULK DENSITY
~Params ----------------------------------------------------
~Other -----------------------------------------------------
~ASCII -----------------------------------------------------
# ...
 7420.00000   55.67880  105.33670    8.93600   90.72580   92.51900   81.46450   91.45430   92.63900   86.54240   54.11600    0.05970   -0.00770    4.18590    0.03840    2.63100
 7420.50000   55.27740  103.83770    8.98100   84.83800   88.11600   73.06720   87.72090   87.47990   73.64440   57.29030    0.04690   -0.01290    4.41990    0.04110    2.63130
 7421.00000   54.93230  103.49660    8.98940   88.22340   93.51480   81.55260   90.68580   91.24690   87.06480   51.42560    0.03060   -0.01310    4.66110    0.04100    2.64860
 7421.50000   53.85760  102.69830    8.93020   92.17620  114.61380   90.80520  104.94300   94.35580  117.46740   42.54940    0.01710   -0.00920    4.66540    0.03520    2.66690
 7422.00000   52.10500  101.53540    8.99140   92.51980  140.46860   91.63130  133.10040   94.52150  147.87000   34.87930    0.01250   -0.00020    4.64710    0.02360    2.68510
 7422.50000   51.64170  100.39870    9.02190   92.33450  167.50660   91.20970  161.25770   93.73180  171.96680   31.28060    0.01080    0.00330    4.60700    0.00200    2.70520
 7423.00000   51.58030  100.62790    8.96230   91.77980  173.86940   90.68260  172.71550   92.67760  175.17390   27.58530    0.00870    0.00500    4.60400   -0.00950    2.72580
 7423.50000   51.25600  100.28450    8.91940   91.22510  175.03900   90.25530  173.35560   92.04980  174.66560   22.88460    0.00520    0.00630    4.60570   -0.01760    2.74650
 7424.00000   50.87510   99.04620    8.91830   90.67030  174.80500   89.99740  173.35560   92.32720  174.77780   18.65320    0.00380    0.00600    4.58610   -0.02240    2.74940
 7424.50000   50.98410   97.21520    8.92200   90.51470  174.50960   89.73950  173.35560   92.60110  174.89000   17.36710    0.00370    0.00510    4.56050   -0.02070    2.74690
 7425.00000   51.27120   95.28130    8.91300   90.47410  174.50960   89.48160  173.35560   92.60110  175.00210   19.87620    0.00440    0.00480    4.54970   -0.01740    2.74040
 7425.50000   51.50490   94.00080    8.90430   90.68360  174.62690   89.47350  173.60080   93.04100  175.11430   27.66940    0.00600    0.00490    4.54670   -0.01340    2.73390
 7426.00000   52.09750   96.37610    8.89480   91.60570  175.40750   89.96900  174.23970   93.54200  175.22650   36.13310    0.00760    0.00510    4.54320   -0.01160    2.72740
 7426.50000   52.87390   96.20990    8.88790   92.52790  176.18810   91.24080  174.87850   94.04300  175.98200   44.59220    0.01120    0.00530    4.54750   -0.01050    2.72100
 7427.00000   53.41040   95.35530    8.91740   93.45000  176.96870   92.51260  175.51740   94.54410  176.76160   46.41740    0.01390    0.00510    4.54120   -0.00840    2.71410
 7427.50000   53.63880   95.02920    8.94960   94.37220  177.05550   93.78430  175.90870   95.00260  177.50340   45.02930    0.01590    0.00400    4.53500   -0.00170    2.70500
 7428.00000   53.65120   95.52820    8.98200   94.92510  177.03870   93.95450  175.88900   95.39300  177.07340   39.54450    0.01760    0.00210    4.55920    0.00510    2.69760
 7428.50000   54.02580   96.14770    9.00270   94.92510  177.02190   93.54690  175.86930   95.78330  176.90310   33.41250    0.01670   -0.00050    4.62810    0.00750    2.69780
 7429.00000   54.53130   97.07820    9.01420   94.92510  177.22040   93.02000  175.84920   96.44880  176.88300   32.90340    0.01540   -0.00060    4.62340    0.00730    2.70020
 7429.50000   55.04260   97.87420    9.01360   94.57390  177.42240   92.87350  175.69540   97.13670  176.86290   39.35560    0.01430   -0.00040    4.46460    0.00640    2.70090
 7430.00000   55.04930   99.49790    9.01310   94.51610  177.18140   93.57490  173.98080   97.46440  176.84280   51.98060    0.02090   -0.00010    4.25440    0.00920    2.68820
 7430.50000   55.25950  100.20990    8.99570   95.39050  162.11150   94.67380  146.69350   97.86730  153.76390   59.34810    0.03580    0.00000    4.15140    0.01570    2.67450
 7431.00000   58.42090  100.18050    8.96990   97.40490  132.01030   96.44590  118.78830  101.83780  106.29080   64.60330    0.05060    0.00040    4.16050    0.02500    2.66020
 7431.50000   62.72280   99.79820    8.94440   99.62560  107.44650   98.57570  104.38470  106.35610  104.30370   69.66040    0.06330    0.00080    4.17100    0.03250    2.64670
 7432.00000   64.84880   99.49440    8.92110  101.84640  106.33970   99.61330  106.59550  105.12660  107.37920   74.17550    0.07390    0.00120    4.17630    0.03720    2.64430
 7432.50000   63.15280  100.28440    8.90530  101.09150  121.09660   98.80210  122.70910  100.19480  118.44350   70.94070    0.07750    0.00130    4.03810    0.03950    2.64280
 7433.00000   61.94800  101.82280    8.89050   98.30890  137.52880   97.18740  138.82270   96.87790  138.58980   58.20370    0.07650    0.00120    4.05480    0.03850    2.64250
 7433.50000   60.72790  103.23340    8.86790   95.52640  153.96110   95.57280  154.93630   95.76640  158.73610   40.72710    0.06790    0.00230    4.16370    0.03260    2.64390
 7434.00000   59.32530  104.01570    8.84140   93.44360  170.39340   93.95820  169.70380   94.61720  175.13730   33.57670    0.04630    0.00940    4.32470    0.02360    2.68270
 7434.50000   58.00990  104.18060    8.81700   91.45810  177.13830   92.43750  174.34910   93.44850  175.51610   31.45130    0.02890    0.01840    4.42880    0.00970    2.69460
 7435.00000   57.14830  104.20500    8.79260   91.58920  177.13940   91.92910  173.12860   93.63640  175.31440   33.15330    0.02220    0.01760    4.44850    0.00610    2.70170
 7435.50000   57.12490  103.24020    8.78340   93.71940  170.49040   91.79940  163.61090   94.85410  168.83990   34.41390    0.02370    0.01250    4.45270    0.00800    2.68350
 7436.00000   57.36240  100.59100    8.81190   93.95550  158.27800   92.41860  153.41290   95.30650  156.82600   34.01000    0.02690    0.00510    4.45640    0.01770    2.68010
 7436.50000   57.31420   97.85840    8.88720   92.55060  146.06570   92.39850  143.21500   90.82060  144.81200   33.04060    0.02760    0.00110    4.51140    0.01340    2.69620
 7437.00000   57.38760   97.69190    8.96240   80.85700  133.85340   85.55790  133.01700   77.10230  132.79810   32.78880    0.02190    0.00110    4.56690    0.00280    2.71290
 7437.50000   57.56460   98.85510    9.03160   80.09000  126.49250   81.65450  131.23030   68.20460  124.67790   31.43710    0.01580    0.00110    4.62940   -0.01010    2.72970
 7438.00000   57.73510   99.95650    9.05970   87.94520  147.64620   87.03500  150.24390   83.07600  141.35090   28.46390    0.01340    0.00130    4.63080   -0.01700    2.73800
 7438.50000   58.44090   99.00600    9.05510   93.32080  163.03940   93.86600  163.64730   99.67710  162.05110   27.35690    0.01530    0.00160    4.61600   -0.01400    2.73060
 7439.00000   59.28640   97.34770    9.04860   94.11440  164.14040   99.02610  164.05180  105.91790  164.32150   29.78690    0.01960    0.00210    4.42360   -0.00380    2.71260
 7439.50000   60.59070   96.17310    9.01250   95.06470  162.93560  102.87440  162.46010  110.32320  164.15340   34.17660    0.02330    0.00330    4.18670    0.00860    2.69470
 7440.00000   61.84370   95.87380    8.96210   96.01490  161.06660  104.26170  160.43880  112.90600  162.83560   38.56640    0.02620    0.00440    3.85640    0.01810    2.67670
 7440.50000   61.91780   96.63880    8.91170   97.11320  159.19770  104.31850  158.41760  113.59780  160.80530   40.83600    0.02920    0.00450    3.73940    0.02610    2.67120
 7441.00000   61.03890   97.04600    8.87710   98.24180  157.32870  102.63700  156.39630  106.97740  158.77500   41.01140    0.03400    0.00440    3.60940    0.02350    2.67190
 7441.50000   59.20260   96.93060    8.86980   98.80340  155.45980  100.80450  154.99740   98.29280  156.79060   42.32360    0.04030    0.00420    3.53900    0.02350    2.67810
 7442.00000   57.64830   97.01170    8.86050   96.57770  154.44560   99.71520  155.54490   92.45140  156.23900   45.95220    0.04660    0.00480    3.49970    0.01950    2.68050
 7442.50000   56.90570   97.21820    8.83730   94.32650  159.67780  100.05200  158.82600   88.47470  161.95570   49.87750    0.05020    0.00720    3.45780    0.01740    2.67780
