~Version ---------------------------------------------------
VERS.   2.0 : CWLS log ASCII Standard -VERSION 2.0
WRAP.    NO : One line per depth step
DLM . SPACE : Column Data Section Delimiter
~Well ------------------------------------------------------
STRT .F                  152.0 : START DEPTH
STOP .F                 8366.0 : STOP DEPTH
STEP .F                    0.5 : STEP
NULL .                -9999.25 : NULL VALUE
COMP .                         : COMPANY
WELL .                         : WELL
FLD  .                         : FIELD
LOC  .                         : LOCATION
PROV .                         : PROVINCE
CNTY .                         : COUNTY
STAT .                         : STATE
CTRY .                         : COUNTRY
SRVC .                         : SERVICE COMPANY
DATE .                         : DATE
UWI  .                         : UNIQUE WELL ID
API  .                         : API NUMBER
SLAT .WGS84 2.6385479759627017 : SURFACE LATITUDE
SLON .WGS84  9.088750169529007 : SURFACE LONGITUDE
DATUM.F                4021.82 : DEPTH DATUM ELEV
~Curve Information -----------------------------------------
DEPT .F     : 
DTCO .US/F  : COMPRESSIONAL-WAVE INTERVAL TRANSIT TIME ACOUSTIC SLOWNESS
DTSM .US/F  : SHEAR-WAVE INTERVAL TRANSIT
HCALS.IN    : HILT CALIPER
DT4P .US/F  : COMPRESSIONAL-WAVE INTERVAL TRANSIT TIME ACOUSTIC SLOWNESS, P&S MODE
DT4S .US/F  : SHEAR-WAVE INTERVAL TRANSIT TIME ACOUSTIC SLOWNESS, P&S MODE
DTRP .US/F  : Delta-T Compressional, Receiver Array - Monopole P&S
DTRS .US/F  : INTERVAL TRANSIT TIME FOR RECEIVER ARRAY
DTTP .US/F  : INTERVAL TRANSIT TIME FROM TRANSMITTER ARRAY
DTTS .US/F  : INTERVAL TRANSIT TIME FOR TRANSMITTER ARRAY
GRD  .GAPI  : GAMMA RAY FROM DENSITY LOG
TNPH .DEC   : THERMAL NEUTRON POROSITY
HDRA .G/C3  : DELTA RHO HIP TOOL
PEFZ .B/E   : FORMATION PHETOELECTRIC FACTOR
DPHZ .DEC   : DENSITY POROSITY LIMESTONE
RHOZ .G/C3  : HILT BULK DENSITY
~Params ----------------------------------------------------
~Other -----------------------------------------------------
~ASCII -----------------------------------------------------
# ...
 6523.00000   59.62780  100.66300    8.94870   59.01220  101.74080   52.41360  100.87770   67.06790  102.48840   32.65070    0.06480   -0.00150    4.46000    0.04200    2.63660
 6523.50000   59.76570   99.88650    8.94730   57.67570  101.74450   49.58110  100.88140   67.06790  102.49210   32.35660    0.06510   -0.00100    4.44570    0.04410    2.65610
 6524.00000   59.96020  101.11670    8.94580   57.19240  101.74110   49.17150  100.87810   67.06790  102.48870   32.19140    0.06540   -0.00060    4.36190    0.03870    2.65910
 6524.50000   60.05290  101.51660    8.94430   57.01530  101.56360   48.91260  100.69960   67.01800  102.31190   32.63360    0.06640   -0.00020    4.29340    0.03230    2.65840
 6525.00000   60.05990  101.79590    8.94290   57.22840  101.73680   48.65370  100.87290   66.91790  102.48510   33.70460    0.06840   -0.00010    4.32470    0.02830    2.65500
 6525.50000   60.14630  102.11580    8.94140   57.79490  101.76120   48.24260  100.89810   66.44160  102.50880   35.21770    0.07110   -0.00010    4.35610    0.03190    2.65530
 6526.00000   60.39910  102.31900    8.94000   55.51020  101.45570   47.59420  100.56730   57.69480  102.22560   35.58080    0.07190   -0.00010    4.39380    0.03040    2.66050
 6526.50000   60.43450  102.43170    8.93850   50.58520  100.95520   46.94920  100.09210   51.88480  101.70290   34.83240    0.07010   -0.00020    4.44670    0.02980    2.66880
 6527.00000   59.84650  101.65810    8.93700   46.64170  100.95520   46.37490  100.09210   47.45160  101.70290   32.66180    0.06840    0.00030    4.42120    0.02550    2.67710
 6527.50000   59.30250  100.58420    8.93560   46.35640  100.95520   46.40830  100.09210   47.14440  101.70290   30.35030    0.06670    0.00100    4.40900    0.02100    2.68590
 6528.00000   58.74790   99.78610    8.93410   46.84270  100.95520   46.49860  100.09210   47.63090  101.70290   29.68050    0.06600    0.00150    4.39060    0.01690    2.68580
 6528.50000   58.40790   98.85180    8.93260   47.40420  100.97950   46.66120  100.11640   48.19530  101.72710   31.26780    0.06730    0.00110    4.35220    0.01500    2.68180
 6529.00000   57.85130   97.39350    8.93120   47.95590  101.00750   47.39320  100.14440   48.73890  101.75510   33.63840    0.06800   -0.00040    4.33790    0.01800    2.67500
 6529.50000   57.28080   96.64720    8.92970   48.09620  101.09610   47.42770  100.23130   48.87880  101.84540   33.94800    0.06630   -0.00200    4.32350    0.02190    2.66820
 6530.00000   56.99490   97.54400    8.92830   48.23660  101.72040   47.52030  100.82350   49.01870  102.49710   32.38190    0.06310   -0.00340    4.32220    0.02720    2.66050
 6530.50000   56.81810   98.70520    8.92680   48.13260  102.50190   47.43960  101.63150   48.91590  103.25570   31.00690    0.06010   -0.00260    4.32250    0.02780    2.65060
 6531.00000   57.01760  100.02770    8.92530   47.98280  102.58110   47.29060  101.71850   48.76530  103.32810   33.11120    0.06090   -0.00350    4.32270    0.03120    2.64070
 6531.50000   57.47560  101.47850    8.92390   47.80380  102.62320   47.11160  101.76070   48.61210  103.37030   37.38610    0.06320   -0.00550    4.33940    0.03990    2.63250
 6532.00000   58.38140  101.80320    8.92240   47.77180  102.61770   47.07570  101.75440   48.64760  103.36530   41.00000    0.06500   -0.00620    4.37890    0.04730    2.63260
 6532.50000   59.40030  101.54760    8.92090   48.22480  102.54290   47.52850  101.68040   49.01140  103.28990   43.43710    0.06500   -0.00330    4.38010    0.04710    2.64840
 6533.00000   59.96430  101.39580    8.91950   48.04490  102.46760   47.35140  101.60420   48.82910  103.21540   46.14410    0.06510    0.00070    4.37610    0.03430    2.67500
 6533.50000   60.02160  101.28170    8.91800   47.72530  102.27980   47.03170  101.41650   48.50950  103.02760   46.75260    0.06550    0.00720    4.40480    0.02030    2.70170
 6534.00000   59.87900  101.44430    8.91660   47.40580  101.82610   46.71210  100.93410   48.18990  102.59870   44.59480    0.06670    0.01850    4.47840    0.00580    2.70770
 6534.50000   59.66580  101.50470    8.91510   47.08630  101.01980   46.39250  100.14950   47.87030  101.77400   40.86620    0.06840    0.02020    4.52660    0.00100    2.70350
 6535.00000   59.74230  100.99080    8.91360   47.02640  100.60430   46.33470   99.74180   47.80810  101.35140   39.59390    0.07070    0.01330    4.49820    0.00660    2.67540
 6535.50000   59.77370  100.56280    8.90360   47.02640  100.56270   46.33470   99.70020   47.80810  101.30970   40.21830    0.07220    0.00420    4.43860    0.02120    2.67410
 6536.00000   59.75960   99.87100    8.89110   47.02640  100.57310   46.33470   99.71040   47.80810  101.32040   41.99280    0.07340    0.00010    4.33430    0.02300    2.68560
 6536.50000   59.64850   99.18010    8.88040   47.02640  100.80660   46.33470   99.94090   47.80810  101.55660   41.60910    0.07470   -0.00190    4.20720    0.01580    2.69110
 6537.00000   59.47930   98.54820    8.87560   47.02640  100.86370   46.33470   99.95660   47.80810  101.61100   38.36820    0.07540   -0.00350    4.24510    0.01170    2.68630
 6537.50000   59.26880   98.88070    8.87920   47.02640  100.39910   46.33470   99.32300   47.80810  101.14920   35.91920    0.07620   -0.00540    4.30240    0.01560    2.68140
 6538.00000   58.90950   99.67960    8.88270   47.07710   99.95830   46.38510   98.74580   47.85910  100.71390   36.63080    0.07890   -0.00450    4.30610    0.01830    2.68140
 6538.50000   58.45080  100.32010    8.88510   47.18950   99.61270   46.49750   98.74990   47.97150  100.36000   39.14180    0.08140   -0.00240    4.23900    0.01320    2.68980
 6539.00000   58.23740  100.92110    8.88560   47.30180  100.02090   46.61000   99.14550   48.08390  100.77910   40.47910    0.08370   -0.00190    4.12340    0.00710    2.69990
 6539.50000   58.31680  101.43220    8.88610   47.41420  100.66110   46.72240   99.79410   48.19630  101.41160   40.57350    0.08510   -0.00150    4.06620    0.00890    2.69370
 6540.00000   58.53070  101.68610    8.88660   47.51430  101.21260   46.82260  100.32890   48.29610  101.97740   40.42160    0.08450   -0.00110    4.08120    0.02020    2.66790
 6540.50000   58.75270  101.67590    8.88710   47.53090  101.71660   46.83930  100.85420   48.31270  102.46370   40.18590    0.08320   -0.00080    4.09870    0.02620    2.66980
 6541.00000   58.97670  100.62630    8.88760   47.54760  101.68510   46.85600  100.82270   48.32940  102.43220   40.40620    0.08370   -0.00050    4.06940    0.02070    2.68040
 6541.50000   59.18470  100.56550    8.88670   47.56450  101.89020   46.87280  101.02120   48.34620  102.64290   41.60020    0.08540   -0.00060    4.02740    0.01620    2.68490
 6542.00000   59.27010  100.76830    8.88540   47.58190  101.27110   46.89030  100.36120   48.36370  102.05840   43.32710    0.08750   -0.00150    3.99240    0.01460    2.68180
 6542.50000   59.25110  101.03130    8.88420   47.54390  100.65920   46.85180   99.79140   48.32640  101.41060   45.38760    0.08870   -0.00260    4.00310    0.01840    2.67880
 6543.00000   59.39350  101.29830    8.88300   47.39440  100.30960   46.70230   99.44690   48.17680  101.05680   46.09950    0.08610   -0.00390    4.02490    0.02110    2.67580
 6543.50000   59.55860  101.75160    8.88180   47.24490  100.17770   46.55270   99.31380   48.02730  100.92580   44.72060    0.08350   -0.00340    4.05200    0.02080    2.67320
 6544.00000   59.53660  102.39430    8.88060   47.09530   99.95320   46.40320   99.08920   47.87780  100.70150   41.48550    0.08080   -0.00260    4.07380    0.02290    2.67220
 6544.50000   59.30900  102.24260    8.87640   46.78710   99.91150   46.09060   99.04830   47.57440  100.65920   37.95310    0.07820   -0.00140    4.09120    0.02310    2.67270
 6545.00000   59.15360  101.55900    8.87050   46.31880  100.25830   45.62240   99.39130   47.10610  101.00570   37.13520    0.07700   -0.00080    4.11690    0.02250    2.67340
 6545.50000   58.98520  100.96130    8.86460   45.85050  100.15050   45.15420   99.28770   46.63770  100.89790   37.64540    0.07630   -0.00050    4.15560    0.02140    2.67410
