~Version ---------------------------------------------------
VERS.   2.0 : CWLS log ASCII Standard -VERSION 2.0
WRAP.    NO : One line per depth step
DLM . SPACE : Column Data Section Delimiter
~Well ------------------------------------------------------
STRT .F                  152.0 : START DEPTH
STOP .F                 8366.0 : STOP DEPTH
STEP .F                    0.5 : STEP
NULL .                -9999.25 : NULL VALUE
COMP .                         : COMPANY
WELL .                         : WELL
FLD  .                         : FIELD
LOC  .                         : LOCATION
PROV .                         : PROVINCE
CNTY .                         : COUNTY
STAT .                         : STATE
CTRY .                         : COUNTRY
SRVC .                         : SERVICE COMPANY
DATE .                         : DATE
UWI  .                         : UNIQUE WELL ID
API  .                         : API NUMBER
SLAT .WGS84 2.6385479759627017 : SURFACE LATITUDE
SLON .WGS84  9.088750169529007 : SURFACE LONGITUDE
DATUM.F                4021.82 : DEPTH DATUM ELEV
~Curve Information -----------------------------------------
DEPT .F     : 
DTCO .US/F  : COMPRESSIONAL-WAVE INTERVAL TRANSIT TIME ACOUSTIC SLOWNESS
DTSM .US/F  : SHEAR-WAVE INTERVAL TRANSIT
HCALS.IN    : HILT CALIPER
DT4P .US/F  : COMPRESSIONAL-WAVE INTERVAL TRANSIT TIME ACOUSTIC SLOWNESS, P&S MODE
DT4S .US/F  : SHEAR-WAVE INTERVAL TRANSIT TIME ACOUSTIC SLOWNESS, P&S MODE
DTRP .US/F  : Delta-T Compressional, Receiver Array - Monopole P&S
DTRS .US/F  : INTERVAL TRANSIT TIME FOR RECEIVER ARRAY
DTTP .US/F  : INTERVAL TRANSIT TIME FROM TRANSMITTER ARRAY
DTTS .US/F  : INTERVAL TRANSIT TIME FOR TRANSMITTER ARRAY
GRD  .GAPI  : GAMMA RAY FROM DENSITY LOG
TNPH .DEC   : THERMAL NEUTRON POROSITY
HDRA .G/C3  : DELTA RHO HIP TOOL
PEFZ .B/E   : FORMATION PHETOELECTRIC FACTOR
DPHZ .DEC   : DENSITY POROSITY LIMESTONE
RHOZ .G/C3  : HILT BULK DENSITY
~Params ----------------------------------------------------
~Other -----------------------------------------------------
~ASCII -----------------------------------------------------
# ...
 6960.00000   56.38590  102.45660    8.92090   49.98860   99.83690   49.19190   98.96670   50.90690  100.59040   26.03190    0.05080    0.00560    4.55500    0.02910    2.65990
 6960.50000   56.97490  102.60940    8.89740   50.21180  100.61660   49.42370   99.73840   51.05630  101.37320   26.79920    0.05150    0.00500    4.55580    0.02890    2.67000
 6961.00000   57.54760  102.42370    8.85690   50.21180  101.05370   49.42370  100.19450   51.20580  101.79800   26.56050    0.05230    0.00430    4.53070    0.02380    2.67160
 6961.50000   57.70900  102.26750    8.82200   50.21180  101.10620   49.42370  100.24570   51.35520  101.85160   26.96780    0.05470    0.00300    4.47560    0.02340    2.67180
 6962.00000   57.71900  101.77240    8.81580   50.21180  100.62610   49.42370   99.75580   51.14480  101.37990   30.08550    0.05800    0.00170    4.44150    0.02370    2.67080
 6962.50000   57.72490  101.31500    8.81380   50.15390  100.11420   49.36550   99.25220   50.94620  100.86090   31.64650    0.06130    0.00190    4.45420    0.02550    2.66830
 6963.00000   57.79850  100.30810    8.83140   50.02970   99.81770   49.24130   98.95770   50.82200  100.56280   30.54380    0.06340    0.00200    4.49900    0.02570    2.66780
 6963.50000   58.20740   98.74000    8.85250   49.90550   99.81000   49.11710   98.94390   50.69780  100.55960   28.78520    0.06350    0.00220    4.54550    0.02110    2.67150
 6964.00000   58.77840   99.37420    8.86540   49.78120  100.11270   48.99280   99.25440   50.57350  100.85620   26.82010    0.06230    0.00230    4.54760    0.01710    2.68370
 6964.50000   59.00720   99.96710    8.87100   49.65700  100.31810   48.86860   99.45730   50.45410  101.06370   27.19590    0.06090    0.00240    4.50150    0.01480    2.68680
 6965.00000   58.72130   99.97970    8.89190   49.57490  100.05770   48.78680   99.19960   50.74120  100.80100   28.82430    0.05830    0.00240    4.43370    0.01640    2.68180
 6965.50000   58.15930  100.92250    8.91280   49.57490  100.04520   48.78680   99.18700   51.02820  100.78850   29.99140    0.05550    0.00230    4.40260    0.01970    2.67610
 6966.00000   58.16760  101.91440    8.93370   49.83050   99.95700   49.03370   99.05480   51.31530  100.73810   29.80530    0.05070    0.00120    4.42420    0.02270    2.66840
 6966.50000   57.88490  102.08670    8.97650   50.59400   99.26880   49.77810   98.40990   52.56840  100.01250   27.52030    0.04720    0.00000    4.51070    0.02930    2.65900
 6967.00000   57.28220  102.60120    8.95150   56.04540   99.25060   54.48750   98.39250   57.60680   99.99390   26.20850    0.04540   -0.00130    4.58440    0.03480    2.64950
 6967.50000   56.86310  103.39420    8.98250   60.01480   99.24140   59.00650   98.38330   61.02960   99.98470   26.78980    0.04600   -0.00240    4.63620    0.03970    2.64090
 6968.00000   56.63080  103.25590    9.11480   62.44740   99.23220   61.65940   98.37410   63.23930   99.97550   27.60430    0.04890   -0.00180    4.62710    0.03990    2.64000
 6968.50000   56.62440  103.30240    8.87200   62.12330   99.27790   61.32620   98.41970   62.92480  100.02120   26.47070    0.05220   -0.00120    4.62260    0.04000    2.64510
 6969.00000   56.90260  102.91570    8.85500   61.50530   99.49780   60.70710   98.63790   62.30780  100.24240   25.48850    0.05660   -0.00120    4.61810    0.03890    2.65290
 6969.50000   57.22030  101.70640    8.84150   60.88730   99.77590   60.08800   98.91180   61.69070  100.52470   27.69970    0.05950   -0.00120    4.60320    0.03490    2.65670
 6970.00000   57.41700  101.64540    8.83820   60.26930  100.10730   59.46880   99.24520   61.07370  100.85400   30.53170    0.05930   -0.00120    4.57180    0.03120    2.65510
 6970.50000   57.45010  103.16440    8.82860   59.63990  100.28230   58.83720   99.41840   60.44650  101.03060   31.26340    0.05860   -0.00140    4.54190    0.03130    2.65450
 6971.00000   57.56870  101.96550    8.81760   58.97410  100.51700   58.17140   99.27090   59.78070  103.04450   29.65250    0.05780   -0.00160    4.51530    0.03130    2.65580
 6971.50000   57.93020  100.99230    8.81380   58.30830  100.75760   57.50560   98.97740   59.11490  105.82720   28.15640    0.05690   -0.00180    4.49780    0.02900    2.66610
 6972.00000   58.22360  101.98760    8.83240   57.64250  101.25080   56.83990   98.68390   58.44910  105.99240   26.81620    0.05490   -0.00120    4.50240    0.02760    2.65750
 6972.50000   58.31600  101.18690    8.89430   56.97670  101.63750   56.17410   99.16330   57.78330  104.80750   25.59860    0.05270   -0.00060    4.53210    0.03350    2.64900
 6973.00000   58.22360  100.50100    8.89520   56.31100  101.63750   55.50830  100.31950   57.11750  102.52290   24.61240    0.05120   -0.00010    4.49800    0.03500    2.65050
 6973.50000   57.93280  100.15100    8.89610   55.64520  100.95330   54.84250  100.06870   56.45170  101.71950   24.03580    0.04980    0.00050    4.40820    0.03230    2.65590
 6974.00000   57.58180   99.63620    8.92090   55.44860  100.02410   54.65500   99.13990   56.24620  100.79040   24.19290    0.04830    0.00150    4.40790    0.02810    2.66130
 6974.50000   57.30060   97.98850    8.97450   55.70680   99.50250   54.91320   98.63550   56.50460  100.25360   24.46500    0.04740    0.00250    4.41550    0.02920    2.66670
 6975.00000   56.91850   96.77530    9.02810   55.94540   99.07610   55.14900   98.20910   56.74540   99.82730   24.90590    0.04670    0.00230    4.41950    0.02860    2.67150
 6975.50000   56.50040   96.35700    9.03790   55.43890   98.54400   54.63280   97.68160   56.23920   99.29110   25.21220    0.04720    0.00200    4.39430    0.02270    2.67570
 6976.00000   56.10070   96.18470    8.91340   54.66310   98.51670   53.85700   97.65430   55.71100   99.26370   24.42780    0.04770    0.00160    4.37080    0.01770    2.67980
 6976.50000   55.93980   96.18840    8.91960   53.88720   98.48930   53.08110   97.62690   55.18290   99.23640   23.27240    0.04960    0.00130    4.36010    0.01840    2.68320
 6977.00000   55.91810   96.06990    8.91170   54.14730   98.18460   53.26090   97.31960   56.49410   98.93410   23.60200    0.05220    0.00140    4.41090    0.02600    2.68490
 6977.50000   55.97280   95.97940    8.89170   55.70220   98.21990   54.89010   97.35700   58.29990   98.96730   26.05450    0.05500    0.00180    4.42410    0.02900    2.68670
 6978.00000   56.08190   96.31340    8.87010   56.59780   98.51170   55.79340   97.64840   58.91190   99.25950   31.93830    0.05780    0.00230    4.42810    0.03140    2.68840
 6978.50000   56.16640   98.02000    8.84060   56.36500   98.83210   55.61770   97.96520   58.16690   99.58320   34.91750    0.05880    0.00430    4.47720    0.02350    2.69620
 6979.00000   56.06150   99.95800    8.81360   55.95770   98.44230   55.39120   97.57270   57.02870   99.19540   34.36770    0.05830    0.01730    4.52640    0.00780    2.72060
 6979.50000   56.03390  101.66550    8.80660   55.95770   98.13450   55.16470   97.27030   57.66540   98.88310   31.23570    0.05620    0.02840    4.55610   -0.01100    2.73470
 6980.00000   56.35040  102.38410    8.79840   55.95770   98.14830   54.93820   97.28460   58.28090   98.89640   28.56810    0.05550    0.02620    4.54090   -0.01400    2.72790
 6980.50000   58.61310  103.31690    8.79730   56.89310   98.08820   54.71170   97.22440   58.47510   98.83640   36.62960    0.06170    0.00820    4.50270   -0.00230    2.70620
 6981.00000   61.05140  103.01970    8.79700   57.83310   98.37160   54.48520   97.50550   58.66930   99.12200   50.02310    0.07170   -0.01090    4.35170    0.01160    2.69240
 6981.50000   61.17190  102.71620    8.82110   57.87810   98.91140   54.25860   98.03640   58.67400   99.66930   61.71040    0.07550   -0.01220    4.10630    0.02620    2.68490
 6982.00000   59.98940  102.41260    8.88320   57.87810   99.74280   55.57190   98.85580   58.67400  100.51160   71.32390    0.07570   -0.00260    3.83290    0.02470    2.67740
 6982.50000   57.96730  102.04360    8.96450   58.02690  101.13270   57.08000  100.26810   59.00500  101.88160   70.44390    0.07570   -0.00040    3.61500    0.02250    2.66990
