~Version ---------------------------------------------------
VERS.   2.0 : CWLS log ASCII Standard -VERSION 2.0
WRAP.    NO : One line per depth step
DLM . SPACE : Column Data Section Delimiter
~Well ------------------------------------------------------
STRT .F                  152.0 : START DEPTH
STOP .F                 8366.0 : STOP DEPTH
STEP .F                    0.5 : STEP
NULL .                -9999.25 : NULL VALUE
COMP .                         : COMPANY
WELL .                         : WELL
FLD  .                         : FIELD
LOC  .                         : LOCATION
PROV .                         : PROVINCE
CNTY .                         : COUNTY
STAT .                         : STATE
CTRY .                         : COUNTRY
SRVC .                         : SERVICE COMPANY
DATE .                         : DATE
UWI  .                         : UNIQUE WELL ID
API  .                         : API NUMBER
SLAT .WGS84 2.6385479759627017 : SURFACE LATITUDE
SLON .WGS84  9.088750169529007 : SURFACE LONGITUDE
DATUM.F                4021.82 : DEPTH DATUM ELEV
~Curve Information -----------------------------------------
DEPT .F     : 
DTCO .US/F  : COMPRESSIONAL-WAVE INTERVAL TRANSIT TIME ACOUSTIC SLOWNESS
DTSM .US/F  : SHEAR-WAVE INTERVAL TRANSIT
HCALS.IN    : HILT CALIPER
DT4P .US/F  : COMPRESSIONAL-WAVE INTERVAL TRANSIT TIME ACOUSTIC SLOWNESS, P&S MODE
DT4S .US/F  : SHEAR-WAVE INTERVAL TRANSIT TIME ACOUSTIC SLOWNESS, P&S MODE
DTRP .US/F  : Delta-T Compressional, Receiver Array - Monopole P&S
DTRS .US/F  : INTERVAL TRANSIT TIME FOR RECEIVER ARRAY
DTTP .US/F  : INTERVAL TRANSIT TIME FROM TRANSMITTER ARRAY
DTTS .US/F  : INTERVAL TRANSIT TIME FOR TRANSMITTER ARRAY
GRD  .GAPI  : GAMMA RAY FROM DENSITY LOG
TNPH .DEC   : THERMAL NEUTRON POROSITY
HDRA .G/C3  : DELTA RHO HIP TOOL
PEFZ .B/E   : FORMATION PHETOELECTRIC FACTOR
DPHZ .DEC   : DENSITY POROSITY LIMESTONE
RHOZ .G/C3  : HILT BULK DENSITY
~Params ----------------------------------------------------
~Other -----------------------------------------------------
~ASCII -----------------------------------------------------
# ...
 3303.00000   55.25130   93.39290    9.26680   51.97110   88.12320   46.66750   87.26060   53.15770   88.87040   16.87820    0.02150    0.01110    4.09680    0.02250    2.67350
 3303.50000   55.02820   93.24730    9.26460   50.74020   87.70250   47.04930   86.83200   51.54570   88.45640   17.55470    0.01810    0.00470    3.94420    0.02000    2.67550
 3304.00000   55.17100   93.29810    9.26400   49.98170   87.31250   47.43110   86.44920   50.75340   88.06050   19.83590    0.01790    0.00040    3.72730    0.01960    2.67730
 3304.50000   55.09400   93.44900    9.26330   49.77480   87.16990   47.64250   86.30840   50.55170   87.91620   20.54310    0.01920   -0.00270    3.70560    0.01960    2.67980
 3305.00000   54.74560   93.79390    9.26270   49.17470   87.19360   47.43460   86.33200   50.00020   87.94000   20.15040    0.01470   -0.00470    3.78560    0.01820    2.68950
 3305.50000   54.16470   94.01340    9.26200   47.64930   87.26440   46.45350   86.40280   48.47470   88.01080   19.70380    0.00880   -0.00660    4.04150    0.01540    2.69690
 3306.00000   53.51730   93.98600    9.26140   46.12390   87.49870   44.92700   86.63230   46.94930   88.24930   20.91910    0.00690   -0.00790    4.12420    0.01550    2.69590
 3306.50000   53.01830   93.58880    9.26070   45.50570   88.01270   44.38580   87.14160   46.27750   88.76750   25.49220    0.01270   -0.00890    4.08150    0.01660    2.68980
 3307.00000   52.68250   93.02470    9.26010   46.28700   88.29290   45.13810   87.43140   47.07770   89.03910   29.76320    0.01810   -0.00910    3.96070    0.01900    2.68360
 3307.50000   52.59760   92.84300    9.25950   46.78450   87.74620   45.66460   86.87140   47.55630   88.50450   30.08660    0.01760   -0.00890    3.98700    0.02130    2.67740
 3308.00000   52.56960   92.85040    9.25880   46.78450   88.17830   45.66460   87.30480   47.55630   88.93520   28.05540    0.01470   -0.00870    4.10370    0.02420    2.67130
 3308.50000   52.56300   93.09710    9.25820   46.54220   88.31580   45.41120   87.45400   47.32200   89.06220   25.90650    0.01320   -0.00550    4.22180    0.03070    2.65180
 3309.00000   52.61860   94.11480    9.26550   46.18580   88.19520   45.06250   87.33350   47.09080   88.94150   23.74760    0.01310    0.01520    4.31710    0.03390    2.64970
 3309.50000   53.74950   95.03590    9.28250   45.85150   88.07450   44.72800   87.21290   47.04510   88.82090   21.54810    0.01350    0.03800    4.34430    0.03350    2.65130
 3310.00000   55.37980   93.78000    9.29950   45.51720   88.50870   44.39360   87.62100   46.98890   89.27760   19.22170    0.01410    0.04220    4.29170    0.03260    2.65340
 3310.50000   56.14750   92.27570    9.30590   45.18290   88.73170   44.05920   87.86560   46.62630   89.48140   18.80250    0.01460    0.02540    4.13530    0.03080    2.65680
 3311.00000   55.87900   92.06290    9.30460   44.89200   88.32370   43.76410   87.45780   46.26360   89.07360   21.05390    0.01530    0.00560    3.89130    0.03060    2.66020
 3311.50000   55.47530   92.82110    9.28400   45.37990   87.91560   44.25190   87.04990   46.15740   88.66570   24.24200    0.01740    0.00030    3.73100    0.02770    2.66360
 3312.00000   55.11210   93.49970    9.26560   46.20830   87.28220   45.05750   86.41780   47.06180   88.05790   27.24740    0.01930   -0.00110    3.69830    0.02610    2.66690
 3312.50000   54.78170   94.03700    9.26070   47.15500   86.95450   46.00380   86.09030   48.27840   87.70330   26.72630    0.02060   -0.00210    3.75430    0.02640    2.67020
 3313.00000   54.46800   94.39090    9.26110   47.42400   87.04370   46.30410   86.18200   49.49510   87.79030   23.28440    0.01970   -0.00270    3.86310    0.02380    2.67330
 3313.50000   54.38120   94.43550    9.25880   47.08350   87.15280   45.95670   86.29110   49.12550   87.89920   19.36050    0.01800   -0.00220    4.13120    0.02120    2.67650
 3314.00000   54.33390   94.21090    9.25660   46.62310   87.24030   45.49490   86.37870   48.57100   87.98650   18.27130    0.01630   -0.00160    4.31290    0.01910    2.67860
 3314.50000   54.44690   93.66890    9.25430   46.14510   87.27370   45.02520   86.41220   47.78750   88.01990   21.04550    0.01770   -0.00100    4.33710    0.02010    2.67430
 3315.00000   54.44060   93.39270    9.25390   46.16580   87.31550   45.04230   86.45390   46.94020   88.06220   23.98460    0.01920   -0.00040    4.12050    0.02410    2.67120
 3315.50000   54.45130   93.19630    9.25600   46.48160   87.54600   45.35790   86.68390   47.25570   88.29260   24.99830    0.01970    0.00510    3.88270    0.02200    2.68800
 3316.00000   54.37510   92.93780    9.26000   46.42000   87.45220   45.29980   86.59000   47.19200   88.19900   24.21410    0.01840    0.01830    3.71040    0.00290    2.71760
 3316.50000   53.85300   92.71230    9.26410   46.31360   87.12150   45.19350   86.25900   47.08560   87.86840   22.64230    0.01720    0.03100    3.56450   -0.01940    2.74860
 3317.00000   53.40630   92.13360    9.26810   46.20730   86.75300   45.08710   85.88690   46.97930   87.50340   21.08960    0.01720    0.03130    3.52310   -0.02300    2.74880
 3317.50000   53.33770   91.61590    9.27220   45.63100   86.56990   44.45980   85.70090   46.59730   87.32220   20.00820    0.01730    0.01580    3.63200   -0.01800    2.73820
 3318.00000   53.68130   91.36710    9.27620   44.39360   86.66090   43.22190   85.78650   46.20130   87.41820   20.42850    0.01740    0.00380    3.93220   -0.00930    2.72310
 3318.50000   54.23990   91.34480    9.28030   43.19630   86.16100   42.02860   85.29830   45.80530   86.90820   21.14280    0.01710   -0.00150    4.26240   -0.00080    2.70790
 3319.00000   54.44760   91.59100    9.27530   42.94800   86.14440   41.82810   85.28220   45.74290   86.89120   20.97540    0.01580   -0.00410    4.37340    0.01110    2.69280
 3319.50000   54.45030   92.59640    9.26640   43.86530   86.60370   42.57850   85.70760   47.26710   87.42420   19.91170    0.01340   -0.00500    4.37560    0.01360    2.68390
 3320.00000   54.46680   93.60190    9.25750   46.13280   87.86110   44.84640   87.08410   49.25040   88.65820   18.82980    0.01230   -0.00370    4.12620    0.02070    2.67660
 3320.50000   54.29620   94.27880    9.24870   47.99680   88.52040   46.81470   87.65620   49.59360   89.26910   18.79280    0.01360   -0.00190    3.59080    0.02400    2.67150
 3321.00000   53.77630   94.47760    9.24570   48.94730   88.21320   47.81630   87.34900   49.72710   88.96190   19.08520    0.01560   -0.00080    3.24850    0.02440    2.67030
 3321.50000   53.52370   94.24190    9.24560   49.31710   87.56170   48.19630   86.66640   50.08950   88.33790   19.37880    0.01690    0.00010    3.17870    0.02380    2.67280
 3322.00000   53.40490   93.77510    9.24900   49.10900   86.82580   47.98520   85.95910   49.88340   87.57650   18.75360    0.01650   -0.00030    3.41810    0.02300    2.67550
 3322.50000   52.96420   93.30830    9.25570   48.81010   87.00600   47.68640   86.14360   49.58450   87.75300   17.76040    0.01520   -0.00220    3.87730    0.02120    2.67590
 3323.00000   52.74710   92.89110    9.29550   48.75810   86.98510   47.63500   86.11370   49.53190   87.74000   16.74300    0.01340   -0.00400    4.37640    0.02100    2.67060
 3323.50000   52.87640   92.41300    9.50400   49.00460   87.23140   47.88160   86.36920   49.77860   88.06020   16.34870    0.01220   -0.00440    4.52610    0.02320    2.67100
 3324.00000   53.24350   92.17620    9.88400   49.25120   87.31820   48.12820   86.45010   50.02520   88.38240   17.52780    0.01140   -0.00280    4.30030    0.02120    2.67760
 3324.50000   53.83820   92.11900    9.68120   48.85080   87.87260   47.72150   86.99810   49.62890   88.49530   19.40690    0.01180   -0.00090    3.97540    0.01910    2.67820
 3325.00000   53.70140   92.09900    9.24910   48.34280   87.83560   47.21350   86.96480   49.12090   88.45130   21.29680    0.01360   -0.00240    3.87600    0.02390    2.65550
 3325.50000   53.01300   92.04890    9.25310   47.83480   87.23410   46.70550   86.36310   48.61290   88.40720   22.18150    0.01430   -0.00440    4.08850    0.03180    2.65390
