~Version ---------------------------------------------------
VERS.   2.0 : CWLS log ASCII Standard -VERSION 2.0
WRAP.    NO : One line per depth step
DLM . SPACE : Column Data Section Delimiter
~Well ------------------------------------------------------
STRT .F                  152.0 : START DEPTH
STOP .F                 8366.0 : STOP DEPTH
STEP .F                    0.5 : STEP
NULL .                -9999.25 : NULL VALUE
COMP .                         : COMPANY
WELL .                         : WELL
FLD  .                         : FIELD
LOC  .                         : LOCATION
PROV .                         : PROVINCE
CNTY .                         : COUNTY
STAT .                         : STATE
CTRY .                         : COUNTRY
SRVC .                         : SERVICE COMPANY
DATE .                         : DATE
UWI  .                         : UNIQUE WELL ID
API  .                         : API NUMBER
SLAT .WGS84 2.6385479759627017 : SURFACE LATITUDE
SLON .WGS84  9.088750169529007 : SURFACE LONGITUDE
DATUM.F                4021.82 : DEPTH DATUM ELEV
~Curve Information -----------------------------------------
DEPT .F     : 
DTCO .US/F  : COMPRESSIONAL-WAVE INTERVAL TRANSIT TIME ACOUSTIC SLOWNESS
DTSM .US/F  : SHEAR-WAVE INTERVAL TRANSIT
HCALS.IN    : HILT CALIPER
DT4P .US/F  : COMPRESSIONAL-WAVE INTERVAL TRANSIT TIME ACOUSTIC SLOWNESS, P&S MODE
DT4S .US/F  : SHEAR-WAVE INTERVAL TRANSIT TIME ACOUSTIC SLOWNESS, P&S MODE
DTRP .US/F  : Delta-T Compressional, Receiver Array - Monopole P&S
DTRS .US/F  : INTERVAL TRANSIT TIME FOR RECEIVER ARRAY
DTTP .US/F  : INTERVAL TRANSIT TIME FROM TRANSMITTER ARRAY
DTTS .US/F  : INTERVAL TRANSIT TIME FOR TRANSMITTER ARRAY
GRD  .GAPI  : GAMMA RAY FROM DENSITY LOG
TNPH .DEC   : THERMAL NEUTRON POROSITY
HDRA .G/C3  : DELTA RHO HIP TOOL
PEFZ .B/E   : FORMATION PHETOELECTRIC FACTOR
DPHZ .DEC   : DENSITY POROSITY LIMESTONE
RHOZ .G/C3  : HILT BULK DENSITY
~Params ----------------------------------------------------
~Other -----------------------------------------------------
~ASCII -----------------------------------------------------
# ...
 7880.00000   67.68850  107.76900    8.91660   64.14770  105.55610   63.20680  104.65610   65.35750  106.33480   93.79620    0.11400   -0.00190    3.24660    0.04130    2.64140
 7880.50000   66.29460  108.86380    8.90800   64.24030  106.58240   63.28930  105.69670   65.46310  107.34890   94.27610    0.11030   -0.00230    3.16300    0.04350    2.63570
 7881.00000   66.74140  110.19680    8.93680   64.97190  107.72710   63.93360  106.81520   66.30710  108.52200   97.53390    0.11210   -0.00280    3.02700    0.04770    2.62760
 7881.50000   67.48850  109.90010    8.95260   66.23540  109.56950   65.27950  108.63170   67.46380  110.35810  101.13790    0.12160   -0.00330    2.94670    0.05220    2.61940
 7882.00000   68.26030  111.55910    8.96680   66.92160  111.18160   65.96580  110.20660   68.15000  112.02450  103.56510    0.13990   -0.00380    2.90210    0.05730    2.61300
 7882.50000   68.44220  114.32320    8.96800   67.60780  112.72330   66.65200  111.82950   68.83620  113.50920  106.10710    0.16080   -0.00430    2.89190    0.05950    2.61290
 7883.00000   68.31750  115.27770    8.97330   68.21020  115.31320   67.25910  114.43710   69.43300  116.07150  107.58580    0.16830   -0.00280    2.89240    0.05370    2.61810
 7883.50000   67.90840  116.06200    8.97730   68.39800  115.38990   67.45750  114.76060   69.60730  116.16210  108.99130    0.16500    0.00010    2.90960    0.05090    2.62420
 7884.00000   67.73610  116.85800    8.97730   67.68540  116.76780   66.70500  115.18040   68.94640  117.71240  111.19950    0.15730    0.00270    2.93790    0.05070    2.62520
 7884.50000   68.61960  116.45090    8.97730   67.04570  117.52530   66.10510  115.60020   68.25500  118.27660  113.49140    0.14830    0.00280    2.96060    0.05050    2.63180
 7885.00000   70.32120  117.06090    8.97830   68.09540  117.17210   67.06650  116.02000   69.39870  117.92090  115.58760    0.14740    0.00210    2.94840    0.04430    2.64430
 7885.50000   71.39850  118.11740    8.98380   70.87850  117.23480   68.59640  115.65270   72.90000  118.36470  116.76010    0.15020    0.00050    2.92580    0.03710    2.65430
 7886.00000   70.71810  118.89190    8.98740   76.52540  120.62230   69.74100  114.27820   85.54270  128.37300  115.52700    0.15800   -0.00140    2.91160    0.03380    2.65030
 7886.50000   67.92140  118.05950    8.98740   84.68090  133.77330   68.77730  113.19350  100.56570  152.74450  109.56010    0.16600   -0.00060    2.94060    0.03570    2.64760
 7887.00000   65.00340  116.28380    8.98740   87.74730  138.41630   64.95660  112.51300  109.97580  167.74940   97.06820    0.16780    0.00080    3.03350    0.03250    2.65650
 7887.50000   62.60830  114.13230    8.98740   87.78000  137.68260   61.07330  113.50370  107.23850  167.51430   81.47240    0.16830    0.00200    3.26810    0.02320    2.68300
 7888.00000   60.25570  112.10860    8.98740   86.64800  135.15920   58.12690  112.77160  107.03670  164.46480   63.87660    0.16470    0.00270    3.69780    0.00530    2.70150
 7888.50000   57.85860  111.18760    8.98740   84.59810  132.84950   56.85310  109.91580  108.93640  161.28900   52.31370    0.13510    0.00330    4.10290    0.00500    2.70320
 7889.00000   56.34300  110.86640    8.98740   82.77700  130.93430   56.80630  107.06010  106.40100  157.88130   48.42230    0.09730    0.00110    4.20150    0.00450    2.70370
 7889.50000   55.98770  111.00250    8.98740   80.95590  129.20780   57.90450  105.28250  102.78430  154.47360   49.60290    0.07560   -0.00120    4.13410    0.00620    2.70370
 7890.00000   57.85840  111.75880    8.98740   80.05320  129.08940   59.00280  106.78950   99.89330  152.26010   55.60580    0.08430   -0.00230    3.98990    0.00520    2.69830
 7890.50000   60.77310  112.71230    8.98720   80.68360  130.01560   60.16540  109.33310   99.91590  151.73040   70.69780    0.12430   -0.00330    3.82690    0.00510    2.68350
 7891.00000   63.97320  112.81550    8.98690   79.01360  126.81570   61.53540  111.10630   95.91440  143.54710   90.80960    0.14180   -0.00390    3.64250    0.01390    2.66860
 7891.50000   65.35040  112.58560    8.98670   74.96520  119.70810   62.90490  112.29040   83.92450  127.95430  104.76400    0.14000   -0.00440    3.44320    0.02840    2.65380
 7892.00000   65.79630  112.83630    8.98870   69.96320  112.88100   64.27440  112.80810   74.14690  117.78800  106.86770    0.14090   -0.00380    3.30220    0.03830    2.64560
 7892.50000   66.01270  113.04040    8.99690   65.83150  110.77320   65.10810  111.90250   68.66640  112.02170  104.94140    0.14450   -0.00350    3.24620    0.03870    2.64490
 7893.00000   65.58960  112.38770    9.00520   66.32360  114.11750   65.09610  110.83600   68.70470  114.60680  103.14520    0.14050   -0.00320    3.24450    0.03840    2.64550
 7893.50000   65.03190  113.02130    9.01350   72.66890  123.67580   64.59220  109.76950   80.20760  126.40440  101.40900    0.13160   -0.00070    3.20330    0.03750    2.64830
 7894.00000   64.99200  114.82730    9.02170   80.06520  133.06380   64.95370  108.70300   97.46450  152.93660  100.77100    0.13580    0.00260    3.13340    0.03360    2.65440
 7894.50000   64.92770  113.89270    9.03000   86.70570  140.17800   65.88080  107.68220  103.51340  172.43960  101.36890    0.14400    0.00420    3.13080    0.03000    2.66120
 7895.00000   63.05300  111.79380    9.03630   88.93930  140.23480   67.37250  107.94130  106.89250  173.69400  103.17350    0.14540    0.00330    3.17020    0.02580    2.66980
 7895.50000   60.32580  109.80570    9.03630   89.59480  140.49800   68.86410  109.92440  108.39010  172.01610  103.60560    0.14320    0.00010    3.32820    0.01370    2.68780
 7896.00000   59.15700  108.09460    9.03630   88.26190  140.41540   69.66470  110.54080  107.97550  168.83170  102.39890    0.12300   -0.00330    3.66140    0.01250    2.69110
 7896.50000   58.26080  108.12620    9.03630   86.30040  138.62200   66.83360  109.88330  103.99580  165.64100   94.59340    0.07940   -0.00670    4.15520    0.01150    2.69170
 7897.00000   57.44430  109.02500    9.03630   83.98710  136.25350   63.59540  107.94330   99.08940  162.45030   79.66950    0.04840   -0.00730    4.55980    0.00990    2.69550
 7897.50000   56.91440  109.88340    9.03630   81.34570  133.64520   60.57740  104.97170   93.00940  160.87730   61.67470    0.02310   -0.00350    4.71990    0.00010    2.72120
 7898.00000   56.43160  110.26790    9.03630   79.18270  133.47120   57.72730  102.00020   86.92930  161.76640   53.18930    0.02450   -0.00010    4.68050   -0.00680    2.72210
 7898.50000   56.05140  108.98410    9.03630   78.15650  134.29740   54.87720   99.02860   81.00420  164.62300   59.56750    0.02920   -0.00070    4.58030   -0.00150    2.71770
 7899.00000   56.16670  107.59440    9.09350   78.78240  135.96840   52.72150  101.18830   80.00620  168.80060   73.03060    0.03410   -0.00190    4.54770    0.00520    2.70690
 7899.50000   56.86860  106.83360    9.12340   79.70780  137.97420   54.66440  104.31020   81.39250  172.20030   77.45070    0.04520   -0.00250    4.54200    0.00740    2.70370
 7900.00000   57.54050  107.60650    9.11080   83.62990  139.68370   57.37520  107.13350   85.31730  172.20710   73.26100    0.06040   -0.00210    4.55410    0.00660    2.70200
 7900.50000   58.42220  110.09590    9.07000   84.68410  140.67040   60.08590  108.56570   85.91400  171.16800   66.55900    0.08450   -0.00180    4.45810    0.00430    2.68230
 7901.00000   60.07860  112.86660    9.02910   85.57350  140.56820   62.67650  109.08560   86.81680  161.28710   69.41940    0.11250   -0.00240    4.10030    0.01280    2.65980
 7901.50000   62.14480  115.26260    8.98820   86.90140  133.55910   64.56720  108.32890   88.20300  144.36550   83.05330    0.13190   -0.00370    3.67580    0.02700    2.63730
 7902.00000   63.87660  116.51700    8.98600   89.72110  120.05320   66.45790  110.00390   91.13190  127.44390   99.02200    0.14150   -0.00270    3.27750    0.04570    2.63310
 7902.50000   64.44110  116.43650    8.97910   91.11760  111.01050   66.28490  111.28850   92.33380  113.31490  109.52040    0.14360   -0.00090    3.08360    0.04280    2.64260
