~Version ---------------------------------------------------
VERS.   2.0 : CWLS log ASCII Standard -VERSION 2.0
WRAP.    NO : One line per depth step
DLM . SPACE : Column Data Section Delimiter
~Well ------------------------------------------------------
STRT .F                  152.0 : START DEPTH
STOP .F                 8366.0 : STOP DEPTH
STEP .F                    0.5 : STEP
NULL .                -9999.25 : NULL VALUE
COMP .                         : COMPANY
WELL .                         : WELL
FLD  .                         : FIELD
LOC  .                         : LOCATION
PROV .                         : PROVINCE
CNTY .                         : COUNTY
STAT .                         : STATE
CTRY .                         : COUNTRY
SRVC .                         : SERVICE COMPANY
DATE .                         : DATE
UWI  .                         : UNIQUE WELL ID
API  .                         : API NUMBER
SLAT .WGS84 2.6385479759627017 : SURFACE LATITUDE
SLON .WGS84  9.088750169529007 : SURFACE LONGITUDE
DATUM.F                4021.82 : DEPTH DATUM ELEV
~Curve Information -----------------------------------------
DEPT .F     : 
DTCO .US/F  : COMPRESSIONAL-WAVE INTERVAL TRANSIT TIME ACOUSTIC SLOWNESS
DTSM .US/F  : SHEAR-WAVE INTERVAL TRANSIT
HCALS.IN    : HILT CALIPER
DT4P .US/F  : COMPRESSIONAL-WAVE INTERVAL TRANSIT TIME ACOUSTIC SLOWNESS, P&S MODE
DT4S .US/F  : SHEAR-WAVE INTERVAL TRANSIT TIME ACOUSTIC SLOWNESS, P&S MODE
DTRP .US/F  : Delta-T Compressional, Receiver Array - Monopole P&S
DTRS .US/F  : INTERVAL TRANSIT TIME FOR RECEIVER ARRAY
DTTP .US/F  : INTERVAL TRANSIT TIME FROM TRANSMITTER ARRAY
DTTS .US/F  : INTERVAL TRANSIT TIME FOR TRANSMITTER ARRAY
GRD  .GAPI  : GAMMA RAY FROM DENSITY LOG
TNPH .DEC   : THERMAL NEUTRON POROSITY
HDRA .G/C3  : DELTA RHO HIP TOOL
PEFZ .B/E   : FORMATION PHETOELECTRIC FACTOR
DPHZ .DEC   : DENSITY POROSITY LIMESTONE
RHOZ .G/C3  : HILT BULK DENSITY
~Params ----------------------------------------------------
~Other -----------------------------------------------------
~ASCII -----------------------------------------------------
# ...
 4223.00000   54.41210   95.64770    8.87180   48.05170   92.39730   46.91330   90.96470   48.83590   93.14570   20.95910    0.02500    0.00920    4.45880    0.02800    2.65900
 4223.50000   54.30440   95.36920    8.87440   47.31910   92.13340   46.18080   91.26050   48.10330   92.87990   20.95930    0.02560    0.00150    4.50270    0.03360    2.65530
 4224.00000   54.08610   95.05060    8.89120   47.81060   91.85330   46.67510   90.73930   48.59360   92.60400   21.45950    0.02620   -0.00070    4.62100    0.03290    2.65150
 4224.50000   53.81500   94.98800    8.89130   48.84000   91.39550   47.68070   90.19590   49.63980   92.14630   22.16940    0.02660   -0.00220    4.70050    0.03260    2.65000
 4225.00000   53.50700   94.92960    8.89880   49.90380   90.93770   48.74440   89.65260   50.70350   91.68860   22.42870    0.02630   -0.00270    4.65570    0.03240    2.64960
 4225.50000   53.44890   94.81640    8.89950   50.26460   90.57950   49.14140   89.44480   51.03850   91.72010   22.87910    0.02500   -0.00270    4.58710    0.03360    2.65170
 4226.00000   53.51520   94.05490    8.89440   49.94910   91.91000   48.82590   90.73290   50.72310   92.85780   23.91630    0.02350   -0.00170    4.50390    0.03110    2.65730
 4226.50000   53.82050   93.85490    8.88620   49.63370   92.97950   48.51050   92.09200   50.40770   93.99560   25.16350    0.02200   -0.00070    4.41810    0.02710    2.66250
 4227.00000   54.21650   94.22400    8.88350   49.31830   93.94650   48.19500   93.05860   50.09220   94.81580   25.46620    0.02040    0.00030    4.41900    0.02630    2.66340
 4227.50000   54.59390   94.44890    8.87580   49.00290   94.06540   47.87960   93.20390   49.77680   95.09580   23.99170    0.01870    0.00040    4.42960    0.02730    2.66250
 4228.00000   54.73190   93.63260    8.87640   48.44690   93.63930   47.31040   92.74280   49.22960   95.37570   22.91190    0.01750   -0.00040    4.47660    0.03130    2.65720
 4228.50000   54.67180   93.54250    8.89130   47.75430   92.48480   46.61800   91.58830   48.53690   95.65570   22.98260    0.01700   -0.00040    4.48760    0.03360    2.65180
 4229.00000   54.48580   93.88250    8.91180   47.06160   91.33030   45.92550   90.43380   47.84420   95.20400   24.08870    0.01780    0.00000    4.48550    0.03550    2.64640
 4229.50000   54.21990   94.24540    8.91630   46.97030   90.17580   45.85040   89.27930   47.74210   93.17890   24.02380    0.01950    0.00030    4.46510    0.03670    2.64580
 4230.00000   54.07360   94.38240    8.89020   46.97030   89.61540   45.85040   88.75390   47.74210   91.91070   22.12620    0.02110    0.00070    4.45800    0.04270    2.65650
 4230.50000   53.94850   93.73910    8.86130   46.97030   89.72860   45.85040   88.86420   47.74210   90.70700   19.32370    0.02220    0.00510    4.47240    0.04490    2.63340
 4231.00000   53.97390   93.04700    8.83230   46.97030   90.05590   45.85040   89.19140   47.74210   90.81340   18.84950    0.02260    0.01260    4.52380    0.04280    2.63650
 4231.50000   54.11900   92.57360    8.80830   46.97030   90.38320   45.85040   89.51870   47.74210   91.13180   20.32560    0.02320    0.01510    4.45290    0.03520    2.64720
 4232.00000   54.35600   92.60830    8.80260   43.86190   90.71050   42.36360   89.84590   44.89490   91.45900   22.31860    0.02420    0.01500    4.34450    0.03000    2.65790
 4232.50000   54.53890   93.19800    8.80260   41.46150   91.15760   40.31440   90.29030   42.25260   91.90870   24.24420    0.02580    0.01080    4.28850    0.03120    2.66060
 4233.00000   54.58110   93.81610    8.85140   40.57540   91.61940   39.45540   90.75210   41.35710   92.37060   24.90720    0.02750    0.00420    4.22580    0.03210    2.65460
 4233.50000   54.46420   94.41260    8.86750   40.51720   92.08120   39.39720   91.21390   41.28910   92.83250   25.01130    0.02890    0.00150    4.21050    0.03100    2.65320
 4234.00000   54.43850   95.25880    8.86750   40.45910   91.61940   39.33910   90.72150   41.23100   92.39680   24.72010    0.02840    0.00340    4.20940    0.02850    2.65980
 4234.50000   54.40950   95.96100    8.86930   40.40100   90.50540   39.28100   89.64390   41.17290   91.25170   24.56680    0.02610    0.00690    4.20460    0.02610    2.66750
 4235.00000   54.37770   96.21150    8.87120   40.34290   90.71990   39.22290   89.83730   41.11470   91.48450   24.97920    0.02490    0.01220    4.16940    0.02350    2.67530
 4235.50000   54.38080   95.77110    8.87310   40.28470   91.54250   39.16470   90.67890   41.05660   92.29040   25.10850    0.02360    0.01810    4.13840    0.01950    2.68640
 4236.00000   54.42480   94.85150    8.87490   40.22660   91.81430   39.10660   90.95070   40.99850   92.56220   24.30650    0.02160    0.01910    4.13510    0.01550    2.68720
 4236.50000   54.59890   93.96240    8.83970   40.16850   92.08610   39.04850   91.22250   40.94030   92.83400   23.29730    0.01990    0.01770    4.16700    0.01350    2.67810
 4237.00000   54.66230   93.87910    8.79410   40.11030   92.28540   38.99040   91.42390   40.88220   93.03170   22.38510    0.01960    0.00690    4.16800    0.02330    2.66830
 4237.50000   54.66360   93.92990    8.78580   40.05220   92.28540   38.93220   91.42390   40.82410   93.03170   21.41820    0.01970    0.00450    4.16300    0.02510    2.66690
 4238.00000   54.57700   93.98590    8.79910   39.99410   91.64370   38.87410   90.76440   40.76590   92.40520   21.30980    0.01980    0.00270    4.10580    0.02500    2.67080
 4238.50000   54.45050   94.17180    8.81500   39.93600   90.81700   38.81600   89.93770   40.70780   91.57860   22.13140    0.01990    0.00270    4.09150    0.02040    2.67530
 4239.00000   54.26170   94.36680    8.83090   39.87780   90.50540   38.75780   89.64390   40.64970   91.25170   23.75500    0.01950    0.00270    4.20960    0.02500    2.67590
 4239.50000   54.04980   94.55840    8.84520   39.89080   90.91420   38.77050   90.04780   40.66300   91.66460   23.87140    0.01910    0.00260    4.36010    0.03100    2.65090
 4240.00000   53.91080   94.21730    8.85070   40.00480   91.33960   38.88440   90.47330   40.77690   92.09010   22.96090    0.01880    0.00260    4.47740    0.03540    2.64960
 4240.50000   53.78000   94.14260    8.85120   40.11870   91.67400   38.99840   90.80260   40.89090   92.42860   22.40940    0.01840    0.00260    4.58620    0.03400    2.65190
 4241.00000   53.79170   94.23070    8.86560   40.23270   91.26320   39.11240   90.39880   41.00490   92.01170   24.14510    0.01780    0.00260    4.67290    0.02990    2.67640
 4241.50000   53.88850   94.49870    8.88300   40.34670   91.58980   39.22630   90.72560   41.11880   92.33850   25.87050    0.01700    0.00270    4.69090    0.02200    2.68010
 4242.00000   53.98840   94.43130    8.90490   40.46060   91.67990   39.34030   90.81830   41.23280   92.42900   25.27670    0.01620    0.00370    4.69530    0.01730    2.68040
 4242.50000   54.06510   94.26210    8.94160   40.57460   92.15900   39.45430   91.28650   41.34670   92.91480   22.56510    0.01500    0.00370    4.72840    0.01930    2.67800
 4243.00000   54.03850   93.92660    8.98180   40.68860   92.21020   39.56820   91.34760   41.46070   92.95760   20.82960    0.01470    0.00260    4.70030    0.02330    2.67280
 4243.50000   53.97860   93.71730    9.00670   40.80250   92.06700   39.68220   91.20550   41.57470   92.81330   21.28580    0.01520    0.00130    4.62890    0.02670    2.66070
 4244.00000   54.02740   93.82180    9.02410   40.91650   91.72500   39.79620   90.85750   41.68860   92.47650   23.45110    0.01580    0.00000    4.54670    0.03250    2.65000
 4244.50000   54.08460   93.99450    9.03340   41.03050   91.15560   39.91010   90.28430   41.80260   91.90950   25.81340    0.01650   -0.00130    4.48340    0.03500    2.65320
 4245.00000   54.08680   94.55460    9.03340   41.14440   90.56620   40.02410   89.69520   41.91660   91.32020   27.64860    0.01740   -0.00120    4.38320    0.03060    2.66340
 4245.50000   54.07900   94.81110    9.03340   41.25840   89.97690   40.13810   89.10620   42.03050   90.73100   27.62830    0.01900    0.00040    4.27940    0.02600    2.66580
