~Version ---------------------------------------------------
VERS.   2.0 : CWLS log ASCII Standard -VERSION 2.0
WRAP.    NO : One line per depth step
DLM . SPACE : Column Data Section Delimiter
~Well ------------------------------------------------------
STRT .F                  152.0 : START DEPTH
STOP .F                 8366.0 : STOP DEPTH
STEP .F                    0.5 : STEP
NULL .                -9999.25 : NULL VALUE
COMP .                         : COMPANY
WELL .                         : WELL
FLD  .                         : FIELD
LOC  .                         : LOCATION
PROV .                         : PROVINCE
CNTY .                         : COUNTY
STAT .                         : STATE
CTRY .                         : COUNTRY
SRVC .                         : SERVICE COMPANY
DATE .                         : DATE
UWI  .                         : UNIQUE WELL ID
API  .                         : API NUMBER
SLAT .WGS84 2.6385479759627017 : SURFACE LATITUDE
SLON .WGS84  9.088750169529007 : SURFACE LONGITUDE
DATUM.F                4021.82 : DEPTH DATUM ELEV
~Curve Information -----------------------------------------
DEPT .F     : 
DTCO .US/F  : COMPRESSIONAL-WAVE INTERVAL TRANSIT TIME ACOUSTIC SLOWNESS
DTSM .US/F  : SHEAR-WAVE INTERVAL TRANSIT
HCALS.IN    : HILT CALIPER
DT4P .US/F  : COMPRESSIONAL-WAVE INTERVAL TRANSIT TIME ACOUSTIC SLOWNESS, P&S MODE
DT4S .US/F  : SHEAR-WAVE INTERVAL TRANSIT TIME ACOUSTIC SLOWNESS, P&S MODE
DTRP .US/F  : Delta-T Compressional, Receiver Array - Monopole P&S
DTRS .US/F  : INTERVAL TRANSIT TIME FOR RECEIVER ARRAY
DTTP .US/F  : INTERVAL TRANSIT TIME FROM TRANSMITTER ARRAY
DTTS .US/F  : INTERVAL TRANSIT TIME FOR TRANSMITTER ARRAY
GRD  .GAPI  : GAMMA RAY FROM DENSITY LOG
TNPH .DEC   : THERMAL NEUTRON POROSITY
HDRA .G/C3  : DELTA RHO HIP TOOL
PEFZ .B/E   : FORMATION PHETOELECTRIC FACTOR
DPHZ .DEC   : DENSITY POROSITY LIMESTONE
RHOZ .G/C3  : HILT BULK DENSITY
~Params ----------------------------------------------------
~Other -----------------------------------------------------
~ASCII -----------------------------------------------------
# ...
 1946.00000   68.61240  118.79080   10.19110  113.17540  118.93490  112.78950  117.04210   -9999.25  119.40620   75.24890    0.10610    0.00120    2.54890    0.04740    2.63010
 1946.50000   67.33260  116.61080   10.15590  109.89250  119.23910  109.28410  117.04210   -9999.25  119.31190   77.12810    0.09790   -0.00020    2.61850    0.04440    2.63080
 1947.00000   66.23860  114.49010   10.12580  107.02320  115.69940  106.60690  113.50620   -9999.25  117.23370   76.49340    0.09130   -0.00170    2.68930    0.04670    2.62000
 1947.50000   64.97030  112.49330   10.09600  105.17890  110.43560  104.13230  109.44630   -9999.25  111.97990   72.06600    0.08860   -0.00310    2.75120    0.05750    2.60740
 1948.00000   63.51670  109.89550   10.07030  104.18110  104.90970  103.47980  105.38640   -9999.25  107.77340   66.77000    0.09290   -0.00450    2.75370    0.06220    2.60440
 1948.50000   62.93910  108.27380   10.05500  103.42420  102.87670  102.99660  102.08750   -9999.25  104.92100   63.42710    0.09880   -0.00410    2.73130    0.06180    2.60390
 1949.00000   63.03930  108.34970   10.03750  103.01580  102.45710  102.24470  101.71650   -9999.25  103.72630   60.58490    0.10240   -0.00230    2.72030    0.05970    2.60390
 1949.50000   63.09070  108.97690   10.01900  102.61190  103.18010  101.58320  102.77330   -9999.25  103.94600   59.84090    0.10740   -0.00050    2.73810    0.06110    2.60590
 1950.00000   62.27580  109.68990    9.99140  101.46720  104.66790  100.06150  104.01860   -9999.25  105.23020   59.84450    0.11680    0.00080    2.77260    0.05970    2.60890
 1950.50000   61.07670  108.62770    9.94850   99.52150  106.09590   98.51230  105.30920   -9999.25  106.51430   59.91310    0.12570    0.00160    2.80540    0.05620    2.61740
 1951.00000   59.86270  107.10400    9.90550   97.57570  106.09590   96.96310  105.96040   -9999.25  107.05080   59.76690    0.13260    0.00200    2.80960    0.04880    2.63450
 1951.50000   58.83890  105.70040    9.86250   97.05880  106.09590   96.37910  105.01320   -9999.25  106.87490   59.16070    0.13090    0.00280    2.82150    0.03910    2.65160
 1952.00000   57.94060  104.84340    9.81950   97.28450  105.35570   96.58380  103.64700   -9999.25  105.58920   58.96650    0.12270    0.00360    2.83420    0.01910    2.68380
 1952.50000   57.76910  104.10590    9.77660   97.76900  103.00530   97.19140  102.30390   -9999.25  103.60460   58.97060    0.11200    0.00400    2.85820    0.00330    2.70510
 1953.00000   58.21740  103.73260    9.73360   98.48400  100.66920   97.65840  100.98250   -9999.25  101.62000   58.52210    0.10400    0.00160    2.92570    0.00370    2.69590
 1953.50000   59.31510  104.16950    9.70100   98.96990  100.16310   97.65840   99.66110   -9999.25  100.60400   56.67870    0.09760   -0.00080    2.99890    0.01970    2.67210
 1954.00000   60.31030  105.15650    9.68360   99.01030  100.16310   97.65840   98.86250   -9999.25  100.46560   55.34640    0.09190   -0.00190    3.04350    0.03400    2.64820
 1954.50000   61.30550  106.14350    9.67110   99.78080   99.93250   97.76340   98.54080   -9999.25  100.78360   54.78110    0.08970    0.00840    2.95390    0.03820    2.64430
 1955.00000   62.37380  107.08780    9.67010  102.06250  100.65320   99.19110   99.45520   -9999.25  102.18290   57.73490    0.09150    0.01870    2.82810    0.03780    2.63720
 1955.50000   63.67260  107.95980    9.71770  104.34430  102.63220  100.61880  101.47190   -9999.25  104.32160   60.60430    0.09520    0.02080    2.70600    0.04900    2.62390
 1956.00000   65.07850  109.60520    9.77260  106.01000  104.80020  102.40000  103.56460   -9999.25  106.46800   62.64480    0.09890    0.00690    2.59370    0.07650    2.55030
 1956.50000   65.77000  110.99990    9.82140  107.37760  106.96820  104.74550  105.65730   -9999.25  108.61440   65.41150    0.10450   -0.00460    2.56080    0.09870    2.52700
 1957.00000   65.47750  111.87650    9.84240  108.31280  108.62820  107.09090  107.75000   -9999.25  109.83610   72.88560    0.11070   -0.00680    2.58830    0.10660    2.52920
 1957.50000   64.92780  112.75310    9.84840  109.11630  109.97530  108.13410  109.49760   -9999.25  111.04910   81.68950    0.11690   -0.00750    2.71620    0.09860    2.55440
 1958.00000   64.58330  113.29800    9.84830  109.91980  111.12850  108.50600  110.33920   -9999.25  112.26210   88.19850    0.12670   -0.00690    2.84940    0.08310    2.57970
 1958.50000   64.59050  113.60740    9.84400  109.47080  111.95630  108.87800  109.99350   -9999.25  112.68260   87.53140    0.13270   -0.00530    2.90190    0.07110    2.60440
 1959.00000   65.29590  114.10250    9.83790  108.01560  110.66730  107.38210  109.26470   -9999.25  111.82060   84.01180    0.12700   -0.00160    2.80980    0.05900    2.60960
 1959.50000   66.49060  115.45190    9.83030  106.21370  109.79390  106.06370  108.76460   -9999.25  111.05040   80.17150    0.11760    0.00150    2.67720    0.05830    2.60850
 1960.00000   68.06100  116.91340    9.85860  105.91900  109.22270  105.15370  108.61660   -9999.25  109.56020   77.69700    0.11740   -0.00080    2.53390    0.07200    2.50580
 1960.50000   69.75360  118.54900    9.93710  108.60360  109.43340  107.84260  108.99150   -9999.25  110.25140   75.22250    0.12500   -0.00350    2.42310    0.11170    2.47030
 1961.00000   71.76990  120.77110   10.05020  112.00430  112.64910  111.06550  111.67300   -9999.25  112.67090   73.23820    0.13540   -0.00560    2.33140    0.13840    2.45050
 1961.50000   74.24310  124.04840   10.17480  115.40510  116.93120  114.00920  116.27070   -9999.25  117.64460   72.47900    0.14270   -0.00520    2.24530    0.15340    2.44480
 1962.00000   76.85150  128.54600   10.26360  115.13990  121.57380  114.00920  120.91250   -9999.25  122.66220   70.56740    0.14530   -0.00350    2.20860    0.15620    2.44080
 1962.50000   79.15530  132.83390   10.35180  111.11050  126.21640   93.11380  125.55430   -9999.25  127.67980   68.43500    0.14940   -0.00160    2.20460    0.15700    2.43680
 1963.00000   81.15960  135.46120   10.44010  107.49870  130.85890   77.13960  129.21850   75.81970  132.49470   65.80630    0.15600   -0.00100    2.20350    0.15820    2.43540
 1963.50000   82.65180  138.15090   10.49820  107.49870  135.29850   75.02470  132.66600   75.93870  135.93380   64.70220    0.16000   -0.00160    2.22290    0.16140    2.43930
 1964.00000   84.10000  140.64110   10.52410  107.49870  138.77500   74.36460  136.11350   75.38470  139.37290   68.33110    0.16150   -0.00210    2.27360    0.15690    2.45240
 1964.50000   84.01560  142.32870   10.51780  107.49870  140.73290   74.17980  139.02020   75.27690  141.49440   79.14270    0.16330   -0.00020    2.36110    0.14940    2.46690
 1965.00000   82.36830  142.90290   10.46880  106.91380  139.90420   72.68320  139.00040   73.84970  141.73090   87.12180    0.16610    0.00220    2.45410    0.13550    2.50200
 1965.50000   79.69530  140.96830   10.36540   96.01810  136.45790   65.91100  133.42530   71.50320  139.63170   85.12270    0.17530    0.00460    2.57220    0.12060    2.54560
 1966.00000   76.73590  137.49860   10.24630   77.09180  125.47320   54.32490  114.51710   55.91930  128.44910   71.81740    0.17610    0.00520    2.61960    0.09590    2.60600
 1966.50000   73.71990  131.00190   10.12710   61.33000  108.26710   53.90300   98.10960   54.46490  112.10160   56.51780    0.14610    0.00420    2.66570    0.06450    2.61540
 1967.00000   70.04390  124.84970   10.08690   54.46330   99.06630   50.65300   96.66730   55.60440  101.35220   45.11110    0.11410    0.00240    2.71180    0.05250    2.59900
 1967.50000   67.21190  117.45680   10.08260   48.27990   96.12720   48.00160   94.87480   52.56790   97.50620   45.43660    0.08850    0.00150    2.70880    0.06550    2.56620
 1968.00000   65.44000  111.39150   10.11690   46.30160   97.35960   47.50870   94.76410   49.72300   97.91220   49.20910    0.08740    0.00080    2.63670    0.07900    2.53330
 1968.50000   63.73810  107.62200   10.15500   46.81390   98.63030   48.23870   95.63550   49.16820   99.13700   51.31730    0.09640    0.00080    2.56790    0.09590    2.50320
