~Version ---------------------------------------------------
VERS.   2.0 : CWLS log ASCII Standard -VERSION 2.0
WRAP.    NO : One line per depth step
DLM . SPACE : Column Data Section Delimiter
~Well ------------------------------------------------------
STRT .F                  152.0 : START DEPTH
STOP .F                 8366.0 : STOP DEPTH
STEP .F                    0.5 : STEP
NULL .                -9999.25 : NULL VALUE
COMP .                         : COMPANY
WELL .                         : WELL
FLD  .                         : FIELD
LOC  .                         : LOCATION
PROV .                         : PROVINCE
CNTY .                         : COUNTY
STAT .                         : STATE
CTRY .                         : COUNTRY
SRVC .                         : SERVICE COMPANY
DATE .                         : DATE
UWI  .                         : UNIQUE WELL ID
API  .                         : API NUMBER
SLAT .WGS84 2.6385479759627017 : SURFACE LATITUDE
SLON .WGS84  9.088750169529007 : SURFACE LONGITUDE
DATUM.F                4021.82 : DEPTH DATUM ELEV
~Curve Information -----------------------------------------
DEPT .F     : 
DTCO .US/F  : COMPRESSIONAL-WAVE INTERVAL TRANSIT TIME ACOUSTIC SLOWNESS
DTSM .US/F  : SHEAR-WAVE INTERVAL TRANSIT
HCALS.IN    : HILT CALIPER
DT4P .US/F  : COMPRESSIONAL-WAVE INTERVAL TRANSIT TIME ACOUSTIC SLOWNESS, P&S MODE
DT4S .US/F  : SHEAR-WAVE INTERVAL TRANSIT TIME ACOUSTIC SLOWNESS, P&S MODE
DTRP .US/F  : Delta-T Compressional, Receiver Array - Monopole P&S
DTRS .US/F  : INTERVAL TRANSIT TIME FOR RECEIVER ARRAY
DTTP .US/F  : INTERVAL TRANSIT TIME FROM TRANSMITTER ARRAY
DTTS .US/F  : INTERVAL TRANSIT TIME FOR TRANSMITTER ARRAY
GRD  .GAPI  : GAMMA RAY FROM DENSITY LOG
TNPH .DEC   : THERMAL NEUTRON POROSITY
HDRA .G/C3  : DELTA RHO HIP TOOL
PEFZ .B/E   : FORMATION PHETOELECTRIC FACTOR
DPHZ .DEC   : DENSITY POROSITY LIMESTONE
RHOZ .G/C3  : HILT BULK DENSITY
~Params ----------------------------------------------------
~Other -----------------------------------------------------
~ASCII -----------------------------------------------------
# ...
 8340.00000   46.55470   89.51440    8.52770   45.71510   86.85310   44.77480   85.94600   46.92440   88.31790   42.78930    0.06300    0.03690    2.92140    0.00920    2.66680
 8340.50000   46.89060   89.01680    8.52310   45.60010   86.71260   44.65970   85.85010   46.80940   88.23680   41.57800    0.05610    0.02580    2.88640    0.01340    2.67590
 8341.00000   47.05810   89.02430    8.59690   44.75160   87.76760   43.76140   86.85070   46.04490   88.83430   41.03180    0.04600    0.02570    2.89090    0.02090    2.70180
 8341.50000   46.79230   88.91980    8.69160   43.88710   89.22350   42.93150   88.30620   46.10160   89.59800   -9999.25    0.03470    0.03540    2.92900    0.01160    2.72780
 8342.00000   46.43530   88.50180    8.62160   43.16170   88.34890   42.20600   87.31310   46.15830   88.90010   -9999.25    0.02700    0.04830    2.95110   -0.01230    2.76430
 8342.50000   46.43790   86.82300    8.58840   42.43620   85.68370   41.48060   84.65020   46.21500   86.85130   -9999.25    0.02620    0.04870    2.97360   -0.04610    2.81010
 8343.00000   46.61990   84.62080    8.59750   41.71080   83.14860   40.75510   82.69250   45.33800   84.77710   -9999.25    0.02570    0.04240    2.98150   -0.06060    2.82370
 8343.50000   46.68800   83.64790    8.65670   41.12460   83.14860   40.18460   80.74170   44.08130   83.78770   -9999.25    0.02510    0.03700    3.01500   -0.06990    2.83440
 8344.00000   46.84740   85.06190    8.74200   41.13400   83.14860   40.19400   80.43010   43.12640   84.10280   -9999.25    0.02560    0.04130    3.06350   -0.07580    2.84480
 8344.50000   47.00770   85.56800    8.78860   41.21680   83.72870   40.26980   81.29210   43.53150   85.28930   -9999.25    0.02640    0.05650    3.12440   -0.08180    2.85340
 8345.00000   46.95810   86.18790    8.79330   41.74130   84.79710   40.79390   81.78090   43.93660   86.62540   -9999.25    0.02730    0.07830    3.14170   -0.09350    2.87680
 8345.50000   46.36180   85.63950    8.76150   42.26580   84.93060   41.31800   81.78090   44.34170   86.65450   -9999.25    0.02830    0.08400    3.10490   -0.09950    2.86670
 8346.00000   45.29380   82.98520    8.72960   42.79020   84.75090   41.84210   80.82770   44.74680   85.93940   -9999.25    0.02920    0.05910    3.06820   -0.08210    2.83560
 8346.50000   44.76710   80.84180    8.70830   -9999.25   -9999.25   -9999.25   -9999.25   -9999.25   -9999.25   -9999.25   -9999.25    0.02500    3.02540   -0.06280    2.80880
 8347.00000   44.76950   82.34210    8.72260   -9999.25   -9999.25   -9999.25   -9999.25   -9999.25   -9999.25   -9999.25   -9999.25    0.00460    2.99530   -0.05490    2.81170
 8347.50000   44.66190   83.99890    8.72040   -9999.25   -9999.25   -9999.25   -9999.25   -9999.25   -9999.25   -9999.25   -9999.25    0.00100    2.98180   -0.06160    2.82440
 8348.00000   45.17020   84.00800    8.71430   -9999.25   -9999.25   -9999.25   -9999.25   -9999.25   -9999.25   -9999.25   -9999.25    0.00150    3.02210   -0.06630    2.82530
 8348.50000   45.41810   85.17120    8.70820   -9999.25   -9999.25   -9999.25   -9999.25   -9999.25   -9999.25   -9999.25   -9999.25    0.00330    3.06450   -0.06600    2.81450
 8349.00000   45.56300   86.52350    8.71160   -9999.25   -9999.25   -9999.25   -9999.25   -9999.25   -9999.25   -9999.25   -9999.25    0.00250    3.13170   -0.03830    2.70520
 8349.50000   45.57730   86.93630    8.71310   -9999.25   -9999.25   -9999.25   -9999.25   -9999.25   -9999.25   -9999.25   -9999.25   -0.00660    3.21420    0.02360    2.59590
 8350.00000   45.58400   86.85200    7.66950   -9999.25   -9999.25   -9999.25   -9999.25   -9999.25   -9999.25   -9999.25   -9999.25    0.00120    3.16640    0.08050    2.57410
 8350.50000   45.58800   87.11120    7.82170   -9999.25   -9999.25   -9999.25   -9999.25   -9999.25   -9999.25   -9999.25   -9999.25    0.03250    3.07530    0.07030    2.61320
 8351.00000   45.59020   86.64340    8.00610   -9999.25   -9999.25   -9999.25   -9999.25   -9999.25   -9999.25   -9999.25   -9999.25    0.06950    3.02950   -0.01820    2.78190
 8351.50000   45.59240   85.51650    8.01360   -9999.25   -9999.25   -9999.25   -9999.25   -9999.25   -9999.25   -9999.25   -9999.25    0.07580    3.02950   -0.07070    2.84470
 8352.00000   45.59540   86.81520    7.92870   -9999.25   -9999.25   -9999.25   -9999.25   -9999.25   -9999.25   -9999.25   -9999.25    0.05780    3.01140   -0.08100    2.84540
 8352.50000   45.60150   87.99770    7.95260   -9999.25   -9999.25   -9999.25   -9999.25   -9999.25   -9999.25   -9999.25   -9999.25    0.04410    2.97350   -0.06800    2.81160
 8353.00000   45.60760   88.59240    8.09080   -9999.25   -9999.25   -9999.25   -9999.25   -9999.25   -9999.25   -9999.25   -9999.25    0.04840    2.93550   -0.04300    2.77130
 8353.50000   45.61880   89.23460    8.17770   -9999.25   -9999.25   -9999.25   -9999.25   -9999.25   -9999.25   -9999.25   -9999.25    0.07120    2.88550    0.00860    2.73090
 8354.00000   45.62340   88.78340    8.20740   -9999.25   -9999.25   -9999.25   -9999.25   -9999.25   -9999.25   -9999.25   -9999.25    0.09820    2.77820    0.06450    2.56840
 8354.50000   45.62810   87.07300    7.80280   -9999.25   -9999.25   -9999.25   -9999.25   -9999.25   -9999.25   -9999.25   -9999.25    0.23970    2.64430    0.10890    2.53320
 8355.00000   45.63270   86.13600    7.68280   -9999.25   -9999.25   -9999.25   -9999.25   -9999.25   -9999.25   -9999.25   -9999.25    0.32960    2.47140    0.11040    2.52610
 8355.50000   45.63730   85.68930    7.65450   -9999.25   -9999.25   -9999.25   -9999.25   -9999.25   -9999.25   -9999.25   -9999.25    0.37840    2.38890    0.10820    2.52160
 8356.00000   45.64190   84.55780    7.65060   -9999.25   -9999.25   -9999.25   -9999.25   -9999.25   -9999.25   -9999.25   -9999.25    0.39190    2.32480    0.11470    2.51400
 8356.50000   45.63980   83.85400    7.65430   -9999.25   -9999.25   -9999.25   -9999.25   -9999.25   -9999.25   -9999.25   -9999.25    0.40270    2.26090    0.11770    2.50910
 8357.00000   45.64540   84.20520    7.66140   -9999.25   -9999.25   -9999.25   -9999.25   -9999.25   -9999.25   -9999.25   -9999.25    0.41410    2.20980    0.11390    2.51320
 8357.50000   45.64830   85.00040    7.67720   -9999.25   -9999.25   -9999.25   -9999.25   -9999.25   -9999.25   -9999.25   -9999.25    0.42370    2.15850    0.11110    2.52090
 8358.00000   45.64740   86.25060    7.69240   -9999.25   -9999.25   -9999.25   -9999.25   -9999.25   -9999.25   -9999.25   -9999.25    0.42750    2.10890    0.11060    2.52220
 8358.50000   55.38670   88.92710    7.70420   -9999.25   -9999.25   -9999.25   -9999.25   -9999.25   -9999.25   -9999.25   -9999.25   -9999.25   -9999.25   -9999.25   -9999.25
 8359.00000   68.15240   92.94070    7.71100   -9999.25   -9999.25   -9999.25   -9999.25   -9999.25   -9999.25   -9999.25   -9999.25   -9999.25   -9999.25   -9999.25   -9999.25
 8359.50000   96.76730   96.72320    7.71100   -9999.25   -9999.25   -9999.25   -9999.25   -9999.25   -9999.25   -9999.25   -9999.25   -9999.25   -9999.25   -9999.25   -9999.25
 8360.00000   96.79570   98.64690    7.71100   -9999.25   -9999.25   -9999.25   -9999.25   -9999.25   -9999.25   -9999.25   -9999.25   -9999.25   -9999.25   -9999.25   -9999.25
 8360.50000   -9999.25   -9999.25    7.71100   -9999.25   -9999.25   -9999.25   -9999.25   -9999.25   -9999.25   -9999.25   -9999.25   -9999.25   -9999.25   -9999.25   -9999.25
 8361.00000   -9999.25   -9999.25    7.71100   -9999.25   -9999.25   -9999.25   -9999.25   -9999.25   -9999.25   -9999.25   -9999.25   -9999.25   -9999.25   -9999.25   -9999.25
 8361.50000   -9999.25   -9999.25    7.70330   -9999.25   -9999.25   -9999.25   -9999.25   -9999.25   -9999.25   -9999.25   -9999.25   -9999.25   -9999.25   -9999.25   -9999.25
 8362.00000   -9999.25   -9999.25    7.69210   -9999.25   -9999.25   -9999.25   -9999.25   -9999.25   -9999.25   -9999.25   -9999.25   -9999.25   -9999.25   -9999.25   -9999.25
 8362.50000   -9999.25   -9999.25    7.67900   -9999.25   -9999.25   -9999.25   -9999.25   -9999.25   -9999.25   -9999.25   -9999.25   -9999.25   -9999.25   -9999.25   -9999.25
