~Version ---------------------------------------------------
VERS.   2.0 : CWLS log ASCII Standard -VERSION 2.0
WRAP.    NO : One line per depth step
DLM . SPACE : Column Data Section Delimiter
~Well ------------------------------------------------------
STRT .F                  152.0 : START DEPTH
STOP .F                 8366.0 : STOP DEPTH
STEP .F                    0.5 : STEP
NULL .                -9999.25 : NULL VALUE
COMP .                         : COMPANY
WELL .                         : WELL
FLD  .                         : FIELD
LOC  .                         : LOCATION
PROV .                         : PROVINCE
CNTY .                         : COUNTY
STAT .                         : STATE
CTRY .                         : COUNTRY
SRVC .                         : SERVICE COMPANY
DATE .                         : DATE
UWI  .                         : UNIQUE WELL ID
API  .                         : API NUMBER
SLAT .WGS84 2.6385479759627017 : SURFACE LATITUDE
SLON .WGS84  9.088750169529007 : SURFACE LONGITUDE
DATUM.F                4021.82 : DEPTH DATUM ELEV
~Curve Information -----------------------------------------
DEPT .F     : 
DTCO .US/F  : COMPRESSIONAL-WAVE INTERVAL TRANSIT TIME ACOUSTIC SLOWNESS
DTSM .US/F  : SHEAR-WAVE INTERVAL TRANSIT
HCALS.IN    : HILT CALIPER
DT4P .US/F  : COMPRESSIONAL-WAVE INTERVAL TRANSIT TIME ACOUSTIC SLOWNESS, P&S MODE
DT4S .US/F  : SHEAR-WAVE INTERVAL TRANSIT TIME ACOUSTIC SLOWNESS, P&S MODE
DTRP .US/F  : Delta-T Compressional, Receiver Array - Monopole P&S
DTRS .US/F  : INTERVAL TRANSIT TIME FOR RECEIVER ARRAY
DTTP .US/F  : INTERVAL TRANSIT TIME FROM TRANSMITTER ARRAY
DTTS .US/F  : INTERVAL TRANSIT TIME FOR TRANSMITTER ARRAY
GRD  .GAPI  : GAMMA RAY FROM DENSITY LOG
TNPH .DEC   : THERMAL NEUTRON POROSITY
HDRA .G/C3  : DELTA RHO HIP TOOL
PEFZ .B/E   : FORMATION PHETOELECTRIC FACTOR
DPHZ .DEC   : DENSITY POROSITY LIMESTONE
RHOZ .G/C3  : HILT BULK DENSITY
~Params ----------------------------------------------------
~Other -----------------------------------------------------
~ASCII -----------------------------------------------------
# ...
 4683.00000   54.33080   95.27550    8.95920   40.16750   90.56160   39.03040   89.68270   40.95140   91.32220   25.96200    0.02070    0.00130    4.43270    0.02490    2.66890
 4683.50000   54.16800   95.19570    8.89310   39.97610   91.35090   38.85590   90.47200   40.74810   92.11150   25.23070    0.02260    0.00090    4.42500    0.02520    2.66750
 4684.00000   53.94890   95.14890    8.83100   39.97610   91.79520   38.85590   90.91280   40.74810   92.55800   24.41760    0.02460    0.00040    4.40810    0.02090    2.66720
 4684.50000   53.80360   95.16750    8.81870   39.97610   92.58620   38.85590   91.71140   40.74810   93.34400   23.55840    0.02600   -0.00010    4.42950    0.02460    2.66740
 4685.00000   53.94790   95.70890    8.81220   39.99860   92.81290   38.87810   91.95070   40.77070   93.55970   23.19630    0.02530   -0.00060    4.41200    0.02320    2.67000
 4685.50000   54.10450   95.96320    8.79850   40.07650   92.88450   38.95610   92.02280   40.84870   93.63090   23.82840    0.02090   -0.00110    4.32380    0.01650    2.67960
 4686.00000   53.99120   96.15160    8.78080   40.15450   92.49600   39.03400   91.60910   40.92660   93.26550   25.41590    0.01470   -0.00050    4.26270    0.01280    2.68980
 4686.50000   54.03600   95.59790    8.77210   40.23240   91.73740   39.11200   90.86730   41.00460   92.49040   26.22330    0.01550    0.00060    4.18650    0.00270    2.70300
 4687.00000   54.40770   95.16600    8.79610   40.31040   92.09100   39.18990   91.22250   41.08250   92.84330   25.25220    0.01880    0.00170    4.16290   -0.00130    2.71840
 4687.50000   54.58940   95.19210    8.86900   40.38830   92.45890   39.26790   91.59710   41.16050   93.20530   23.87050    0.02220    0.00180    4.13690   -0.00930    2.72440
 4688.00000   54.75350   95.43460    8.89610   40.46630   92.25300   39.34580   91.37630   41.23840   93.01240   22.60730    0.02550    0.00020    4.11650   -0.00310    2.71800
 4688.50000   54.65420   95.65670    8.89980   40.54420   91.99940   39.42380   91.13170   41.31640   92.75080   23.66480    0.02750   -0.00160    4.11700    0.00360    2.70480
 4689.00000   54.49000   95.66630    8.90160   40.62220   92.36830   39.50170   91.48210   41.39430   93.13540   26.42450    0.02850   -0.00250    4.12000    0.00920    2.69170
 4689.50000   54.38950   95.71690    8.93700   40.68750   92.73090   39.56730   91.86550   41.45950   93.48050   28.04910    0.02870   -0.00100    4.11930    0.01020    2.69010
 4690.00000   54.37330   95.78100    8.93300   40.68480   92.35380   39.56450   91.48730   41.45690   93.10440   27.12390    0.02760    0.00120    4.11190    0.00100    2.70220
 4690.50000   54.36050   96.02840    8.90290   40.68210   92.26010   39.56170   91.39410   41.45420   93.01010   25.37830    0.02450    0.00420    4.09570   -0.00690    2.72480
 4691.00000   54.38980   96.82470    8.88940   40.67940   92.38030   39.55890   91.51730   41.45150   93.12790   24.79320    0.02420    0.00440    4.11360   -0.00630    2.72130
 4691.50000   54.42950   97.69850    8.88550   40.67670   92.21760   39.55610   91.35460   41.44890   92.96510   25.24530    0.02490    0.00270    4.12840    0.00070    2.70830
 4692.00000   54.54800   97.97280    8.88120   40.67400   92.05480   39.55340   91.19180   41.44620   92.80240   26.44060    0.02820    0.00130    4.14210    0.00490    2.70500
 4692.50000   54.69730   98.09090    8.86610   40.67130   92.12410   39.55060   91.22900   41.44360   92.89880   27.95520    0.03420    0.00240    4.14730    0.00490    2.70310
 4693.00000   54.78290   98.11150    8.84100   40.66860   92.49950   39.54780   91.63690   41.44090   93.24660   28.47670    0.03820    0.00400    4.14090    0.00660    2.69790
 4693.50000   54.57010   97.93150    8.82100   40.66590   92.86200   39.54500   91.99950   41.43830   93.60910   28.79930    0.03930    0.00110    4.13610    0.01290    2.69270
 4694.00000   54.26020   97.72710    8.80860   40.66320   92.86950   39.54220   92.00700   41.43560   93.61660   29.32410    0.03960   -0.00220    4.16870    0.01840    2.68890
 4694.50000   54.04140   97.36800    8.81190   40.66050   92.93680   39.53950   92.07310   41.43300   93.68490   31.57660    0.04030   -0.00410    4.18730    0.01820    2.68760
 4695.00000   53.66270   96.71520    8.83530   40.65780   93.40680   39.53670   92.53280   41.43030   94.16320   34.69310    0.04160   -0.00300    4.19420    0.00990    2.68700
 4695.50000   53.32920   95.97010    8.87800   40.66320   93.93890   39.54190   93.07470   41.43590   94.68720   37.08420    0.04290   -0.00180    4.23350    0.01190    2.68730
 4696.00000   53.48220   95.15150    8.88800   40.69570   94.20770   39.57450   92.91870   41.46840   94.95790   38.69620    0.04420   -0.00060    4.32350    0.02000    2.68820
 4696.50000   53.76580   94.43600    8.89550   40.72820   94.53390   39.60700   92.72850   41.50090   95.20270   37.74910    0.04270    0.00100    4.31270    0.01660    2.68950
 4697.00000   53.96040   93.84310    8.89690   40.76080   94.85920   39.63950   92.53840   41.53350   95.40470   31.53240    0.03780    0.00380    4.24930    0.00130    2.71130
 4697.50000   54.18380   94.02370    8.90050   40.79330   95.18440   39.67210   92.34820   41.56600   95.60680   24.85450    0.03010    0.00640    4.17700   -0.01350    2.73390
 4698.00000   54.54230   94.41190    8.90680   40.82580   94.94970   39.70460   92.18850   41.59850   95.67010   19.45530    0.02250    0.02010    4.10530   -0.01860    2.74030
 4698.50000   54.80670   94.63180    8.91300   40.85840   93.60790   39.73710   92.10460   41.63110   95.36320   16.47800    0.01690    0.03770    4.07950   -0.01360    2.73910
 4699.00000   54.87950   94.85010    8.91930   40.89090   92.26620   39.76960   91.16070   41.66360   95.05630   16.67760    0.01580    0.04460    4.05610   -0.00760    2.72860
 4699.50000   54.78210   95.27600    8.90440   40.92340   90.95900   39.80220   90.07470   41.69610   94.74940   18.53140    0.01680    0.03630    4.23100   -0.00250    2.71760
 4700.00000   54.25580   95.70250    8.88160   40.95600   91.83540   39.83470   90.95100   41.72860   95.00390   21.14200    0.01830    0.01570    4.42890    0.00240    2.70990
 4700.50000   53.45520   96.12900    8.85880   40.98850   92.70730   39.86720   91.82730   41.76120   95.74590   22.94060    0.01960    0.01070    4.53910    0.00110    2.70780
 4701.00000   52.94150   96.06950    8.84360   41.01810   92.56150   39.89690   91.69530   41.79070   96.28700   21.55180    0.02090    0.01080    4.54920    0.00300    2.70800
 4701.50000   52.66480   96.06220    8.83530   40.99800   92.16290   39.87680   91.29650   41.77060   96.26690   18.69030    0.02090    0.00740    4.48560    0.00140    2.70940
 4702.00000   52.50620   96.90090    8.83160   40.97780   91.76430   39.85670   91.34760   41.75050   95.82020   16.76020    0.02130    0.00530    4.42900   -0.00040    2.70930
 4702.50000   52.43210   97.95560    8.84410   40.95770   91.73570   39.83650   91.57900   41.73030   95.35830   17.97130    0.02210    0.00340    4.42320    0.00590    2.70890
 4703.00000   52.42390   97.53060    8.86650   41.23020   91.87280   40.09870   91.81040   42.00980   94.66820   19.67160    0.02250    0.00100    4.49860    0.01130    2.69430
 4703.50000   52.44580   96.23190    8.88850   41.74020   92.38260   40.60880   92.04190   42.51960   93.94480   21.23120    0.02320   -0.00210    4.57200    0.02070    2.67960
 4704.00000   52.57560   95.81670    8.89190   42.66130   92.75170   41.16000   91.84240   43.69680   94.10750   22.02450    0.02380   -0.00380    4.57770    0.02170    2.67430
 4704.50000   52.85010   95.73920    8.88810   47.20140   93.03280   45.16880   91.63300   48.60380   94.27020   21.49050    0.02440   -0.00200    4.54360    0.01730    2.67830
 4705.00000   53.07110   95.52480    8.88430   53.19310   93.18450   51.16120   91.42360   54.59420   94.56050   20.28790    0.02360   -0.00010    4.46640    0.00940    2.68880
 4705.50000   53.22270   95.24330    8.85010   59.18470   93.12540   57.15360   90.14600   60.58470   95.57180   19.00880    0.02210    0.00170    4.44880    0.00490    2.69940
