~Version ---------------------------------------------------
VERS.   2.0 : CWLS log ASCII Standard -VERSION 2.0
WRAP.    NO : One line per depth step
DLM . SPACE : Column Data Section Delimiter
~Well ------------------------------------------------------
STRT .F                  152.0 : START DEPTH
STOP .F                 8366.0 : STOP DEPTH
STEP .F                    0.5 : STEP
NULL .                -9999.25 : NULL VALUE
COMP .                         : COMPANY
WELL .                         : WELL
FLD  .                         : FIELD
LOC  .                         : LOCATION
PROV .                         : PROVINCE
CNTY .                         : COUNTY
STAT .                         : STATE
CTRY .                         : COUNTRY
SRVC .                         : SERVICE COMPANY
DATE .                         : DATE
UWI  .                         : UNIQUE WELL ID
API  .                         : API NUMBER
SLAT .WGS84 2.6385479759627017 : SURFACE LATITUDE
SLON .WGS84  9.088750169529007 : SURFACE LONGITUDE
DATUM.F                4021.82 : DEPTH DATUM ELEV
~Curve Information -----------------------------------------
DEPT .F     : 
DTCO .US/F  : COMPRESSIONAL-WAVE INTERVAL TRANSIT TIME ACOUSTIC SLOWNESS
DTSM .US/F  : SHEAR-WAVE INTERVAL TRANSIT
HCALS.IN    : HILT CALIPER
DT4P .US/F  : COMPRESSIONAL-WAVE INTERVAL TRANSIT TIME ACOUSTIC SLOWNESS, P&S MODE
DT4S .US/F  : SHEAR-WAVE INTERVAL TRANSIT TIME ACOUSTIC SLOWNESS, P&S MODE
DTRP .US/F  : Delta-T Compressional, Receiver Array - Monopole P&S
DTRS .US/F  : INTERVAL TRANSIT TIME FOR RECEIVER ARRAY
DTTP .US/F  : INTERVAL TRANSIT TIME FROM TRANSMITTER ARRAY
DTTS .US/F  : INTERVAL TRANSIT TIME FOR TRANSMITTER ARRAY
GRD  .GAPI  : GAMMA RAY FROM DENSITY LOG
TNPH .DEC   : THERMAL NEUTRON POROSITY
HDRA .G/C3  : DELTA RHO HIP TOOL
PEFZ .B/E   : FORMATION PHETOELECTRIC FACTOR
DPHZ .DEC   : DENSITY POROSITY LIMESTONE
RHOZ .G/C3  : HILT BULK DENSITY
~Params ----------------------------------------------------
~Other -----------------------------------------------------
~ASCII -----------------------------------------------------
# ...
 5603.00000   58.56050  105.97520    8.95210   62.58450  103.46240   60.89950  102.33720   65.15680  104.33200   70.50830    0.09330   -0.00010    3.10720    0.04990    2.62520
 5603.50000   59.31260  106.14540    8.91590   59.57460  100.61260   58.03360   99.85940   62.21870  101.37480   64.87950    0.08820   -0.00040    3.27080    0.04690    2.62880
 5604.00000   59.87430  106.50750    8.84490   56.56460   99.79900   55.16780   98.39000   59.28070  100.54420   59.57460    0.08660    0.00030    3.30470    0.04690    2.62970
 5604.50000   59.97710  106.54240    8.78830   53.55460   98.98550   52.30200   97.99790   56.34270   99.72810   55.72820    0.08600    0.00250    3.22390    0.05260    2.62510
 5605.00000   59.63210  105.94520    8.77650   50.54700   98.01410   50.33060   97.09030   53.40460   98.81440   54.53380    0.07780    0.00470    3.15650    0.05880    2.61700
 5605.50000   58.86090  105.30610    8.76650   49.91880   97.26600   48.93740   96.40130   51.04330   98.01510   53.75020    0.06960    0.00450    3.13970    0.05880    2.61040
 5606.00000   58.35960  104.18190    8.76180   49.29060   96.66440   47.54420   95.76240   51.04330   97.42490   56.10720    0.06150    0.00130    3.17500    0.06020    2.60740
 5606.50000   57.81980  103.30640    8.78180   48.87160   95.74200   47.01170   94.87940   51.04330   96.48910   61.25310    0.05750   -0.00240    3.21540    0.06910    2.60300
 5607.00000   57.37540  102.52330    8.81590   48.62720   96.15140   46.82260   95.28860   50.61560   96.89880   68.42860    0.06260   -0.00620    3.30320    0.07830    2.57770
 5607.50000   56.83570  101.66460    8.85010   48.62720   95.99460   47.55980   95.13160   50.15120   96.74220   75.10450    0.06780   -0.00860    3.37910    0.08420    2.57240
 5608.00000   56.40620  100.53430    8.85410   49.07630   96.62770   48.29690   95.74630   49.80480   97.39210   79.59200    0.07370   -0.00440    3.36720    0.08680    2.56700
 5608.50000   56.36590   99.59540    8.85390   49.54080   97.72960   49.03400   96.83590   50.05970   98.50250   83.65120    0.07840    0.00000    3.15590    0.09030    2.55790
 5609.00000   56.52120  100.36790    8.84680   50.03280   98.73440   49.25650   97.84730   50.31450   99.50230   84.45670    0.08290    0.00400    2.94360    0.09580    2.54790
 5609.50000   56.77320  101.36900    8.84060   50.54760   99.31230   49.25650   98.44990   50.56940  100.05940   81.49760    0.08400    0.00430    2.78060    0.10250    2.53800
 5610.00000   56.92160  102.30920    8.83440   50.54760   99.57800   49.25650   98.71050   50.82430  100.38370   75.98440    0.08500    0.00250    2.75310    0.10420    2.53630
 5610.50000   56.99230  103.37260    8.82820   50.19330   99.81470   49.25650   98.53140   50.97020  100.98150   69.91060    0.08740    0.00160    2.76450    0.09540    2.53880
 5611.00000   57.09540  104.35480    8.82260   49.68810  100.03710   49.17070   98.00200   50.45040  101.57930   61.84440    0.09010    0.00330    2.93030    0.08200    2.57170
 5611.50000   57.11620  105.13360    8.81780   49.16560  100.00680   48.67710   97.47250   49.93050  102.17710   54.58010    0.08970    0.00570    3.14040    0.06450    2.60230
 5612.00000   57.24420  106.17340    8.81310   48.91930   99.86640   48.18360   96.94310   49.41070  102.15800   49.69620    0.08620    0.00610    3.31180    0.06060    2.60330
 5612.50000   57.72350  107.13260    8.80830   49.87260  100.08110   48.05930   97.40500   49.36270  101.90210   51.20410    0.08620    0.00450    3.32310    0.07300    2.58900
 5613.00000   58.14570  107.29350    8.80350   50.07150  100.29570   48.41750   97.91670   49.90000  101.66700   54.07040    0.08680    0.00290    3.23700    0.08920    2.57320
 5613.50000   58.01340  106.96950    8.79880   50.27050  100.51040   48.77570   98.95700   50.43720  101.45430   54.67670    0.08870    0.00130    3.16430    0.09260    2.56170
 5614.00000   57.32240  106.33740    8.79400   50.46950  100.60980   49.13380   99.74730   50.97450  101.35680   53.43680    0.08650    0.00010    3.15950    0.08210    2.56680
 5614.50000   56.55770  105.42770    8.78050   50.48530  100.50260   49.18420   99.50020   50.78490  101.35680   52.35390    0.07760   -0.00070    3.25050    0.07270    2.58270
 5615.00000   55.58240  104.00010    8.72400   50.48530   98.11640   49.01280   97.11380   50.48860   99.27870   54.10640    0.07040    0.00100    3.28660    0.06720    2.59860
 5615.50000   54.28640  102.31690    8.66230   49.96390   95.73030   48.11730   94.72730   50.19240   97.40880   53.70630    0.06900    0.00240    3.30680    0.05530    2.62650
 5616.00000   53.19140  101.21640    8.60570   47.83610   93.37850   47.22190   92.97280   49.89610   95.53890   47.73800    0.06510    0.00390    3.29130    0.04210    2.63930
 5616.50000   52.39500  100.66590    8.67280   47.39480   91.79570   46.82130   91.55090   48.73350   94.88700   44.26650    0.06030    0.00470    3.29550    0.04140    2.63150
 5617.00000   51.85220  100.25310    8.74040   48.80620   93.33170   47.37500   90.12890   48.63660   96.90540   47.36900    0.05630    0.00470    3.30180    0.05300    2.61540
 5617.50000   51.73030  100.30660    8.77410   49.36350   94.86780   47.80490   89.38570   49.84520   99.43810   57.76460    0.05700    0.00470    3.28340    0.06220    2.60030
 5618.00000   52.03270  101.01750    8.80510   49.49730   95.92770   48.23470   90.38720   49.84520   99.44760   70.56430    0.05790    0.00470    3.27080    0.06860    2.59860
 5618.50000   52.98940  102.29660    8.83910   49.63110   95.58230   48.39350   92.48660   49.92610   98.31370   70.88110    0.05870    0.00470    3.31350    0.05710    2.61320
 5619.00000   54.58190  103.54930    8.87310   49.76480   95.70020   47.96370   94.82350   50.37380   97.17990   65.57640    0.05740    0.00470    3.43250    0.03990    2.64440
 5619.50000   55.77480  104.80420    8.85960   49.89860   96.07900   48.63530   95.21640   50.82160   96.82610   60.80800    0.05490    0.00470    3.54850    0.03040    2.65930
 5620.00000   56.24140  106.06740    8.82700   50.67480   96.54430   49.30970   95.65870   51.33730   97.31200   63.91210    0.05550    0.00470    3.46320    0.03570    2.64990
 5620.50000   56.39410  105.31060    8.79880   51.55610   96.90690   49.99710   96.04430   51.99680   97.65400   70.56560    0.06750    0.00320    3.33080    0.04730    2.62360
 5621.00000   56.47270  104.44560    8.81020   52.43740   96.83160   50.68450   95.96910   52.65630   97.57870   76.39770    0.07680    0.00030    3.23350    0.05600    2.60690
 5621.50000   56.74420  103.90370    8.83780   53.11820   96.87380   51.10470   96.01130   53.40400   97.62090   79.10680    0.07930   -0.00250    3.21700    0.06050    2.60910
 5622.00000   57.13510  103.48050    8.86550   52.45110   96.91610   47.72730   96.05360   51.95170   97.66320   78.39420    0.07550   -0.00460    3.20060    0.05560    2.62130
 5622.50000   57.34950  103.17850    8.89310   45.98620   97.02370   41.42770   96.15560   46.85910   97.77570   76.74160    0.06540   -0.00560    3.31470    0.04890    2.62830
 5623.00000   57.64240  102.87420    8.91990   41.59550   97.47940   39.08640   96.61150   41.54720   98.23120   77.66790    0.05970   -0.00660    3.31610    0.04770    2.62010
 5623.50000   57.64250  102.07790    8.94610   -9999.25   97.69720   38.38530   96.83470   40.98060   98.44430   79.37180    0.06080   -0.00700    3.22350    0.05410    2.61040
 5624.00000   57.21360  101.28130    8.96160   -9999.25   97.76810   -9999.25   96.90500   -9999.25   98.51570   80.30980    0.06920   -0.00560    3.08170    0.06060    2.60940
 5624.50000   56.90480  100.51490    8.95130   -9999.25   97.93360   -9999.25   97.06990   -9999.25   98.68180   77.90310    0.07500   -0.00370    2.96190    0.05630    2.61930
 5625.00000   56.88360  100.43730    8.91760   -9999.25   98.21320   -9999.25   97.34360   -9999.25   98.96720   74.08490    0.07280   -0.00180    3.10640    0.04940    2.63100
 5625.50000   56.93390  100.83790    8.90670   -9999.25   98.73360   -9999.25   97.86320   -9999.25   99.48550   72.28670    0.07010   -0.00070    3.24830    0.04380    2.63620
