~Version ---------------------------------------------------
VERS.   2.0 : CWLS log ASCII Standard -VERSION 2.0
WRAP.    NO : One line per depth step
DLM . SPACE : Column Data Section Delimiter
~Well ------------------------------------------------------
STRT .F                  152.0 : START DEPTH
STOP .F                 8366.0 : STOP DEPTH
STEP .F                    0.5 : STEP
NULL .                -9999.25 : NULL VALUE
COMP .                         : COMPANY
WELL .                         : WELL
FLD  .                         : FIELD
LOC  .                         : LOCATION
PROV .                         : PROVINCE
CNTY .                         : COUNTY
STAT .                         : STATE
CTRY .                         : COUNTRY
SRVC .                         : SERVICE COMPANY
DATE .                         : DATE
UWI  .                         : UNIQUE WELL ID
API  .                         : API NUMBER
SLAT .WGS84 2.6385479759627017 : SURFACE LATITUDE
SLON .WGS84  9.088750169529007 : SURFACE LONGITUDE
DATUM.F                4021.82 : DEPTH DATUM ELEV
~Curve Information -----------------------------------------
DEPT .F     : 
DTCO .US/F  : COMPRESSIONAL-WAVE INTERVAL TRANSIT TIME ACOUSTIC SLOWNESS
DTSM .US/F  : SHEAR-WAVE INTERVAL TRANSIT
HCALS.IN    : HILT CALIPER
DT4P .US/F  : COMPRESSIONAL-WAVE INTERVAL TRANSIT TIME ACOUSTIC SLOWNESS, P&S MODE
DT4S .US/F  : SHEAR-WAVE INTERVAL TRANSIT TIME ACOUSTIC SLOWNESS, P&S MODE
DTRP .US/F  : Delta-T Compressional, Receiver Array - Monopole P&S
DTRS .US/F  : INTERVAL TRANSIT TIME FOR RECEIVER ARRAY
DTTP .US/F  : INTERVAL TRANSIT TIME FROM TRANSMITTER ARRAY
DTTS .US/F  : INTERVAL TRANSIT TIME FOR TRANSMITTER ARRAY
GRD  .GAPI  : GAMMA RAY FROM DENSITY LOG
TNPH .DEC   : THERMAL NEUTRON POROSITY
HDRA .G/C3  : DELTA RHO HIP TOOL
PEFZ .B/E   : FORMATION PHETOELECTRIC FACTOR
DPHZ .DEC   : DENSITY POROSITY LIMESTONE
RHOZ .G/C3  : HILT BULK DENSITY
~Params ----------------------------------------------------
~Other -----------------------------------------------------
~ASCII -----------------------------------------------------
# ...
 2406.00000   86.22330  159.95540   12.07210   84.23530  154.49230   82.02520  138.35860   86.08740  172.39270   72.38000    0.21270   -0.00810    2.26710    0.25500    2.27480
 2406.50000   85.38460  158.77550   12.07800   84.35710  157.87610   82.29730  141.52960   86.03300  174.82860   71.73010    0.21510   -0.00550    2.26830    0.25540    2.27480
 2407.00000   85.40440  157.25730   12.07780   84.47890  160.92230   82.56930  146.54070   85.96290  176.54280   72.23880    0.22280   -0.00340    2.28270    0.25470    2.27520
 2407.50000   85.77600  155.46890   12.07750   84.69830  162.56040   82.74690  148.58370   85.89290  176.95040   72.89650    0.22680   -0.00180    2.29710    0.25240    2.27670
 2408.00000   86.06030  154.69290   12.07800   84.76940  162.31610   82.74690  148.35870   85.82280  176.20820   72.35470    0.22770   -0.00180    2.31160    0.24900    2.28050
 2408.50000   86.01800  154.10550   12.08110   84.73850  161.13140   83.06550  147.51000   85.81870  173.74310   70.68210    0.22910   -0.00240    2.30860    0.24530    2.29000
 2409.00000   85.32180  154.31580   12.08410   84.86790  159.77600   83.43100  146.66130   85.93570  171.27800   70.44060    0.23680   -0.00340    2.26640    0.24320    2.29920
 2409.50000   84.37860  155.50690   12.06800   86.37920  158.42070   83.91320  146.63940   86.24760  168.81280   71.94340    0.24520   -0.00440    2.25200    0.24720    2.29910
 2410.00000   84.02360  156.87390   12.04560   87.89040  157.06530   82.87810  146.50720   86.44180  167.41310   74.78510    0.24710   -0.00540    2.26250    0.25040    2.29080
 2410.50000   84.15780  158.17090   12.02330   87.81800  156.21170   81.47860  146.10000   85.89720  167.34380   77.30930    0.24590   -0.00530    2.26620    0.24830    2.28800
 2411.00000   84.35010  158.75060   12.00370   86.45380  156.38010   80.66860  146.15590   84.58150  167.26350   77.46420    0.23850   -0.00420    2.24610    0.24050    2.29290
 2411.50000   84.73590  158.99800   11.98730   85.18710  156.90370   80.58820  149.82860   84.29710  167.18310   76.37000    0.21830   -0.00080    2.22220    0.23270    2.30860
 2412.00000   85.06990  158.42880   11.97080   84.60450  159.87310   80.50780  155.93910   84.51450  167.10280   76.06980    0.22150   -0.00060    2.24110    0.23170    2.31340
 2412.50000   85.51890  157.87070   11.95250   85.09610  162.99880   80.42750  160.50320   85.11340  167.27120   76.60580    0.23460   -0.00110    2.28900    0.23950    2.30200
 2413.00000   86.12410  157.68140   11.93230   85.43440  165.58920   80.34710  159.24890   85.33340  167.49280   76.91270    0.24490   -0.00080    2.29270    0.24480    2.29760
 2413.50000   86.42850  157.72650   11.91210   85.23360  164.56430   80.78660  155.43970   85.25300  167.29900   76.04120    0.23860   -0.00030    2.28320    0.23530    2.30540
 2414.00000   86.26130  156.70100   11.89190   84.37740  160.20060   81.46390  151.63040   85.17260  165.83570   74.55040    0.22880    0.00020    2.27310    0.22540    2.33200
 2414.50000   85.79440  154.47960   11.86310   83.05870  155.13420   80.76200  147.82120   85.09230  161.68190   73.91410    0.22570    0.00080    2.27090    0.21610    2.34200
 2415.00000   85.57300  152.18390   11.83340   83.53520  151.82340   79.15600  146.37200   87.35700  156.91550   74.97540    0.24620    0.00120    2.29630    0.21090    2.35180
 2415.50000   85.60940  150.66260   11.80370   85.22900  151.58010   77.43700  147.95400   92.15470  154.76030   77.07090    0.24860    0.00170    2.31140    0.20580    2.35920
 2416.00000   85.78780  148.95760   11.77410   88.70970  153.13170   77.12460  149.25040   97.86090  158.36270   76.97610    0.24050    0.00300    2.31960    0.20570    2.35970
 2416.50000   85.84680  147.28530   11.74440   92.04700  154.86590   79.54320  147.74190  103.39720  162.37690   74.43430    0.22350    0.00410    2.32420    0.20410    2.35970
 2417.00000   85.58330  146.76030   11.71480   93.23510  155.69470   82.03790  145.44570  105.25760  164.61550   72.92950    0.21280    0.00440    2.33960    0.20500    2.35880
 2417.50000   85.75460  146.57330   11.68510   93.52610  154.40890   81.69630  143.15210  106.26500  166.23580   73.84040    0.20990    0.00240    2.38620    0.20700    2.35740
 2418.00000   86.19490  146.79940   11.66630   93.77470  154.44510   80.65010  142.84300  107.27250  167.66000   74.63860    0.20650    0.00170    2.43590    0.20420    2.35670
 2418.50000   86.41320  147.32290   11.63910   93.63170  156.05420   80.21210  143.93550  107.28550  168.30260   73.24590    0.20180    0.00110    2.45530    0.19910    2.36100
 2419.00000   86.31980  147.75130   11.58320   94.03830  155.73780   81.31390  144.23070  106.98310  168.18640   72.22520    0.19700    0.00030    2.46330    0.18780    2.38890
 2419.50000   85.52870  148.26030   11.54900   94.45020  155.54090   81.95280  143.83020  106.68080  167.57490   74.16150    0.19490   -0.00040    2.46940    0.16990    2.41890
 2420.00000   83.91730  147.75810   11.48210   94.77900  154.40740   82.59170  142.39760  107.28790  166.96340   80.51440    0.18680   -0.00070    2.52190    0.15260    2.44930
 2420.50000   82.59770  145.73930   11.41150   94.97490  152.59560   82.87180  138.98460  107.88070  166.64360   86.64170    0.18080   -0.00080    2.55200    0.13850    2.47960
 2421.00000   81.47340  144.44780   11.36720   94.50070  151.54750   82.87180  135.78580  107.88070  166.64360   91.11760    0.17950   -0.00100    2.57470    0.13020    2.49100
 2421.50000   80.38610  143.39380   11.36720   93.55830  150.90590   81.13400  135.51230  106.68220  166.64360   94.84570    0.18420   -0.00340    2.58100    0.12780    2.49180
 2422.00000   79.62340  142.40670   11.35430   90.14170  150.89160   79.90110  136.64210  102.28550  166.64360   98.28390    0.19340   -0.00580    2.59060    0.12940    2.49140
 2422.50000   79.29880  141.51120   11.33920   85.12430  151.32190   79.79570  138.22060   90.70680  166.64360   97.98350    0.19620   -0.00710    2.59980    0.13240    2.48580
 2423.00000   80.13950  141.40520   11.29770   81.12940  151.69640   79.62500  139.44020   82.12450  166.64360   89.12340    0.19350   -0.00590    2.57650    0.13550    2.47680
 2423.50000   82.02930  142.01890   11.26960   79.90780  152.07080   79.45440  140.65980   81.66610  165.28750   78.14050    0.18300   -0.00440    2.53220    0.14850    2.45640
 2424.00000   84.64610  143.53110   11.26110   79.90780  148.67760   78.90140  141.64590   81.44330  158.11630   70.46570    0.17070   -0.00480    2.48780    0.16910    2.42730
 2424.50000   86.76950  145.45750   11.22940   76.97380  142.53200   76.77450  141.64590   80.30200  144.76950   65.40430    0.16330   -0.00360    2.43160    0.18040    2.40260
 2425.00000   87.97640  147.03620   11.17540   69.72430  137.64350   56.35740  140.01300   78.33880  137.41310   66.08710    0.15950   -0.00220    2.36360    0.17680    2.40840
 2425.50000   88.31460  148.11960   11.10460   65.26530  136.96380   53.79200  137.84330   77.09750  135.69460   69.12260    0.15890   -0.00070    2.31780    0.16730    2.42520
 2426.00000   88.35790  149.06330   11.06210   68.80140  138.42750   67.21780  136.49600   81.95530  138.26390   75.33340    0.15950   -0.00010    2.31090    0.16600    2.42530
 2426.50000   87.90420  149.19760   11.02490   92.52460  143.60110   75.56620  138.95170  100.50920  144.21050   84.80210    0.16210    0.00010    2.33690    0.17520    2.40630
 2427.00000   87.11800  149.33190   10.99030   99.95910  149.11860   81.97540  145.42840  117.64580  150.15710   94.96480    0.18940   -0.00040    2.36400    0.18660    2.38900
 2427.50000   85.84010  149.96170   10.93810  103.51240  156.26580   85.57120  151.90510  119.80900  156.10380   99.75290    0.21310   -0.00190    2.41330    0.19010    2.38610
 2428.00000   85.35260  150.76160   10.84390  105.68930  161.23220   88.47990  158.25630  122.59510  162.05040   99.44310    0.21530   -0.00340    2.41300    0.17390    2.41260
 2428.50000   85.65880  151.81190   10.75250  107.89240  163.82310   90.77620  161.74370  125.59430  164.50850   98.42240    0.19620   -0.00300    2.39540    0.13930    2.44840
