~Version ---------------------------------------------------
VERS.   2.0 : CWLS log ASCII Standard -VERSION 2.0
WRAP.    NO : One line per depth step
DLM . SPACE : Column Data Section Delimiter
~Well ------------------------------------------------------
STRT .F                  630.0 : START DEPTH
STOP .F                 7987.0 : STOP DEPTH
STEP .F                    0.5 : STEP
NULL .                -9999.25 : NULL VALUE
COMP .                         : COMPANY
WELL .                         : WELL
FLD  .                         : FIELD
LOC  .                         : LOCATION
PROV .                         : PROVINCE
CNTY .                         : COUNTY
STAT .                         : STATE
CTRY .                         : COUNTRY
SRVC .                         : SERVICE COMPANY
DATE .                         : DATE
UWI  .                         : UNIQUE WELL ID
API  .                         : API NUMBER
SLAT .WGS84 6.5264798795757955 : SURFACE LATITUDE
SLON .WGS84 3.0229995374809278 : SURFACE LONGITUDE
DATUM.F                 1210.7 : DEPTH DATUM ELEV
~Curve Information -----------------------------------------
DEPT.F     : 
GRR .GAPI  : GAMMA RAY
ILD .OHMM  : INDUCTION LOG DEEP
ILM .OHMM  : INDUCTION LOG MEDIUM
SFLU.OHMM  : SPHERICALLY FOCUSED LOG UNAVERAGED RESISTIVITY
SPR .MV    : SPONTANEOUS POTENTIAL
DTCO.US/F  : COMPRESSIONAL-WAVE INTERVAL TRANSIT TIME ACAUSTIC SLOWNESS
DTSM.US/F  : SHEAR-WAVE INTERVAL TRANSIT TIME DELTA-T
CALD.IN    : CALIPER FROM DENSITY LOG
PEF .B/E   : PHOTOELECTRIC FACTOR
DRHO.G/C3  : DENSITY CORRECTION
RHOB.G/C3  : BULK DENSITY
DPHI.DEC   : DENSITY POROSITY LIMESTONE
NPHI.DEC   : NEUTRON POROSITY LIMESTONE
CILD.MMHO  : CONDUCTIVITY INDUCTION LOG DEEP
~Params ----------------------------------------------------
~Other -----------------------------------------------------
~ASCII -----------------------------------------------------
# ...
 7539.00000   30.62820   -9999.25 1056.81510 1608.25070 -103.57820   50.08150   91.13280    7.74260    3.73290   -0.00260    2.68040    0.01910    0.02180   -0.92420
 7539.50000   34.94160   -9999.25  924.39600 1398.85910 -103.02840   50.41090   91.61040    7.72650    3.73960   -0.00430    2.68480    0.01610    0.02210   -0.91530
 7540.00000   39.36750   -9999.25  873.27650 1423.47490 -102.18400   50.73530   91.93580    7.72560    3.73060   -0.00510    2.68850    0.01280    0.02220   -0.90910
 7540.50000   38.88350   -9999.25  802.20810 1536.02370 -101.93420   51.36460   92.26120    7.72470    3.69150   -0.00680    2.68920    0.01190    0.02190   -0.90130
 7541.00000   37.06020   -9999.25  726.68070 1600.51730 -101.38710   51.84150   92.28220    7.72760    3.66760   -0.00760    2.68220    0.01560    0.02130   -0.89400
 7541.50000   35.01370   -9999.25  649.11440 1644.55490 -100.84020   51.86100   92.30320    7.73060    3.73450   -0.00780    2.68050    0.01660    0.02070   -0.88630
 7542.00000   30.28860   -9999.25  596.28910 1678.37660 -100.29260   51.42330   92.32420    7.73370    3.83920   -0.00630    2.68420    0.01570    0.02110   -0.87800
 7542.50000   28.46540   -9999.25  638.94260 1688.75180  -99.74510   51.13790   91.73110    7.73670    3.88370   -0.00400    2.68790    0.01360    0.02140   -0.87120
 7543.00000   27.75810   -9999.25  729.15860 1686.99770  -99.79540   51.00020   91.30080    7.73970    3.85950   -0.00060    2.68930    0.01180    0.02180   -0.86360
 7543.50000   27.94380   -9999.25  861.74780 1709.33860  -99.54670   51.02460   91.32180    7.74270    3.80540    0.00080    2.68770    0.01280    0.02180   -1.61230
 7544.00000   30.13830   -9999.25 1147.12320 1696.01670  -99.59710   51.04420   91.19030    7.74570    3.73610   -0.00010    2.68450    0.01530    0.02120   -1.60610
 7544.50000   29.65440   -9999.25 2000.00000 1647.86070  -99.06200   51.06370   90.75490    7.74790    3.67440   -0.00020    2.68210    0.01500    0.02100   -1.59830
 7545.00000   27.83110   -9999.25 1895.00130 1669.68350  -98.81340   51.38820   90.77590    7.76220    3.62780   -0.00110    2.68950    0.01290    0.02040   -1.59090
 7545.50000   27.12390   -9999.25 1933.47190 1703.66660  -98.55220   52.01750   90.79760    7.76130    3.58120   -0.00120    2.69400    0.00950    0.02010   -1.58330
 7546.00000   28.42560 1959.06140   -9999.25 1726.58690  -98.01720   52.03700   90.81890    7.76040    3.70860   -0.00060    2.69760    0.00680    0.02080   -1.57500
 7546.50000   31.28980 1930.13420   -9999.25 1700.83830  -97.46960   51.90400   91.14850    7.75950    3.79820    0.00010    2.69900    0.00820    0.02170   -1.56820
 7547.00000   34.60040 1914.97090   -9999.25 1584.63850  -96.92200   52.07630   91.32180    7.75850    3.73420    0.00000    2.69510    0.01030    0.02210   -1.56060
 7547.50000   38.35750 1913.24870   -9999.25 1455.87110  -96.37440   52.25870   91.79940    7.75760    3.64270   -0.00020    2.68890    0.01280    0.02240   -2.30920
 7548.00000   40.32890 1911.52780   -9999.25 1394.88550  -95.82690   52.74370   91.97260    7.75670    3.62820    0.00050    2.68430    0.01380    0.02210   -2.30300
 7548.50000   38.95200 1896.51090   -9999.25 1463.65330  -95.56560   53.22870   91.99360    7.75560    3.69480   -0.00040    2.68570    0.01350    0.02190   -2.29530
 7549.00000   37.12870 1855.49510   -9999.25 1546.58960  -95.03060   53.98850   91.86240    7.75470    3.73900   -0.00050    2.68710    0.01260    0.02160   -2.28790
 7549.50000   35.52860 1828.09860   -9999.25 1600.29600  -95.08090   54.16050   91.72590    7.75380    3.75320   -0.00140    2.68920    0.01240    0.02100   -2.28030
 7550.00000   33.70540 1839.26260   -9999.25 1644.32750  -94.53330   54.17520   91.59470    7.75310    3.66720   -0.00220    2.69140    0.01140    0.02020   -2.27190
 7550.50000   32.72020 1874.67860   -9999.25 1666.15080  -94.88410   54.07950   91.31120    7.76540    3.55720   -0.00180    2.69130    0.01060    0.01940   -1.50760
 7551.00000   31.60610 1907.70540   -9999.25 1664.14510  -94.34210   53.99110   91.03200    7.77670    3.47730   -0.00340    2.68960    0.01070    0.01870   -1.50000
 7551.50000   30.44830 1946.37730   -9999.25 1674.26560  -94.39810   53.93470   91.05370    7.78800    3.48180   -0.00720    2.68500    0.01280    0.01940   -1.49110
 7552.00000   28.84400 1951.43020   -9999.25 1660.94360  -93.85610   53.96090   91.07460    7.77920    3.67150   -0.00730    2.68490    0.01410    0.02000   -1.48480
 7552.50000   27.90950 1935.88850   -9999.25 1647.78110  -93.92610   53.98180   91.40030    7.76290    3.91240   -0.00660    2.68850    0.01290    0.02160   -0.71950
 7553.00000   27.19810 1894.03000   -9999.25 1588.11240  -93.66910   54.00280   91.59630    7.76180    4.03990   -0.00670    2.68620    0.01110    0.02250   -1.18490
 7553.50000   28.04930 1853.07480   -9999.25 1443.48820  -93.42610   54.02370   91.90360    7.76080    3.97830   -0.00530    2.68230    0.01360    0.02290   -2.49670
 7554.00000   30.46290 1825.71920   -9999.25 1250.51550  -93.18310   54.04460   92.07670    7.75970    3.81080   -0.00320    2.68370    0.01580    0.02320   -3.80850
 7554.50000   32.20690 1849.75830   -9999.25 1215.14090  -92.94010   54.06550   92.24980    7.75870    3.71130   -0.00180    2.68660    0.01550    0.02300   -4.47730
 7555.00000   31.94190 1927.23740   -9999.25 1338.51980  -92.69710   53.92880   92.27070    7.77290    3.78580   -0.00110    2.68880    0.01430    0.02270   -4.46970
 7555.50000   31.00670 1939.01570   -9999.25 1414.17870  -92.45420   53.95490   92.44380    7.77180    3.83010   -0.00200    2.68940    0.01410    0.02240   -4.43080
 7556.00000   31.41210 1950.86440   -9999.25 1393.19310  -92.21110   53.97580   92.92130    7.77070    3.85920   -0.00290    2.68180    0.01710    0.02250   -3.69700
 7556.50000   32.69920 1949.11690   -9999.25 1334.65770  -91.68320   53.84430   93.09440    7.78490    3.87330   -0.00370    2.67020    0.02330    0.02280   -3.68940
 7557.00000   33.99680 1947.37280   -9999.25 1333.37330  -91.14590   54.01830   93.11530    7.79910    3.88730   -0.00310    2.66710    0.02670    0.02320   -2.92390
 7557.50000   35.07120 1945.62850 1837.68440 1313.58800  -90.89690   54.04380   93.13620    7.79780    3.88610   -0.00170    2.66850    0.02220    0.02360   -2.91670
 7558.00000   35.70950 1943.88750 1584.97220 1240.91890  -90.65470   54.06480   93.15710    7.79680    3.87750   -0.00030    2.67820    0.01670    0.02390   -2.90910
 7558.50000   36.32700 1942.14640 1329.27330 1164.09910  -90.41230   54.08570   93.33020    7.81120    3.86880    0.00030    2.68940    0.00970    0.02420   -2.90050
 7559.00000   36.73170 1940.40670 1114.82570 1099.69980  -90.46930   53.94890   93.52020    7.80990    3.92270    0.00020    2.70140    0.00520    0.02460   -2.89390
 7559.50000   37.35970 1938.45350  941.63700 1046.15380  -90.22530   53.97510   94.29040    7.80890    3.99490   -0.00070    2.69900    0.00620    0.02430   -2.88640
 7560.00000   37.99800 1923.23030  733.83020 1016.31550  -90.29520   53.84360   93.85470    7.80780    4.01670   -0.00230    2.69060    0.01290    0.02370   -2.87880
 7560.50000   37.94590 1875.09290  579.95250 1001.21870  -90.35110   53.86450   93.26670    7.79150    3.95480   -0.00240    2.68290    0.01750    0.02350   -2.87120
 7561.00000   38.35060 1840.95830  525.12060 1007.29020  -90.09420   53.88540   93.13020    7.76000    3.89320   -0.00170    2.67980    0.01630    0.02290   -2.86320
 7561.50000   38.97850 1864.98770  510.05620 1034.61980  -90.16410   53.90630   93.15630    7.75890    3.84670   -0.00110    2.68350    0.01210    0.02300   -3.26670
 7562.00000   40.72250 1863.31710  506.00990 1070.40620  -89.90710   53.92730   93.17720    7.74260    3.89850   -0.00040    2.69020    0.00970    0.02360   -3.60680
 7562.50000   41.35050 1835.81190  491.56510 1099.71290  -89.66420   53.94820   93.04590    7.74160    3.95030    0.00020    2.69310    0.01010    0.02460   -3.59750
 7563.00000   38.12280 1796.11570  477.53310 1122.21810  -89.43520   53.96950   93.06680    7.74050    3.96460    0.00080    2.69300    0.01040    0.02610   -3.59090
