~Version ---------------------------------------------------
VERS.   2.0 : CWLS log ASCII Standard -VERSION 2.0
WRAP.    NO : One line per depth step
DLM . SPACE : Column Data Section Delimiter
~Well ------------------------------------------------------
STRT .F                  630.0 : START DEPTH
STOP .F                 7987.0 : STOP DEPTH
STEP .F                    0.5 : STEP
NULL .                -9999.25 : NULL VALUE
COMP .                         : COMPANY
WELL .                         : WELL
FLD  .                         : FIELD
LOC  .                         : LOCATION
PROV .                         : PROVINCE
CNTY .                         : COUNTY
STAT .                         : STATE
CTRY .                         : COUNTRY
SRVC .                         : SERVICE COMPANY
DATE .                         : DATE
UWI  .                         : UNIQUE WELL ID
API  .                         : API NUMBER
SLAT .WGS84 6.5264798795757955 : SURFACE LATITUDE
SLON .WGS84 3.0229995374809278 : SURFACE LONGITUDE
DATUM.F                 1210.7 : DEPTH DATUM ELEV
~Curve Information -----------------------------------------
DEPT.F     : 
GRR .GAPI  : GAMMA RAY
ILD .OHMM  : INDUCTION LOG DEEP
ILM .OHMM  : INDUCTION LOG MEDIUM
SFLU.OHMM  : SPHERICALLY FOCUSED LOG UNAVERAGED RESISTIVITY
SPR .MV    : SPONTANEOUS POTENTIAL
DTCO.US/F  : COMPRESSIONAL-WAVE INTERVAL TRANSIT TIME ACAUSTIC SLOWNESS
DTSM.US/F  : SHEAR-WAVE INTERVAL TRANSIT TIME DELTA-T
CALD.IN    : CALIPER FROM DENSITY LOG
PEF .B/E   : PHOTOELECTRIC FACTOR
DRHO.G/C3  : DENSITY CORRECTION
RHOB.G/C3  : BULK DENSITY
DPHI.DEC   : DENSITY POROSITY LIMESTONE
NPHI.DEC   : NEUTRON POROSITY LIMESTONE
CILD.MMHO  : CONDUCTIVITY INDUCTION LOG DEEP
~Params ----------------------------------------------------
~Other -----------------------------------------------------
~ASCII -----------------------------------------------------
# ...
 6902.00000   90.46400    2.29690    2.96660    2.52020   -8.64570  105.82370  185.58230   10.03490    2.53450    0.08570    2.19440    0.27940    0.39130  371.79100
 6902.50000   83.81160    2.47750    2.94240    2.68080   -8.40000  109.79760  182.05110   10.38440    2.55590    0.10450    2.23050    0.28190    0.37340  336.38320
 6903.00000   78.74830    2.72890    2.93850    2.81200   -8.45440  106.92220  174.20450   10.70340    2.64600    0.12780    2.22280    0.28470    0.35460  316.38390
 6903.50000   77.83590    2.98500    2.93520    2.97030   -8.51870  103.13360  169.96080   11.06810    2.68940    0.15490    2.23010    0.27310    0.33640  275.78410
 6904.00000   77.57330    3.52590    2.96260    3.29830   -8.25940   97.82290  168.30460   11.40240    2.51720    0.17070    2.25590    0.25700    0.32850  250.63100
 6904.50000   74.40880    3.82990    3.09650    3.74170   -8.02640   90.53340  157.51750   11.55370    2.21040    0.17280    2.18920    0.33260    0.37690  225.19430
 6905.00000   66.78010    3.96140    3.73620    4.16860   -7.76710   85.37500  136.53100   11.58310    2.23940    0.16610    2.01630    0.45760    0.38210  194.73520
 6905.50000   54.24070    4.01250    5.48390    4.49670   -7.83310   88.13120  126.04690   11.38370    2.35900    0.10760    1.85210    0.55510    0.30280  181.51880
 6906.00000   48.17450    4.20870    9.00300    4.88460   -7.57370   85.40800  124.08630   10.69660    2.23680    0.02440    1.73870    0.56330    0.24360  182.11500
 6906.50000   51.48330    4.60360   16.07540    5.45660   -7.32760   81.77160  123.92240    8.92470    2.00130    0.00460    1.78620    0.55090    0.24760  205.35300
 6907.00000   56.57780    4.82880   17.96090    6.58300   -7.08140   77.67850  127.77540    9.20220    1.73540   -0.00150    1.68490    0.64690    0.29710  234.75430
 6907.50000   61.67230    4.85630    8.71710    7.94180   -6.84600   72.52010  130.22880    9.74800    1.65890   -0.00310    1.51030    0.69990    0.40570  259.14790
 6908.00000   63.64290    4.81680    3.48920    9.99370   -6.60090   70.10130  128.26820    9.99060    1.80850   -0.00100    1.33960    0.69970    0.42490  239.53590
 6908.50000   62.26310    4.81120    2.71470    5.98940   -6.35580   71.48770  129.19960   10.02030    2.13980    0.00420    1.38770    0.69970    0.36140  196.65880
 6909.00000   58.37540    4.80490    3.49920    3.71830   -6.11000   74.85280  132.10960    9.79020    2.41070    0.01850    1.62550    0.68940    0.26720  181.98450
 6909.50000   48.12530    4.76590    4.46520    3.20670   -6.16280   77.45680  136.25850    9.59090    2.90070    0.05930    1.84970    0.44330    0.22140  212.48400
 6910.00000   40.04000    4.76030    5.35010    3.65810   -5.91660   75.64690  137.47310    9.31540    3.27740    0.10710    2.13130    0.30230    0.19520  209.92420
 6910.50000   26.83100    4.78810    7.07020    5.33040   -5.67050   72.90830  133.22940    8.90270    3.59360    0.12740    2.33050    0.22890    0.17010  196.63630
 6911.00000   29.24690    5.23730    9.21360    8.04360   -6.03540   71.54060  133.94110    8.52050    3.77370    0.13700    2.42410    0.15670    0.15480  179.59890
 6911.50000   31.88610    7.31610   10.36550   10.40700   -6.38720   70.34700  136.84800    8.26020    3.94760    0.13430    2.51680    0.10340    0.14700  161.45110
 6912.00000   34.07880    9.33240   11.58020   11.79560   -6.73900   69.32440  137.24100    8.18280    4.03730    0.10540    2.57410    0.07050    0.14060  132.07790
 6912.50000   34.26340   11.41560   11.97860   12.02530   -7.38960   68.27560  135.74160    8.15150    4.10620    0.07430    2.59670    0.06560    0.13400  104.88670
 6913.00000   34.66960   11.16580   11.79830   11.67650   -7.44250   68.13570  135.91190    8.13480    4.13870    0.05830    2.61920    0.05650    0.13310   80.40220
 6913.50000   35.53830   10.18420   11.22110   11.26220   -7.49530   68.15640  136.99540    8.13370    4.15250    0.04080    2.63800    0.04070    0.13430   82.32020
 6914.00000   36.69650    9.55230   10.67220   10.63700   -7.23590   67.71630  137.16120    8.16310    4.18150    0.02410    2.63860    0.03810    0.13980   97.07590
 6914.50000   40.79150    8.68140    9.90360    9.83790   -7.30190   67.27630  133.98750    8.19240    4.24830    0.01790    2.63150    0.04460    0.14600  106.81310
 6915.00000   44.76990    7.94580    9.15900    9.09890   -7.35470   66.22320  128.83060    8.22180    4.20920    0.01770    2.62770    0.04760    0.15020  114.76330
 6915.50000   46.06980    7.55630    8.67880    8.59380   -7.40800   67.91810  128.38750    8.25120    4.13990    0.01760    2.62540    0.04770    0.15300  125.11790
 6916.00000   45.13750    7.23760    8.19660    8.23110   -7.46190   70.06560  129.62780    8.26690    4.08570    0.01750    2.62530    0.04770    0.15460  131.18060
 6916.50000   44.65160    7.02990    7.90550    8.05080   -7.52630   68.09930  134.36280    8.29460    4.10710    0.01580    2.62290    0.04840    0.15550  137.29880
 6917.00000   45.50500    6.87600    7.57150    7.92980   -7.57910   69.18540  139.70820    8.24750    4.17390    0.01340    2.62200    0.04930    0.15830  142.19690
 6917.50000   46.58170    6.72550    7.15090    7.92050   -7.63190   69.20200  139.88610    8.17010    4.23340    0.00950    2.62420    0.05030    0.16260  146.34350
 6918.00000   47.65830    6.57830    7.09270    7.90450   -7.68470   69.82730  138.98330    8.07760    4.16380    0.00860    2.63230    0.04940    0.16380  151.65180
 6918.50000   47.61890    6.57060    7.03500    7.84480   -8.03640   69.69170  137.32360    8.03070    4.07940    0.01000    2.64360    0.04300    0.16020  154.29430
 6919.00000   47.35630    6.60900    6.92920    7.83570   -8.08930   69.86040  136.43200    7.98380    4.01010    0.00980    2.65550    0.03420    0.15230  155.44690
 6919.50000   46.64720    6.64760    6.87280    7.82660   -8.14210   70.33350  136.29790    7.98270    4.02400    0.00740    2.66450    0.02480    0.14960  153.93630
 6920.00000   44.34490    6.78050    6.91300    7.87460   -8.19480   70.19790  136.12370    7.99680    4.05340    0.00420    2.66960    0.02030    0.14850  149.90060
 6920.50000   42.96350    6.86790    7.00220    8.02990   -8.54660   68.06200  134.35380    7.99570    4.06770    0.00190    2.66270    0.02270    0.14730  144.09480
 6921.00000   42.51110    6.97980    7.09170    8.30600   -8.59940   67.18680  129.65960    7.99460    4.09990    0.00020    2.65500    0.03130    0.14730  139.34950
 6921.50000   43.80110    7.11930    7.15810    8.59150   -8.95110   67.50780  128.76450    7.99340    4.22270   -0.00140    2.65190    0.03260    0.14610  134.73370
 6922.00000   44.44120    7.21120    7.25060    8.76600   -8.70500   66.76740  128.62580    7.99230    4.42550   -0.00230    2.65330    0.03140    0.13860  132.74290
 6922.50000   43.27580    7.32860    7.36880    9.06480   -9.05830   66.02290  131.54040    7.99120    4.59050   -0.00250    2.65850    0.02870    0.12700  131.98870
 6923.00000   42.79000    7.47510    7.67580    9.50850   -9.12280   65.43060  131.24960    7.99010    4.61220   -0.00110    2.66660    0.02380    0.13200  131.20970
 6923.50000   44.53630    7.57150    7.77500   10.27310   -9.17560   65.13860  131.57660    7.98890    4.42920    0.00030    2.66880    0.02140    0.14990  129.49490
 6924.00000   47.17540    7.77700    7.87530   10.83450   -8.91620   65.61590  134.60110    7.98780    4.45060    0.00170    2.65350    0.02890    0.17060  126.84870
 6924.50000   48.93160    7.98820    8.14630    8.95720   -8.98220   68.06770  137.70100    7.98670    4.63830    0.00230    2.64360    0.03860    0.16940  121.39800
 6925.00000   46.42690    8.37890    8.48570    8.22660   -9.03500   69.60630  137.41470    7.98550    4.77310    0.00210    2.64730    0.03530    0.14480  114.95920
 6925.50000   39.46790    8.66670    9.15410    8.87410   -9.08780   68.25300  135.68500    7.98440    4.81750   -0.00030    2.66600    0.02010    0.11750  108.84720
 6926.00000   33.84810    9.02720   10.01440   11.48140   -9.14060   65.98640  129.43440    7.98300    4.77820   -0.00270    2.68300    0.01220    0.10170   99.44000
