~Version ---------------------------------------------------
VERS.   2.0 : CWLS log ASCII Standard -VERSION 2.0
WRAP.    NO : One line per depth step
DLM . SPACE : Column Data Section Delimiter
~Well ------------------------------------------------------
STRT .F                  630.0 : START DEPTH
STOP .F                 7987.0 : STOP DEPTH
STEP .F                    0.5 : STEP
NULL .                -9999.25 : NULL VALUE
COMP .                         : COMPANY
WELL .                         : WELL
FLD  .                         : FIELD
LOC  .                         : LOCATION
PROV .                         : PROVINCE
CNTY .                         : COUNTY
STAT .                         : STATE
CTRY .                         : COUNTRY
SRVC .                         : SERVICE COMPANY
DATE .                         : DATE
UWI  .                         : UNIQUE WELL ID
API  .                         : API NUMBER
SLAT .WGS84 6.5264798795757955 : SURFACE LATITUDE
SLON .WGS84 3.0229995374809278 : SURFACE LONGITUDE
DATUM.F                 1210.7 : DEPTH DATUM ELEV
~Curve Information -----------------------------------------
DEPT.F     : 
GRR .GAPI  : GAMMA RAY
ILD .OHMM  : INDUCTION LOG DEEP
ILM .OHMM  : INDUCTION LOG MEDIUM
SFLU.OHMM  : SPHERICALLY FOCUSED LOG UNAVERAGED RESISTIVITY
SPR .MV    : SPONTANEOUS POTENTIAL
DTCO.US/F  : COMPRESSIONAL-WAVE INTERVAL TRANSIT TIME ACAUSTIC SLOWNESS
DTSM.US/F  : SHEAR-WAVE INTERVAL TRANSIT TIME DELTA-T
CALD.IN    : CALIPER FROM DENSITY LOG
PEF .B/E   : PHOTOELECTRIC FACTOR
DRHO.G/C3  : DENSITY CORRECTION
RHOB.G/C3  : BULK DENSITY
DPHI.DEC   : DENSITY POROSITY LIMESTONE
NPHI.DEC   : NEUTRON POROSITY LIMESTONE
CILD.MMHO  : CONDUCTIVITY INDUCTION LOG DEEP
~Params ----------------------------------------------------
~Other -----------------------------------------------------
~ASCII -----------------------------------------------------
# ...
 7735.00000   36.47980 1746.42500 1100.15120 1658.60970 -107.47940   51.64910   91.80800    7.60190    3.44040    0.00280    2.66630    0.02690    0.02390   -0.61130
 7735.50000   37.10000 1744.98680 1154.43480 1417.42550 -108.13300   51.66710   91.36940    7.60090    2.96630    0.00340    2.66240    0.02790    0.02300   -0.78000
 7736.00000   37.95340 1755.59750 1245.78880 1284.08170 -108.48770   51.68510   91.08750    7.61540    2.79170    0.00550    2.65550    0.03250    0.02100   -0.94870
 7736.50000   38.80670 1778.84060 1353.81420 1282.93870 -109.14120   51.70320   90.80060    7.61400    2.76830    0.00690    2.65160    0.03620    0.02010   -1.11740
 7737.00000   39.66010 1802.39110 1523.60080 1426.86650 -109.79480   52.02620   90.36250    7.62820    2.88770    0.00600    2.65300    0.03470    0.01950   -1.28610
 7737.50000   42.07590 1851.95840 1565.55860 1568.24690 -110.74740   51.73930   90.22830    7.64240    3.03760    0.00360    2.65900    0.03140    0.01620   -1.45470
 7738.00000   45.90560 1943.20130 1110.12940 1634.35970 -111.42700   51.29550   90.09410    7.64140    3.19510    0.00040    2.67030    0.02470    0.01630   -1.62340
 7738.50000   50.37190 1989.75810  570.50600 1342.21620 -112.05680   51.31810   90.11260    7.65560    3.35250   -0.00210    2.67700    0.02020    0.01750   -1.79210
 7739.00000   51.77880 1982.34290  447.70810 1190.70250 -112.42310   51.79350   90.28310    7.66980    3.47230   -0.00440    2.67690    0.01870    0.01780   -1.91410
 7739.50000   47.71150 1982.19100  484.87430 1165.20310 -113.07670   53.48830   90.76150    7.68400    3.09390   -0.00610    2.66680    0.02090    0.01640   -1.86040
 7740.00000   34.94880 1982.03910  573.08330 1497.12230 -113.43140   54.72590   91.38390    7.69820    2.70790   -0.00620    2.65100    0.03190    0.01550   -1.80860
 7740.50000   30.22180 1981.88720  631.50920 1661.22580 -113.48700   54.89640   90.79760    7.69710    2.64650   -0.00410    2.63040    0.04750    0.01580   -1.75580
 7741.00000   29.06620 1981.73540  556.22890 1730.87300 -113.84170   54.76200   90.50670    7.71130    2.90080   -0.00200    2.63250    0.05030    0.01590   -1.69850
 7741.50000   28.80340 1981.58340  486.56760 1790.87190 -113.89740   54.61410   90.22480    7.69480    3.32340    0.00090    2.64760    0.04000    0.01530   -1.65030
 7742.00000   30.10320 1981.43150  431.63020 1827.21410 -114.25200   54.01430   90.24280    7.67850    3.61670    0.00300    2.65890    0.02690    0.01440   -1.59760
 7742.50000   31.40290 1981.27970  391.02010 1851.29980 -114.30770   53.74910   90.26080    7.66220    3.93270    0.00210    2.67320    0.01930    0.01380   -1.53650
 7743.00000   29.57770 1981.12780  364.28730 1875.70470 -114.36340   54.07650   90.27890    7.64590    4.02220    0.00050    2.67920    0.01910    0.01360   -1.49210
 7743.50000   27.75250 1980.97580  418.67280 1913.76840 -114.71810   54.09460   90.29690    7.64490    4.14950   -0.00120    2.67910    0.01910    0.01360   -1.43930
 7744.00000   25.70400 1980.82400  494.83850 1925.48400 -114.77430   53.65530   90.31490    7.62860    4.26950   -0.00200    2.67590    0.02040    0.01390   -1.38660
 7744.50000   25.88770 1980.67210  556.89790 1923.34200 -114.53050   53.67330   90.33290    7.64300    4.10210   -0.00220    2.67360    0.02350    0.01490   -1.33380
 7745.00000   27.85710 1980.52030  447.91040 1948.69490 -114.60010   53.69140   90.35100    7.67220    3.95010   -0.00240    2.67270    0.02410    0.01580   -1.27730
 7745.50000   30.50980 1980.36830  357.73940 1961.06070 -114.65580   53.70950   90.36900    7.70170    4.01700   -0.00250    2.67790    0.02050    0.01650   -1.22830
 7746.00000   32.52450 1980.21640  293.83310 1958.87920 -114.39860   53.72750   90.53920    7.71590    4.11410   -0.00260    2.69090    0.01440    0.01650   -1.17550
 7746.50000   29.29120 1980.06460  364.72550 1957.13570 -114.46820   53.74560   91.31830    7.66740    4.13570   -0.00200    2.69990    0.00840    0.01590   -1.11530
 7747.00000   25.68030 1979.91260  574.34780 1861.97470 -114.21100   53.76360   91.79480    7.62200    4.09440   -0.00140    2.69350    0.00980    0.01570   -1.07010
 7747.50000   23.85500 1979.76070  561.87120 1847.35120 -114.28060   53.32440   92.12590    7.60580    4.06550    0.00070    2.68510    0.01570    0.01570   -1.01740
 7748.00000   22.47620 1650.11130  401.21810 1858.66020 -114.33630   51.20830   92.30430    7.62020    4.05690    0.00580    2.67820    0.02080    0.01610   -0.96460
 7748.50000   21.54390 1403.95360  232.24100 1857.00590 -114.07910   49.24460   92.45660    7.63440    4.02570    0.01400    2.67500    0.02170    0.01640   -0.91180
 7749.00000   21.05790 1613.21780  227.22720 1868.37380 -114.14870   48.04260   92.63060    7.66390    3.92650    0.02440    2.67950    0.02030    0.01700   -0.85620
 7749.50000   21.91120 1827.94790  313.26970 1893.00380 -113.90430   47.75610   92.64860    7.70850    3.94810    0.03480    2.68700    0.01600    0.01710   -0.80640
 7750.00000   26.73720 1918.00780  621.48580 1894.97270 -113.66220   47.77440   92.63320    7.72270    4.02160    0.04140    2.69350    0.00970    0.01710   -0.75360
 7750.50000   30.48290 1956.77420 1997.76120 1942.64530 -113.11430   48.25000   92.37720    7.66480    4.10690    0.03900    2.69660    0.00790    0.01620   -0.69420
 7751.00000   32.95660 1934.27830 1995.69800 1900.34310 -113.16590   48.42070   92.07500    7.62880    4.07140    0.03130    2.69810    0.00790    0.01500   -0.64810
 7751.50000   30.00540 1905.59050 1993.63710 1872.00820 -113.21440   48.59150   91.34780    7.59730    3.89940    0.02520    2.69700    0.00890    0.01480   -0.59530
 7752.00000   28.84970 1910.40110 1991.57820 1857.03750 -112.96550   49.22300   90.91370    7.61150    3.71000    0.01750    2.69080    0.01100    0.01550   -0.53220
 7752.50000   28.59690 1908.55540 1989.52150 1842.18650 -112.71650   50.46060   90.77500    7.61040    3.60960    0.00910    2.68410    0.01470    0.01700   -0.48980
 7753.00000   31.44920 1933.31570 1987.46680 1840.27930 -112.77910   52.15540   90.79760    7.62490    3.65380    0.00360    2.68030    0.01780    0.01790   -0.43500
 7753.50000   36.76680 1986.19820 1985.41240 1838.36450 -112.82910   52.17340   90.96780    7.60830    3.71320    0.00050    2.68240    0.01780    0.01860   -0.38430
 7754.00000   40.74510 1986.80900 1997.29170 1823.63850 -112.56770   52.34390   90.98580    7.60720    3.69700    0.00040    2.67930    0.01640    0.01860   -1.09140
 7754.50000   41.60830 1987.41970 1995.22910 1809.03060 -112.31870   52.36200   91.00390    7.60620    3.48470    0.00190    2.67160    0.01870    0.01870   -1.02660
 7755.00000   40.88920 1988.03040 1993.16860 1782.03500 -112.08230   52.22750   90.71300    7.60510    3.27230    0.00460    2.66250    0.02520    0.01870   -0.97960
 7755.50000   38.39430 1988.64110 1991.11020 1779.80580 -111.82090   52.08870   90.27890    7.60410    3.10520    0.00520    2.65480    0.03110    0.01900   -1.68300
 7756.00000   35.22980 1989.25180 1988.79500 1803.00420 -111.57190   51.95420   89.84030    7.60300    3.05920    0.00580    2.65320    0.03210    0.02000   -1.61820
 7756.50000   34.07420 1989.86250 1986.74120 1826.50670 -111.03660   52.43410   89.70160    7.60200    3.19370    0.00340    2.65460    0.03150    0.02120   -1.57500
 7757.00000   35.15070 1990.47310 1950.37570 1824.61570 -110.78630   53.51920   89.72410    7.60090    3.33600   -0.00050    2.65450    0.03210    0.02280   -1.52110
 7757.50000   38.45930 1991.08390 1784.82240 1735.64560 -110.23920   53.53720   89.74220    7.59980    3.03310   -0.00220    2.65140    0.03310    0.02400   -1.46940
 7758.00000   42.44810 1991.69460 1445.30960 1405.70780 -109.69190   53.55530   88.84690    7.59880    2.77550   -0.00160    2.64900    0.03430    0.02410   -1.41670
 7758.50000   45.10970 1992.30530 1178.59830 1046.84420 -109.14400   53.42090   88.56010    7.60050    2.74420   -0.00020    2.65050    0.03500    0.02320   -1.35910
 7759.00000   45.93000 1992.91600  865.32340  954.87940 -108.59620   53.13410   88.42620    7.64220    2.72050    0.00050    2.65110    0.03440    0.02230   -1.31120
