~Version ---------------------------------------------------
VERS.   2.0 : CWLS log ASCII Standard -VERSION 2.0
WRAP.    NO : One line per depth step
DLM . SPACE : Column Data Section Delimiter
~Well ------------------------------------------------------
STRT .F                  630.0 : START DEPTH
STOP .F                 7987.0 : STOP DEPTH
STEP .F                    0.5 : STEP
NULL .                -9999.25 : NULL VALUE
COMP .                         : COMPANY
WELL .                         : WELL
FLD  .                         : FIELD
LOC  .                         : LOCATION
PROV .                         : PROVINCE
CNTY .                         : COUNTY
STAT .                         : STATE
CTRY .                         : COUNTRY
SRVC .                         : SERVICE COMPANY
DATE .                         : DATE
UWI  .                         : UNIQUE WELL ID
API  .                         : API NUMBER
SLAT .WGS84 6.5264798795757955 : SURFACE LATITUDE
SLON .WGS84 3.0229995374809278 : SURFACE LONGITUDE
DATUM.F                 1210.7 : DEPTH DATUM ELEV
~Curve Information -----------------------------------------
DEPT.F     : 
GRR .GAPI  : GAMMA RAY
ILD .OHMM  : INDUCTION LOG DEEP
ILM .OHMM  : INDUCTION LOG MEDIUM
SFLU.OHMM  : SPHERICALLY FOCUSED LOG UNAVERAGED RESISTIVITY
SPR .MV    : SPONTANEOUS POTENTIAL
DTCO.US/F  : COMPRESSIONAL-WAVE INTERVAL TRANSIT TIME ACAUSTIC SLOWNESS
DTSM.US/F  : SHEAR-WAVE INTERVAL TRANSIT TIME DELTA-T
CALD.IN    : CALIPER FROM DENSITY LOG
PEF .B/E   : PHOTOELECTRIC FACTOR
DRHO.G/C3  : DENSITY CORRECTION
RHOB.G/C3  : BULK DENSITY
DPHI.DEC   : DENSITY POROSITY LIMESTONE
NPHI.DEC   : NEUTRON POROSITY LIMESTONE
CILD.MMHO  : CONDUCTIVITY INDUCTION LOG DEEP
~Params ----------------------------------------------------
~Other -----------------------------------------------------
~ASCII -----------------------------------------------------
# ...
 6485.50000   94.66050    6.96770    7.21720   10.42490   -4.49870   72.41740  138.38100    8.98390    3.42460    0.06710    2.59450    0.05730    0.24370  138.63640
 6486.00000   89.70350    7.54070    6.31060    8.86430   -5.44480   72.74480  137.94830    8.95260    3.29420    0.07230    2.50350    0.11430    0.28260  136.69760
 6486.50000   86.30900    8.42300    6.04490    8.61020   -6.11390   71.54790  128.23310    8.89080    3.20600    0.07520    2.42700    0.15980    0.25590  130.44210
 6487.00000   83.58420    9.54110    8.39060   11.70550   -7.03880   62.27160  118.06120    8.78320    3.52270    0.07440    2.42080    0.17630    0.17120  121.21210
 6487.50000   73.27010   10.88360   13.11810   16.83060   -7.68660   52.08080  108.64830    8.64500    4.43020    0.07200    2.49710    0.12210    0.13230  111.74240
 6488.00000   57.56810   12.41480   19.66580   25.41580   -8.04570   46.74470   94.51710    8.52060    5.33760    0.06200    2.60070    0.01580    0.03620   99.08900
 6488.50000   45.17930   14.06290   23.56620   77.86320   -8.38180   46.33330   93.92630    8.34850    5.29120    0.04670    2.70210    0.00150    0.01630   87.87880
 6489.00000   44.78310   16.15400   25.07240  180.25460   -8.13350   46.53330   92.89080    8.27630    5.10100    0.03200    2.70950   -0.00020    0.01790   79.73720
 6489.50000   52.31460   18.04430   25.93840  190.43940   -8.19610   47.60350   90.77790    8.27540    4.87290    0.01510    2.70640   -0.00090    0.02850   66.66670
 6490.00000   57.40220   21.76740   25.73080  132.19780   -8.24630   48.84560   94.12980    8.27470    4.51610    0.00300    2.69420    0.01080    0.05780   53.01590
 6490.50000   61.37380   21.73830   21.42770   87.90240   -8.29650   50.54500  100.57710    8.27390    4.09130   -0.00010    2.67510    0.02140    0.09790   42.68190
 6491.00000   64.67580   19.41300   14.97990   45.15170   -8.34670   52.24440  105.01510    8.24260    3.86320    0.00140    2.64400    0.04020    0.12110   41.54560
 6491.50000   66.86170   15.94100   13.00970   24.35170   -8.39680   56.07790  111.43180    8.22660    3.58970    0.01040    2.61960    0.05850    0.14330   43.46900
 6492.00000   68.37790   13.55570   11.86600   17.13850   -8.44700   60.06390  118.91400    8.21060    3.41460    0.01860    2.60890    0.05370    0.15250   48.84500
 6492.50000   69.89410   11.68970   10.97540   16.07430   -8.49720   63.44010  122.43870    8.17930    3.31520    0.02230    2.61560    0.05100    0.16770   63.63640
 6493.00000   71.63360   10.01030   10.15160   15.61350   -8.54730   65.13950  123.98480    8.14800    3.34450    0.02290    2.61780    0.05410    0.17050   82.13170
 6493.50000   72.26860    9.12910    9.25910   15.27250   -8.89600   66.38160  124.76980    8.11670    3.53280    0.01900    2.61460    0.05600    0.16110   98.48480
 6494.00000   67.07680   10.59710   10.05990   14.22420   -9.24460   66.70900  124.64160    8.08540    3.85730    0.01890    2.62220    0.03470    0.10400   97.63620
 6494.50000   50.28950   12.51830   12.61830   17.53150   -9.89180   66.27430  121.77360    8.03890    4.46200    0.02480    2.65400    0.02010    0.06000   93.39760
 6495.00000   31.27000   14.42580   15.17090   23.66750  -10.53900   64.31520  115.86160    7.97710    4.76380    0.02390    2.68540    0.00890    0.03570   85.60610
 6495.50000   26.08980   16.68720   17.01120   38.33320  -11.18620   61.89870  109.49290    7.90000    4.90660    0.01400    2.70120    0.00310    0.02990   79.02760
 6496.00000   23.36500   19.85070   20.30820   58.29350  -11.83340   58.26270  103.58080    7.83820    4.67100    0.00780    2.70340    0.00500    0.02720   70.97240
 6496.50000   25.32770   26.78180   25.02690   62.89490  -12.48300   55.08410  100.56060    7.83740    4.39580    0.00390    2.69950    0.00480    0.02250   60.15300
 6497.00000   25.05540   32.99280   29.57370   66.91560  -13.42680   54.49690  100.12800    7.86740    4.25050    0.00150    2.70010    0.00420    0.01680   50.36620
 6497.50000   24.10330   37.24030   38.00820   72.34790  -14.10420   54.51980   99.22930    7.89700    4.15330   -0.00020    2.70530    0.00240    0.01740   40.15150
 6498.00000   24.37440   45.87160   43.98010   98.64350  -15.36300   54.54270   97.85020    7.87910    4.23920   -0.00100    2.70220    0.00190    0.01780   30.51040
 6498.50000   27.93570   51.58410   48.79770  108.90870  -16.57430   54.41400   96.82880    7.83440    4.27250   -0.00040    2.69450    0.00910    0.01750   20.78600
 6499.00000   30.66520   55.62870   52.28100   90.65560  -17.52000   53.21710   95.96820    7.80290    4.21070    0.00020    2.68830    0.01450    0.01720   17.42420
 6499.50000   31.07690   57.92380   54.46670   75.48190  -19.06270   52.78200   95.68180    7.78690    4.11890    0.00160    2.68590    0.01480    0.01610   16.37900
 6500.00000   29.53750   59.07350   59.36480   79.74810  -20.30690   52.65240   96.43060    7.80280    4.06590    0.00230    2.68910    0.01360    0.01340   15.90910
 6500.50000   29.71310   59.40970   67.97180   97.61390  -21.25250   53.12770   96.00990    7.83120    4.02620    0.00460    2.69510    0.01000    0.00980   15.90910
 6501.00000   29.85140   59.74790   72.80400  111.40000  -22.88900   53.75400   94.33170    7.86100    4.17610    0.00580    2.69840    0.00730    0.01010   15.90910
 6501.50000   30.71400   59.25410   75.82700  129.83270  -24.73280   51.94130   93.15960    7.86020    4.30360    0.00490    2.69750    0.00730    0.01290   15.90910
 6502.00000   31.76080   59.17650   69.14200  136.25770  -25.97880   50.86980   92.74770    7.89000    4.17370    0.00180    2.68910    0.01070    0.01710   15.90910
 6502.50000   32.38080   58.27870   62.60670  127.77850  -27.22480   51.66960   92.92100    7.91980    3.99080   -0.00060    2.67910    0.01680    0.01990   15.90910
 6503.00000   33.23390   58.20230   56.29360   97.82440  -28.76960   52.14340   92.63760    7.93430    3.88360   -0.00150    2.67290    0.02200    0.02000   15.90910
 6503.50000   34.97990   58.53360   55.82790   71.81010  -29.71670   52.77220   93.42490    7.96430    3.80670   -0.00010    2.66980    0.02300    0.01810   15.90910
 6504.00000   36.72590   58.86690   57.33770   60.22160  -30.96270   53.54880   94.51140    7.99390    3.85850    0.00050    2.67120    0.02240    0.01510   15.15150
 6504.50000   37.14260   59.20200   58.88850   67.48410  -31.90970   52.80290   95.29350    8.03890    4.19040    0.00040    2.67340    0.02090    0.01300   14.39390
 6505.00000   33.29830   59.12450   60.90590   92.68170  -32.25880   52.66700   96.07550    8.08400    4.43900    0.00110    2.67880    0.01850    0.01280   14.39390
 6505.50000   31.47290   59.46100   62.11690  142.40120  -33.20580   52.23040   96.70540    8.13000    4.94500    0.00090    2.68360    0.01670    0.01280   14.39390
 6506.00000   32.77240   59.38310   62.89970  183.94610  -34.45180   50.87500   97.33700    8.17800    5.05140    0.00080    2.68650    0.01550    0.01310   14.39390
 6506.50000   33.84880   58.48220   62.59840  172.54110  -35.40740   49.97280   97.66240    8.26470    4.91230    0.00070    2.68930    0.01280    0.01530   15.05670
 6507.00000   34.47870   57.19380   60.15540  157.37210  -36.07150   49.68440   98.14010    8.32510    4.77490    0.00130    2.69300    0.00910    0.01870   16.71230
 6507.50000   34.67210   54.38450   57.19510  141.53990  -36.69650   49.70520   98.76990    8.40060    4.65170    0.00200    2.69590    0.00920    0.02390   18.18180
 6508.00000   33.28320   49.77670   52.88780  121.20980  -37.10280   49.56710   99.24760    8.44570    4.55170    0.00180    2.68440    0.01350    0.02940   19.40450
 6508.50000   31.45780   41.45850   44.34030  101.64140  -38.00360   50.04180   99.87740    8.49070    4.56030    0.00250    2.66990    0.02390    0.03520   21.96970
 6509.00000   30.07880   35.24790   38.22970   87.65390  -38.65160   50.82050  100.05070    8.55110    4.82200    0.00160    2.65760    0.02970    0.03670   24.32280
 6509.50000   28.69980   32.02560   32.50300   72.98980  -39.89760   51.29440  100.07170    8.62660    5.06380    0.00070    2.64460    0.03970    0.03460   28.70160
