~Version ---------------------------------------------------
VERS.   2.0 : CWLS log ASCII Standard -VERSION 2.0
WRAP.    NO : One line per depth step
DLM . SPACE : Column Data Section Delimiter
~Well ------------------------------------------------------
STRT .F                  630.0 : START DEPTH
STOP .F                 7987.0 : STOP DEPTH
STEP .F                    0.5 : STEP
NULL .                -9999.25 : NULL VALUE
COMP .                         : COMPANY
WELL .                         : WELL
FLD  .                         : FIELD
LOC  .                         : LOCATION
PROV .                         : PROVINCE
CNTY .                         : COUNTY
STAT .                         : STATE
CTRY .                         : COUNTRY
SRVC .                         : SERVICE COMPANY
DATE .                         : DATE
UWI  .                         : UNIQUE WELL ID
API  .                         : API NUMBER
SLAT .WGS84 6.5264798795757955 : SURFACE LATITUDE
SLON .WGS84 3.0229995374809278 : SURFACE LONGITUDE
DATUM.F                 1210.7 : DEPTH DATUM ELEV
~Curve Information -----------------------------------------
DEPT.F     : 
GRR .GAPI  : GAMMA RAY
ILD .OHMM  : INDUCTION LOG DEEP
ILM .OHMM  : INDUCTION LOG MEDIUM
SFLU.OHMM  : SPHERICALLY FOCUSED LOG UNAVERAGED RESISTIVITY
SPR .MV    : SPONTANEOUS POTENTIAL
DTCO.US/F  : COMPRESSIONAL-WAVE INTERVAL TRANSIT TIME ACAUSTIC SLOWNESS
DTSM.US/F  : SHEAR-WAVE INTERVAL TRANSIT TIME DELTA-T
CALD.IN    : CALIPER FROM DENSITY LOG
PEF .B/E   : PHOTOELECTRIC FACTOR
DRHO.G/C3  : DENSITY CORRECTION
RHOB.G/C3  : BULK DENSITY
DPHI.DEC   : DENSITY POROSITY LIMESTONE
NPHI.DEC   : NEUTRON POROSITY LIMESTONE
CILD.MMHO  : CONDUCTIVITY INDUCTION LOG DEEP
~Params ----------------------------------------------------
~Other -----------------------------------------------------
~ASCII -----------------------------------------------------
# ...
 7024.50000   29.72510   12.53620   19.81410   87.65240   -5.84790   55.28170   99.26830    7.73900    4.04400   -0.00440    2.70130    0.00550    0.08840   80.21210
 7025.00000   35.93590   12.78780   14.95860  137.03040   -5.89770   58.03790  104.15850    7.73780    3.71010   -0.00760    2.68530    0.01590    0.12430   73.67250
 7025.50000   45.49490   13.50830   13.83410  103.45710   -5.94740   60.03310  108.74430    7.73660    3.58040   -0.00840    2.65490    0.03030    0.16450   67.43180
 7026.00000   56.86080   14.47020   14.71650   53.52670   -5.99720   61.57170  112.11250    7.73540    3.76840   -0.00310    2.63590    0.04310    0.19500   59.25750
 7026.50000   57.47000   15.28540   15.87580   26.74130   -6.04690   63.71910  114.11070    7.74950    4.00930    0.00340    2.63280    0.04040    0.18410   56.21590
 7027.00000   42.46560   15.16240   17.06680   22.74660   -6.09670   66.17090  117.47890    7.76320    4.09170    0.00860    2.64470    0.03590    0.15460   57.49880
 7027.50000   40.41740   13.03310   13.02140   25.58540   -6.14640   67.10060  120.54260    7.76200    3.60620    0.01070    2.64920    0.04450    0.11540   75.13160
 7028.00000   43.94960   11.92840   10.39270   25.74770   -6.79400   66.81270  123.14970    7.77630    3.31010    0.00980    2.60740    0.06860    0.07040   86.81680
 7028.50000   57.52640   11.91340   10.09410   16.89310   -7.14280   67.93300  120.88620    7.77480    3.34680    0.01200    2.58160    0.07100    0.05160   87.98930
 7029.00000   63.29080   12.23770   10.96580   13.37170   -7.49180   69.97940  117.70940    7.75840    3.39100    0.01490    2.61930    0.05250    0.05800   83.42990
 7029.50000   61.01940   12.65900   13.60690   14.69240   -8.17490   70.51510  113.61950    7.72670    3.40510    0.01170    2.64260    0.03640    0.06930   78.06470
 7030.00000   56.29270   13.09480   20.25390   35.34690   -9.39710   65.05630  109.68170    7.71030    3.06470    0.00940    2.65390    0.03460    0.08180   72.04520
 7030.50000   53.79810   13.73630   23.02700   73.11130  -10.04470   61.72420  104.98290    7.70910    2.71440    0.00920    2.61010    0.06450    0.09390   65.12480
 7031.00000   54.20530   15.13150   23.24080   84.59380  -10.69240   59.60980  102.11050    7.70790    2.66030    0.01060    2.55470    0.08710    0.10080   57.42980
 7031.50000   53.67950   17.75040   23.54110   77.69420  -11.04110   60.08290  102.73890    7.70670    2.57600    0.01130    2.53020    0.10570    0.10380   50.79810
 7032.00000   50.54560   21.41290   24.52230   59.48540  -11.09080   63.44800  105.19380    7.70550    2.46140    0.00810    2.51570    0.11090    0.11270   45.69740
 7032.50000   47.38140   24.42660   25.36620   50.58550  -11.43950   66.66080  107.64870    7.70430    2.39220    0.00650    2.50190    0.11580    0.12030   40.87170
 7033.00000   43.32430   24.74330   25.51470   43.92980  -11.48930   68.35160  108.73380    7.71830    2.39970    0.00480    2.48900    0.12710    0.12470   39.39940
 7033.50000   39.93680   24.11600   25.66040   38.14990  -11.53900   69.43360  108.59940    7.71710    2.50750    0.00240    2.48130    0.13420    0.12320   39.14880
 7034.00000   37.66550   23.50740   25.90140   33.13040  -11.58880   70.66770  106.27080    7.71560    2.72140    0.00010    2.47970    0.13450    0.11590   38.62080
 7034.50000   35.17090   24.14400   27.84000   33.32660  -11.63850   69.77100  100.16870    7.71440    2.96990   -0.00010    2.48410    0.13230    0.09380   38.60990
 7035.00000   32.45310   24.28670   31.98570   39.56080  -11.38930   67.35210   97.12230    7.71320    3.21840    0.00210    2.50360    0.12310    0.06860   39.63410
 7035.50000   29.95850   24.09120   37.00690   59.32950  -11.73800   64.47670   93.10050    7.72760    3.49720    0.00880    2.54060    0.09430    0.05890   43.88880
 7036.00000   29.01790   23.40150   40.20250   93.56030  -11.48880   62.21010   90.74360    7.74130    3.75330    0.01620    2.58580    0.06610    0.05460   44.95930
 7036.50000   31.93860   23.05150   40.15600  112.89700  -10.95310   60.23370   91.06760    7.74010    3.80540    0.02590    2.62430    0.05030    0.06470   46.14050
 7037.00000   34.63080   22.23560   33.20320   95.33630  -10.69140   60.33010   99.76300    7.73890    3.77370    0.03560    2.63330    0.04460    0.08880   45.62090
 7037.50000   37.38100   21.59900   24.54580   63.45850   -9.85670   63.17350  108.61060    7.73770    3.60620    0.04530    2.62410    0.05110    0.10740   44.60230
 7038.00000   44.48470   21.27590   21.31400   37.76510   -9.00960   66.23760  118.52410    7.73650    3.48400    0.04670    2.60100    0.06310    0.10260   44.59030
 7038.50000   51.36510   20.23810   20.62730   20.52000   -8.16250   67.46760  124.93300    7.75050    3.67200    0.04660    2.60790    0.06450    0.08250   43.82200
 7039.00000   50.65620   18.52530   19.68420   23.90950   -7.31540   63.68310  121.89840    7.74940    3.86000    0.04950    2.67510    0.03320    0.06610   45.04360
 7039.50000   47.49200   16.37410   18.33240   30.51240   -6.76530   62.32970  117.75000    7.76340    3.92700    0.05310    2.69540    0.01070    0.08530   56.67650
 7040.00000   45.44380   13.82740   16.14370   39.48780   -5.62120   61.28070  114.34180    7.85370    3.79730    0.03340    2.68850    0.02020    0.12400   72.56850
 7040.50000   45.36800   10.81540   13.07120   37.24150   -4.76830   60.38400  113.29600    7.99070    3.70540    0.02950    2.55900    0.07780    0.16390   92.54660
 7041.00000   47.15110    8.63870   10.00720   22.87790   -3.89600   59.33500  112.09790    8.03420    3.69570    0.04120    2.49160    0.12320    0.19470  113.41530
 7041.50000   49.36520    7.14550    7.82390    9.91130   -2.79330   61.63460  113.18290    8.07840    3.65750    0.06320    2.51340    0.12720    0.21510  137.31380
 7042.00000   55.12500    5.99360    6.56040    7.17530   -1.94620   66.06510  120.35620    8.12300    3.58070    0.08200    2.56470    0.08830    0.23240  159.65070
 7042.50000   61.75570    5.24260    5.31180    6.01690   -1.39800   73.53980  129.25090    8.15250    3.61740    0.09020    2.58430    0.07550    0.25170  183.25690
 7043.00000   64.61830    4.84940    4.77640    5.33610   -1.13640   78.27470  143.14580    8.19710    3.69950    0.08400    2.58950    0.07100    0.25290  211.89310
 7043.50000   65.03530    4.51710    4.41660    5.25620   -0.58820   80.11770  150.63850    8.22640    3.76650    0.07860    2.58780    0.07130    0.24960  235.37320
 7044.00000   63.42370    4.26690    4.25970    5.28880   -0.35140   81.50400  152.60450    8.25560    3.80350    0.07550    2.57940    0.07410    0.24710  249.45550
 7044.50000   61.37560    4.03050    4.16640    5.39360   -0.08980   81.97710  153.63700    8.26970    3.60540    0.07990    2.57170    0.08020    0.24240  264.14010
 7045.00000   59.99710    3.83340    4.07510    5.54210    0.15940   81.04990  151.52570    8.26820    3.52110    0.08960    2.57310    0.07940    0.23570  269.89930
 7045.50000   59.73460    3.69760    4.04200    5.57360    0.09720   79.87930  150.47980    8.26700    3.49730    0.09550    2.57830    0.07600    0.23640  271.11570
 7046.00000   60.36500    3.69310    4.03730    5.48990    0.34650   80.25770  150.03790    8.26580    3.49620    0.09770    2.57960    0.07390    0.24520  271.68180
 7046.50000   61.44190    3.71490    3.97660    5.22170    0.29600   79.76420  149.90530    8.26460    3.48750    0.09450    2.56740    0.07980    0.25500  271.30600
 7047.00000   62.53740    3.76310    3.94430    5.06140    0.54590   79.16770  149.62530    8.26340    3.45610    0.08530    2.56050    0.08830    0.26110  270.82350
 7047.50000   63.58580    3.78530    3.93910    4.85680    0.48370   80.10160  144.78310    8.26220    3.45500    0.07760    2.55660    0.08960    0.26030  269.37310
 7048.00000   64.43940    3.78120    3.93460    4.68460    0.74540   81.64010  129.57320    8.26100    3.49980    0.06670    2.55500    0.08930    0.25210  267.58590
 7048.50000   63.95370    3.80350    3.92950    4.64690    0.68320   81.95690  115.89410    8.25980    3.53700    0.05750    2.56310    0.08750    0.24090  264.80660
