~Version ---------------------------------------------------
VERS.   2.0 : CWLS log ASCII Standard -VERSION 2.0
WRAP.    NO : One line per depth step
DLM . SPACE : Column Data Section Delimiter
~Well ------------------------------------------------------
STRT .F                  630.0 : START DEPTH
STOP .F                 7987.0 : STOP DEPTH
STEP .F                    0.5 : STEP
NULL .                -9999.25 : NULL VALUE
COMP .                         : COMPANY
WELL .                         : WELL
FLD  .                         : FIELD
LOC  .                         : LOCATION
PROV .                         : PROVINCE
CNTY .                         : COUNTY
STAT .                         : STATE
CTRY .                         : COUNTRY
SRVC .                         : SERVICE COMPANY
DATE .                         : DATE
UWI  .                         : UNIQUE WELL ID
API  .                         : API NUMBER
SLAT .WGS84 6.5264798795757955 : SURFACE LATITUDE
SLON .WGS84 3.0229995374809278 : SURFACE LONGITUDE
DATUM.F                 1210.7 : DEPTH DATUM ELEV
~Curve Information -----------------------------------------
DEPT.F     : 
GRR .GAPI  : GAMMA RAY
ILD .OHMM  : INDUCTION LOG DEEP
ILM .OHMM  : INDUCTION LOG MEDIUM
SFLU.OHMM  : SPHERICALLY FOCUSED LOG UNAVERAGED RESISTIVITY
SPR .MV    : SPONTANEOUS POTENTIAL
DTCO.US/F  : COMPRESSIONAL-WAVE INTERVAL TRANSIT TIME ACAUSTIC SLOWNESS
DTSM.US/F  : SHEAR-WAVE INTERVAL TRANSIT TIME DELTA-T
CALD.IN    : CALIPER FROM DENSITY LOG
PEF .B/E   : PHOTOELECTRIC FACTOR
DRHO.G/C3  : DENSITY CORRECTION
RHOB.G/C3  : BULK DENSITY
DPHI.DEC   : DENSITY POROSITY LIMESTONE
NPHI.DEC   : NEUTRON POROSITY LIMESTONE
CILD.MMHO  : CONDUCTIVITY INDUCTION LOG DEEP
~Params ----------------------------------------------------
~Other -----------------------------------------------------
~ASCII -----------------------------------------------------
# ...
 7857.50000   46.68770  112.04760  114.86150   99.15470  -46.29980   55.26240   91.16000    7.56820    2.55530    0.00820    2.63050    0.04560    0.05760    9.83420
 7858.00000   46.63550  111.92470   99.05940   91.06660  -46.05380   55.89310   90.87650    7.56710    2.57710    0.00360    2.63190    0.04500    0.05470    9.88960
 7858.50000   44.80800  114.97090   88.47370   82.47660  -46.12000   56.21900   90.74000    7.55070    2.55290    0.00040    2.63330    0.04360    0.04470    9.93970
 7859.00000   43.20370  124.02090   82.68690   79.57260  -46.17300   55.02040   90.30440    7.54950    2.52150    0.00030    2.63550    0.04300    0.03590    9.99250
 7859.50000   38.47440  135.66610   81.73830   88.24440  -45.92530   54.27400   89.56950    7.54840    2.47510    0.00250    2.63840    0.04300    0.02770   10.05240
 7860.00000   31.95940  147.37120  101.49970  111.02140  -45.97990   54.60510   89.13380    7.54730    2.41350    0.00840    2.62310    0.04610    0.02380   10.09800
 7860.50000   31.03520  158.97160  114.13620  133.93790  -46.03290   54.93090   88.69290    7.54590    2.34440    0.01660    2.61920    0.05320    0.02570    9.38170
 7861.00000   33.66150  158.79700  112.41880  156.03220  -45.78700   54.49460   89.48010    7.54480    2.26770    0.02630    2.62290    0.05170    0.03180    8.21420
 7861.50000   35.85190  147.91620  113.09140  160.72420  -45.84160   54.21040   88.89220    7.54360    2.21370    0.03970    2.62880    0.04780    0.03670    7.23350
 7862.00000   37.81900  139.72030  127.24830  151.37350  -45.89540   54.23170   89.06790    7.54250    2.19740    0.04940    2.62720    0.04600    0.04070    6.54500
 7862.50000   36.88440  141.51170  192.10290  144.98340  -45.64690   54.25300   89.54330    7.54140    2.20380    0.05680    2.62030    0.04910    0.04140    6.59380
 7863.00000   35.94980  146.89580  350.33450  145.96590  -45.71310   54.42690   89.71690    7.54030    2.22600    0.06580    2.61640    0.05280    0.04050    6.64650
 7863.50000   34.56870  152.48680  893.98180  152.17730  -45.45390   53.99490   89.74230    7.53910    2.30190    0.07020    2.61930    0.05370    0.03900    6.70780
 7864.00000   33.40810  157.71010 1712.19950  161.53380  -45.52010   52.79640   89.60580    7.55350    2.37730    0.06930    2.62610    0.05190    0.03810    6.75210
 7864.50000   32.01230  162.00260 1953.69150  169.44000  -45.26090   52.50730   89.63190    7.55210    2.46290    0.06550    2.63050    0.04950    0.03790    6.80550
 7865.00000   30.14220  167.57880 1938.06070  163.42620  -45.32710   52.83830   89.65290    7.56650    2.52960    0.05260    2.63100    0.04620    0.03860    6.85750
 7865.50000   27.91790  174.56260 1169.69560  141.92860  -45.06790   53.31670   89.82600    7.56510    2.57370    0.03140    2.61880    0.04960    0.03950    7.66390
 7866.00000   26.09040  178.06510  157.87840  125.87210  -44.53620   54.09980   89.23810    7.56400    2.61020    0.01550    2.60650    0.05570    0.04140    7.72190
 7866.50000   27.38790  182.91150  115.91380  118.05570  -44.27700   54.73050   88.34590    7.56180    2.61690    0.01230    2.60040    0.06190    0.04270    8.86940
 7867.00000   31.81040  173.98820  106.46620  117.09600  -43.44630   54.75150   88.36680    7.56170    2.58520    0.01380    2.59950    0.06310    0.04390   10.14370
 7867.50000   37.12580  156.50160   97.77850  120.27710  -42.30350   54.77250   88.38770    7.56060    2.51610    0.01670    2.60020    0.06350    0.04400   12.40620
 7868.00000   41.99470  130.35690   93.98720  122.68360  -41.75790   54.64020   88.56090    7.55950    2.48470    0.01960    2.60000    0.06350    0.04430   13.44360
 7868.50000   41.28330  107.82380   94.21850  123.43630  -40.61570   54.50920   88.73400    7.55830    2.50620    0.02180    2.60290    0.06350    0.04650   14.76460
 7869.00000   40.35910   91.71380   94.76990  121.54400  -39.75030   55.29270   89.21160    7.55690    2.55780    0.02470    2.61280    0.06020    0.05660   15.99110
 7869.50000   43.87830   77.46760   94.67200  118.88150  -38.88840   56.09560   89.54690    7.55580    2.61700    0.02900    2.64110    0.04320    0.06630   16.37520
 7870.00000   47.85430   72.91040   94.57410   90.39730  -38.09730   56.70730   90.34010    7.55470    2.64630    0.03190    2.66690    0.02920    0.06760   17.18810
 7870.50000   49.59830   70.82260   93.81740   73.07330  -37.53910   56.88530   90.80170    7.55360    2.50140    0.03330    2.66900    0.02320    0.06610   17.23440
 7871.00000   47.10110   68.54500   91.77310   63.51330  -36.69520   56.90630   91.58370    7.55240    2.40960    0.03250    2.65450    0.03140    0.05950   17.28710
 7871.50000   43.71120   67.51940   89.77350   67.13390  -35.86460   56.76960   91.90910    7.55130    2.34810    0.03010    2.64380    0.04150    0.05530   17.33980
 7872.00000   40.54440   66.50910   87.20490   77.66330  -35.02070   56.79580   90.40790    7.56570    2.33180    0.02320    2.63840    0.04160    0.05410   17.60330
 7872.50000   38.93180   65.51410   84.11900   80.92040  -34.46250   56.65900   90.58110    7.56430    2.37030    0.01260    2.64130    0.04010    0.05810   18.20220
 7873.00000   38.20730   64.98640   81.14220   76.94180  -33.91760   57.14260   90.90650    7.59370    2.45950    0.00870    2.64650    0.03740    0.06300   18.25170
 7873.50000   38.70080   63.12560   76.64460   67.76180  -33.08690   58.99280   91.07960    7.60810    2.51950    0.00780    2.65020    0.03530    0.06730   18.40950
 7874.00000   40.81320   61.31810   71.89140   61.37000  -32.54200   60.08090   90.94830    7.62220    2.56100    0.00700    2.65150    0.03470    0.06920   19.11860
 7874.50000   43.00360   59.56230   68.86380   59.60730  -31.69810   58.12020   91.27370    7.63610    2.55950    0.00690    2.64890    0.03710    0.07010   19.44970
 7875.00000   44.97070   58.26260   65.50360   59.53770  -31.15100   56.92160   92.66450    7.65010    2.52060    0.00600    2.63550    0.04230    0.06990   19.96980
 7875.50000   46.26820   58.19860   62.74490   59.90290  -30.30930   56.18040   92.68540    7.64900    2.45140    0.00590    2.61330    0.05470    0.06900   20.77620
 7876.00000   46.90650   58.13470   59.05270   60.67570  -29.46540   56.04880   93.01080    7.63260    2.41250    0.00580    2.60340    0.05900    0.06780   21.76250
 7876.50000   43.28290   55.68630   57.56390   60.58700  -28.61470   56.07680   93.18410    7.61480    2.41920    0.00490    2.60760    0.05870    0.06760   23.14700
 7877.00000   41.45540   52.59480   55.52830   60.51630  -27.77760   56.73610   93.20550    7.59760    2.44790    0.00480    2.61500    0.05570    0.06790   23.94880
 7877.50000   40.29750   50.20320   51.71340   57.15660  -27.19060   58.81600   92.92140    7.58320    2.50710    0.00470    2.61820    0.05330    0.06830   24.83030
 7878.00000   41.37180   48.09130   48.50630   50.26960  -26.10310   59.79140   94.31570    7.58210    2.52880    0.00310    2.61570    0.05420    0.06930   26.32410
 7878.50000   43.78540   44.63120   44.55270   45.14600  -25.25920   58.75050   94.64110    7.58100    2.54240    0.00300    2.61580    0.05490    0.07080   27.12140
 7879.00000   46.19890   42.45380   37.88930   41.85800  -24.41530   58.77150   94.35760    7.57990    2.56390    0.00370    2.62380    0.05100    0.07330   27.17540
 7879.50000   49.05900   40.66590   36.80520   40.94110  -23.57140   58.79240   93.46530    7.57870    2.58530    0.00510    2.63730    0.04400    0.08060   27.22680
 7880.00000   44.99930   40.05750   37.54730   40.62010  -22.72760   58.96590   92.72520    7.57760    2.59920    0.00720    2.64630    0.04010    0.08010   28.03320
 7880.50000   43.61830   39.45810   39.66850   42.29890  -22.16940   59.29170   92.44140    7.57650    2.61310    0.00710    2.64920    0.03800    0.07400   28.09170
 7881.00000   44.72650   39.14030   39.62750   44.68060  -21.62450   59.46520   92.31050    7.57530    2.58930    0.00620    2.64980    0.03590    0.06680   28.47010
 7881.50000   48.10010   38.82510   39.31040   45.58800  -21.07950   59.79100   92.95210    7.57420    2.61870    0.00540    2.64210    0.03810    0.06590   29.69860
