~Version ---------------------------------------------------
VERS.   2.0 : CWLS log ASCII Standard -VERSION 2.0
WRAP.    NO : One line per depth step
DLM . SPACE : Column Data Section Delimiter
~Well ------------------------------------------------------
STRT .F                  630.0 : START DEPTH
STOP .F                 7987.0 : STOP DEPTH
STEP .F                    0.5 : STEP
NULL .                -9999.25 : NULL VALUE
COMP .                         : COMPANY
WELL .                         : WELL
FLD  .                         : FIELD
LOC  .                         : LOCATION
PROV .                         : PROVINCE
CNTY .                         : COUNTY
STAT .                         : STATE
CTRY .                         : COUNTRY
SRVC .                         : SERVICE COMPANY
DATE .                         : DATE
UWI  .                         : UNIQUE WELL ID
API  .                         : API NUMBER
SLAT .WGS84 6.5264798795757955 : SURFACE LATITUDE
SLON .WGS84 3.0229995374809278 : SURFACE LONGITUDE
DATUM.F                 1210.7 : DEPTH DATUM ELEV
~Curve Information -----------------------------------------
DEPT.F     : 
GRR .GAPI  : GAMMA RAY
ILD .OHMM  : INDUCTION LOG DEEP
ILM .OHMM  : INDUCTION LOG MEDIUM
SFLU.OHMM  : SPHERICALLY FOCUSED LOG UNAVERAGED RESISTIVITY
SPR .MV    : SPONTANEOUS POTENTIAL
DTCO.US/F  : COMPRESSIONAL-WAVE INTERVAL TRANSIT TIME ACAUSTIC SLOWNESS
DTSM.US/F  : SHEAR-WAVE INTERVAL TRANSIT TIME DELTA-T
CALD.IN    : CALIPER FROM DENSITY LOG
PEF .B/E   : PHOTOELECTRIC FACTOR
DRHO.G/C3  : DENSITY CORRECTION
RHOB.G/C3  : BULK DENSITY
DPHI.DEC   : DENSITY POROSITY LIMESTONE
NPHI.DEC   : NEUTRON POROSITY LIMESTONE
CILD.MMHO  : CONDUCTIVITY INDUCTION LOG DEEP
~Params ----------------------------------------------------
~Other -----------------------------------------------------
~ASCII -----------------------------------------------------
# ...
 7441.00000   39.06820  595.72900  511.55240  512.73540  -78.26200   54.00800   93.95240    7.86370    3.62840   -0.00020    2.68360    0.01530    0.01970    0.62220
 7441.50000   37.54300  595.11290  559.58440  545.54170  -78.61690   53.87730   93.52200    7.86260    3.47450    0.00040    2.68200    0.01570    0.01880    0.62880
 7442.00000   37.73490  688.46730  570.81050  588.62910  -78.97180   54.05180   93.54310    7.86150    3.36730    0.00030    2.68410    0.01480    0.01790    0.63640
 7442.50000   39.02210  903.22300  495.75470  626.49910  -79.02840   54.07390   93.56410    7.86050    3.36890    0.00020    2.68630    0.01360    0.01680    0.64540
 7443.00000   40.10680 1128.39830  529.26640  671.59460  -79.08520   54.09610   93.42770    7.85940    3.39830    0.00010    2.68840    0.01240    0.01650    0.65150
 7443.50000   38.71540 1342.41260  572.89260  731.30080  -79.44090   54.12240   93.29650    7.87360    3.40360    0.00000    2.68910    0.01190    0.01660    0.65930
 7444.00000   36.66480 1478.85360  497.50270  833.70470  -79.50840   53.99170   93.17060    7.87260    3.34170   -0.00020    2.68670    0.01340    0.01660    0.22270
 7444.50000   36.17660 1529.85510  483.25630  866.86130  -79.86330   53.85560   92.43050    7.87150    3.31790   -0.00030    2.68050    0.01710    0.01630   -0.08430
 7445.00000   36.35810 1366.60470  524.95010  796.06650  -80.21810   53.88280   92.14190    7.90090    3.30950   -0.00040    2.67590    0.02020    0.01610   -0.07510
 7445.50000   36.55010 1255.37840  524.37230  812.17010  -79.96110   53.74670   92.16820    7.89990    3.33830   -0.00050    2.67570    0.02060    0.01580   -0.06820
 7446.00000   37.83720 1262.87570  465.12280  882.47060  -80.33000   53.77400   92.18920    7.91550    3.37500   -0.00060    2.68020    0.01850    0.01620   -0.06060
 7446.50000   40.92050 1381.54460  398.40190  959.08780  -80.38580   53.79570   93.27570    7.93010    3.39690   -0.00070    2.68310    0.01580    0.01800   -0.80940
 7447.00000   42.88770 1521.96300  358.36010  815.49900  -80.44180   53.66510   93.29680    7.94470    3.42600   -0.00080    2.67920    0.01830    0.01900   -0.80300
 7447.50000   39.72100 1641.87100  453.97090  693.57540  -80.79670   53.68680   92.69900    7.95660    3.44760   -0.00100    2.67300    0.02160    0.01840   -0.79550
 7448.00000   34.71100 1680.66090  905.74270 1025.38170  -82.34730   53.70860   92.10360    7.97080    3.43100   -0.00110    2.67220    0.02200    0.01600   -0.30290
 7448.50000   30.84080 1511.84550 1092.61940 1403.59810  -83.00120   53.73040   91.66050    7.98470    3.36180   -0.00120    2.67520    0.02010    0.01300   -0.02270
 7449.00000   29.77440 1374.37670  780.39560 1729.84390  -83.35600   52.99000   90.95080    7.98360    3.29260   -0.00050    2.67570    0.01930    0.01150   -0.77230
 7449.50000   31.50800 1288.97020  424.42420 1906.07150  -83.41200   51.79220   90.81440    7.98260    3.25370    0.00010    2.67330    0.02150    0.01160   -0.76510
 7450.00000   33.03920 1470.48190  549.05160 2000.00000  -83.77100   51.35670   91.00630    7.98180    3.33110    0.00080    2.67560    0.02250    0.01220   -0.63090
 7450.50000   30.54240 1553.53550  715.38900 1886.25060  -84.71780   51.53270   91.47040    8.00200    3.80550    0.00020    2.67840    0.01860    0.01320    0.00850
 7451.00000   31.44500 1498.74910  990.08510 1680.07520  -85.06680   51.39660   92.10020    8.02070    3.99910   -0.00100    2.68660    0.01280    0.01350    0.01520
 7451.50000   32.95730 1222.64230 1275.57970 1395.58290  -85.11680   51.57630   92.57780    7.97780    3.97480   -0.00190    2.69330    0.00830    0.01450    0.02270
 7452.00000   34.66230 1011.43820 1019.23830 1229.29770  -85.16680   52.05540   92.59870    7.94610    3.79960   -0.00200    2.69690    0.00710    0.01640    0.03170
 7452.50000   36.63380  848.49540  731.40120 1016.72360  -85.21680   53.44910   92.77190    7.92970    3.60920   -0.00060    2.68850    0.00990    0.01730    0.79540
 7453.00000   38.60520  774.06610  468.16870  829.21980  -84.96780   54.23750   92.79290    7.91320    3.44150   -0.00080    2.68080    0.01540    0.01730    0.80320
 7453.50000   43.92490  806.43570  351.22210  777.90530  -85.01940   54.56020   93.11820    7.88150    3.41030   -0.00010    2.67990    0.01910    0.01680    0.81060
 7454.00000   49.46780  939.55070  526.27960  816.23580  -85.08020   54.58230   93.44360    7.86510    3.53730   -0.00030    2.68360    0.02100    0.01650    0.81820
 7454.50000   51.22550  925.61990  514.93760  578.75150  -85.13020   54.60870   93.16020    7.84870    3.62680   -0.00040    2.68350    0.02070    0.01750    0.82640
 7455.00000   49.16970  880.58450  476.41020  520.60960  -84.86880   54.63050   92.26790    7.84750    3.70880   -0.00130    2.67880    0.02040    0.01810    0.83330
 7455.50000   45.11440  846.47090  475.98300  519.72560  -84.93130   54.65230   92.12670    7.84630    3.74530   -0.00220    2.67410    0.02110    0.01910    0.84090
 7456.00000   42.17520  825.21920  535.54360  623.39720  -84.98130   54.67410   92.00540    7.86060    3.64920   -0.00150    2.67630    0.02080    0.01980    0.84970
 7456.50000   41.47750  798.90980  748.30820  835.67370  -84.71980   54.69580   91.87410    7.87430    3.55340   -0.00020    2.68000    0.01780    0.02010    0.85600
 7457.00000   43.88600  746.78130  841.94600  787.48460  -84.48330   54.71760   91.74290    7.87310    3.50700    0.00120    2.68360    0.01480    0.02040    0.86360
 7457.50000   46.30390  681.27420  864.93910  720.00490  -84.53330   54.58150   91.76910    7.88720    3.63410    0.00190    2.68430    0.01460    0.02080    1.35740
 7458.00000   49.16830  621.51400  870.22360  684.97000  -84.88230   54.60870   91.94230    7.88600    3.73110    0.00090    2.68190    0.01740    0.02080    1.63640
 7458.50000   52.03260  591.27410  881.67940  642.58210  -85.53010   54.16780   92.87650    7.88310    3.77520   -0.00140    2.67650    0.02170    0.02050    1.64440
 7459.00000   52.22760  566.45070  880.88870  586.17490  -85.87910   53.88460   91.97890    7.87980    3.91010   -0.00460    2.67100    0.02450    0.01900    1.65150
 7459.50000   49.03990  558.05190  886.17130  553.76290  -86.52700   53.91190   92.30960    7.87640    4.12070   -0.00920    2.66640    0.02640    0.01730    1.65910
 7460.00000   41.51680  557.51540  775.29140  589.23990  -86.57700   53.78050   92.78710    7.87310    4.21770   -0.01010    2.66390    0.02670    0.01700    1.66760
 7460.50000   38.26670  564.81910  598.11410  895.93320  -86.92680   53.80300   93.11250    7.86970    4.00470   -0.00800    2.66300    0.02640    0.02010    1.67420
 7461.00000   41.99320  588.43840  505.30830  953.33150  -87.01690   53.82470   93.13350    7.86640    3.64030   -0.00510    2.66450    0.02590    0.02130    1.68180
 7461.50000   46.21820  604.53700  526.47320  968.11240  -87.33740   53.84670   93.00150    7.86300    3.45000   -0.00220    2.66810    0.02410    0.02170    1.69080
 7462.00000   49.08250  599.75050  560.14540  489.45760  -87.68630   53.91790   93.17540    7.87640    3.35040   -0.00080    2.67180    0.02200    0.02080    1.69700
 7462.50000   49.27770  515.60550  595.97130  422.18040  -87.73630   54.95900   93.80520    7.87490    3.40960   -0.00020    2.67470    0.01930    0.01930    0.94720
 7463.00000   45.88260  481.94920  625.28780  431.96840  -88.08520   54.82770   93.51180    7.87370    3.56270    0.00040    2.67760    0.01720    0.01690    0.95450
 7463.50000   40.71130  516.38590  718.43590  509.56080  -88.13520   53.93550   93.23830    7.88770    3.74480    0.00030    2.68280    0.01330    0.01390    0.96210
 7464.00000   32.19170  597.30450 1010.90100  691.90220  -87.87370   53.04030   93.10700    7.87130    3.95010   -0.00060    2.68950    0.00810    0.01270    0.97040
 7464.50000   28.14570  710.64220 1317.18050 1270.85120  -87.93620   52.60710   92.97580    7.87010    4.06230   -0.00220    2.69620    0.00850    0.01280    0.97730
 7465.00000   30.77750  851.41380 1578.20400 1566.36440  -88.28520   52.62960   93.00200    7.86890    4.09130   -0.00240    2.69840    0.01220    0.01500    0.98480
