~Version ---------------------------------------------------
VERS.   2.0 : CWLS log ASCII Standard -VERSION 2.0
WRAP.    NO : One line per depth step
DLM . SPACE : Column Data Section Delimiter
~Well ------------------------------------------------------
STRT .F                  630.0 : START DEPTH
STOP .F                 7987.0 : STOP DEPTH
STEP .F                    0.5 : STEP
NULL .                -9999.25 : NULL VALUE
COMP .                         : COMPANY
WELL .                         : WELL
FLD  .                         : FIELD
LOC  .                         : LOCATION
PROV .                         : PROVINCE
CNTY .                         : COUNTY
STAT .                         : STATE
CTRY .                         : COUNTRY
SRVC .                         : SERVICE COMPANY
DATE .                         : DATE
UWI  .                         : UNIQUE WELL ID
API  .                         : API NUMBER
SLAT .WGS84 6.5264798795757955 : SURFACE LATITUDE
SLON .WGS84 3.0229995374809278 : SURFACE LONGITUDE
DATUM.F                 1210.7 : DEPTH DATUM ELEV
~Curve Information -----------------------------------------
DEPT.F     : 
GRR .GAPI  : GAMMA RAY
ILD .OHMM  : INDUCTION LOG DEEP
ILM .OHMM  : INDUCTION LOG MEDIUM
SFLU.OHMM  : SPHERICALLY FOCUSED LOG UNAVERAGED RESISTIVITY
SPR .MV    : SPONTANEOUS POTENTIAL
DTCO.US/F  : COMPRESSIONAL-WAVE INTERVAL TRANSIT TIME ACAUSTIC SLOWNESS
DTSM.US/F  : SHEAR-WAVE INTERVAL TRANSIT TIME DELTA-T
CALD.IN    : CALIPER FROM DENSITY LOG
PEF .B/E   : PHOTOELECTRIC FACTOR
DRHO.G/C3  : DENSITY CORRECTION
RHOB.G/C3  : BULK DENSITY
DPHI.DEC   : DENSITY POROSITY LIMESTONE
NPHI.DEC   : NEUTRON POROSITY LIMESTONE
CILD.MMHO  : CONDUCTIVITY INDUCTION LOG DEEP
~Params ----------------------------------------------------
~Other -----------------------------------------------------
~ASCII -----------------------------------------------------
# ...
 7637.00000   45.23710 1863.42210 1153.69070 1484.34890 -100.98140   53.81710   92.26470    7.67800    3.81990   -0.00420    2.68200    0.01770    0.02640    1.48640
 7637.50000   46.09050 1848.79900  967.63800 1245.14270 -101.62930   54.29400   92.59010    7.66160    3.87160   -0.00660    2.68040    0.01990    0.02650    1.51510
 7638.00000   41.58670 1886.28990  870.42550 1176.34420 -101.99930   54.77090   93.67670    7.66040    3.90840   -0.00760    2.67960    0.02080    0.02620    1.54550
 7638.50000   39.31500 1958.22860  839.64660 1150.89600 -102.62780   53.57100   94.76320    7.65890    3.78620   -0.00910    2.67790    0.02120    0.02590    1.57960
 7639.00000   38.15940 1984.02370  896.70370 1166.06770 -102.68860   51.91370   93.41440    7.65770    3.70950   -0.01000    2.67710    0.02120    0.02540    1.60610
 7639.50000   38.10550 1954.74950 1108.79520 1223.48180 -103.03760   51.77590   93.12580    7.65650    3.63280   -0.01010    2.67550    0.02190    0.02450    1.63640
 7640.00000   40.53570 1912.49400 1338.22640 1338.73450 -103.38650   51.80040   92.99460    7.65530    3.58640   -0.00950    2.67380    0.02380    0.02390    1.66670
 7640.50000   43.23430 1897.48890 1203.78320 1434.43150 -103.43650   51.82000   92.86350    7.65410    3.57010   -0.00810    2.67220    0.02470    0.02400    1.69700
 7641.00000   45.61860 1935.96570  859.53330 1443.21140 -103.78550   51.83960   92.91520    7.65290    3.61420   -0.00600    2.67060    0.02480    0.02340    1.72880
 7641.50000   43.75550 1961.46750  640.05100 1431.55930 -103.83540   51.85910   92.75860    7.66730    3.71190   -0.00390    2.66900    0.02600    0.02250    1.75760
 7642.00000   42.16330   -9999.25 1450.16280 1512.58680 -104.78230   51.87870   92.32310    7.66570    3.80180   -0.00320    2.66890    0.02580    0.02160    1.78790
 7642.50000   44.12290   -9999.25 1631.92260 1643.53920 -105.72910   51.89830   92.34420    7.66450    3.85210   -0.00260    2.67120    0.02370    0.02020    1.82210
 7643.00000   44.53960   -9999.25 1748.66280 1712.44490 -106.67600   51.76540   92.36530    7.66330    3.82040   -0.00270    2.67480    0.02040    0.01930    1.53220
 7643.50000   44.04380   -9999.25 1822.02610 1759.45570 -107.02490   51.78510   92.38660    7.67740    3.78910   -0.00510    2.67540    0.02070    0.01810    1.12040
 7644.00000   39.09360   -9999.25 1807.70060 1757.88980 -107.07490   51.80480   92.23940    7.67620    3.71990   -0.00830    2.67070    0.02470    0.01660    1.15150
 7644.50000   32.35770   -9999.25 1695.83000 1756.32520 -107.42380   51.82470   91.05860    7.67500    3.65080   -0.00910    2.66380    0.02720    0.01580    1.18180
 7645.00000   34.32710   -9999.25 1546.96340 1767.07680 -107.47380   51.84450   91.08490    7.67380    3.67980   -0.00930    2.65910    0.03180    0.01580    1.21370
 7645.50000   39.19830   -9999.25 1270.52930 1777.92580 -107.52470   51.71570   91.10590    7.67260    3.79180   -0.00940    2.65750    0.03270    0.01590    1.65240
 7646.00000   42.73020   -9999.25 1000.58180 1776.31030 -107.57550   51.73530   91.12700    7.68660    3.88880   -0.00880    2.65740    0.02850    0.01830    2.03030
 7646.50000   43.79480   -9999.25  729.60190 1774.69630 -107.93530   51.75490   91.14810    7.68510    3.93290   -0.00810    2.66030    0.02520    0.01930    2.06450
 7647.00000   39.07970   -9999.25  574.58440 1773.08370 -108.28420   51.77440   91.16920    7.69950    3.85620   -0.00670    2.66860    0.02430    0.01930    2.09090
 7647.50000   37.25450   -9999.25  688.64070 1784.00440 -108.33420   51.79400   91.19020    7.69800    3.65880   -0.00540    2.67530    0.02310    0.01870    2.12120
 7648.00000   37.21490   -9999.25 1661.81400 1782.01990 -108.38420   51.81360   91.21130    7.69680    3.54440   -0.00390    2.67900    0.01860    0.01820    2.15150
 7648.50000   38.79660   -9999.25 2000.00000 1780.43230 -108.43410   51.83310   91.23230    7.69560    3.53440   -0.00340    2.68340    0.01520    0.01820    1.41880
 7649.00000   40.47420   -9999.25 2000.00000 1778.84770 -108.78310   51.85270   90.49230    7.69440    3.57970   -0.00350    2.68710    0.01320    0.01830    1.45610
 7649.50000   39.31860   -9999.25 1680.34530 1790.13560 -108.83310   51.87230   90.35590    7.69320    3.63140   -0.00440    2.68470    0.01690    0.01800    1.48490
 7650.00000   36.41600   -9999.25  952.37770 1813.73410 -108.88310   51.89040   90.75200    7.69810    3.53960   -0.00650    2.67480    0.02210    0.01710    0.75450
 7650.50000   34.04580   -9999.25  893.43650 1863.61910 -110.44590   51.91160   90.40660    7.73380    3.39430   -0.00990    2.66710    0.02430    0.01660    0.79180
 7651.00000   31.15450   -9999.25  880.22780 1848.70760 -111.08520   51.93290   89.97240    7.75060    3.36360   -0.00850    2.67080    0.02220    0.01600    0.81820
 7651.50000   29.54790   -9999.25  867.21450 1847.17130 -111.44100   52.26320   89.68470    7.74940    3.38720   -0.00710    2.67300    0.02200    0.01600    0.84850
 7652.00000   29.50380   -9999.25  842.51750 1845.63610 -111.50880   52.74140   89.55490    7.73290    3.47860   -0.00500    2.66600    0.02550    0.01630    0.87880
 7652.50000   29.45970   -9999.25  731.81130 1857.10170 -111.56480   53.37210   89.42500    7.71650    3.54120   -0.00290    2.66450    0.02630    0.01730    0.90910
 7653.00000   27.18340   -9999.25  601.03970 1855.50060 -111.62090   54.15530   89.45300    7.69980    3.49440   -0.00150    2.67270    0.02240    0.01760    0.94090
 7653.50000   26.02330   -9999.25  783.45620 1866.96790 -111.67690   56.46280   89.47530    7.66810    3.44040    0.00070    2.68170    0.01700    0.01770    0.96970
 7654.00000   25.97920   -9999.25 1268.67870 1865.41630 -111.73300   55.87400   89.64990    7.65160    3.39390    0.00200    2.68770    0.01280    0.01770    1.00000
 7654.50000   27.49760   -9999.25 1321.90190 1863.86600 -111.78910   55.43230   89.83710    7.65040    3.38520    0.00270    2.68450    0.01400    0.01710    1.03420
 7655.00000   29.90890   -9999.25 1180.80300 1862.30320 -111.54610   54.99600   90.02550    7.66470    3.42930    0.00250    2.67840    0.01740    0.01690    1.06060
 7655.50000   32.09690   -9999.25 1204.77640 1860.74170 -111.60220   54.56480   90.17920    7.66320    3.50360    0.00090    2.67910    0.01960    0.01600    1.09090
 7656.00000   31.82960   -9999.25 1346.32140 1859.22120 -111.65830   54.12850   90.20160    7.66200    3.60050    0.00010    2.67970    0.01900    0.01510    1.12120
 7656.50000   31.11590   -9999.25 1525.70450 1883.84170 -111.71430   53.69210   90.22400    7.66080    3.68230   -0.00080    2.67960    0.01750    0.01520    1.15150
 7657.00000   32.64810   -9999.25 1561.97110 1895.48570 -111.45740   53.39700   90.08850    7.67510    3.72640    0.00050    2.67880    0.01820    0.01550    1.18340
 7657.50000   34.41210   -9999.25 1382.33350 1906.80530 -111.52750   52.79700   89.95870    7.67360    3.63460    0.00120    2.66960    0.02310    0.01710    1.21210
 7658.00000   36.84570   -9999.25  805.45680 1905.22060 -111.58350   52.08330   89.68220    7.67240    3.50510    0.00340    2.65660    0.03110    0.01800    1.24240
 7658.50000   36.21170   -9999.25  792.75630 1890.36910 -111.63960   51.34210   89.70460    7.65600    3.43600    0.00620    2.65200    0.03390    0.01800    1.27660
 7659.00000   35.13650   -9999.25 1040.61770 1888.79810 -111.69560   51.05290   89.87920    7.62430    3.44990    0.00990    2.65350    0.03020    0.01780    1.30300
 7659.50000   36.86710   -9999.25 1560.24740 1874.07630 -111.45280   50.92140   90.20590    7.60780    3.49400    0.01200    2.65960    0.02750    0.01780    1.33340
 7660.00000   39.27830   -9999.25 2000.00000 1886.05190 -111.50970   51.10000   90.38050    7.60660    3.57580    0.01340    2.66640    0.02550    0.01690    0.85860
 7660.50000   38.78780   -9999.25 2000.00000 1884.09280 -111.26590   51.42580   90.40290    7.60540    3.60540    0.01100    2.67250    0.02060    0.01670    0.63090
 7661.00000   37.18120   -9999.25 2000.00000 1882.52540 -111.32440   51.59920   89.94410    7.58890    3.46020    0.00710    2.68030    0.01520    0.01610    0.66820
