~Version ---------------------------------------------------
VERS.   2.0 : CWLS log ASCII Standard -VERSION 2.0
WRAP.    NO : One line per depth step
DLM . SPACE : Column Data Section Delimiter
~Well ------------------------------------------------------
STRT .F                  630.0 : START DEPTH
STOP .F                 7987.0 : STOP DEPTH
STEP .F                    0.5 : STEP
NULL .                -9999.25 : NULL VALUE
COMP .                         : COMPANY
WELL .                         : WELL
FLD  .                         : FIELD
LOC  .                         : LOCATION
PROV .                         : PROVINCE
CNTY .                         : COUNTY
STAT .                         : STATE
CTRY .                         : COUNTRY
SRVC .                         : SERVICE COMPANY
DATE .                         : DATE
UWI  .                         : UNIQUE WELL ID
API  .                         : API NUMBER
SLAT .WGS84 6.5264798795757955 : SURFACE LATITUDE
SLON .WGS84 3.0229995374809278 : SURFACE LONGITUDE
DATUM.F                 1210.7 : DEPTH DATUM ELEV
~Curve Information -----------------------------------------
DEPT.F     : 
GRR .GAPI  : GAMMA RAY
ILD .OHMM  : INDUCTION LOG DEEP
ILM .OHMM  : INDUCTION LOG MEDIUM
SFLU.OHMM  : SPHERICALLY FOCUSED LOG UNAVERAGED RESISTIVITY
SPR .MV    : SPONTANEOUS POTENTIAL
DTCO.US/F  : COMPRESSIONAL-WAVE INTERVAL TRANSIT TIME ACAUSTIC SLOWNESS
DTSM.US/F  : SHEAR-WAVE INTERVAL TRANSIT TIME DELTA-T
CALD.IN    : CALIPER FROM DENSITY LOG
PEF .B/E   : PHOTOELECTRIC FACTOR
DRHO.G/C3  : DENSITY CORRECTION
RHOB.G/C3  : BULK DENSITY
DPHI.DEC   : DENSITY POROSITY LIMESTONE
NPHI.DEC   : NEUTRON POROSITY LIMESTONE
CILD.MMHO  : CONDUCTIVITY INDUCTION LOG DEEP
~Params ----------------------------------------------------
~Other -----------------------------------------------------
~ASCII -----------------------------------------------------
# ...
 6608.00000   34.17790   39.51000   43.77720   87.45940  -23.28970   49.96890   96.67780    7.99880    4.65000    0.01370    2.72370   -0.01080    0.02790   21.27270
 6608.50000   31.23610   38.91860   41.93910   80.94600  -22.74240   50.75910   98.07570    7.99780    4.70940    0.01510    2.71520   -0.00950    0.02770   22.43270
 6609.00000   29.41040   37.80390   41.60550   75.55770  -22.20760   50.78160   98.85920    8.02740    4.72320    0.01420    2.71050   -0.00310    0.02470   25.06840
 6609.50000   27.36140   34.24260   44.27380   80.95510  -21.94660   50.34670   98.88170    8.05690    4.70680    0.01940    2.70970   -0.00030    0.02010   28.89100
 6610.00000   27.54460   25.50470   38.64030  119.71080  -21.11280   49.75950   98.75190    8.07140    4.37240    0.02680    2.71030    0.00220    0.01840   34.77800
 6610.50000   31.56590   18.08960   21.07740  129.19740  -20.56550   48.10510   98.93720    8.08570    3.83780    0.03270    2.68210    0.01230    0.03180   41.74680
 6611.00000   43.18770   15.17320   13.71780   71.64310  -20.30440   49.34710  100.90820    8.09970    3.66360    0.03940    2.62670    0.03030    0.08940   47.26680
 6611.50000   52.03460   13.36500   10.87900   34.54390  -19.47070   54.44100  110.23670    8.09870    3.76000    0.04690    2.60460    0.05590    0.12480   57.68930
 6612.00000   56.71460   13.07320   10.42230   18.37190  -18.91070   59.30060  116.34740    8.09770    4.45790    0.04980    2.61510    0.05660    0.12820   69.79990
 6612.50000   55.27690   12.52250   12.57880   16.63860  -18.07700   62.52430  125.65450    8.11200    4.63830    0.04190    2.65510    0.03400    0.10120   78.12740
 6613.00000   49.76070   12.07910   14.15530   19.25490  -17.23070   64.37600  123.76870    8.11090    4.66000    0.03470    2.69590    0.01460    0.06330   84.18970
 6613.50000   45.85580   11.81550   14.54410   26.92130  -16.08540   66.09160  119.62030    8.10990    4.71150    0.02410    2.69740    0.00730    0.06240   83.44040
 6614.00000   43.51790   11.72020   14.12980   38.70950  -14.94010   63.50630  114.61640    8.12520    4.95240    0.01860    2.69180    0.01070    0.06420   80.62010
 6614.50000   41.55590   11.87200   14.41670   40.33940  -14.39270   59.09380  111.59470    8.13850    5.05710    0.00970    2.69630    0.00940    0.05180   70.56500
 6615.00000   38.60300   12.98670   17.64490   40.28690  -14.14430   57.75860  108.42080    8.15270    5.06370    0.00650    2.70370    0.00410    0.03880   60.92170
 6615.50000   36.09280   14.40590   20.13630   50.70970  -13.88330   57.62860  105.85570    8.15150    4.97130    0.00640    2.70970   -0.00080    0.03090   64.51140
 6616.00000   42.45630   15.53970   19.83850   88.71230  -13.63480   57.65670  104.80710    8.16570    4.59150    0.00700    2.70400    0.01600    0.06930   67.71710
 6616.50000   56.03230   14.57630   16.17980  122.33990  -13.10000   57.22190  109.24920    8.14940    4.20420    0.00680    2.64270    0.04770    0.11180   67.19090
 6617.00000   63.58160   14.76510   12.74200   83.11930  -12.83900   58.92120  116.99560    8.14840    4.10450    0.00750    2.60590    0.06360    0.13040   63.76550
 6617.50000   65.56050   15.38030   11.38190   43.89780  -12.60090   62.44970  123.44930    8.13220    4.22440    0.00880    2.59320    0.06580    0.12290   62.64520
 6618.00000   58.14440   16.07510   12.80840   21.31480  -12.05580   62.92950  128.34240    8.11590    4.49560    0.01330    2.63250    0.03570    0.07580   61.41830
 6618.50000   42.70270   16.11340   16.12160   19.58130  -12.10640   64.17150  131.40900    8.11490    4.70630    0.01770    2.67400    0.01900    0.03720   59.98930
 6619.00000   35.51980   16.43810   21.61110   44.37800  -11.85650   63.12690  126.86530    8.09860    4.90190    0.00920    2.69810    0.00650    0.02330   56.91650
 6619.50000   28.11370   19.08580   25.18580   80.96770  -11.90850   55.30570  110.75380    8.11310    5.04440    0.00300    2.70480    0.00500    0.01480   52.42050
 6620.00000   25.39510   26.18960   29.55790  155.14890  -11.65920   52.11290  101.49160    8.11190    5.07340   -0.00170    2.70090    0.00600    0.01120   44.24820
 6620.50000   22.00690   34.35660   36.69050  321.10400  -12.00950   50.08830   91.12550    8.12610    4.88930   -0.00560    2.70000    0.00450    0.01030   31.37680
 6621.00000   19.95790   46.67280   49.74320  516.46050  -12.06010   49.34860   89.49240    8.12510    4.84380   -0.00720    2.70440    0.00210    0.01000   20.61400
 6621.50000   18.57870   61.65660   74.33380  742.60650  -11.81160   47.08450   89.38240    8.12410    4.95300   -0.00360    2.71110   -0.00030    0.01010   12.32980
 6622.00000   18.09220   73.85950  107.26230  902.56200  -11.56320   45.58260   88.49730    8.12310    5.03050   -0.00140    2.71630   -0.00490    0.01070   10.77250
 6622.50000   17.15930   64.60440  141.10360  822.35780  -11.30120   44.38550   85.01900    8.12210    4.85480   -0.00240    2.71920   -0.00540    0.01170   12.29230
 6623.00000   16.00330   50.53130  117.52210  641.26100  -10.76740   43.95070   83.81810    8.13640    4.68700   -0.00250    2.71990   -0.00540    0.01360   15.35460
 6623.50000   15.74000   33.65540   72.95280  462.58610  -10.49090   43.97310   83.99840    8.15090    4.40560   -0.00410    2.71440   -0.00500    0.02630   22.90540
 6624.00000   19.49470   25.06740   45.33550  241.70800   -9.97160   45.97730   90.71800    8.18020    3.86690   -0.00500    2.70670   -0.00030    0.05400   32.96760
 6624.50000   31.73140   17.04940   30.16470   95.53250   -9.42420   53.86820  112.50610    8.19800    3.40380   -0.00210    2.69750    0.00710    0.10540   45.58960
 6625.00000   44.19140   12.26270   20.74910   40.29940   -9.12750   64.44110  132.16320    8.25950    3.19060    0.01060    2.67920    0.01650    0.14560   75.94740
 6625.50000   62.67820    9.45830   12.63930   18.10910   -8.32940   76.99360  146.94970    8.36010    3.12150    0.03550    2.62070    0.03770    0.18820  132.96340
 6626.00000   79.60250    7.29530    8.36580    9.56400   -8.09360   83.26610  161.58410    8.46600    3.21080    0.05960    2.56980    0.06760    0.23290  160.05740
 6626.50000   96.97320    5.47180    5.29440    7.27030   -7.53360   85.87440  159.62780    8.58710    3.22500    0.08750    2.55980    0.08630    0.25700  207.01960
 6627.00000  106.75460    4.65420    4.44060    6.09610   -6.98630   83.92080  158.43260    8.67770    3.14770    0.09720    2.55140    0.08990    0.28190  225.88410
 6627.50000  108.06390    4.15730    4.02250    5.75800   -6.43890   85.72910  160.28160    8.75300    3.10860    0.10010    2.54510    0.09330    0.29020  243.39030
 6628.00000  101.76390    3.95440    3.88070    5.59300   -6.19040   89.76030  163.26730    8.76750    3.17540    0.09840    2.54050    0.09950    0.29260  266.12840
 6628.50000   93.01850    3.86810    3.79660    5.58720   -5.65570   92.83160  170.22070    8.70520    3.34070    0.08680    2.54850    0.09580    0.28450  269.15480
 6629.00000   87.62140    3.91820    3.87370    5.62060   -6.00520   91.78700  170.24800    8.58210    3.49080    0.06360    2.57430    0.09100    0.23920  262.34130
 6629.50000   86.24200    4.11010    4.15080    6.02210   -6.05570   88.76060  170.57490    8.35210    3.58790    0.04070    2.60980    0.07310    0.20310  241.83260
 6630.00000   86.87170    4.46470    4.57400    7.52720   -6.10630   85.27700  176.22900    8.18310    3.50340    0.02090    2.62790    0.05180    0.19340  210.22940
 6630.50000   94.64410    5.14670    5.07570    9.47460   -6.15670   81.79340  180.50760    8.12100    3.22650    0.00870    2.61330    0.04940    0.22560  178.26210
 6631.00000  119.82740    5.83010    5.40080    9.80210   -6.20730   80.44390  180.07350    8.13530    3.07540   -0.00320    2.55490    0.07380    0.29950  156.60640
 6631.50000  149.47150    6.60360    6.33840    9.79190   -6.25780   80.15590  180.10160    8.13710    3.07790   -0.00630    2.47600    0.11460    0.34520  132.05700
 6632.00000  203.22610    7.40280    6.98460    9.91970   -6.30830   81.70840  180.27620    8.11800    3.13460   -0.00490    2.40990    0.15820    0.36980  128.69720
