~Version ---------------------------------------------------
VERS.   2.0 : CWLS log ASCII Standard -VERSION 2.0
WRAP.    NO : One line per depth step
DLM . SPACE : Column Data Section Delimiter
~Well ------------------------------------------------------
STRT .F                  630.0 : START DEPTH
STOP .F                 7987.0 : STOP DEPTH
STEP .F                    0.5 : STEP
NULL .                -9999.25 : NULL VALUE
COMP .                         : COMPANY
WELL .                         : WELL
FLD  .                         : FIELD
LOC  .                         : LOCATION
PROV .                         : PROVINCE
CNTY .                         : COUNTY
STAT .                         : STATE
CTRY .                         : COUNTRY
SRVC .                         : SERVICE COMPANY
DATE .                         : DATE
UWI  .                         : UNIQUE WELL ID
API  .                         : API NUMBER
SLAT .WGS84 6.5264798795757955 : SURFACE LATITUDE
SLON .WGS84 3.0229995374809278 : SURFACE LONGITUDE
DATUM.F                 1210.7 : DEPTH DATUM ELEV
~Curve Information -----------------------------------------
DEPT.F     : 
GRR .GAPI  : GAMMA RAY
ILD .OHMM  : INDUCTION LOG DEEP
ILM .OHMM  : INDUCTION LOG MEDIUM
SFLU.OHMM  : SPHERICALLY FOCUSED LOG UNAVERAGED RESISTIVITY
SPR .MV    : SPONTANEOUS POTENTIAL
DTCO.US/F  : COMPRESSIONAL-WAVE INTERVAL TRANSIT TIME ACAUSTIC SLOWNESS
DTSM.US/F  : SHEAR-WAVE INTERVAL TRANSIT TIME DELTA-T
CALD.IN    : CALIPER FROM DENSITY LOG
PEF .B/E   : PHOTOELECTRIC FACTOR
DRHO.G/C3  : DENSITY CORRECTION
RHOB.G/C3  : BULK DENSITY
DPHI.DEC   : DENSITY POROSITY LIMESTONE
NPHI.DEC   : NEUTRON POROSITY LIMESTONE
CILD.MMHO  : CONDUCTIVITY INDUCTION LOG DEEP
~Params ----------------------------------------------------
~Other -----------------------------------------------------
~ASCII -----------------------------------------------------
# ...
 7318.50000   54.62180   16.12630   16.62140   20.97430  -12.59190   61.77240  108.77060    8.14600    3.52070    0.00810    2.66920    0.02410    0.04260   62.87880
 7319.00000   46.99490   20.43290   23.56580   33.25640  -12.64150   58.43830  103.00620    8.12990    3.95830    0.00340    2.67430    0.02080    0.02840   56.99470
 7319.50000   35.79660   26.25400   28.64350   78.58050  -12.68890   55.40900   96.63300    8.09850    4.27490   -0.00050    2.67640    0.02270    0.02260   51.51520
 7320.00000   34.41960   33.26520   40.32750  196.36830  -13.03520   53.75170   94.67370    8.06710    4.45530   -0.00670    2.66340    0.02940    0.02200   43.63920
 7320.50000   36.64550   41.27440   66.69370  296.50570  -14.27830   53.61380   94.23600    8.05090    4.41640   -0.01060    2.65800    0.02980    0.02150   36.86310
 7321.00000   41.09990   55.30380  109.52900  284.02780  -14.92730   54.24790   94.40820    8.03480    4.21860   -0.01290    2.66310    0.02640    0.02120   19.69700
 7321.50000   45.38040   71.05910  135.95410  264.57290  -15.86850   54.87720   94.88440    8.01860    4.18720   -0.01310    2.67290    0.02040    0.02220   11.09910
 7322.00000   50.57830   86.94410  144.67270  248.14000  -16.81320   55.35400   95.38490    8.01770    4.17090   -0.01010    2.68640    0.01490    0.02500    8.33330
 7322.50000   56.58750   83.88300  124.79450  227.43870  -17.79800   55.83080   96.81770    8.01420    4.04120   -0.00800    2.68020    0.01860    0.03410    9.84850
 7323.00000   70.34510   79.25080  106.89680  178.84940  -18.75450   56.01330   99.51370    8.00040    3.93420   -0.00590    2.66650    0.02660    0.04660    9.84850
 7323.50000   85.03970   75.39080   83.01960  123.01710  -19.65660   56.36890  100.29420    7.98430    3.81930   -0.00450    2.65960    0.03000    0.04570    9.84850
 7324.00000   92.59130   74.79840   82.10020   79.53970  -20.30180   56.96120   99.09600    7.99880    3.93690   -0.00390    2.66400    0.02700    0.03240    9.09090
 7324.50000   84.29480   76.31420  104.87780  102.23190  -21.24600   56.06610   97.59330    7.99770    4.25610   -0.00330    2.67220    0.02150    0.02090    8.33330
 7325.00000   75.99820   78.95840  125.14810  173.84800  -21.89130   54.25630   96.39510    7.99680    4.49570   -0.00260    2.68040    0.01790    0.01670    7.57580
 7325.50000   65.24630   84.60330  140.84280  293.57120  -22.83550   53.51360   95.19690    7.99590    4.62420   -0.00280    2.68110    0.01790    0.01520    6.47240
 7326.00000   60.75380   96.87240  159.07020  396.27130  -23.48080   53.37570   94.90710    7.99500    4.50960   -0.00220    2.67710    0.01950    0.01490    5.30300
 7326.50000   64.05490  108.60770  179.60060  415.86650  -24.12610   53.24280   95.08360    7.99410    4.15300   -0.00150    2.67560    0.01920    0.01560    4.54550
 7327.00000   64.47320  120.47630  196.54410  311.75190  -24.47240   52.80500   94.64640    7.99320    3.95520   -0.00010    2.68450    0.01670    0.01620    4.29820
 7327.50000   61.52430  129.98520  216.59670  300.74030  -24.81870   52.82940   93.59970    7.99230    3.90900    0.00050    2.69500    0.01170    0.01650    3.78790
 7328.00000   52.11170  133.54950  217.93650  302.63300  -25.16500   53.00130   93.77210    7.99140    3.97560    0.00110    2.70010    0.00590    0.01690    4.97940
 7328.50000   40.91330  132.49990  204.46220  304.39040  -26.40820   53.02080   94.09590    7.99050    3.89890    0.00100    2.70160    0.00470    0.01720    5.30300
 7329.00000   37.75070  128.73130  178.85480  304.09600  -27.05340   53.04030   94.42920    7.98950    3.77670    0.00090    2.69310    0.00840    0.01880    4.54550
 7329.50000   35.03450  127.71970  162.02650  281.29120  -27.99760   52.75490   94.74430    8.01940    3.68480    0.00070    2.67860    0.01610    0.02010    4.20990
 7330.00000   32.54150  132.14190  168.83470  183.36900  -28.64290   53.38410   95.07240    8.03370    3.75930    0.00060    2.67320    0.02070    0.02040    2.97990
 7330.50000   30.49490  136.71740  184.76260  181.52060  -30.18510   53.70880   95.24400    8.01730    4.01540    0.00050    2.67620    0.01980    0.01950    1.51520
 7331.00000   28.44840  143.44200  205.04320  221.08190  -31.12930   53.53610   95.87230    7.98590    4.37740   -0.00040    2.68000    0.01830    0.01740    1.27750
 7331.50000   26.40180  150.49740  227.54990  290.63170  -32.37240   52.83290   96.95720    7.98500    4.74690   -0.00200    2.68440    0.01560    0.01570    1.51520
 7332.00000   25.69460  154.62410  240.45350  377.51450  -33.31670   51.94260   96.97670    7.98410    4.85920   -0.00220    2.68790    0.01350    0.01480    2.69720
 7332.50000   24.76400  154.48470  235.26170  487.50660  -33.96190   51.49990   96.99610    7.98320    4.67660   -0.00310    2.68400    0.01510    0.01730    3.16860
 7333.00000   24.47460  152.20340  207.24240  455.94520  -35.20510   53.50600   96.10230    7.98230    3.82070   -0.00320    2.67780    0.01940    0.02150    5.30300
 7333.50000   26.47450  143.79810  175.05270  330.12250  -36.75090   54.59250   95.05630    8.01190    3.36570   -0.00330    2.67240    0.02490    0.02550    5.95610
 7334.00000   31.12440  130.27860  137.86820  191.06150  -37.70860   55.06930   94.91870    8.02620    3.07710   -0.00180    2.66620    0.03040    0.02950    7.61550
 7334.50000   36.66710  105.54420  108.58230  140.28610  -38.66500   55.54620   95.39960    8.04050    3.23490    0.00170    2.65550    0.03410    0.03410    9.84850
 7335.00000   43.99550   91.05630   89.18490  134.38710  -39.62170   55.56570   96.02790    8.08540    3.43990    0.00460    2.64790    0.03480    0.03820   10.83380
 7335.50000   52.04270   73.25490   75.86140  126.06130  -40.57690   55.58510   96.80840    8.11550    3.55030    0.00600    2.65080    0.02780    0.04100   11.36360
 7336.00000   57.35730   68.24890   66.36040  114.18500  -41.77910   55.44740   98.52650    8.12930    3.32440    0.00510    2.66050    0.02360    0.04190   11.36360
 7336.50000   59.77390   66.77280   63.13510   95.09590  -43.32120   55.31860   99.73920    8.11310    3.21400    0.00270    2.66720    0.02270    0.04160   10.60610
 7337.00000   58.45640   68.60370   62.64260   79.75430  -44.56440   54.88140   98.69320    8.11220    3.19900   -0.00050    2.67090    0.02240    0.03920    9.84850
 7337.50000   55.04210   75.58650   61.28370   76.40060  -45.20970   54.74850   99.02190    8.09610    3.46230   -0.00360    2.67380    0.02090    0.03500    8.77510
 7338.00000   49.56390   85.64080   69.23160   86.67120  -45.85490   54.61550   99.04140    8.12540    3.96050   -0.00520    2.67670    0.02190    0.03140    7.54580
 7338.50000   29.66020   97.71310   88.73540  162.00680  -46.50020   54.46320   99.06080    8.12450    4.67040   -0.00310    2.67360    0.03140    0.02990    6.31550
 7339.00000   24.48860  113.05610  120.63530  224.33600  -47.44440   53.89720   99.08030    8.13910    4.87350   -0.00170    2.65230    0.04330    0.02960    4.86840
 7339.50000   19.09380  141.26000  169.27590  342.61610  -48.68760   53.30700   99.09970    8.16870    4.89540    0.00050    2.63320    0.04940    0.03120    3.03030
 7340.00000   15.93120  198.76400  222.74210  446.56940  -50.22970   53.32640   99.27130    8.18280    4.83340    0.00260    2.62760    0.04690    0.03340    1.86870
 7340.50000   14.10790  259.87480  368.37140  415.98150  -51.47290   53.65080  100.35620    8.18190    4.83990    0.00470    2.63300    0.04280    0.03580    0.63870
 7341.00000   13.62380  271.69160  504.31590  348.87220  -52.71610   54.73570  100.52790    8.16570    4.84660    0.00530    2.63590    0.04130    0.03950    0.75760
 7341.50000   13.58620  273.35020  671.36910  298.79760  -54.25820   54.92710  101.00400    8.16480    4.83010    0.00440    2.62750    0.05140    0.04230   -0.30540
 7342.00000   13.99500  263.73290  583.22980  274.46260  -55.80030   54.77440  101.17560    8.14870    4.66250    0.00050    2.60990    0.06240    0.04420   -0.75760
 7342.50000   13.51090  252.66930  419.39300  261.08790  -57.34250   54.79420  101.19510    8.13250    4.50260   -0.00260    2.59620    0.06790    0.04490   -0.75760
