~Version ---------------------------------------------------
VERS.   2.0 : CWLS log ASCII Standard -VERSION 2.0
WRAP.    NO : One line per depth step
DLM . SPACE : Column Data Section Delimiter
~Well ------------------------------------------------------
STRT .F                  630.0 : START DEPTH
STOP .F                 7987.0 : STOP DEPTH
STEP .F                    0.5 : STEP
NULL .                -9999.25 : NULL VALUE
COMP .                         : COMPANY
WELL .                         : WELL
FLD  .                         : FIELD
LOC  .                         : LOCATION
PROV .                         : PROVINCE
CNTY .                         : COUNTY
STAT .                         : STATE
CTRY .                         : COUNTRY
SRVC .                         : SERVICE COMPANY
DATE .                         : DATE
UWI  .                         : UNIQUE WELL ID
API  .                         : API NUMBER
SLAT .WGS84 6.5264798795757955 : SURFACE LATITUDE
SLON .WGS84 3.0229995374809278 : SURFACE LONGITUDE
DATUM.F                 1210.7 : DEPTH DATUM ELEV
~Curve Information -----------------------------------------
DEPT.F     : 
GRR .GAPI  : GAMMA RAY
ILD .OHMM  : INDUCTION LOG DEEP
ILM .OHMM  : INDUCTION LOG MEDIUM
SFLU.OHMM  : SPHERICALLY FOCUSED LOG UNAVERAGED RESISTIVITY
SPR .MV    : SPONTANEOUS POTENTIAL
DTCO.US/F  : COMPRESSIONAL-WAVE INTERVAL TRANSIT TIME ACAUSTIC SLOWNESS
DTSM.US/F  : SHEAR-WAVE INTERVAL TRANSIT TIME DELTA-T
CALD.IN    : CALIPER FROM DENSITY LOG
PEF .B/E   : PHOTOELECTRIC FACTOR
DRHO.G/C3  : DENSITY CORRECTION
RHOB.G/C3  : BULK DENSITY
DPHI.DEC   : DENSITY POROSITY LIMESTONE
NPHI.DEC   : NEUTRON POROSITY LIMESTONE
CILD.MMHO  : CONDUCTIVITY INDUCTION LOG DEEP
~Params ----------------------------------------------------
~Other -----------------------------------------------------
~ASCII -----------------------------------------------------
# ...
 6387.50000  112.66740    9.08530    8.99020   11.10230   -2.24440   -9999.25   -9999.25   -9999.25   -9999.25   -9999.25   -9999.25   -9999.25   -9999.25  112.78410
 6388.00000  112.17820    9.00990    8.88580   11.01110   -2.29750   -9999.25   -9999.25   -9999.25   -9999.25   -9999.25   -9999.25   -9999.25   -9999.25  113.60660
 6388.50000  112.80580    8.93660    8.87410   10.84440   -2.05220   -9999.25   -9999.25   -9999.25   -9999.25   -9999.25   -9999.25   -9999.25   -9999.25  114.30750
 6389.00000  113.65670    8.86380    8.80190   10.60570   -1.79350   -9999.25   -9999.25   -9999.25   -9999.25   -9999.25   -9999.25   -9999.25   -9999.25  115.06820
 6389.50000  112.90520    8.85340    8.73030   10.37220   -1.54820   -9999.25   -9999.25   -9999.25   -9999.25   -9999.25   -9999.25   -9999.25   -9999.25  115.07210
 6390.00000  110.60990    8.84290    8.72000   10.28700   -1.61460   74.97080  136.25670    9.74350    3.28520   -0.00530    2.65030    0.03540    0.23440  115.83330
 6390.50000  110.74420    8.83260    8.70980   10.34640   -1.36720   74.99020  136.73270    9.74250    3.32190   -0.00540    2.65090    0.03510    0.22850  116.59470
 6391.00000  113.70160    8.88410    8.63890   10.55290   -1.12390   75.00970  136.29550    9.74160    3.34500   -0.00480    2.65390    0.03370    0.21750  116.59890
 6391.50000  116.33830    8.87370    8.56860   10.76360   -0.86970   75.02910  135.70200    9.74070    3.34130   -0.00340    2.65620    0.03040    0.21730  116.60230
 6392.00000  115.40340    8.86320    8.61870   10.97840   -0.63320   75.04850  135.57330    9.75520    3.27330   -0.00270    2.65590    0.03130    0.21670  116.60600
 6392.50000  111.56690    8.85280    8.60860   10.96480   -0.68660   74.00090  135.59360    9.75410    3.19640   -0.00370    2.65520    0.03230    0.21530  116.09880
 6393.00000  109.73920    8.84240    8.65890   10.64850   -0.44100   74.02520  134.85600    9.79900    3.15740   -0.00450    2.65900    0.03020    0.21290  115.09780
 6393.50000  107.68830    8.83200    8.64880    9.98550   -0.49550   72.82510  133.50550    9.81360    3.26220   -0.00370    2.66640    0.02380    0.21380  115.86000
 6394.00000  106.75350    8.76010    8.69930    9.82220   -0.54930   72.23480  133.21560    9.82780    3.35950   -0.00240    2.67390    0.01870    0.22020  116.62120
 6394.50000  106.04190    8.74980    8.75020   10.31570   -0.60300   72.42730  133.69650    9.84210    3.41130   -0.00100    2.67830    0.01840    0.22600  118.26260
 6395.00000  106.89280    8.67850    8.61840   10.82050   -0.96540   73.18660  134.62920    9.87180    3.46310   -0.00190    2.67830    0.01810    0.22760  120.41720
 6395.50000  110.42220    8.42900    8.39880   10.80700   -1.01850   74.12070  135.71410    9.91670    3.45440   -0.00200    2.67820    0.01820    0.22760  121.79040
 6396.00000  113.95170    8.30210    8.21470   10.42210   -1.37020   74.14020  137.40770    9.93310    3.39270    0.00170    2.67580    0.02070    0.23500  123.47500
 6396.50000  116.58830    8.12000    7.97850   10.11700   -1.72190   72.94000  141.23230    9.99120    3.35370    0.00610    2.66590    0.02650    0.24020  124.70660
 6397.00000  118.11940    7.91300    7.72100    9.82430   -1.77500   75.40330  143.68710   10.02080    3.34520    0.00450    2.65370    0.03170    0.24570  126.69650
 6397.50000  117.39730    7.73950    7.60470    9.53010   -1.52970   76.18340  144.31530   10.01970    3.37560    0.00440    2.64460    0.04120    0.24850  128.01160
 6398.00000  116.68570    7.64970    7.54280    9.26020   -1.27100   76.35520  144.48700   10.03430    3.42620    0.00200    2.64220    0.04180    0.24940  129.55060
 6398.50000  116.86830    7.64070    7.53400    9.06390   -1.03900   78.05150  144.65860   10.06370    3.48560    0.00110    2.64440    0.04060    0.25000  130.29170
 6399.00000  117.49460    7.63170    7.52520    9.11630   -1.09210   77.46120  144.52580   10.09330    3.54500    0.00180    2.64740    0.03850    0.24950  131.05360
 6399.50000  120.80090    7.62160    7.56910    9.23340   -0.54830   76.71840  144.39300   10.12300    3.60440    0.00240    2.65180    0.03640    0.24680  131.05680
 6400.00000  124.33040    7.70310    7.72070    9.28960   -0.28340   76.12800  143.65620   10.15280    3.63380    0.00220    2.65550    0.03310    0.24040  131.06060
 6400.50000  126.53140    7.87700    7.73390    9.81340   -0.24580   75.83080  141.24030   10.19750    3.58500    0.00160    2.66310    0.02830    0.23920  131.06060
 6401.00000  125.14540    7.84630    7.74710    9.80260   -0.20820   74.92340  140.03720   10.27290    3.54790    0.00060    2.66360    0.02680    0.23860  129.94100
 6401.50000  122.20620    8.00440    7.74520    9.79200   -0.17060   74.66190  140.36590   10.28730    3.50900   -0.00030    2.66040    0.02810    0.23650  127.27270
 6402.00000  114.80280    8.10870    7.89970    9.77940   -0.21280   75.14350  140.84190   10.28640    3.53810   -0.00110    2.65880    0.02940    0.23270  125.02990
 6402.50000  104.94400    8.21440    8.11390    9.76890   -0.26290   76.23000  140.55690   10.31600    3.52940   -0.00270    2.65860    0.03060    0.22450  120.98550
 6403.00000  100.62270    8.32150    8.27580    9.82970   -0.31300   74.57260  135.70570   10.37720    3.41480   -0.00280    2.66000    0.03030    0.22150  117.42420
 6403.50000   99.73540    8.48920    8.44090    9.88820   -0.36310   73.52500  132.98700   10.40580    3.29250   -0.00210    2.66140    0.02940    0.21730  115.65180
 6404.00000  102.00650    8.39090    8.37160   10.01430   -0.41310   72.78220  131.78880   10.43520    3.20060    0.00080    2.66130    0.02880    0.20270  115.90910
 6404.50000  100.99060    8.26570    8.13040   10.14470   -0.76170   71.73460  131.80820   10.49540    3.12330    0.00900    2.65210    0.03380    0.19700  121.77430
 6405.00000   96.93540    8.17100    7.89610   10.20780   -1.11030   70.38200  131.82760   10.61660    3.02120    0.02330    2.62240    0.05270    0.21160  122.72730
 6405.50000   94.00560    7.99200    7.40490    9.91260   -1.16040   69.63870  131.84700   10.73790    2.89670    0.04370    2.56090    0.08440    0.22320  123.48480
 6406.00000   97.75360    7.87290    6.99300    9.42820   -1.50900   68.74570  132.47530   10.85910    2.80220    0.07390    2.52450    0.11030    0.24450  125.33320
 6406.50000  101.51080    7.70150    6.83920    9.03050   -1.55910   68.15050  133.56010   10.94980    2.84650    0.11170    2.52120    0.11340    0.24240  126.65180
 6407.00000  101.70600    7.48130    6.85360    8.83330   -1.29810   72.13820  135.95490   10.88780    2.94380    0.13280    2.55470    0.08480    0.23460  131.06060
 6407.50000  100.76650    7.26740    6.86910    8.82390   -1.06220   73.98690  141.85100   10.82590    3.01080    0.14710    2.58520    0.06600    0.23220  136.21280
 6408.00000  102.29170    6.96150    6.90880    8.69180   -1.11230   75.37830  144.12550   11.02350    2.93400    0.14930    2.60120    0.06230    0.23250  143.93940
 6408.50000  103.81680    6.66860    6.89910    8.38370   -0.86270   76.62580  145.81920   11.11420    2.87230    0.14620    2.58740    0.06970    0.23710  150.46870
 6409.00000  104.68160    6.52340    6.93890    8.19410   -0.91390   77.24700  148.73050   11.15910    2.89390    0.13770    2.58040    0.07980    0.24500  152.27270
 6409.50000  100.84030    6.47120    6.88200    8.01160   -0.36700   76.81340  151.33750   11.15820    2.97610    0.13080    2.57650    0.07990    0.25570  151.51520
 6410.00000   94.55300    6.50990    6.87340    7.78950   -0.41790   77.59500  152.72680   11.11150    3.03550    0.12470    2.57940    0.07650    0.25910  150.15100
 6410.50000   86.92630    6.50320    6.76950    7.67300   -0.16860   79.13890  153.65940   11.06380    3.06470    0.12160    2.57320    0.07620    0.25760  148.47040
 6411.00000   87.36300    6.45120    6.71390    7.72070   -0.22090   78.85340  154.43990   11.03330    3.03330    0.12000    2.56100    0.08600    0.25400  149.18010
 6411.50000   91.08800    6.35500    6.52050    7.98520   -0.28130   77.95820  154.30710   11.00170    3.03220    0.12140    2.55780    0.08850    0.24840  152.86610
