~Version ---------------------------------------------------
VERS.   2.0 : CWLS log ASCII Standard -VERSION 2.0
WRAP.    NO : One line per depth step
DLM . SPACE : Column Data Section Delimiter
~Well ------------------------------------------------------
STRT .F                  630.0 : START DEPTH
STOP .F                 7987.0 : STOP DEPTH
STEP .F                    0.5 : STEP
NULL .                -9999.25 : NULL VALUE
COMP .                         : COMPANY
WELL .                         : WELL
FLD  .                         : FIELD
LOC  .                         : LOCATION
PROV .                         : PROVINCE
CNTY .                         : COUNTY
STAT .                         : STATE
CTRY .                         : COUNTRY
SRVC .                         : SERVICE COMPANY
DATE .                         : DATE
UWI  .                         : UNIQUE WELL ID
API  .                         : API NUMBER
SLAT .WGS84 6.5264798795757955 : SURFACE LATITUDE
SLON .WGS84 3.0229995374809278 : SURFACE LONGITUDE
DATUM.F                 1210.7 : DEPTH DATUM ELEV
~Curve Information -----------------------------------------
DEPT.F     : 
GRR .GAPI  : GAMMA RAY
ILD .OHMM  : INDUCTION LOG DEEP
ILM .OHMM  : INDUCTION LOG MEDIUM
SFLU.OHMM  : SPHERICALLY FOCUSED LOG UNAVERAGED RESISTIVITY
SPR .MV    : SPONTANEOUS POTENTIAL
DTCO.US/F  : COMPRESSIONAL-WAVE INTERVAL TRANSIT TIME ACAUSTIC SLOWNESS
DTSM.US/F  : SHEAR-WAVE INTERVAL TRANSIT TIME DELTA-T
CALD.IN    : CALIPER FROM DENSITY LOG
PEF .B/E   : PHOTOELECTRIC FACTOR
DRHO.G/C3  : DENSITY CORRECTION
RHOB.G/C3  : BULK DENSITY
DPHI.DEC   : DENSITY POROSITY LIMESTONE
NPHI.DEC   : NEUTRON POROSITY LIMESTONE
CILD.MMHO  : CONDUCTIVITY INDUCTION LOG DEEP
~Params ----------------------------------------------------
~Other -----------------------------------------------------
~ASCII -----------------------------------------------------
# ...
 6706.00000   94.63100    4.06910    4.63430    5.08800   -8.18630   85.24480  182.11370    8.48900    2.70120    0.15620    2.22530    0.25110    0.33440  251.02020
 6706.50000   99.05770    4.06480    4.56480    5.19030   -8.23960   86.02940  181.82950    8.53380    2.64700    0.15840    2.18360    0.28500    0.33870  251.66430
 6707.00000  103.93070    4.06050    4.40290    5.22250   -7.99390   85.89940  181.85120    8.76160    2.57780    0.15820    2.14640    0.30880    0.36220  250.60040
 6707.50000  104.79530    4.11320    4.21720    5.21520   -8.04720   85.30520  181.87210    8.97430    2.53880    0.15360    2.10540    0.34480    0.37920  247.77260
 6708.00000   97.60540    4.16670    4.12500    5.13700   -8.10050   84.70740  181.89340    9.00370    2.68290    0.14890    2.09090    0.36220    0.38080  242.85860
 6708.50000   91.76420    4.22080    4.26710    5.09550   -8.45270   84.14330  181.91470    8.86070    2.78730    0.14660    2.20270    0.34550    0.35710  238.92440
 6709.00000   90.16400    4.27510    4.60350    5.01910   -8.50600   84.00770  181.94020    8.61680    2.80750    0.17290    2.32660    0.28180    0.34190  235.05360
 6709.50000   92.13530    4.27050    4.79560    4.97850   -8.24700   84.18820  181.96120    8.48260    2.82060    0.19390    2.39840    0.20780    0.33040  232.72920
 6710.00000   94.55290    4.26600    4.59330    4.97300   -8.00130   85.43020  181.98220    8.57730    3.12260    0.17870    2.43680    0.17350    0.32040  232.04430
 6710.50000   95.85460    4.18760    4.46150    5.03930   -7.76680   91.55020  182.00310    8.69660    3.19700    0.17560    2.48360    0.15770    0.29010  233.57340
 6711.00000   95.81690    4.13900    4.51940    5.25540   -7.52170   87.35550  181.11090    8.72650    3.15800    0.20180    2.52280    0.11780    0.29190  236.80480
 6711.50000   92.38670    4.02060    4.67520    5.55590   -7.87550   80.01170  180.06640    8.87510    3.11900    0.21080    2.53850    0.10200    0.29920  243.06080
 6712.00000   87.44540    3.79790    4.38490    5.77590   -7.92880   79.87610  179.77770    9.16380    3.09510    0.19930    2.46810    0.11790    0.31300  255.82830
 6712.50000   85.88250    3.58760    3.99910    5.22910   -7.98210   81.73340  179.64640    9.37640    3.02590    0.17580    2.43240    0.15290    0.33240  266.00560
 6713.00000   91.42940    3.31860    3.69870    4.29320   -8.03590   82.51810  179.97710    9.54310    2.92630    0.15450    2.40050    0.17090    0.34890  276.05360
 6713.50000   98.24140    3.15680    3.32640    3.70190   -8.11320   82.08330  181.97670    9.69470    2.86460    0.14160    2.36100    0.18930    0.35960  284.17530
 6714.00000  101.24700    3.08800    3.09810    3.39970   -8.47790   81.94770  185.34620   10.12060    2.80300    0.13010    2.28300    0.21890    0.37150  292.86730
 6714.50000   97.77600    2.99970    2.98820    3.27900   -8.79520   84.26240  185.67160   10.43980    2.74880    0.13150    2.22540    0.26550    0.37000  304.87640
 6715.00000   93.49720    2.97560    2.96410    3.27540   -9.15870   85.50440  185.69260   10.51530    2.70220    0.15030    2.23660    0.27930    0.35600  315.94090
 6715.50000   89.88820    2.95180    2.94010    3.46040   -8.89960   85.83170  185.71390   10.30080    2.62540    0.17210    2.25170    0.27350    0.34210  328.64190
 6716.00000   84.49330    2.92810    2.93690    3.68140   -8.96620   85.85420  184.35390   10.29990    2.49560    0.18630    2.26350    0.26740    0.34280  336.47480
 6716.50000   82.67000    2.92500    2.91280    3.80840   -9.01950   86.94380  183.01570   10.35990    2.38860    0.19300    2.19990    0.28990    0.34780  338.25170
 6717.00000   85.53410    2.92180    2.90950    3.80420   -8.77390   89.41880  184.56400   10.43520    2.34200    0.17930    2.10090    0.33000    0.35980  336.75060
 6717.50000   88.84470    2.91830    2.90630    3.72100   -8.82710   89.73260  189.15110   10.46500    2.36350    0.15500    2.01800    0.39190    0.38160  333.60600
 6718.00000   91.93200    2.91520    2.92350    3.63960   -8.88040   87.47410  190.08010   10.25050    2.42280    0.12160    2.00050    0.41960    0.38720  330.71100
 6718.50000   92.79660    2.91210    2.94070    3.53510   -8.62140   86.88120  183.40750   10.18860    2.46700    0.12680    2.07530    0.38770    0.38120  333.75520
 6719.00000   86.72270    2.92900    2.95770    3.45780   -8.68800   89.50070  181.90560   10.32490    2.47340    0.13270    2.14090    0.34390    0.36540  333.00750
 6719.50000   84.22970    2.94640    2.97510    3.45400   -8.74130   90.74270  184.51480   10.47640    2.43390    0.13830    2.15970    0.31950    0.36270  330.71380
 6720.00000   83.29920    2.98470    2.99270    3.47440   -8.48230   90.45470  186.97110   10.38410    2.42570    0.14400    2.17470    0.31290    0.37190  330.00000
 6720.50000   85.04720    2.98150    2.98940    3.51950   -8.54890   91.24500  186.99240   10.15450    2.46690    0.14900    2.18820    0.30830    0.37130  330.01140
 6721.00000   87.24170    2.97830    2.98610    3.54030   -8.60220   92.48700  187.16590   10.07760    2.66500    0.15790    2.21830    0.30040    0.36710  330.78090
 6721.50000   88.98970    2.93390    2.98280    3.53250   -8.65550   94.03380  185.51360   10.21360    2.83030    0.17220    2.25980    0.26210    0.35980  331.95930
 6722.00000   90.51460    2.91030    2.97950    3.43390   -8.70870   94.35560  180.66400   10.06030    2.90470    0.18110    2.31720    0.23170    0.34980  333.20200
 6722.50000   92.93230    2.92760    2.95540    3.40620   -9.06100   91.48730  176.42310   10.01370    2.82030    0.18250    2.32920    0.22170    0.35620  333.84620
 6723.00000   94.68040    2.96560    2.91110    3.37870   -9.11420   89.68050  177.08410    9.99770    2.71330    0.15070    2.21630    0.24910    0.38360  332.78340
 6723.50000   95.09850    3.00420    2.80780    3.35140   -9.16750   88.94080  179.57150   10.01210    2.61370    0.10900    2.12240    0.29990    0.41100  329.04010
 6724.00000   92.81930    3.06450    2.61510    3.39490   -8.92080   88.81080  178.77440    9.99570    2.67310    0.09380    2.02920    0.37350    0.41380  318.47160
 6724.50000   92.11200    3.21470    2.92180    3.48750   -8.97510   88.68080  176.81660    9.91860    2.81560    0.08530    2.04800    0.40640    0.40470  304.71990
 6725.00000   91.85110    3.30230    3.38060    3.73640   -9.02840   88.22150  176.22880    9.84140    2.85250    0.11470    2.15000    0.36170    0.39710  298.29540
 6725.50000   90.02770    3.32200    3.57130    4.03120   -9.08220   87.81120  170.46590    9.99300    2.67710    0.16290    2.23380    0.31150    0.39710  298.71690
 6726.00000   89.76690    3.34120    3.54250    4.19950   -9.13600   86.77220  167.59490   10.17500    2.44140    0.17790    2.25710    0.27160    0.39810  302.48480
 6726.50000   89.95310    3.26850    3.44080    4.22560   -8.88930   82.52640  168.07250   10.34170    2.34190    0.18310    2.20450    0.27860    0.39900  312.72490
 6727.00000   90.36160    3.08750    3.29570    4.01780   -8.94250   80.10980  168.55000   10.44750    2.43150    0.16180    2.17110    0.30030    0.40030  319.98830
 6727.50000   90.76990    2.87560    3.04810    3.79470   -8.39790   81.19940  170.39750   10.52290    2.62700    0.14200    2.16900    0.31220    0.40120  332.02950
 6728.00000   90.95550    2.67860    2.74130    3.43640   -8.46450   82.59380  178.33320   10.06460    2.84510    0.13290    2.20130    0.31620    0.40440  348.60250
 6728.50000   91.82960    2.51270    2.43110    3.13390   -8.20560   83.22600  183.68140   10.03290    2.93470    0.13430    2.24130    0.30060    0.41710  375.87620
 6729.00000   94.75350    2.39020    2.26420    2.79860   -7.95990   87.51680  185.83330   10.46090    2.84280    0.14240    2.26690    0.28210    0.41590  412.78090
 6729.50000   99.43790    2.27360    2.19930    2.48170   -8.02640   97.44780  182.20130   10.91880    2.53140    0.16270    2.30230    0.25740    0.41260  436.15520
 6730.00000  103.86950    2.23970    2.18150    2.26320   -8.07970  102.65320  179.78690   11.08230    2.42440    0.18450    2.28330    0.23510    0.41360  448.41020
