~Version ---------------------------------------------------
VERS.   2.0 : CWLS log ASCII Standard -VERSION 2.0
WRAP.    NO : One line per depth step
DLM . SPACE : Column Data Section Delimiter
~Well ------------------------------------------------------
STRT .F                  630.0 : START DEPTH
STOP .F                 7987.0 : STOP DEPTH
STEP .F                    0.5 : STEP
NULL .                -9999.25 : NULL VALUE
COMP .                         : COMPANY
WELL .                         : WELL
FLD  .                         : FIELD
LOC  .                         : LOCATION
PROV .                         : PROVINCE
CNTY .                         : COUNTY
STAT .                         : STATE
CTRY .                         : COUNTRY
SRVC .                         : SERVICE COMPANY
DATE .                         : DATE
UWI  .                         : UNIQUE WELL ID
API  .                         : API NUMBER
SLAT .WGS84 6.5264798795757955 : SURFACE LATITUDE
SLON .WGS84 3.0229995374809278 : SURFACE LONGITUDE
DATUM.F                 1210.7 : DEPTH DATUM ELEV
~Curve Information -----------------------------------------
DEPT.F     : 
GRR .GAPI  : GAMMA RAY
ILD .OHMM  : INDUCTION LOG DEEP
ILM .OHMM  : INDUCTION LOG MEDIUM
SFLU.OHMM  : SPHERICALLY FOCUSED LOG UNAVERAGED RESISTIVITY
SPR .MV    : SPONTANEOUS POTENTIAL
DTCO.US/F  : COMPRESSIONAL-WAVE INTERVAL TRANSIT TIME ACAUSTIC SLOWNESS
DTSM.US/F  : SHEAR-WAVE INTERVAL TRANSIT TIME DELTA-T
CALD.IN    : CALIPER FROM DENSITY LOG
PEF .B/E   : PHOTOELECTRIC FACTOR
DRHO.G/C3  : DENSITY CORRECTION
RHOB.G/C3  : BULK DENSITY
DPHI.DEC   : DENSITY POROSITY LIMESTONE
NPHI.DEC   : NEUTRON POROSITY LIMESTONE
CILD.MMHO  : CONDUCTIVITY INDUCTION LOG DEEP
~Params ----------------------------------------------------
~Other -----------------------------------------------------
~ASCII -----------------------------------------------------
# ...
 7220.50000   70.98600    8.78500    8.95960   16.48880   -1.67820   63.50030  118.12680    8.44980    3.08940    0.03720    2.67550    0.02820    0.16840   97.12540
 7221.00000   74.51980    7.47320    7.94680   12.44890   -0.83450   66.11430  124.37270    8.52480    2.82350    0.05890    2.63300    0.04830    0.20160  112.09810
 7221.50000   78.27680    6.53780    6.85400    7.89010   -0.27650   71.47210  138.09380    8.59980    2.72390    0.08450    2.59660    0.07340    0.23720  125.09450
 7222.00000   82.92670    5.77940    6.03690    6.25610   -0.04400   73.93350  147.85740    8.67480    2.80590    0.09410    2.55640    0.08980    0.24700  154.71290
 7222.50000   83.15150    5.40270    5.50650    6.03430    0.21500   78.68160  151.38060    8.70440    2.91070    0.09480    2.56150    0.08710    0.25220  180.41230
 7223.00000   84.19070    5.03250    5.09360    5.98560    0.74650   81.47850  153.38170    8.70290    2.97750    0.09540    2.57500    0.07930    0.25440  200.17440
 7223.50000   86.38520    4.82120    4.84530    6.06500    0.69320   82.99540  155.23050    8.71730    3.00660    0.09670    2.57640    0.07560    0.25680  215.71850
 7224.00000   89.47260    4.61870    4.54480    6.27230    0.95230   82.41310  156.77500    8.73130    3.02060    0.10270    2.57020    0.08030    0.26020  224.45190
 7224.50000   87.87240    4.39400    4.33830    6.44330    1.19810   82.58800  158.31950    8.74540    3.05720    0.11490    2.56860    0.08180    0.26120  234.27700
 7225.00000   86.04910    4.23900    4.27380    6.61890    1.42610   83.06780  160.16840    8.77440    3.10890    0.12530    2.56850    0.08220    0.26460  241.28880
 7225.50000   85.56500    4.11820    4.16640    6.79930    1.67630   82.93220  162.01720    8.80360    3.16110    0.13160    2.55920    0.08250    0.27190  244.89020
 7226.00000   89.41110    4.02880    4.06160    6.26490    1.62310   82.50290  163.86610    8.81770    3.14250    0.12700    2.55000    0.08680    0.28230  244.39330
 7226.50000   93.14400    3.99690    4.01480    5.61470    1.88220   83.13520  165.58140    8.84760    3.08740    0.12300    2.54010    0.09820    0.28540  241.44250
 7227.00000   94.88570    4.02110    4.03910    5.26610    1.81120   85.13930  165.17550    8.87630    3.02070    0.11690    2.53090    0.10470    0.28500  238.08360
 7227.50000   94.49090    4.13110    4.20820    5.04400    1.76250   87.14340  160.74260    8.89030    3.00430    0.10920    2.52540    0.10740    0.27350  232.26660
 7228.00000   89.60860    4.36440    4.63700    5.10950    1.70930   89.14760  157.72090    8.90430    3.07120    0.10070    2.52310    0.10380    0.19510  220.63550
 7228.50000   80.86550    4.70850    5.14520    5.47380    1.65610   88.56030  156.22120    8.81140    3.44070    0.08850    2.54110    0.09560    0.13400  204.76190
 7229.00000   64.75650    5.26050    5.95410    6.37800    1.60240   83.55410  151.98180    8.71870    3.93120    0.07780    2.57040    0.07280    0.11130  188.04350
 7229.50000   58.02240    6.25860    6.79430    9.42790    1.54860   81.29000  133.43490    8.64130    4.00590    0.06030    2.61950    0.04080    0.10980  172.08400
 7230.00000   55.75270    7.34280    7.43420   14.13290    1.49480   78.72100  129.34770    8.62490    3.69430    0.03370    2.67380    0.01980    0.12600  157.06590
 7230.50000   55.04540    8.20350    8.36540   14.82620    1.74230   72.64590  126.32600    8.60840    3.48890    0.01620    2.67450    0.02020    0.12540  141.06820
 7231.00000   57.47250    9.32600    9.41320   15.77270    1.07790   69.46710  124.67410    8.60720    3.42710    0.00850    2.68040    0.01720    0.12150  116.90180
 7231.50000   56.75580   10.20400   10.44500   17.74590    1.33700   69.03230  122.10900    8.60600    3.38810    0.00460    2.69990    0.00660    0.12360  101.76340
 7232.00000   58.05750   10.74140   11.75330   20.10260    1.27930   67.20000  118.47850    8.60480    3.40210    0.00370    2.71740   -0.00710    0.13370   88.12090
 7232.50000   62.48410    9.97210   11.57870   18.59260    1.22570   65.72350  116.36990    8.61890    3.46140    0.00430    2.72710   -0.00980    0.14900   90.39830
 7233.00000   66.68760    9.19160   11.01440   16.37380    1.17190   67.58110  119.33920    8.64820    3.50560    0.00500    2.72830   -0.00370    0.16150   92.46810
 7233.50000   69.77490    8.68340   10.04680   14.12020    1.11090   70.04240  123.45830    8.67740    3.51200    0.00920    2.69860    0.01220    0.17710   95.70840
 7234.00000   73.30880    8.37710    9.29330   12.34850    1.06430   70.21720  124.05310    8.69150    3.37040    0.01590    2.65690    0.04610    0.18560  100.28400
 7234.50000   76.39610    7.96950    8.77880   11.02810    1.31240   70.23970  124.07550    8.69020    3.16480    0.02630    2.62880    0.04800    0.16890  105.67450
 7235.00000   79.26020    7.79660    8.46870   10.27140    1.25030   70.26210  124.55450    8.71930    3.11500    0.03600    2.62720    0.04170    0.14000  113.90190
 7235.50000   76.32080    7.52170    7.86050   10.04970    1.19270   70.28460  124.72910    8.71810    3.15140    0.05020    2.64970    0.03420    0.13030  123.98550
 7236.00000   66.23850    7.25640    7.39910   12.03870    0.84490   70.76440  124.13710    8.73240    3.16560    0.05310    2.66170    0.03010    0.12400  133.55570
 7236.50000   61.73660    6.85520    6.86850   13.64000    0.79180   69.10440  124.92610    8.76140    2.95990    0.03940    2.64040    0.04780    0.16940  141.94380
 7237.00000   62.59190    7.24240    6.44260   12.35330    0.73860   71.56580  125.25300    8.79070    2.84520    0.02710    2.58050    0.08470    0.17460  134.85670
 7237.50000   67.46500    7.75910    6.87940   10.87910    0.68540   69.91620  123.75330    8.82000    2.80620    0.01940    2.52510    0.11680    0.16610  125.28420
 7238.00000   71.44520    8.66860    8.24270    9.57610    0.63220   70.70170  121.18820    8.84960    2.97900    0.01690    2.51020    0.10680    0.15340  116.46950
 7238.50000   66.05040    9.75260    9.94750   10.17960    0.57900   71.33400  120.75350    8.86360    3.13660    0.02070    2.55590    0.07660    0.13670  104.36720
 7239.00000   60.20920   10.37570   10.22000   12.29900    0.51790   68.37340  120.77640    8.87770    3.18840    0.01750    2.61860    0.05110    0.14000   99.53790
 7239.50000   58.38590   10.07990    9.06480   14.42680    0.47230   58.57770  120.95130    8.89150    3.12670    0.01050    2.61540    0.06300    0.15830  104.93350
 7240.00000   59.01780    8.51530    6.51750   16.79860    0.71840   57.67990  121.72670    8.92070    2.70190   -0.00090    2.55580    0.17850    0.22650  118.78450
 7240.50000   63.02150    5.64220    4.43080   16.10980    0.66370   58.47020  139.58650    9.17960    2.36790    0.00800    2.24930    0.33220    0.30720  148.03480
 7241.00000   64.99870    5.29900    3.34570    8.84070    0.60990   77.54750  156.63650   10.12570    2.30320    0.02520    2.02570    0.40040    0.32810  171.98780
 7241.50000   67.67790    5.01150    3.07320    4.75100    0.54990   91.28950  173.79330   11.11980    2.52440    0.06060    2.04300    0.38580    0.33650  207.89030
 7242.00000   71.26190    4.57730    3.15740    3.99050    0.79130   98.47660  185.22610   11.75130    2.59120    0.14960    2.17530    0.30240    0.33740  253.02310
 7242.50000   74.82690    3.66190    3.45480    3.82410    0.73810   96.66970  187.35410   11.41440    2.52040    0.18640    2.24700    0.27130    0.33620  293.40070
 7243.00000   78.87190    3.20760    3.30950    4.01850    0.99270   94.10080  187.93410   11.15410    2.46020    0.18860    2.24840    0.27020    0.33410  327.59900
 7243.50000   80.18300    3.05480    3.14820    4.24920    0.93060   91.50290  187.34770   10.95470    2.50420    0.17780    2.24980    0.27080    0.32990  334.73740
 7244.00000   76.56450    3.09770    3.05830    4.43230    0.87750   89.70740  184.17380   10.93860    2.58620    0.16030    2.25950    0.25440    0.32230  332.66900
 7244.50000   71.61620    3.14120    3.05540    4.55620    0.82430   88.83840  183.27730   10.99800    2.68330    0.15490    2.29490    0.23310    0.31200  322.84390
