~Version ---------------------------------------------------
VERS.   2.0 : CWLS log ASCII Standard -VERSION 2.0
WRAP.    NO : One line per depth step
DLM . SPACE : Column Data Section Delimiter
~Well ------------------------------------------------------
STRT .F                  630.0 : START DEPTH
STOP .F                 7987.0 : STOP DEPTH
STEP .F                    0.5 : STEP
NULL .                -9999.25 : NULL VALUE
COMP .                         : COMPANY
WELL .                         : WELL
FLD  .                         : FIELD
LOC  .                         : LOCATION
PROV .                         : PROVINCE
CNTY .                         : COUNTY
STAT .                         : STATE
CTRY .                         : COUNTRY
SRVC .                         : SERVICE COMPANY
DATE .                         : DATE
UWI  .                         : UNIQUE WELL ID
API  .                         : API NUMBER
SLAT .WGS84 6.5264798795757955 : SURFACE LATITUDE
SLON .WGS84 3.0229995374809278 : SURFACE LONGITUDE
DATUM.F                 1210.7 : DEPTH DATUM ELEV
~Curve Information -----------------------------------------
DEPT.F     : 
GRR .GAPI  : GAMMA RAY
ILD .OHMM  : INDUCTION LOG DEEP
ILM .OHMM  : INDUCTION LOG MEDIUM
SFLU.OHMM  : SPHERICALLY FOCUSED LOG UNAVERAGED RESISTIVITY
SPR .MV    : SPONTANEOUS POTENTIAL
DTCO.US/F  : COMPRESSIONAL-WAVE INTERVAL TRANSIT TIME ACAUSTIC SLOWNESS
DTSM.US/F  : SHEAR-WAVE INTERVAL TRANSIT TIME DELTA-T
CALD.IN    : CALIPER FROM DENSITY LOG
PEF .B/E   : PHOTOELECTRIC FACTOR
DRHO.G/C3  : DENSITY CORRECTION
RHOB.G/C3  : BULK DENSITY
DPHI.DEC   : DENSITY POROSITY LIMESTONE
NPHI.DEC   : NEUTRON POROSITY LIMESTONE
CILD.MMHO  : CONDUCTIVITY INDUCTION LOG DEEP
~Params ----------------------------------------------------
~Other -----------------------------------------------------
~ASCII -----------------------------------------------------
# ...
 7955.50000   46.01010    4.45040    4.35690    4.62450  -24.89990   63.84720  108.44880    7.58880    2.84570   -0.00060    2.59850    0.06430    0.16420  232.03120
 7956.00000   45.52610    4.32360    4.20250    4.52320  -24.95660   63.71340  110.56090    7.58770    2.84450   -0.00070    2.59840    0.06430    0.16600  239.09690
 7956.50000   45.48870    4.18520    4.11060    4.45520  -25.32300   64.03860  111.34140    7.58670    2.85840   -0.00090    2.59750    0.06500    0.16760  243.91220
 7957.00000   45.45120    4.09450    4.00620    4.38820  -25.37880   64.82020  111.81740    7.58560    2.97990   -0.00100    2.59280    0.06700    0.16820  250.66670
 7957.50000   -9999.25    4.03380    3.89130    4.29200  -25.43460   65.92280  111.83690    7.58460    3.07540   -0.00110    2.58520    0.07120    0.16860  258.08740
 7958.00000   -9999.25    3.94630    3.80630    4.16880  -25.49040   66.70710  112.16070    7.58350    3.01060   -0.00050    2.58130    0.07550    0.16860  262.49050
 7958.50000   -9999.25    3.88780    3.73550    4.04900  -25.54630   66.86040  113.09340    7.58250    2.91890    0.00090    2.57890    0.07430    0.16840  267.58260
 7959.00000   -9999.25    3.80350    3.67960    3.98810  -25.60210   66.27500  115.09150    7.58140    2.85990    0.00160    2.58780    0.06880    0.16840  277.07800
 7959.50000   -9999.25    3.74710    3.62440    3.92810  -25.65790   65.68470  112.98000    7.58010    2.93410    0.00300    2.59600    0.06310    0.16840  286.52900
 7960.00000   -9999.25    3.69150    3.57010    3.86530  -25.71380   64.94190  111.62960    7.59430    2.98580    0.00280    2.60570    0.05820    0.16940  291.48650
 7960.50000   -9999.25    3.63680    3.54130    3.78320  -25.76950   63.74190  110.58360    7.59330    3.03000    0.00270    2.61240    0.05550    0.17380  288.35440
 7961.00000   -9999.25    3.53310    3.51270    3.67460  -25.52470   63.14680  110.29830    7.59220    3.08930    0.00260    2.61760    0.05250    0.18020  283.38390
 7961.50000   -9999.25    3.50520    3.46000    3.64470  -25.58230   63.32350  110.16580    7.59120    3.14860    0.00170    2.62200    0.05010    0.18200  275.05880
 7962.00000   -9999.25    3.50140    3.52960    3.71760  -25.63830   63.49540  110.18570    7.59010    3.20790    0.00080    2.62340    0.05110    0.17200  264.72220
 7962.50000   -9999.25    3.68620    3.80780    4.03840  -25.39490   63.21010  109.72340    7.58910    3.28990    0.00070    2.62330    0.05140    0.14590  251.74820
 7963.00000   -9999.25    4.06140    4.19520    4.54290  -25.15180   61.85760  108.25030    7.58800    3.42480   -0.00090    2.62790    0.04690    0.11180  221.63700
 7963.50000   -9999.25    4.64910    5.20590    5.29230  -25.22160   60.81000  105.98660    7.58700    3.59000   -0.00260    2.64720    0.03470    0.09580  191.52590
 7964.00000   -9999.25    5.49270    6.46010    6.70500  -24.96450   59.61000  103.57070    7.58590    3.78550   -0.00420    2.68480    0.01500    0.06600  161.41480
 7964.50000   -9999.25    6.44430    7.58000   10.85080  -25.03430   56.25040  100.39380    7.58490    3.95820   -0.00580    2.72490   -0.00210    0.05870  131.30360
 7965.00000   -9999.25    7.88440    8.83200   14.33650  -25.09010   54.13130   99.34780    7.58380    4.00240   -0.00670    2.74670   -0.01390    0.05510   99.81710
 7965.50000   -9999.25    9.71400   11.11710   16.01510  -25.14600   53.54550   98.45400    7.58280    4.02390   -0.00760    2.75640   -0.02270    0.05090   88.78660
 7966.00000   -9999.25   11.96810   13.74870   18.02190  -25.20170   52.98540   97.71240    7.58170    3.97730   -0.00690    2.76090   -0.02850    0.04420   73.03590
 7966.50000   -9999.25   14.33890   17.54980   20.34190  -24.95860   52.54270   96.97080    7.58060    3.93830   -0.00630    2.75700   -0.02870    0.03450   57.01420
 7967.00000   -9999.25   18.42280   22.15090   23.82520  -25.01450   51.95730   96.53360    7.57960    3.99830   -0.00490    2.75150   -0.02750    0.02850   49.88020
 7967.50000   -9999.25   21.01850   29.26430   32.29490  -24.75740   51.36700   95.79200    7.57830    4.10480   -0.00280    2.74610   -0.02440    0.02150   42.03320
 7968.00000   -9999.25   24.48800   35.06590   47.72100  -24.82710   50.92920   95.20260    7.57730    4.21740   -0.00060    2.74220   -0.01920    0.01730   33.85610
 7968.50000   -9999.25   27.93820   42.31290   78.31490  -24.88300   50.79130   94.60010    7.57620    4.30810    0.00150    2.73830   -0.01850    0.01670   24.28620
 7969.00000   -9999.25   32.78130   51.77720  107.90680  -25.23780   50.65840   93.85400    7.57510    4.37060    0.00060    2.74580   -0.02010    0.01800   20.33040
 7969.50000   -9999.25   37.92650   61.60950  123.96120  -25.91130   50.52540   93.28700    7.58960    4.44500   -0.00100    2.75400   -0.02280    0.01870   20.06250
 7970.00000   -9999.25   44.17190   73.82360  122.95370  -26.58740   50.54980   92.84980    7.60350    4.50430   -0.00110    2.76070   -0.02890    0.01900   20.42100
 7970.50000   -9999.25   50.04460   89.08050  121.95440  -27.51190   50.56920   92.41270    7.58720    4.56360   -0.00210    2.75830   -0.02930   -9999.25   19.71740
 7971.00000   -9999.25   54.36990  100.22480  125.26760  -28.16560   50.43600   92.27500    7.58620    4.62290   -0.00210    2.73770   -0.01830   -9999.25   20.52000
 7971.50000   -9999.25   57.04080  105.87930  140.91740  -28.22140   50.45580   92.14220    7.56990    4.66710   -0.00230    2.72780   -0.01040   -9999.25   20.57200
 7972.00000   -9999.25   58.60140  108.00660  170.00520  -28.27720   50.47560   92.47090    7.55360    4.68130   -0.00160    2.72840   -0.01000   -9999.25   20.61790
 7972.50000   -9999.25   58.54520  102.01280  191.28850  -28.03410   50.49540   92.94700    7.55260    4.52100   -0.00180    2.73680   -0.01640   -9999.25   20.66690
 7973.00000   -9999.25   58.89910   95.67970  154.57250  -27.77700   50.51530   93.11720    7.55150    4.42900   -0.00040    2.74420   -0.02090   -9999.25   20.72310
 7973.50000   -9999.25   58.84250   88.49230  120.52660  -27.24890   -9999.25   -9999.25    7.53520    4.31430    0.00030    2.74870   -0.02300   -9999.25   20.76490
 7974.00000   -9999.25   59.19830   81.84480  108.48800  -26.99180   -9999.25   -9999.25    7.53410    4.19960    0.00090    2.75210   -0.02390   -9999.25   20.81390
 7974.50000   -9999.25   58.72950   73.85890  101.41080  -26.44970   -9999.25   -9999.25    7.53310    3.91850    0.00080    2.75880   -0.03030   -9999.25   20.86290
 7975.00000   -9999.25   57.85890   68.31070   96.45320  -25.91930   -9999.25   -9999.25    7.53200    3.65260    0.00220    2.77380   -0.04390   -9999.25   21.85410
 7975.50000   -9999.25   55.04380   63.84890   90.46380  -25.37950   -9999.25   -9999.25    7.51550    3.72700    0.00360    2.79490   -0.05300   -9999.25   23.22540
 7976.00000   -9999.25   48.82660   53.52820   76.93300  -25.13600   -9999.25   -9999.25    7.49920    4.02080    0.00570    2.80460   -0.05640   -9999.25   25.14910
 7976.50000   -9999.25   45.33000   47.14020   64.06750  -24.58180   -9999.25   -9999.25    7.48290    4.17090    0.00560    2.78930   -0.04600   -9999.25   27.17440
 7977.00000   -9999.25   42.07520   41.22510   56.42360  -23.45430   -9999.25   -9999.25    7.46660    4.06910    0.00540    2.77710   -0.03740   -9999.25   28.65150
 7977.50000   -9999.25   39.74930   37.86240   50.04050  -22.56110   -9999.25   -9999.25    7.46560    3.84060    0.00610    2.77400   -0.03800   -9999.25   29.44610
 7978.00000   -9999.25   37.55200   35.76120   46.93320  -21.77230   -9999.25   -9999.25    7.47980    3.72540    0.00590    2.78140   -0.04220   -9999.25   29.49570
 7978.50000   -9999.25   35.47620   34.25280   44.95210  -21.23020   -9999.25   -9999.25    7.47870    3.76920    0.00580    2.78660   -0.04700   -9999.25   28.79050
 7979.00000   -9999.25   34.46510   33.73930   43.35670  -20.40310   -9999.25   -9999.25    7.50810    3.83920    0.00570    2.78800   -0.04640   -9999.25   27.91760
 7979.50000   -9999.25   33.71770   33.70210   43.30380  -19.56200   -9999.25   -9999.25    7.53780    3.85340    0.00330    2.78110   -0.04330   -9999.25   27.38130
