~Version ---------------------------------------------------
VERS.   2.0 : CWLS log ASCII Standard -VERSION 2.0
WRAP.    NO : One line per depth step
DLM . SPACE : Column Data Section Delimiter
~Well ------------------------------------------------------
STRT .F                  630.0 : START DEPTH
STOP .F                 7987.0 : STOP DEPTH
STEP .F                    0.5 : STEP
NULL .                -9999.25 : NULL VALUE
COMP .                         : COMPANY
WELL .                         : WELL
FLD  .                         : FIELD
LOC  .                         : LOCATION
PROV .                         : PROVINCE
CNTY .                         : COUNTY
STAT .                         : STATE
CTRY .                         : COUNTRY
SRVC .                         : SERVICE COMPANY
DATE .                         : DATE
UWI  .                         : UNIQUE WELL ID
API  .                         : API NUMBER
SLAT .WGS84 6.5264798795757955 : SURFACE LATITUDE
SLON .WGS84 3.0229995374809278 : SURFACE LONGITUDE
DATUM.F                 1210.7 : DEPTH DATUM ELEV
~Curve Information -----------------------------------------
DEPT.F     : 
GRR .GAPI  : GAMMA RAY
ILD .OHMM  : INDUCTION LOG DEEP
ILM .OHMM  : INDUCTION LOG MEDIUM
SFLU.OHMM  : SPHERICALLY FOCUSED LOG UNAVERAGED RESISTIVITY
SPR .MV    : SPONTANEOUS POTENTIAL
DTCO.US/F  : COMPRESSIONAL-WAVE INTERVAL TRANSIT TIME ACAUSTIC SLOWNESS
DTSM.US/F  : SHEAR-WAVE INTERVAL TRANSIT TIME DELTA-T
CALD.IN    : CALIPER FROM DENSITY LOG
PEF .B/E   : PHOTOELECTRIC FACTOR
DRHO.G/C3  : DENSITY CORRECTION
RHOB.G/C3  : BULK DENSITY
DPHI.DEC   : DENSITY POROSITY LIMESTONE
NPHI.DEC   : NEUTRON POROSITY LIMESTONE
CILD.MMHO  : CONDUCTIVITY INDUCTION LOG DEEP
~Params ----------------------------------------------------
~Other -----------------------------------------------------
~ASCII -----------------------------------------------------
# ...
 6804.00000  120.67900   11.73350   11.89870   15.34940  -14.20970   71.52130  130.74590    7.85120    3.19440    0.00270    2.67420    0.02210    0.23760   86.17130
 6804.50000  114.09010   11.23890   11.16070   14.59890  -13.07670   72.62050  132.75570    7.88060    3.12510    0.00030    2.65220    0.03650    0.24040   90.42770
 6805.00000  109.63520   10.84070   10.84140   14.17990  -12.23010   73.69350  134.92140    7.91000    3.18430   -0.00130    2.64070    0.03990    0.23920   96.25070
 6805.50000  112.06150   10.52990   10.75460   13.57860  -11.68250   74.90760  136.47850    7.92420    3.29640   -0.00140    2.63910    0.03990    0.23720   99.03560
 6806.00000  114.94850   10.37060   10.59410   13.09910  -11.13300   75.38230  137.10040    7.93840    3.36350   -0.00160    2.63670    0.04080    0.23110  101.56070
 6806.50000  112.44630   10.21500   10.58310   12.79820  -10.28830   75.54810  136.25350    7.95260    3.21070   -0.00090    2.63350    0.04240    0.22320  102.78420
 6807.00000  103.92670    9.95690   10.42510   12.61730   -9.44170   75.11400  134.38790    7.95150    3.20220   -0.00110    2.63660    0.04180    0.22270  103.08340
 6807.50000   99.87130    9.90950   10.26960   12.87100   -8.89410   74.52320  133.34510    7.95050    3.29890   -0.00120    2.64410    0.03940    0.22790  103.08740
 6808.00000  102.51240    9.89820   10.18740   12.76710   -8.64540   73.78020  133.05760    7.93410    3.29760   -0.00130    2.65050    0.03520    0.23610  102.33330
 6808.50000  104.93020    9.88700   10.10580   12.75300   -8.39670   73.64150  132.92800    7.91760    3.23590   -0.00140    2.64730    0.03550    0.23890  102.33720
 6809.00000  105.79490    9.87580   10.02360   12.56180   -8.14810   73.66410  133.10280    7.90130    3.18930    0.00000    2.64720    0.03590    0.23890  102.34140
 6809.50000  104.18550    9.86460    9.94340   12.54790   -7.89940   73.37770  132.21790    7.88500    3.24260    0.00060    2.65240    0.03470    0.23710  102.34470
 6810.00000  100.57660    9.85340    9.96790   12.53410   -7.36430   72.48250  131.77820    7.88400    3.32580    0.00120    2.65610    0.03200    0.23350  102.29760
 6810.50000   97.86050    9.84220    9.92270   12.61170   -7.10310   69.45640  133.48070    7.88290    3.42700    0.00020    2.65360    0.03080    0.23200  101.59470
 6811.00000   97.15340    9.76260    9.98080   12.86180   -6.55550   72.21410  135.17760    7.88190    3.47870   -0.00300    2.64820    0.03200    0.23230  101.59850
 6811.50000  100.46410    9.75150    9.97040   12.84760   -6.30670   74.66750  136.72230    7.88080    3.43960   -0.00520    2.64510    0.03540    0.23210  101.60230
 6812.00000  106.23020    9.67260   10.03000   12.74390   -6.05810   75.29440  138.26690    7.89500    3.32500   -0.00610    2.64340    0.03790    0.23060  102.36360
 6812.50000  108.87280    9.59440   10.09000   12.55270   -5.80940   75.00760  141.94250    7.89400    3.19520   -0.00550    2.64480    0.03850    0.22790  103.12500
 6813.00000  107.49440    9.51680   10.07950   12.45140   -5.56070   75.78710  143.94380    7.89290    3.14100   -0.00560    2.65000    0.03820    0.23390  103.88660
 6813.50000  106.78730    9.43980    9.99880   12.35070   -5.62360   75.49600  142.90100    7.89190    3.14730   -0.00350    2.65510    0.03520    0.24380  105.04400
 6814.00000  108.75870    9.20000    9.84960   12.25080   -5.36230   75.21430  142.46130    7.89080    3.22160   -0.00130    2.65650    0.03120    0.25080  105.65110
 6814.50000  112.52890    8.99890    9.63490   12.13720   -5.42520   75.85920  144.92490    7.88980    3.30350   -0.00150    2.65790    0.02950    0.25510  108.44370
 6815.00000  114.71040    8.86400    9.49110   11.96660   -5.47970   76.49400  146.77400    7.88870    3.35520   -0.00080    2.65780    0.02960    0.25060  109.86180
 6815.50000  112.33780    8.57850    9.21950   11.70490   -5.52570   77.09940  147.10100    7.88760    3.37660    0.00130    2.65840    0.02900    0.25090  111.53430
 6816.00000  108.94730    8.27460    9.01860   11.44890   -5.57600   77.57410  148.64570    7.91710    3.39040    0.00270    2.65980    0.02810    0.25640  114.51580
 6816.50000  105.21350    7.92580    8.63880   11.04270   -5.62630   77.28770  149.58150    7.97840    3.38160    0.00260    2.66340    0.02690    0.26220  118.36860
 6817.00000  104.51580    7.53890    8.15990   10.65090   -5.36510   76.39250  147.01260    8.05440    3.30470    0.01300    2.65970    0.02910    0.26410  128.91670
 6817.50000  109.37960    7.12090    7.70760    9.91950   -5.42790   75.80170  147.04980    8.15760    3.22790    0.03020    2.63140    0.03740    0.26710  141.35320
 6818.00000  112.69030    6.54070    7.03000    8.98310   -5.17790   74.60210  147.38300    8.24800    3.11960    0.06410    2.60490    0.05630    0.27080  150.71940
 6818.50000  116.44740    6.13500    6.54800    8.07830   -5.22950   72.94590  147.86840    8.32310    3.02730    0.09340    2.58960    0.07060    0.28940  160.74650
 6819.00000  119.98140    5.71440    5.97230    7.06390   -5.27980   73.87710  151.06820    8.42880    2.96590    0.14120    2.60460    0.06370    0.31590  168.80420
 6819.50000  123.29210    5.21230    5.22320    6.48730   -5.33040   75.56950  157.15840    8.54970    2.94280    0.17350    2.61880    0.05610    0.33630  176.89280
 6820.00000  126.37950    4.88900    4.79750    6.04180   -5.38110   77.87060  164.06460    8.68580    2.92640    0.18940    2.62250    0.05240    0.32810  191.81860
 6820.50000  127.91390    4.58580    4.49950    5.74640   -5.43060   80.32400  169.63820    8.77620    2.86470    0.19890    2.58080    0.07410    0.32420  209.24020
 6821.00000  120.05450    4.36190    4.38600    5.58150   -5.18190   81.58870  175.98500    8.83620    2.84110    0.19400    2.54440    0.09300    0.33700  224.08930
 6821.50000  115.32950    4.26650    4.29030    5.45930   -5.24480   81.72840  183.29880    8.88080    2.90000    0.17650    2.52240    0.10980    0.34790  232.73930
 6822.00000  112.83660    4.17270    4.22630    5.41060   -4.99610   81.13760  187.12650    8.95600    2.98940    0.17030    2.51630    0.11350    0.36200  238.33830
 6822.50000  112.36210    4.12450    4.14820    5.29660   -5.04640   82.53000  185.93150    9.01590    2.89740    0.16640    2.52590    0.10620    0.36170  243.35230
 6823.00000  114.36810    4.09120    4.02950    5.25260   -4.78100   83.46130  184.73640    9.01490    2.82060    0.16180    2.51980    0.11080    0.35230  247.51000
 6823.50000  113.61700    4.01520    3.94160    5.17390   -4.84380   82.71830  184.44900    8.99860    2.75890    0.16090    2.50450    0.11820    0.33680  251.71130
 6824.00000  112.46340    3.92740    3.85570    5.09630   -5.19300   81.67090  184.62940    8.99750    2.70470    0.16750    2.48400    0.12890    0.33380  255.48510
 6824.50000  111.75630    3.78820    3.74540    4.98480   -5.54220   80.47130  184.80420    8.99650    2.62030    0.17500    2.46200    0.14900    0.34480  261.68720
 6825.00000  109.93300    3.62860    3.61290    4.84170   -5.89150   79.57610  173.56350    8.98020    2.52830    0.16960    2.41350    0.17100    0.36240  271.77850
 6825.50000  106.03690    3.45140    3.48500    4.66990   -5.64280   78.83310  171.45520    8.97740    2.40610    0.15580    2.35530    0.22120    0.39350  288.07240
 6826.00000  100.42100    3.28290    3.26890    4.28880   -5.69310   78.69440  172.08670    8.87140    2.34440    0.14590    2.24340    0.26600    0.41360  308.29100
 6826.50000   98.62680    3.10090    3.02350    3.82990   -5.74340   81.00010  179.87180    9.24560    2.43380    0.14500    2.13600    0.34560    0.42940  336.38530
 6827.00000   97.01660    2.82840    2.77710    3.34900   -5.79370   84.51890  180.50330    9.87510    2.58590    0.14870    2.15090    0.32620    0.44280  366.11430
 6827.50000   95.00400    2.59790    2.56860    3.07560   -5.54490   88.64650  181.13470   10.48380    2.67400    0.16060    2.20140    0.29510    0.46810  385.35690
 6828.00000   92.51110    2.36960    2.35920    2.74650   -5.59640   92.16530  182.52720   10.95530    2.63010    0.16580    2.22770    0.28150    0.48880  416.87880
