~Version ---------------------------------------------------
VERS.   2.0 : CWLS log ASCII Standard -VERSION 2.0
WRAP.    NO : One line per depth step
DLM . SPACE : Column Data Section Delimiter
~Well ------------------------------------------------------
STRT .F                  630.0 : START DEPTH
STOP .F                 7987.0 : STOP DEPTH
STEP .F                    0.5 : STEP
NULL .                -9999.25 : NULL VALUE
COMP .                         : COMPANY
WELL .                         : WELL
FLD  .                         : FIELD
LOC  .                         : LOCATION
PROV .                         : PROVINCE
CNTY .                         : COUNTY
STAT .                         : STATE
CTRY .                         : COUNTRY
SRVC .                         : SERVICE COMPANY
DATE .                         : DATE
UWI  .                         : UNIQUE WELL ID
API  .                         : API NUMBER
SLAT .WGS84 6.5264798795757955 : SURFACE LATITUDE
SLON .WGS84 3.0229995374809278 : SURFACE LONGITUDE
DATUM.F                 1210.7 : DEPTH DATUM ELEV
~Curve Information -----------------------------------------
DEPT.F     : 
GRR .GAPI  : GAMMA RAY
ILD .OHMM  : INDUCTION LOG DEEP
ILM .OHMM  : INDUCTION LOG MEDIUM
SFLU.OHMM  : SPHERICALLY FOCUSED LOG UNAVERAGED RESISTIVITY
SPR .MV    : SPONTANEOUS POTENTIAL
DTCO.US/F  : COMPRESSIONAL-WAVE INTERVAL TRANSIT TIME ACAUSTIC SLOWNESS
DTSM.US/F  : SHEAR-WAVE INTERVAL TRANSIT TIME DELTA-T
CALD.IN    : CALIPER FROM DENSITY LOG
PEF .B/E   : PHOTOELECTRIC FACTOR
DRHO.G/C3  : DENSITY CORRECTION
RHOB.G/C3  : BULK DENSITY
DPHI.DEC   : DENSITY POROSITY LIMESTONE
NPHI.DEC   : NEUTRON POROSITY LIMESTONE
CILD.MMHO  : CONDUCTIVITY INDUCTION LOG DEEP
~Params ----------------------------------------------------
~Other -----------------------------------------------------
~ASCII -----------------------------------------------------
# ...
 7122.50000   23.29180   35.39710   34.96430  196.94060   -6.06880   50.71980   91.95140    8.09440    4.24540   -0.00760    2.72740   -0.01400    0.00900   56.98890
 7123.00000   31.09110   47.09590   49.91990  209.56680   -6.42150   51.80790   93.03790    8.04740    3.86600   -0.01460    2.70970   -0.00940    0.01000   45.68300
 7123.50000   36.97580   62.66120   62.17120  224.74070   -6.78420   52.89600   94.27660    8.01570    3.61530   -0.01620    2.69610    0.00470    0.01120   33.62920
 7124.00000   43.79110   70.00710   81.25740  239.36570   -7.43480   53.21660   94.14540    7.96880    3.64440   -0.01410    2.68250    0.01750    0.01250   23.66730
 7124.50000   43.44620   67.53870   81.17600  261.17340   -8.68330   52.78040   94.16640    7.92190    3.81730   -0.01270    2.67940    0.01760    0.01340   14.11340
 7125.00000   41.17680   65.15730   77.75270  283.74380   -9.93190   54.63590   94.33970    7.89020    3.83890   -0.01060    2.68080    0.01520    0.01350   10.03790
 7125.50000   38.01460   62.85230   71.91270  289.52560  -11.18040   55.10900   94.96950    7.87370    3.83020   -0.00700    2.68220    0.01340    0.01350   10.79920
 7126.00000   34.85240   61.92070   69.85110  251.36270  -12.12990   53.91580   96.05600    7.87250    3.84510   -0.00330    2.68520    0.01280    0.01320   10.80300
 7126.50000   31.91340   61.85420   76.14760  244.22230  -12.48160   53.02220   97.29470    7.87130    3.99580   -0.00040    2.69150    0.01190    0.01300   10.80710
 7127.00000   28.75130   62.66480   80.72440  272.78570  -12.53440   51.82370   96.85910    7.87010    4.34850    0.00170    2.70380    0.00440    0.01240   10.81060
 7127.50000   26.25870   64.37960   77.30770  306.91390  -12.58700   50.62520   96.27130    7.86660    4.40820    0.00310    2.71500   -0.00130    0.01210   10.81440
 7128.00000   26.66790   65.68070   74.04750  340.51180  -12.34080   50.34130   94.92240    7.85250    4.36140    0.00300    2.71720   -0.00500    0.01220   10.81870
 7128.50000   31.09500   65.61790   69.93900  333.07110  -12.07070   50.52850   94.76130    7.86650    4.25440    0.00280    2.71180   -0.00300    0.01250   10.82200
 7129.00000   34.62920   61.99100   63.34200  308.05310  -11.54940   51.29880   91.90700    7.84980    4.13220    0.00190    2.70410    0.00110    0.01340   11.58330
 7129.50000   39.99490   53.85360   57.77010  256.88230  -11.00420   51.01940   91.78920    7.86410    4.00250    0.00100    2.69950    0.00510    0.01530   12.55630
 7130.00000   43.60000   43.02120   48.10620  167.99780  -10.45900   50.27300   94.55520    7.87820    4.05440    0.00020    2.70540    0.00210    0.02050   15.02530
 7130.50000   41.87440   34.60870   37.87760  100.17370   -9.62800   52.28100   96.25050    7.90720    4.11370   -0.00070    2.71290   -0.00240    0.02970   19.17070
 7131.00000   37.59610   27.27710   28.19990   71.01350   -9.06960   52.91180   98.09800    7.95170    4.15800   -0.00090    2.71510    0.00270    0.05130   24.17660
 7131.50000   33.54100   21.93470   22.51880   38.85670   -7.93970   53.99990  102.07640    8.04200    4.08880   -0.00100    2.68920    0.01610    0.07200   36.73120
 7132.00000   30.82530   18.78450   19.14970   23.78060   -7.09560   55.85010  104.53280    8.13220    3.98940   -0.00120    2.64680    0.03780    0.09400   47.97020
 7132.50000   29.44880   16.78130   16.62420   20.50770   -6.25140   57.24310  105.16260    8.23770    3.95800   -0.00130    2.63990    0.03540    0.09980   57.66540
 7133.00000   29.18840   15.20280   15.48360   19.78070   -5.40730   58.48370  105.64030    8.29750    3.96440   -0.00070    2.67300    0.00970    0.09860   65.52440
 7133.50000   30.49040   14.06450   14.22070   20.46270   -4.86100   60.63890  105.96570    8.32680    3.92500    0.00070    2.70790   -0.00430    0.09800   74.40960
 7134.00000   33.80150   13.19450   12.78950   23.34730   -4.31690   60.35500  105.68230    8.34090    3.86260    0.00210    2.71990   -0.00800    0.10210   82.49970
 7134.50000   37.78210   12.03720   12.07990   23.70060   -3.74780   60.06590  105.09450    8.35490    3.87570    0.00500    2.72040   -0.00300    0.10450   85.11010
 7135.00000   40.64670   11.77620   11.65180   22.02760   -3.47760   60.39710  105.11550    8.35370    4.02780    0.00710    2.70660    0.00490    0.10290   85.06320
 7135.50000   42.84420   12.35480   11.39720   19.94470   -3.27920   61.48510  106.20200    8.37020    4.17040    0.00920    2.69440    0.01200    0.09480   79.84330
 7136.00000   38.89060   13.32920   12.38220   19.10840   -3.34510   60.74400  104.85320    8.41200    4.29030    0.01060    2.68830    0.01100    0.06850   71.48530
 7136.50000   29.40110   14.32860   14.42750   23.80790   -3.39780   59.23410  102.43890    8.45650    4.36480    0.01120    2.69420    0.00710    0.05070   67.20490
 7137.00000   25.75650   14.66930   16.81200   32.21920   -3.45050   58.78860  101.85110    8.48580    4.42420    0.01030    2.69870    0.00540    0.04360   64.67410
 7137.50000   27.72820   14.34950   18.32520   38.07030   -3.50320   57.27640   99.89350    8.53030    4.43850    0.00870    2.70160    0.00470    0.04050   65.18390
 7138.00000   30.36960   13.84360   17.61140   44.98390   -3.55600   55.64520   97.92040    8.57480    4.41440    0.00550    2.70530    0.00300    0.04660   66.64020
 7138.50000   31.89480   12.45400   15.29430   38.79280   -3.01070   57.50070   98.79970    8.64990    4.07290    0.00290    2.70670    0.01160    0.06400   69.98880
 7139.00000   34.31300   11.36160   12.29790   28.28110   -2.76450   59.96080  103.31560    8.72490    3.86000   -0.00010    2.67250    0.05880    0.08080   73.92240
 7139.50000   37.84720    9.93940   10.31260   18.30500   -2.51720   60.89640  110.02500    8.81510    3.75300   -0.00170    2.61720    0.09790    0.09760   80.53120
 7140.00000   43.61360    8.05190    8.95570   12.09930   -1.67420   64.42350  115.06890    8.87330    3.66860    0.00040    2.45450    0.14060    0.13170   97.27320
 7140.50000   49.60320    6.56860    7.72320    8.45800   -1.10500   69.77990  112.35360    8.93650    3.52380    0.01920    2.45510    0.15030    0.17060  117.81650
 7141.00000   58.49460    5.32120    5.70980    6.94520   -0.53590   70.40550  103.39450    8.99980    3.26550    0.06130    2.49360    0.12910    0.20570  143.88740
 7141.50000   70.28770    4.32590    4.82170    5.39250    0.24720   67.68780   93.52200    9.06940    3.02990    0.09590    2.53510    0.10530    0.25440  198.04240
 7142.00000   78.79410    3.93230    3.93200    4.32220    0.50660   62.37350   86.99820    9.22060    2.99090    0.10790    2.55400    0.09230    0.28090  239.54980
 7142.50000   80.95570    3.61190    3.48670    3.95440    0.75290   58.88320   85.64930    9.29560    3.03600    0.11680    2.56530    0.08620    0.28360  282.89790
 7143.00000   80.21140    3.41230    3.24670    4.03290    1.28490   59.06190   85.82260    9.24870    3.05790    0.12130    2.56970    0.08380    0.28120  301.72310
 7143.50000   77.27240    3.17890    3.06660    4.11390    1.53110   59.54020   85.99580    9.24750    3.07810    0.12500    2.57020    0.08440    0.27760  321.47060
 7144.00000   71.43170    2.98230    2.91680    4.16850    1.79060   57.73200   84.49480    9.35300    3.04670    0.13000    2.56180    0.08660    0.27040  341.24290
 7144.50000   67.82300    2.87720    2.81340    4.16280    1.72030   57.29450   83.29810    9.48900    3.01530    0.13590    2.54730    0.09210    0.26640  352.82550
 7145.00000   66.66980    2.81480    2.77120    4.01520    1.67190   57.16430   84.53160    9.59550    2.99150    0.14860    2.53430    0.09950    0.27650  360.18940
 7145.50000   65.96290    2.77310    2.72970    3.84590    1.61920   58.46350   84.16360    9.71680    2.99040    0.17490    2.52890    0.10440    0.29510  357.16360
 7146.00000   66.59540    2.75110    2.70770    3.63250    1.26760   61.77020   88.68850    9.79030    2.98930    0.18690    2.52960    0.10350    0.31130  356.40840
 7146.50000   67.46030    2.72930    2.70480    3.50370    0.91480   62.87290   91.14480    9.80430    3.01840    0.19050    2.52720    0.10510    0.32780  359.44330
