~Version ---------------------------------------------------
VERS.   2.0 : CWLS log ASCII Standard -VERSION 2.0
WRAP.    NO : One line per depth step
DLM . SPACE : Column Data Section Delimiter
~Well ------------------------------------------------------
STRT .F                 1486.0 : START DEPTH
STOP .F                11021.0 : STOP DEPTH
STEP .F                    0.5 : STEP
NULL .                -9999.25 : NULL VALUE
COMP .                         : COMPANY
WELL .                         : WELL
FLD  .                         : FIELD
LOC  .                         : LOCATION
PROV .                         : PROVINCE
CNTY .                         : COUNTY
STAT .                         : STATE
CTRY .                         : COUNTRY
SRVC .                         : SERVICE COMPANY
DATE .                         : DATE
UWI  .                         : UNIQUE WELL ID
API  .                         : API NUMBER
SLAT .WGS84    6.1687087211251 : SURFACE LATITUDE
SLON .WGS84 3.6499511711832042 : SURFACE LONGITUDE
DATUM.F                1865.25 : DEPTH DATUM ELEV
~Curve Information -----------------------------------------
DEPT.F     : 
CALD.IN    : CALIPER FROM DENSITY LOG
DPHI.DEC   : DENSITY POROSITY LIMESTONE
DRHO.G/C3  : BULK DENSITY CORRECTION
NPHI.DEC   : NEUTRON POROSITY LIMESTONE
PEF .B/E   : PHOTOELECTRIC FACTOR, BOTTOM
RHOB.G/C3  : BULK DENSITY
DTCO.US/F  : COMPRESSIONAL-WAVE INTERVAL TRANSIT TIME ACAUSTIC SLOWNESS
DTSM.US/F  : SHEAR-WAVE INTERVAL TRANSIT TIME DELTA-T
GRR .GAPI  : GAMMA RAY
ILD .OHMM  : INDUCTIO LOG DEEP
ILM .OHMM  : INDUCTION LOG MEDIUM
SFLU.OHMM  : SPHERICALLY FOCUSED LOG UNAVERAGED RESISTIVITY
SPR .MV    : SPONTANEOUS POTENTIAL
~Params ----------------------------------------------------
~Other -----------------------------------------------------
~ASCII -----------------------------------------------------
# ...
 11002.00000    7.60410    0.06570    0.10210    0.09080    3.47540    2.62690   59.80730  101.38150   -9999.25   12.93340   12.06620   15.97050  -24.35590
 11002.50000    7.57360    0.03500    0.08580    0.08310    3.80070    2.65900   54.99940  100.68970   -9999.25   14.23630   28.93470   16.87250  -24.36720
 11003.00000    7.51340    0.01970    0.06660    0.08070    4.05680    2.68170   51.99340  101.39970   -9999.25   14.63560   28.54390   23.11890  -24.37860
 11003.50000    7.48290    0.01350    0.04140    0.08070    4.08130    2.70130   49.28770  101.90390   -9999.25   14.05630   19.47020  107.78930  -24.38990
 11004.00000    7.45240    0.01590    0.03300    0.08000    3.69640    2.68940   45.98140  102.31380   -9999.25   12.37920   11.42730  140.25340  -23.81130
 11004.50000    7.45160    0.05450    0.03700   -9999.25    3.28200    2.60140   44.77720  102.51650   -9999.25   10.70060    9.56800  144.76300  -23.82300
 11005.00000    7.49550    0.08130    0.05620   -9999.25    3.17820    2.49990   46.57600  102.41740   -9999.25    9.72770    8.57770   60.31150  -23.83480
 11005.50000    7.64910    0.14780    0.07540   -9999.25    3.13360    2.47100   51.67960  101.71680   -9999.25    9.46850    8.16000   15.77680  -23.84660
 11006.00000    7.75990    0.14290    0.09170   -9999.25    3.13340    2.50550   47.77110   95.35430   -9999.25    9.34260    7.90350   13.02850  -23.26670
 11006.50000    7.80580    0.10810    0.10950   -9999.25    3.17760    2.54760   46.56690   90.70520   -9999.25    9.34610    8.01310   12.85360  -23.28020
 11007.00000    7.56680    0.07330    0.12280   -9999.25    3.35490    2.60480   46.26510   89.33230   -9999.25    9.74040    9.18700   13.21330  -23.88200
 11007.50000    7.50660    0.06510    0.12870   -9999.25    3.51740    2.63740   -9999.25   -9999.25   -9999.25   10.43270   10.39000   14.74500  -23.89380
 11008.00000    7.50590    0.05950    0.12570   -9999.25    3.59110    2.67460   -9999.25   -9999.25   -9999.25   11.17410   10.67860   16.91090  -23.90770
 11008.50000    7.53500    0.03540    0.10360   -9999.25    3.60570    2.68200   -9999.25   -9999.25   -9999.25   11.96820   10.82620   19.93310  -24.50900
 11009.00000    7.56400    0.02490    0.10360   -9999.25    3.60050    2.68050   -9999.25   -9999.25   -9999.25   12.13680   10.97590   22.86100  -24.52030
 11009.50000    7.56320    0.03430    0.09810   -9999.25    3.57560    2.67300   -9999.25   -9999.25   -9999.25   11.86930   11.59330   24.15210  -24.53160
 11010.00000    7.52790    0.03510    0.09220   -9999.25    3.60500    2.66680   -9999.25   -9999.25   -9999.25   11.24170   12.58470   22.05360  -24.54300
 11010.50000    7.50220    0.03610    0.08430   -9999.25    3.75270    2.66090   -9999.25   -9999.25   -9999.25   10.59880   13.66090   21.07130  -24.55460
 11011.00000    7.47170    0.04210    0.08580   -9999.25    3.78210    2.65730   -9999.25   -9999.25   -9999.25   10.17640   12.75950   21.36800  -24.56640
 11011.50000    7.47100    0.05270    0.09170   -9999.25    3.78690    2.65410   -9999.25   -9999.25   -9999.25    9.90530   10.73870   21.08170  -23.98700
 11012.00000    7.48610    0.05400    0.10060   -9999.25    3.64850    2.64640   -9999.25   -9999.25   -9999.25    9.64140    9.75510   19.69130  -24.00000
 11012.50000    7.55860    0.05660    0.10800   -9999.25    3.45600    2.62850   -9999.25   -9999.25   -9999.25    9.38450    9.40590   17.65270  -24.01180
 11013.00000    7.58770    0.06400    0.11390   -9999.25    3.39660    2.61070   -9999.25   -9999.25   -9999.25    9.26020    8.94670   16.20470  -24.02360
 11013.50000    7.61680    0.07110    0.11830   -9999.25    3.36680    2.60180   -9999.25   -9999.25   -9999.25    9.13750    8.82550   14.35750  -24.03540
 11014.00000    7.55650    0.07300    0.12280   -9999.25    3.33700    2.59580   -9999.25   -9999.25   -9999.25    9.14050    8.94780   13.25120  -23.45940
 11014.50000    7.49630    0.07270    0.12570   -9999.25    3.33180    2.61070   -9999.25   -9999.25   -9999.25    9.14350    9.58120   13.80930  -23.47070
 11015.00000    7.46580    0.06800    0.12720   -9999.25    3.30690    2.63490   -9999.25   -9999.25   -9999.25    9.14650   11.29110   14.58920  -23.48080
 11015.50000    7.50000    0.04920    0.12720   -9999.25    3.33630    2.66320   -9999.25   -9999.25   -9999.25   -9999.25   -9999.25   -9999.25   -9999.25
 11016.00000    7.55370    0.03140    0.12570   -9999.25    3.51360    2.69310   -9999.25   -9999.25   -9999.25   -9999.25   -9999.25   -9999.25   -9999.25
 11016.50000    7.59320    0.01350    0.12180   -9999.25    3.66130    2.70670   -9999.25   -9999.25   -9999.25   -9999.25   -9999.25   -9999.25   -9999.25
 11017.00000    7.61160    0.00580    0.11390   -9999.25    3.69070    2.71170   -9999.25   -9999.25   -9999.25   -9999.25   -9999.25   -9999.25   -9999.25
 11017.50000    7.50320    0.01590    0.10950   -9999.25    3.69040    2.71170   -9999.25   -9999.25   -9999.25   -9999.25   -9999.25   -9999.25   -9999.25
 11018.00000    7.31240    0.03420    0.10500   -9999.25    3.60150    2.70540   -9999.25   -9999.25   -9999.25   -9999.25   -9999.25   -9999.25   -9999.25
 11018.50000    7.07360    0.05020    0.10360   -9999.25    3.51250    2.65230   -9999.25   -9999.25   -9999.25   -9999.25   -9999.25   -9999.25   -9999.25
 11019.00000    6.83480    0.07380    0.11390   -9999.25    3.43830    2.59440   -9999.25   -9999.25   -9999.25   -9999.25   -9999.25   -9999.25   -9999.25
 11019.50000    6.65550    0.10150    0.13460   -9999.25    3.38380    2.54530   -9999.25   -9999.25   -9999.25   -9999.25   -9999.25   -9999.25   -9999.25
 11020.00000    6.47620    0.12860    0.15830   -9999.25    3.34910    2.52010   -9999.25   -9999.25   -9999.25   -9999.25   -9999.25   -9999.25   -9999.25
 11020.50000    6.35080    0.13000    0.19380   -9999.25    3.36360    2.49770   -9999.25   -9999.25   -9999.25   -9999.25   -9999.25   -9999.25   -9999.25
 11021.00000    6.26640    0.12510    0.22720   -9999.25    3.37830    2.50180   -9999.25   -9999.25   -9999.25   -9999.25   -9999.25   -9999.25   -9999.25
