~Version ---------------------------------------------------
VERS.   2.0 : CWLS log ASCII Standard -VERSION 2.0
WRAP.    NO : One line per depth step
DLM . SPACE : Column Data Section Delimiter
~Well ------------------------------------------------------
STRT .F                 1486.0 : START DEPTH
STOP .F                11021.0 : STOP DEPTH
STEP .F                    0.5 : STEP
NULL .                -9999.25 : NULL VALUE
COMP .                         : COMPANY
WELL .                         : WELL
FLD  .                         : FIELD
LOC  .                         : LOCATION
PROV .                         : PROVINCE
CNTY .                         : COUNTY
STAT .                         : STATE
CTRY .                         : COUNTRY
SRVC .                         : SERVICE COMPANY
DATE .                         : DATE
UWI  .                         : UNIQUE WELL ID
API  .                         : API NUMBER
SLAT .WGS84    6.1687087211251 : SURFACE LATITUDE
SLON .WGS84 3.6499511711832042 : SURFACE LONGITUDE
DATUM.F                1865.25 : DEPTH DATUM ELEV
~Curve Information -----------------------------------------
DEPT.F     : 
CALD.IN    : CALIPER FROM DENSITY LOG
DPHI.DEC   : DENSITY POROSITY LIMESTONE
DRHO.G/C3  : BULK DENSITY CORRECTION
NPHI.DEC   : NEUTRON POROSITY LIMESTONE
PEF .B/E   : PHOTOELECTRIC FACTOR, BOTTOM
RHOB.G/C3  : BULK DENSITY
DTCO.US/F  : COMPRESSIONAL-WAVE INTERVAL TRANSIT TIME ACAUSTIC SLOWNESS
DTSM.US/F  : SHEAR-WAVE INTERVAL TRANSIT TIME DELTA-T
GRR .GAPI  : GAMMA RAY
ILD .OHMM  : INDUCTIO LOG DEEP
ILM .OHMM  : INDUCTION LOG MEDIUM
SFLU.OHMM  : SPHERICALLY FOCUSED LOG UNAVERAGED RESISTIVITY
SPR .MV    : SPONTANEOUS POTENTIAL
~Params ----------------------------------------------------
~Other -----------------------------------------------------
~ASCII -----------------------------------------------------
# ...
 10846.00000    7.31430    0.02270    0.08310    0.04410    2.52400    2.67780   57.74120   89.13450   29.90100   56.85940  531.32760  313.26690  -33.38060
 10846.50000    7.31360    0.02410    0.08160    0.04520    2.52380    2.67630   56.53700   88.82970   33.41570   53.83830 1206.27250  317.56290  -33.38940
 10847.00000    7.31300    0.02660    0.08150    0.04340    2.32640    2.67180   55.93340   88.52500   33.84210   53.84190 1629.33070  326.35360  -33.39820
 10847.50000    7.31250    0.03070    0.07560    0.03450    2.15840    2.66730   55.93040   88.82130   30.29800   54.58620 1946.07950  369.10680  -33.40710
 10848.00000    7.31190    0.03560    0.06670    0.03210    2.10880    2.65590   56.82830   92.11960   27.19500   59.25430 1674.47500  440.95030  -33.41590
 10848.50000    7.31130    0.04220    0.05870    0.03570    2.07900    2.64020   58.02650   97.82080   26.29540   70.78910  956.21430  498.71580  -33.42480
 10849.00000    7.31070    0.05580    0.05030    0.04870    2.04920    2.62340   58.62410   97.21580   26.57390   73.74570  643.35160  526.74320  -33.43360
 10849.50000    7.31010    0.06590    0.04000    0.05360    2.04900    2.61070   58.32080   94.80890   29.79050   72.75110  485.75540  505.50540  -33.44250
 10850.00000    7.27980    0.08250    0.03400    0.05540    2.01920    2.59360   56.81630   92.10170   35.06980   74.77170  415.56350  440.82080  -33.45270
 10850.50000    7.27920    0.06940    0.02810    0.05930    2.09300    2.58690   54.11060   90.29550   42.11390   83.41490  367.38800  269.31870  -33.46120
 10851.00000    7.27860    0.04860    0.02360    0.06820    2.37380    2.60620   52.90640   89.39010   46.06980  102.39820  329.34210  234.85660  -33.46970
 10851.50000    7.30760    0.03850    0.01770    0.08420    2.61030    2.65070   52.90340   89.98620   50.02560  119.01530  338.46730  216.32830  -33.47820
 10852.00000    7.30710    0.02910    0.01170    0.08660    2.85650    2.66260   53.20070   90.88260   51.77560  150.14860  509.98590  207.61290  -33.48670
 10852.50000    7.36600    0.02600    0.00430    0.08300    3.02410    2.66560   54.69920   91.47880   48.67260  520.72570 1157.82060  238.04630  -33.49560
 10853.00000    7.72260    0.09420   -0.01200    0.07350    2.66870    2.61340   54.99710   91.47430   42.48140 1987.19120 1480.69700  308.71680  -33.50440
 10853.50000    8.85300    0.30000   -0.02540    0.06340    2.37270    2.41000   54.09270   91.16950   39.81960 1987.32090 1792.88430  368.80590  -32.92210
 10854.00000   11.24160   -9999.25   -0.00370    0.06630    2.06180   -9999.25   53.18880   90.56450   38.18570 1960.94810 2000.00000  334.77780  -32.34070
 10854.50000   16.26320   -9999.25    0.03920    0.18960    1.91370   -9999.25   54.68780   90.86030   38.60930 1646.61070 1414.79830  145.40070  -32.35100
 10855.00000   16.52960   -9999.25    0.06330    0.37490    1.82470   -9999.25   54.68430   92.36680   49.91510  396.34230  503.61250   79.62010  -31.76990
 10855.50000   16.58860   -9999.25    0.07510    0.46980    1.80970   -9999.25   49.87650   89.04960   59.60620  136.51830  252.88430   35.02530  -31.19040
 10856.00000   16.58800   -9999.25    0.08690    0.48460    1.82430   -9999.25   48.37200   88.74480   69.73850    7.33140    2.15610   14.78810  -31.19890
 10856.50000   16.58750   -9999.25    0.09280    0.48040    1.83880   -9999.25   48.06870   89.69910   81.63550    3.05770    1.43100    4.02950  -31.20650
 10857.00000   16.46790   -9999.25    0.08390    0.47210    1.85340   -9999.25   48.36600   96.07300   81.62080    2.52540    1.45070    3.14950  -31.21580
 10857.50000   16.28480   -9999.25    0.07200    0.46970    1.88770   -9999.25   50.76540  100.14280   81.60610    2.39130    1.51140    3.02260  -31.22430
 10858.00000   16.15950   -9999.25    0.06310    0.46970    1.94170   -9999.25   53.56440   96.91140   81.15020    2.11470    1.57460    2.98130  -30.64280
 10858.50000   16.10890   -9999.25    0.06610    0.47800    2.04500   -9999.25   51.66030   91.58980   80.69420    1.92190    1.55320    3.02220  -30.65190
 10859.00000   16.10830   -9999.25    0.07840    0.48450    2.07440   -9999.25   51.65730   90.51980   80.67950    1.84480    1.51140    3.17760  -30.66080
 10859.50000   16.72940   -9999.25    0.08080    0.48630    2.07410   -9999.25   53.15580   98.35830   78.90050    1.81990    1.49080    3.35620  -30.28190
 10860.00000   17.52600   -9999.25    0.09110    0.47020    2.04440   -9999.25   54.65440   98.61890   73.14260    2.00280    1.49080    3.23550  -30.08680
 10860.50000   17.86240   -9999.25    0.09550    0.47490    2.01460   -9999.25   53.14990   96.33230   71.80440    2.14450    1.51140    2.86030  -30.09730
 10861.00000   18.04040   -9999.25    0.09700    0.49330    1.98480   -9999.25   50.14390   94.15810   71.78960    2.20400    1.53220    2.63470  -30.10620
 10861.50000   18.15890   -9999.25    0.09250    0.50280    1.98450   -9999.25   48.03880   91.43220   75.30430    2.03070    1.51140    2.59870  -30.11650
 10862.00000   18.18810   -9999.25    0.08800    0.50340    1.98430   -9999.25   47.43520   88.21660   78.73340    1.94930    1.41150    2.56320  -30.12390
 10862.50000   18.18750   -9999.25    0.09250    0.47900    2.01370   -9999.25   48.03280   86.15850   78.36300    1.92300    1.35480    2.56300  -30.13340
 10863.00000   18.18690   -9999.25    0.10130    0.46180    1.98390   -9999.25   49.23100   85.37890   73.49540    1.94950    1.29460    2.49370  -30.14190
 10863.50000   18.27940   -9999.25    0.10870    0.46710    1.93920   -9999.25   49.82860   87.44510   70.83360    1.97650    1.28280    2.45960  -29.56040
 10864.00000   18.71170   -9999.25    0.11460    0.48310    1.92420   -9999.25   48.32410   92.13150   69.93650    2.03140    1.45070    2.34980  -29.56930
 10864.50000   17.65210   -9999.25    0.12000    0.46470    1.98320   -9999.25   45.61840   95.75710   73.29920    2.10700    1.75650    2.28620  -29.57820
 10865.00000   16.03130   -9999.25    0.12190    0.42310    2.08650   -9999.25   45.61540  100.24060   77.98940    2.24650    2.30860    2.26530  -29.58700
 10865.50000   15.48850   -9999.25    0.11450    0.37450    2.18980   -9999.25   48.91570  105.59420   90.17900    2.85930    2.91230    2.52710  -29.59590
 10866.00000   11.30170   -9999.25    0.11150    0.31380    2.21920   -9999.25   56.42020  110.01280   94.13490    3.51000    3.72440    2.97800  -29.60470
 10866.50000    8.32020    0.30000    0.10850    0.27350    2.23380    2.22340   62.72360  119.27130   93.67890    4.36810   13.03460    4.67770  -29.61360
 10867.00000    7.86910    0.15670    0.09960    0.23550    2.21880    2.45660   68.12600  121.38790   92.78180    5.90050   11.57820    6.86150  -29.62410
 10867.50000    7.79450    0.13470    0.07440    0.20510    2.20380    2.47740   72.62750  121.97530   91.00240    8.08000   10.96230    8.77760  -29.63250
 10868.00000    7.70470    0.13950    0.00930    0.17790    2.21840    2.46400   74.42630  115.78730   83.92880   10.47610   10.66680   10.06430  -30.23100
 10868.50000    7.64460    0.13770    0.00780    0.12860    2.30680    2.51290   75.62450  107.51930   71.56110   15.36030   11.11310   11.69860  -30.23950
 10869.00000    7.55470    0.10980    0.00920    0.08350    2.51370    2.56020   71.71760  104.90740   60.95820   39.43890   12.91570   13.55290  -30.83790
 10869.50000    7.52440    0.08340    0.05060    0.05850    2.61700    2.61600   67.81070  109.01990   49.91400  190.26350 1363.77330   32.13090  -30.87310
 10870.00000    7.52190    0.05380    0.06540    0.04550    2.72040    2.63730   67.50740  111.44140   37.69470  319.19200 2000.00000  104.89340  -31.44540
 10870.50000    7.48870    0.03950    0.07870    0.03360    2.77930    2.65050   73.51040  110.86710   28.25950  448.12050 2000.00000  177.65590  -31.45430
 10871.00000    7.46310    0.03420    0.08900    0.03060    2.80870    2.66000   73.20710  107.91830   26.48010  606.73030 2000.00000  264.91400  -32.23370
 10871.50000    7.46250    0.03470    0.09190    0.02940    2.82330    2.66440   72.60350  102.20930   27.34770 1396.50280 2000.00000  279.20540  -32.65190
