~Version ---------------------------------------------------
VERS.   2.0 : CWLS log ASCII Standard -VERSION 2.0
WRAP.    NO : One line per depth step
DLM . SPACE : Column Data Section Delimiter
~Well ------------------------------------------------------
STRT .F                 1486.0 : START DEPTH
STOP .F                11021.0 : STOP DEPTH
STEP .F                    0.5 : STEP
NULL .                -9999.25 : NULL VALUE
COMP .                         : COMPANY
WELL .                         : WELL
FLD  .                         : FIELD
LOC  .                         : LOCATION
PROV .                         : PROVINCE
CNTY .                         : COUNTY
STAT .                         : STATE
CTRY .                         : COUNTRY
SRVC .                         : SERVICE COMPANY
DATE .                         : DATE
UWI  .                         : UNIQUE WELL ID
API  .                         : API NUMBER
SLAT .WGS84    6.1687087211251 : SURFACE LATITUDE
SLON .WGS84 3.6499511711832042 : SURFACE LONGITUDE
DATUM.F                1865.25 : DEPTH DATUM ELEV
~Curve Information -----------------------------------------
DEPT.F     : 
CALD.IN    : CALIPER FROM DENSITY LOG
DPHI.DEC   : DENSITY POROSITY LIMESTONE
DRHO.G/C3  : BULK DENSITY CORRECTION
NPHI.DEC   : NEUTRON POROSITY LIMESTONE
PEF .B/E   : PHOTOELECTRIC FACTOR, BOTTOM
RHOB.G/C3  : BULK DENSITY
DTCO.US/F  : COMPRESSIONAL-WAVE INTERVAL TRANSIT TIME ACAUSTIC SLOWNESS
DTSM.US/F  : SHEAR-WAVE INTERVAL TRANSIT TIME DELTA-T
GRR .GAPI  : GAMMA RAY
ILD .OHMM  : INDUCTIO LOG DEEP
ILM .OHMM  : INDUCTION LOG MEDIUM
SFLU.OHMM  : SPHERICALLY FOCUSED LOG UNAVERAGED RESISTIVITY
SPR .MV    : SPONTANEOUS POTENTIAL
~Params ----------------------------------------------------
~Other -----------------------------------------------------
~ASCII -----------------------------------------------------
# ...
 8922.00000    8.91670    0.06560    0.05880    0.22150    3.04410    2.60200   77.90380  144.37240  115.10290    7.20980    6.57220   10.19030  -65.95050
 8922.50000    8.91670    0.05370    0.06920    0.22030    3.07360    2.61530   78.50590  144.97470  115.97470    7.40810    6.57130    9.91380  -65.32080
 8923.00000    8.91670    0.04590    0.08400    0.21910    3.08830    2.63190   79.70880  145.88910  117.28770    7.71660    6.66090    9.55650  -64.96760
 8923.50000    8.92760    0.04180    0.09580    0.21680    3.11780    2.63990   78.91020  148.01430  118.45080    7.92880    6.75160    9.29730  -64.38940
 8924.00000    8.94640    0.04250    0.10720    0.20850    3.14730    2.64540   76.71070  150.41600  119.61710    7.92730    6.84320    9.16970  -64.40310
 8924.50000    8.96340    0.04350    0.11210    0.20610    3.16210    2.64760   74.90820  147.25990  120.78000    7.71200    6.84230    9.04390  -64.41440
 8925.00000    8.97620    0.04040    0.10760    0.20810    3.19160    2.65010   76.31070  145.25540  113.71060    7.40080    6.84140    9.04270  -64.42570
 8925.50000    8.97620    0.04180    0.10470    0.21520    3.19150    2.65230   77.81370  148.57910  109.28820    7.19990    6.84050    9.04150  -64.43700
 8926.00000    8.97620    0.05260    0.10320    0.22740    3.16180    2.64930   78.21600  152.82510  111.04240    6.90930    6.83960    9.04030  -64.44840
 8926.50000    8.97620    0.05820    0.10460    0.23330    3.16170    2.62990   77.31660  153.95520  114.56120    6.78330    6.74590    9.16370  -64.46020
 8927.00000    9.03570    0.06190    0.11350    0.23570    3.16170    2.61060   77.31830  149.57350  116.31530    6.65980    6.65350    9.16240  -64.58560
 8927.50000    9.04070    0.04050    0.12830    0.23390    3.16160    2.62130   78.31950  148.10140  117.18700    6.53730    6.56230    9.16130  -65.07370
 8928.00000    9.08440    0.02150    0.13570    0.22680    3.16150    2.66510   79.22290  146.98700  117.61770    6.44730    6.35570    9.15990  -65.08550
 8928.50000    9.10620    0.02150    0.13860    0.22030    3.16150    2.67590   78.92510  146.13510  118.04820    6.35850    6.26860    9.15880  -65.09730
 8929.00000    9.15480    0.03020    0.13270    0.21850    3.19100    2.67730   78.12550  145.83210  118.03760    6.27100    6.12610    9.15710  -65.10920
 8929.50000    9.17160    0.03870    0.10750    0.22500    3.19090    2.66300   77.92620  147.33070  118.17180    6.18480    6.12530    9.03140  -65.71290
 8930.00000    9.21430    0.04770    0.08830    0.22850    3.17600    2.64800   77.92790  149.55310  118.89880    6.18360    6.04140    8.90750  -65.72420
 8930.50000    9.21430    0.05570    0.07940    0.23090    3.15630    2.63410   78.02910  153.40690  119.76530    6.14880    6.04060    8.78530  -65.73550
 8931.00000    9.21430    0.05920    0.07500    0.23110    3.13150    2.62220   78.33090  155.88640  121.51940    6.09710    6.03980    8.54700  -66.33680
 8931.50000    9.21430    0.06190    0.07050    0.23210    3.10180    2.61630   78.53350  156.32770  127.68530    6.09580    5.95710    8.42970  -66.34810
 8932.00000    9.15270    0.06310    0.07050    0.23330    3.08700    2.61030   79.13560  156.71250  130.76330    6.09460    5.95630    8.31400  -65.76940
 8932.50000    9.09040    0.06660    0.07500    0.23440    3.10170    2.59940   79.13710  156.92240  125.89940    6.09340    5.95540    8.31290  -65.78170
 8933.00000    9.02780    0.07730    0.09570    0.23680    3.13120    2.58550   79.13860  156.12440  121.47700    6.12010    5.95470    8.31180  -65.79350
 8933.50000    8.97620    0.08800    0.12970    0.24270    3.16070    2.57380   79.74070  154.31020  116.17240    6.17440    5.95390    8.31060  -65.40320
 8934.00000    9.03570    0.08110    0.14840    0.25040    3.17540    2.58040   79.74210  153.30930  113.95590    6.17320    5.95310    8.30950  -65.22710
 8934.50000    9.09520    0.05870    0.16220    0.25460    3.17540    2.62810   79.74360  152.70570  113.50410    6.15110    5.95200    8.30800  -65.23890
 8935.00000    9.15480    0.04400    0.16810    0.25450    3.16050    2.64910   79.14380  152.10210  124.08180    6.08700    5.95120    8.30690  -64.66080
 8935.50000    9.15480    0.04970    0.16960    0.24390    3.10630    2.65220   79.14600  151.67890  133.77710    6.08580    5.95050    8.19300  -64.67410
 8936.00000    9.15480    0.06360    0.16370    0.23910    2.86450    2.63080   79.14750  151.74380  128.47490    6.08460    5.94970    8.08050  -64.68540
 8936.50000    9.12500    0.07190    0.14150    0.24070    2.77560    2.61000   79.74960  152.22200  121.39770    6.08340    5.94890    8.07950  -64.69670
 8937.00000    9.09330    0.07490    0.12080    0.24150    2.68680    2.60110   80.35170  151.02550  119.62240    6.08220    5.94810    8.07840  -64.70800
 8937.50000    9.03570    0.07130    0.11040    0.23560    2.64240    2.59210   80.35320  145.39220  121.81760    5.99850    5.94740    8.05300  -64.71980
 8938.00000    9.03570    0.06780    0.10150    0.22840    2.71630    2.59390   80.65500  144.57660  125.33650    5.91570    6.02840    7.99090  -64.73160
 8938.50000    9.00600    0.06770    0.09710    0.22800    2.95290    2.60080   80.35620  145.90720  124.44350    5.91450    6.02750    7.96540  -64.74340
 8939.00000    9.01990    0.06630    0.10590    0.23670    3.07120    2.60810   79.75710  148.77710  122.66820    5.83270    6.02670    7.96420  -64.75520
 8939.50000    9.03570    0.06120    0.12070    0.23670    3.11550    2.60980   79.15800  150.58420  121.33410    5.83160    5.94390    7.96320  -64.76700
 8940.00000    9.03570    0.05580    0.12810    0.23670    3.13020    2.61130   79.15950  151.47150  120.88240    5.78530    5.86240    7.96220  -64.77880
 8940.50000    9.03570    0.05490    0.13250    0.23670    3.04130    2.61570   79.76160  148.84230  120.43060    5.75030    5.86170    7.96080  -64.79270
 8941.00000    9.09520    0.05340    0.13250    0.23970    2.95250    2.62460   80.36360  147.69280  119.97880    5.74920    5.84110    7.96000  -64.80240
 8941.50000    9.09520    0.04570    0.13400    0.24140    2.92280    2.63050   80.96570  147.73230  119.52530    5.73510    5.78060    7.95870  -64.81420
 8942.00000    9.09520    0.04510    0.13400    0.24140    2.91790    2.63950   81.56780  150.12820  119.66130    5.66880    5.77980    7.95770  -64.56230
 8942.50000    9.09520    0.04510    0.13100    0.23910    2.99670    2.64380   81.56930  153.85830  120.82410    5.66770    5.77900    7.95670  -64.24780
 8943.00000    9.09520    0.04880    0.12260    0.23430    3.04100    2.64020   81.57080  154.45650  121.25470    5.66620    5.77830    7.95560  -64.26100
 8943.50000    9.09520    0.05780    0.11620    0.22900    3.04090    2.63440   81.57230  153.25170  121.68530    5.61410    5.77750    7.95450  -64.63180
 8944.00000    9.09520    0.06650    0.10290    0.22720    3.01120    2.62550   81.57380  149.64510  125.20410    5.58730    5.77670    7.95350  -64.87320
 8944.50000    9.14180    0.06710    0.09850    0.23250    2.98160    2.61690   81.57530  149.34180  130.92880    5.58620    5.77590    7.95240  -64.88680
 8945.00000    9.15480    0.06540    0.09990    0.24260    2.99130    2.60950   81.27650  149.63960  131.35940    5.58500    5.77520    7.84310  -64.89810
 8945.50000    9.18450    0.04970    0.10820    0.25030    3.18850    2.61240   81.27800  148.43500  128.26060    5.58380    5.77420    7.84220  -64.90860
 8946.00000    9.21430    0.04070    0.11470    0.24970    3.24760    2.64510   80.97890  147.23080  126.48530    5.58270    5.74220    7.84110  -64.92030
 8946.50000    9.24400    0.04510    0.11620    0.24730    3.26230    2.65110   80.98070  147.82840  128.68060    5.58140    5.69430    7.83970  -64.93220
 8947.00000    9.27380    0.04980    0.11470    0.24850    3.23270    2.64330   80.98220  149.02660  130.87590    5.58050    5.69360    7.83880  -64.94400
 8947.50000    9.27380    0.05280    0.10580    0.24850    3.15860    2.63250   80.98370  148.42310  128.51390    5.57910    5.69290    7.83770  -64.95580
