~Version ---------------------------------------------------
VERS.   2.0 : CWLS log ASCII Standard -VERSION 2.0
WRAP.    NO : One line per depth step
DLM . SPACE : Column Data Section Delimiter
~Well ------------------------------------------------------
STRT .F                 1486.0 : START DEPTH
STOP .F                11021.0 : STOP DEPTH
STEP .F                    0.5 : STEP
NULL .                -9999.25 : NULL VALUE
COMP .                         : COMPANY
WELL .                         : WELL
FLD  .                         : FIELD
LOC  .                         : LOCATION
PROV .                         : PROVINCE
CNTY .                         : COUNTY
STAT .                         : STATE
CTRY .                         : COUNTRY
SRVC .                         : SERVICE COMPANY
DATE .                         : DATE
UWI  .                         : UNIQUE WELL ID
API  .                         : API NUMBER
SLAT .WGS84    6.1687087211251 : SURFACE LATITUDE
SLON .WGS84 3.6499511711832042 : SURFACE LONGITUDE
DATUM.F                1865.25 : DEPTH DATUM ELEV
~Curve Information -----------------------------------------
DEPT.F     : 
CALD.IN    : CALIPER FROM DENSITY LOG
DPHI.DEC   : DENSITY POROSITY LIMESTONE
DRHO.G/C3  : BULK DENSITY CORRECTION
NPHI.DEC   : NEUTRON POROSITY LIMESTONE
PEF .B/E   : PHOTOELECTRIC FACTOR, BOTTOM
RHOB.G/C3  : BULK DENSITY
DTCO.US/F  : COMPRESSIONAL-WAVE INTERVAL TRANSIT TIME ACAUSTIC SLOWNESS
DTSM.US/F  : SHEAR-WAVE INTERVAL TRANSIT TIME DELTA-T
GRR .GAPI  : GAMMA RAY
ILD .OHMM  : INDUCTIO LOG DEEP
ILM .OHMM  : INDUCTION LOG MEDIUM
SFLU.OHMM  : SPHERICALLY FOCUSED LOG UNAVERAGED RESISTIVITY
SPR .MV    : SPONTANEOUS POTENTIAL
~Params ----------------------------------------------------
~Other -----------------------------------------------------
~ASCII -----------------------------------------------------
# ...
 10716.00000    7.39420    0.12880    0.06140    0.05550    2.25620    2.48850   59.91620   97.76540   24.28020  690.72800 1288.75900 1628.83450  -40.69770
 10716.50000    7.79980    0.24000    0.06240    0.06890    2.31520    2.33770   59.91920   94.45610   30.00280 1094.91810 1324.38020 2027.55920  -40.10090
 10717.00000    8.28710    0.29860    0.04020    0.07600    2.24100    2.08820   59.62190   91.74740   37.04890 1256.75200  540.47470 1946.00040  -39.33250
 10717.50000    8.89200   -9999.25    0.01800    0.08150    2.07800    2.00000   56.32160   90.23990   45.41860  576.72750   97.36670 1584.85620  -38.70200
 10718.00000    9.43950   -9999.25    0.02840    0.09810    1.97920    2.00000   53.92220   89.33310   52.46470  127.66690   19.14920  680.25540  -38.57430
 10718.50000   10.97790   -9999.25    0.05800    0.13780    1.94940    2.00000   53.62480   89.32710   59.51080   23.24410    7.35690  195.41860  -38.04130
 10719.00000   12.31660   -9999.25    0.09200    0.17870    1.89980    2.00000   53.92810   89.92170   68.76280    4.57170    3.33000   16.85530  -37.59640
 10719.50000   12.52440   -9999.25    0.10830    0.38190    1.88480    2.00000   55.13230   90.51630   78.00700    2.95240    2.09240    5.48740  -37.02660
 10720.00000   12.52380   -9999.25    0.11420    0.40920    1.85500    2.00000   55.13530   90.81080   86.52750    2.54030    1.95410    3.54140  -36.46170
 10720.50000   12.52250   -9999.25    0.09500    0.41740    1.84990    2.00000   55.13830   89.60340   87.69530    2.37250    1.92740    2.58510  -36.48430
 10721.00000   12.41970   -9999.25    0.03680    0.41740    1.88410    2.00000   53.94010   90.19800   85.91150    2.21590    1.98070    2.54990  -36.19980
 10721.50000   12.10470   -9999.25    0.01360    0.41390    2.00230    2.00060   52.14130   93.49540   87.66350    2.12680    2.12060    2.58510  -35.90250
 10722.00000   11.76340   -9999.25    0.01810    0.40430    2.19440    2.00070   50.04220   95.89180   90.73910    2.04140    2.14970    2.69340  -35.37210
 10722.50000   11.44040   -9999.25    0.06100    0.39270    2.31250    2.00070   48.54370   95.58550   92.93220    2.01370    2.02600    2.80630  -35.39820
 10723.00000   11.18250   -9999.25    0.10690    0.37000    2.35670    2.00070   46.44460   94.07800   93.80190    2.01370    1.98020    2.96420  -35.18820
 10723.50000   11.31070   -9999.25    0.13200    0.34980    2.39090    2.00570   45.54670   93.77170   93.78920    2.03220    2.09120    3.14530  -34.85540
 10724.00000   11.92370   -9999.25    0.14980    0.35100    2.40550    2.06680   50.05420   94.96690   92.01180    2.18580    2.11990    3.17410  -34.87910
 10724.50000   12.33980    0.29850    0.15860    0.36700    2.41520    2.16940   51.25840   96.76390   90.23430    2.06950    2.03460    2.96420  -34.90650
 10725.00000   12.66660    0.29410    0.16750    0.38650    2.40020    2.24040   49.15930   93.15310   89.33930    1.95940    1.90010    2.76810  -34.81560
 10725.50000   12.87440    0.27170    0.17350    0.38770    2.42950    2.28630   46.75990   88.03610   87.85430    1.98640    1.84870    2.62070  -34.53130
 10726.00000   13.05270    0.23010    0.18090    0.38650    2.63640    2.30850   45.86200   85.32270   86.66470    2.06950    1.89980    2.48110  -34.38350
 10726.50000   13.11130    0.21350    0.19270    0.37820    2.75450    2.33210   45.56470   84.12020   87.08890    2.18580    2.09040    2.41410  -34.40710
 10727.00000   12.99890    0.21110    0.20750    0.38820    2.78390    2.34400   45.56770   83.81990   87.52380    2.24630    2.14820    2.48110  -34.43070
 10727.50000   12.49800    0.21520    0.22380    0.43740    2.75410    2.34990   46.17130   85.35750   87.06350    2.12680    1.97890    2.51530  -34.45430
 10728.00000   12.39530    0.29840    0.22970    0.44220    2.57630    2.33490   47.37550   87.13690   81.31550    1.80520    1.69560    2.54990  -34.47790
 10728.50000   13.07260    0.29840    0.22820    0.31770    2.25070    2.12750   49.78090   87.70580   78.65580    1.57500    1.55440    2.54990  -34.50150
 10729.00000   13.21410    0.29840    0.21640    0.29400    2.08780    2.00160   51.58570   87.06840   79.08420    1.46400    1.50540    2.46990  -34.52510
 10729.50000   12.83980    0.29850    0.17350    0.23470    1.91000    2.00000   53.69070   85.89190   79.95390    1.45070    1.52600    2.39240  -34.54870
 10730.00000   12.09520    0.29890    0.12620    0.14640    1.86540    2.00000   55.79580   86.54650   78.61760    1.61820    1.65620    2.28550  -34.57640
 10730.50000   11.49940    0.29890    0.07740    0.11080    2.47160    2.00000   57.30030   88.32690   73.31080    1.90660    2.00530    2.25440  -34.59900
 10731.00000   10.72500    0.29830    0.05320    0.05510    2.70810    2.05270   58.80480   90.10270   68.00400    2.47180    2.67170    3.21790  -34.62160
 10731.50000    9.77060    0.29160    0.04630    0.04980    2.81140    2.24060   60.60960   90.37260   60.34690    3.98780    4.67820    6.29220  -34.64420
 10732.00000    9.05070    0.08490    0.04340    0.03730    2.78160    2.40780   61.51350   91.43040   47.24980    6.17510    8.77100    9.74980  -34.66680
 10732.50000    8.06290    0.06170    0.04490    0.02720    2.23410    2.61630   61.81680   93.66400   28.69480   10.23830   16.22110   13.17500  -34.69030
 10733.00000    7.58670    0.05610    0.05520    0.02900    2.15990    2.61490   62.12010   91.76050   25.15270   16.97510   37.84470   17.80370  -34.71380
 10733.50000    7.37790    0.05990    0.06110    0.04020    2.11530    2.61340   62.42340   90.64860   24.70520   68.41550  225.01640  206.25430  -34.73750
 10734.00000    7.32860    0.06170    0.06560    0.05270    2.07070    2.61180   62.42640   90.71540   28.65670 1439.88380  882.67770  256.74360  -34.76110
 10734.50000    7.35770    0.07740    0.06710    0.05500    2.10010    2.60130   58.52550   91.57620   30.84990 1852.67930 1643.94900  197.50330  -34.78470
 10735.00000    7.38690    0.09540    0.06410    0.05500    2.12950    2.56920   55.82580   92.47250   32.60190 2000.00000 1936.76330  100.58200  -34.80830
 10735.50000    7.38620    0.10810    0.06020    0.04890    2.14410    2.53430   54.02700   93.45150   30.82450 1817.55250 1990.36070   80.22300  -35.42630
 10736.00000    7.38570    0.11870    0.05380    0.04190    2.08460    2.51160   51.92790   95.08530   23.31180  857.19070 2000.00000   72.89440  -36.03890
 10736.50000    7.38510    0.11930    0.04340    0.03660    2.06960    2.50400   50.12910   98.95040   21.97550   52.05470 2000.00000   69.96220  -36.65140
 10737.00000    7.38450    0.11370    0.03900    0.03660    2.45400    2.51880   49.23120  100.51700   21.96280   38.01560 1989.90490   73.89890  -37.26400
 10737.50000    7.38390    0.09060    0.03750    0.03960    2.69040    2.54990   48.93390   98.55740   21.94800   35.50490 1783.71780   82.44910  -37.28660
 10738.00000    7.35360    0.07520    0.03610    0.04550    2.88250    2.58100   49.83780   97.20120   21.93530   34.54770 1473.03030   94.54130  -37.30970
 10738.50000    7.32320    0.07500    0.03760    0.05490    2.89710    2.58690   53.74470   96.89540   22.36590   35.02300  925.55620  112.95030  -37.33330
 10739.00000    7.31210    0.08170    0.03760    0.06140    2.88210    2.58700   58.25220   98.01210   22.79430   35.50490  387.77610  120.94980  -37.35690
 10739.50000    7.27910    0.09530    0.03900    0.06200    2.54170    2.56920   60.65760  100.41790   23.21650   34.85740  119.74250   97.16470  -37.19590
 10740.00000    7.29170    0.11490    0.04050    0.05790    2.21600    2.52760   61.26120  102.10160   22.76260   33.77740   36.78830   43.93220  -36.69640
 10740.50000    7.32080    0.13800    0.04400    0.05310    1.97420    2.48570   60.36330  102.57720   22.74990   32.69750   27.60910   31.64010  -36.10450
 10741.00000    7.32020    0.15500    0.04890    0.05050    1.84560    2.46140   58.86470  103.23570   22.29600   31.61750   22.80020   30.36040  -35.68140
 10741.50000    7.31960    0.15590    0.05530    0.05010    1.81580    2.45150   59.16800  103.76640   21.84210   30.97000   21.58590   30.77880  -35.11880
