~Version ---------------------------------------------------
VERS.   2.0 : CWLS log ASCII Standard -VERSION 2.0
WRAP.    NO : One line per depth step
DLM . SPACE : Column Data Section Delimiter
~Well ------------------------------------------------------
STRT .F                 1486.0 : START DEPTH
STOP .F                11021.0 : STOP DEPTH
STEP .F                    0.5 : STEP
NULL .                -9999.25 : NULL VALUE
COMP .                         : COMPANY
WELL .                         : WELL
FLD  .                         : FIELD
LOC  .                         : LOCATION
PROV .                         : PROVINCE
CNTY .                         : COUNTY
STAT .                         : STATE
CTRY .                         : COUNTRY
SRVC .                         : SERVICE COMPANY
DATE .                         : DATE
UWI  .                         : UNIQUE WELL ID
API  .                         : API NUMBER
SLAT .WGS84    6.1687087211251 : SURFACE LATITUDE
SLON .WGS84 3.6499511711832042 : SURFACE LONGITUDE
DATUM.F                1865.25 : DEPTH DATUM ELEV
~Curve Information -----------------------------------------
DEPT.F     : 
CALD.IN    : CALIPER FROM DENSITY LOG
DPHI.DEC   : DENSITY POROSITY LIMESTONE
DRHO.G/C3  : BULK DENSITY CORRECTION
NPHI.DEC   : NEUTRON POROSITY LIMESTONE
PEF .B/E   : PHOTOELECTRIC FACTOR, BOTTOM
RHOB.G/C3  : BULK DENSITY
DTCO.US/F  : COMPRESSIONAL-WAVE INTERVAL TRANSIT TIME ACAUSTIC SLOWNESS
DTSM.US/F  : SHEAR-WAVE INTERVAL TRANSIT TIME DELTA-T
GRR .GAPI  : GAMMA RAY
ILD .OHMM  : INDUCTIO LOG DEEP
ILM .OHMM  : INDUCTION LOG MEDIUM
SFLU.OHMM  : SPHERICALLY FOCUSED LOG UNAVERAGED RESISTIVITY
SPR .MV    : SPONTANEOUS POTENTIAL
~Params ----------------------------------------------------
~Other -----------------------------------------------------
~ASCII -----------------------------------------------------
# ...
 9650.00000    8.18750    0.29920    0.15750    0.37140    2.81070    2.21480   97.95770  123.83310  157.94220    4.31380    4.26980    6.37890  -62.35990
 9650.50000    8.08260    0.29910    0.15750    0.35950    3.25890    2.30280   96.15290  122.62800  125.10710    4.74660    4.63460    7.62100  -62.38460
 9651.00000    7.96300    0.29880    0.15600    0.28020    3.66280    2.36810   85.33910  120.43330  101.88310    5.51640    5.46050    8.98120  -62.40440
 9651.50000    7.72430    0.20550    0.14710    0.11360    4.25940    2.46000   74.52530  111.69100   90.39980    6.77110    6.50030    9.74980  -62.42420
 9652.00000    7.54520    0.12560    0.12930    0.04370    4.58460    2.60790   63.71150  105.16680   67.00480   11.22610    8.83460   10.73000  -62.44390
 9652.50000    7.51490    0.02980    0.10410    0.06620    4.76180    2.66780   56.20100   99.55620   55.08030   17.86720   16.51750   12.31190  -63.05370
 9653.00000    7.51640    0.01060    0.07500    0.08630    4.79110    2.69150   51.09290   96.78010   53.74410   20.20170   18.17550   21.36020  -63.07370
 9653.50000    7.55340    0.01940    0.06010    0.10880    4.79080    2.69600   48.68750   95.21190   53.29020   20.76110   19.46080   35.29290  -63.09440
 9654.00000    7.65520    0.07750    0.05810    0.15030    4.68700    2.69890   48.38420   93.82970   55.04210   15.58120   20.27520   20.41480  -63.11500
 9654.50000    7.82260    0.13710    0.06700    0.20720    3.57720    2.55430   49.28210   95.42720   65.46030   10.77330   18.17550   17.80370  -63.13570
 9655.00000    8.04460    0.16390    0.07430    0.25520    2.97040    2.37690   51.68160   98.15880   75.60050    6.32240    7.47710   16.40020  -62.56260
 9655.50000    8.12280    0.19420    0.07870    0.29250    2.67920    2.23520   52.27920   98.69240   80.58590    5.29320    5.61180   12.47320  -62.30770
 9656.00000    8.01660    0.29940    0.08170    0.38080    2.62960    2.07580   52.27620   98.41750   82.33790    4.43150    4.76300    5.79620  -62.01770
 9656.50000    7.97840    0.29930    0.08160    0.39560    2.82150    2.00380   50.17110   94.59920   81.88400    4.81000    4.69840    5.63970  -61.44840
 9657.00000    8.55110    0.29870    0.08160    0.39850    3.10230    2.00000   46.56450   91.56610   73.93010    5.90400    5.03140    6.12230  -60.87900
 9657.50000    8.55280    0.29830    0.08150    0.30610    3.66410    2.00040   45.66060   89.53170   65.53500    7.75940    5.58880    7.41520  -61.49140
 9658.00000    8.19090    0.24650    0.08540    0.22020    4.07810    2.34660   44.75670   89.07530   58.02230   10.95020    7.27550   11.36630  -61.51120
 9658.50000    7.88100    0.13480    0.10810    0.10160    4.84700    2.50560   52.86180   92.67950   55.80370   16.22810    9.43240   16.78930  -62.12090
 9659.00000    7.63730    0.03100    0.10950    0.01210    5.14260    2.67640   55.26120   95.98490   50.05570   27.65090   12.91570   63.57100  -62.78450
 9659.50000    7.49740   -0.00550    0.09910    0.01020    5.27540    2.71370   56.45940   95.50410   42.54300   58.62790   18.17550 1205.36660  -63.44820
 9660.00000    7.47620    0.00090    0.06360    0.00970    5.34910    2.71950   50.75080   93.27330   33.26560   73.95710   23.88810 1174.09730  -64.54280
 9660.50000    7.47560    0.00500    0.05320    0.01030    5.34880    2.71250   48.94600   93.81580   35.30720   88.33180   41.83160 1135.04900  -64.56340
 9661.00000    7.50480    0.00500    0.06940    0.01150    5.30910    2.70510   49.84390   95.62220   39.26500   98.53280 1651.74850 1096.00050  -65.17400
 9661.50000    7.53390    0.00500    0.08120    0.01330    5.26440    2.70160   53.74480   96.27200   44.69160   89.54140 1629.33070  942.18350  -65.78470
 9662.00000    7.53330    0.00440    0.08710    0.01450    5.03720    2.70230   53.44150   96.61410   48.64950   68.12630  469.83990  274.82940  -66.39900
 9662.50000    7.53270    0.00460    0.09010    0.01440    4.74110    2.70750   51.63670  101.99330   51.28380   55.49840  283.37750  111.41500  -67.00880
 9663.00000    7.56190    0.00760    0.08410    0.01380    4.50410    2.70740   50.43250  107.25710   51.71870   48.86990  401.34250   88.28840  -67.02860
 9663.50000    7.56130    0.01040    0.06920    0.01260    4.40030    2.70440   51.63070  108.27800   51.69960   45.42090 1162.36110  102.63200  -67.04830
 9664.00000    7.53100    0.01080    0.04850    0.01150    4.50350    2.70150   54.63070  100.10100   51.68690   44.59390 1919.66670  253.25380  -67.65810
 9664.50000    7.53040    0.00960    0.03810    0.01140    4.69560    2.69540   52.82590   99.26600   51.67420   45.82790 2000.00000  567.83830  -67.67850
 9665.00000    7.55070    0.00660    0.02480    0.01140    4.75440    2.69250   48.91900  102.21070   52.98500   49.06700 2000.00000  929.37710  -67.69910
 9665.50000    7.58870    0.00480    0.01440    0.01220    4.81330    2.70200   48.01520  109.11970   55.17820   51.11870 1460.60060 1065.68130  -67.58010
 9666.00000    7.63390    0.00420    0.00840    0.01380    4.81300    2.70580   47.71190  113.66860   59.57720   43.38590  426.97930  929.37710  -67.14720
 9666.50000    7.70640    0.00540    0.00540    0.01610    4.80780    2.70520   48.60980  115.57610   64.41740   31.68370  130.04280  323.99600  -67.17110
 9667.00000    7.70590    0.00780    0.00980    0.01850    4.76800    2.70280   51.60980  115.77500   68.51980   28.79250   79.51270  104.04620  -67.19170
 9667.50000    7.73510    0.01130    0.04680    0.01970    4.63450    2.69830   51.90710  115.26810   67.18640   28.01530   63.02990   61.59710  -66.62650
 9668.00000    7.76430    0.01310    0.06300    0.01970    4.42720    2.69240   51.90410  115.68030   56.43170   33.00640   44.78970   57.76360  -66.31280
 9668.50000    7.76370    0.00920    0.07730    0.01730    4.38250    2.68340   55.80500  119.88530   49.36020   56.77910   42.99070   75.94950  -65.87950
 9669.00000    7.76310    0.00550    0.09260    0.01020    4.38220    2.68190   51.29750  120.87410   46.25920  331.02800   59.09790  431.87090  -65.31840
 9669.50000    7.69690    0.00330    0.10280    0.00420    4.48550    2.71030   50.09330  109.82960   44.04060  764.78250  905.34970  929.22100  -64.74910
 9670.00000    7.60420    0.00440    0.10430    0.00900    4.69230    2.77180   51.59180  104.43330   43.58680  785.94690 1364.13670 1674.03310  -64.35620
 9670.50000    7.86550    0.02600    0.10130    0.03880    4.78080    2.78140   55.19250  112.16300   43.57400  648.46320 1480.69700 1521.10520  -63.79530
 9671.00000    8.74100    0.07200    0.08500    0.09640    4.81010    2.77750   66.60090  160.12240   44.88490  264.69560 1189.90060  891.99280  -63.73520
 9671.50000    9.03980    0.11980    0.05980    0.23410    4.83940    2.74310   84.61590  177.32310   50.16630    9.64640   91.15570   56.97840  -62.93390
 9672.00000    8.41420    0.20880    0.05380    0.34850    4.79970    2.68640   85.81410  167.85660   59.85940    4.54930   22.00760   12.64510  -62.67460
 9672.50000    8.11600    0.30000    0.05090    0.43030    4.03990    2.62230   76.20300  138.57520   77.05260    3.65570    7.68420    8.98120  -62.69910
 9673.00000    8.17500    0.30000    0.04790    0.42970    2.82660    2.51680   73.59610  129.99570   93.64870    3.32210    3.20460    7.22100  -62.41230
 9673.50000    8.29340    0.30000    0.05520    0.41720    2.79690    2.27310   80.19180  128.18840  104.96290    3.18860    2.99300    6.23870  -62.15040
 9674.00000    9.04380    0.30000    0.08330    0.40060    2.94430    2.04420   97.00480  144.04770  110.09630    3.27680    3.03420    5.79620  -62.17110
 9674.50000    9.18520    0.29930    0.11280    0.38640    3.03280    2.05760  105.21750  153.60780  111.84830    3.75650    3.59450    6.03910  -62.06960
 9675.00000    8.57440    0.29870    0.15420    0.35200    3.03250    2.12590  106.21660  156.49310  111.83560    4.30640    4.29320    6.37890  -61.78240
 9675.50000    8.52920    0.29280    0.16900    0.32120    2.94350    2.18050   97.80860  158.59560  111.38170    4.86980    5.24120    6.73780  -61.64300
