~Version ---------------------------------------------------
VERS.   2.0 : CWLS log ASCII Standard -VERSION 2.0
WRAP.    NO : One line per depth step
DLM . SPACE : Column Data Section Delimiter
~Well ------------------------------------------------------
STRT .F                 1486.0 : START DEPTH
STOP .F                11021.0 : STOP DEPTH
STEP .F                    0.5 : STEP
NULL .                -9999.25 : NULL VALUE
COMP .                         : COMPANY
WELL .                         : WELL
FLD  .                         : FIELD
LOC  .                         : LOCATION
PROV .                         : PROVINCE
CNTY .                         : COUNTY
STAT .                         : STATE
CTRY .                         : COUNTRY
SRVC .                         : SERVICE COMPANY
DATE .                         : DATE
UWI  .                         : UNIQUE WELL ID
API  .                         : API NUMBER
SLAT .WGS84    6.1687087211251 : SURFACE LATITUDE
SLON .WGS84 3.6499511711832042 : SURFACE LONGITUDE
DATUM.F                1865.25 : DEPTH DATUM ELEV
~Curve Information -----------------------------------------
DEPT.F     : 
CALD.IN    : CALIPER FROM DENSITY LOG
DPHI.DEC   : DENSITY POROSITY LIMESTONE
DRHO.G/C3  : BULK DENSITY CORRECTION
NPHI.DEC   : NEUTRON POROSITY LIMESTONE
PEF .B/E   : PHOTOELECTRIC FACTOR, BOTTOM
RHOB.G/C3  : BULK DENSITY
DTCO.US/F  : COMPRESSIONAL-WAVE INTERVAL TRANSIT TIME ACAUSTIC SLOWNESS
DTSM.US/F  : SHEAR-WAVE INTERVAL TRANSIT TIME DELTA-T
GRR .GAPI  : GAMMA RAY
ILD .OHMM  : INDUCTIO LOG DEEP
ILM .OHMM  : INDUCTION LOG MEDIUM
SFLU.OHMM  : SPHERICALLY FOCUSED LOG UNAVERAGED RESISTIVITY
SPR .MV    : SPONTANEOUS POTENTIAL
~Params ----------------------------------------------------
~Other -----------------------------------------------------
~ASCII -----------------------------------------------------
# ...
 9520.00000    7.68450    0.06820    0.01660    0.17720    3.19230    2.59910   67.86750  115.91590  113.55920   22.13340   22.49490   33.41280  -65.01760
 9520.50000    7.68350    0.06340    0.01800    0.18430    3.20670    2.61830   68.16710  115.91440  116.20000   21.05200   22.79990   29.13920  -65.02950
 9521.00000    7.68240    0.04920    0.02390    0.18550    3.20630    2.63450   68.16480  115.91290  108.40230   20.11580   21.88130   25.06680  -65.04570
 9521.50000    7.68140    0.03680    0.02980    0.18190    3.10720    2.64800   68.16330  115.91140  102.06660   19.84410   20.15620   25.18160  -65.05900
 9522.00000    7.68040    0.03980    0.03470    0.17600    3.04760    2.65250   68.16180  115.60960  104.70730   19.84800   18.82250   25.76230  -65.07370
 9522.50000    7.67930    0.04930    0.03570    0.17240    2.99770    2.64950   67.55970  115.30780  109.55390   19.85060   18.31270   26.11730  -65.08850
 9523.00000    7.67830    0.05160    0.02080    0.17180    2.93810    2.63460   67.55820  115.00600  112.63580   20.12640   18.06180   26.47720  -65.10320
 9523.50000    7.67700    0.05100    0.01490    0.17350    2.87850    2.63310   67.55670  114.70420  113.51190   20.68670   17.81430   26.84210  -65.11800
 9524.00000    7.67600    0.04740    0.01340    0.17470    2.87800    2.63930   67.55520  114.55260  114.82910   21.55520   17.81160   26.84210  -65.13270
 9524.50000    7.67500    0.03790    0.02070    0.17350    2.90720    2.64710   67.55370  114.40090  114.82280   21.85470   18.05470   27.21190  -65.14750
 9525.00000    7.67400    0.03310    0.03550    0.16990    2.99550    2.65450   67.55220  114.39940  114.81640   22.15830   18.29950   26.84210  -65.16520
 9525.50000    7.67300    0.03070    0.04580    0.16750    3.08390    2.65870   68.15130  114.39790  111.28070   22.16170   18.80410   25.41220  -65.17700
 9526.00000    7.64230    0.03170    0.05020    0.16610    3.14260    2.66180   68.14980  114.39640  107.30420   22.16460   19.58850   24.72610  -65.19170
 9526.50000    7.64120    0.03650    0.05320    0.16510    3.17180    2.66260   66.94710  114.09460  105.09200   22.16840   20.12860   24.05850  -65.20650
 9527.00000    7.64020    0.04390    0.05460    0.16390    3.05300    2.66110   65.74440  114.09310  102.87620   22.17130   20.68360   23.73140  -65.22120
 9527.50000    7.63910    0.04790    0.05210    0.16040    2.99320    2.64920   65.14230  113.49100  101.98760   22.17420   21.54640   24.05850  -65.23600
 9528.00000    7.63810    0.04850    0.04370    0.15030    2.99280    2.64020   64.54020  112.58860  100.21650   22.48220   21.84000   24.72610  -65.25070
 9528.50000    7.63710    0.04730    0.02640    0.12950    2.96280    2.63870   63.93800  111.68620   98.00430   23.10820   21.83710   25.76230  -65.26550
 9529.00000    7.65090    0.04310    0.01600    0.12950    2.94760    2.64310   63.93650  111.08410   94.90980   24.40960   20.76910   29.94780  -65.28020
 9529.50000    7.69430    0.03900    0.01750    0.13240    2.93230    2.65060   63.33440  110.48200   96.22700   25.78440   19.66170   34.34000  -65.29500
 9530.00000    7.69330    0.03480    0.02480    0.14130    2.93190    2.65660   63.33290  109.87990  110.33830   26.14260   18.52590   36.77200  -65.30970
 9530.50000    7.75190    0.03300    0.03220    0.15490    2.96110    2.65850   63.33140  109.87840  117.39080   24.08780   18.02410   30.36040  -65.32450
 9531.00000    7.81030    0.03300    0.03510    0.17530    2.99020    2.66130   63.93050  110.17720  119.14920   22.29880   17.53590   26.11730  -65.33920
 9531.50000    7.80930    0.03200    0.03960    0.17960    2.98980    2.66280   64.52960  111.67720  115.61390   21.21020   17.53360   24.72610  -65.18420
 9532.00000    7.80830    0.02880    0.04100    0.18150    3.00420    2.66380   65.12870  114.07810  113.83930   20.17640   17.29340   24.05850  -64.77900
 9532.50000    7.74520    0.02940    0.04390    0.18030    3.02830    2.66370   65.24740  115.57810  113.83300   19.90520   17.05650   23.73140  -64.79350
 9533.00000    7.61270    0.03410    0.04540    0.17790    3.10670    2.65480   66.02660  115.87690  114.70900   19.63760   17.52680   23.73140  -64.80830
 9533.50000    7.44060    0.03770    0.04680    0.17380    3.07670    2.65180   66.62570  116.17570  114.70270   19.37360   18.01000   24.05850  -64.82300
 9534.00000    7.41740    0.03230    0.04680    0.16840    3.06140    2.65290   67.22480  116.47450  108.51990   19.37610   17.96010   24.39000  -64.83780
 9534.50000    7.48810    0.03170    0.04380    0.16310    3.01660    2.65470   67.52430  116.77330  106.74890   19.37870   17.51950   24.72610  -64.85250
 9535.00000    7.50450    0.03530    0.04080    0.16190    3.01620    2.65470   68.42300  116.77180  105.41910   19.11820   17.04420   25.41220  -64.86720
 9535.50000    7.53320    0.04180    0.03490    0.16180    3.01580    2.65450   69.02210  116.47000  104.08920   19.12070   16.81070   26.11730  -64.88200
 9536.00000    7.56170    0.04780    0.03190    0.16240    3.01540    2.64830   69.62120  116.46850  102.75940   19.12320   17.03980   26.84210  -64.89680
 9536.50000    7.56070    0.04960    0.04070    0.16760    3.04450    2.63880   68.41850  116.46700  101.28190   19.12620   17.27240   27.21190  -64.91150
 9537.00000    7.55970    0.05010    0.05250    0.17310    3.05890    2.63330   67.51610  116.46550  100.53980   19.12870   17.74820   25.76230  -64.92900
 9537.50000    7.58850    0.04430    0.05840    0.17840    3.05850    2.63220   67.21430  116.46400  104.06080   19.07950   17.99010   24.72610  -64.94100
 9538.00000    7.61730    0.03200    0.06140    0.18130    3.04320    2.63940   66.91250  117.06310  110.23090   18.87350   18.23520   24.27990  -64.95570
 9538.50000    7.61620    0.03160    0.05540    0.18250    3.01300    2.64800   67.21130  117.66220  108.45990   18.87720   18.23290   23.73140  -64.97050
 9539.00000    7.62010    0.03220    0.04650    0.18190    3.01260    2.65440   68.11070  118.26130  107.13010   18.87970   18.23050   23.40890  -64.98530
 9539.50000    7.64400    0.03340    0.03320    0.17890    2.98260    2.65590   67.80890  118.86040  109.32960   18.88210   18.22770   23.40890  -64.74600
 9540.00000    7.64290    0.03630    0.02570    0.17650    2.98220    2.65590   67.50750  119.15920  108.44100   18.37550   18.22460   23.40890  -64.42340
 9540.50000    7.64180    0.03930    0.01980    0.17770    2.98180    2.65580   67.50600  119.45800  106.22880   18.37790   18.22220   23.40890  -64.43950
 9541.00000    7.64080    0.03930    0.01680    0.17770    2.96650    2.65580   68.10540  120.05710  105.34010   18.13080   17.97250   23.40890  -64.45430
 9541.50000    7.63950    0.03860    0.01380    0.17700    2.98090    2.65570   68.40420  119.45500  106.06710   17.99670   17.97020   23.73140  -64.26320
 9542.00000    7.63850    0.03630    0.01080    0.17720    3.03970    2.65280   67.90260  117.65170  107.97200   17.84150   17.48340   24.05850  -63.89430
 9542.50000    7.63750    0.03780    0.01080    0.17880    3.09840    2.65460   67.30050  116.44890  110.17090   17.64890   17.48110   24.39000  -63.91070
 9543.00000    7.63650    0.04010    0.01080    0.18110    3.14720    2.65720   66.89790  115.54650  106.63520   17.49300   17.24160   24.72610  -63.92330
 9543.50000    7.63550    0.04100    0.01370    0.18410    3.15670    2.65660   66.59610  115.24470  103.98180   17.17870   16.77460   24.27990  -63.93810
 9544.00000    7.63450    0.04100    0.01370    0.18580    3.14130    2.65120   66.89520  115.24320  102.21080   16.94780   16.54480   23.40890  -63.95280
 9544.50000    7.63350    0.04100    0.01510    0.18700    3.12610    2.64820   66.89340  115.54200  103.08680   16.58530   16.09630   23.09070  -63.96750
 9545.00000    7.63240    0.03980    0.01360    0.18580    3.12570    2.64810   66.89190  116.14110  107.49230   16.25160   16.02160   22.77680  -63.98230
 9545.50000    7.63140    0.03860    0.01360    0.18580    3.12520    2.64810   66.89040  116.43990  113.22130   15.96510   15.87300   22.77680  -63.99710
