~Version ---------------------------------------------------
VERS.   2.0 : CWLS log ASCII Standard -VERSION 2.0
WRAP.    NO : One line per depth step
DLM . SPACE : Column Data Section Delimiter
~Well ------------------------------------------------------
STRT .F                 1486.0 : START DEPTH
STOP .F                11021.0 : STOP DEPTH
STEP .F                    0.5 : STEP
NULL .                -9999.25 : NULL VALUE
COMP .                         : COMPANY
WELL .                         : WELL
FLD  .                         : FIELD
LOC  .                         : LOCATION
PROV .                         : PROVINCE
CNTY .                         : COUNTY
STAT .                         : STATE
CTRY .                         : COUNTRY
SRVC .                         : SERVICE COMPANY
DATE .                         : DATE
UWI  .                         : UNIQUE WELL ID
API  .                         : API NUMBER
SLAT .WGS84    6.1687087211251 : SURFACE LATITUDE
SLON .WGS84 3.6499511711832042 : SURFACE LONGITUDE
DATUM.F                1865.25 : DEPTH DATUM ELEV
~Curve Information -----------------------------------------
DEPT.F     : 
CALD.IN    : CALIPER FROM DENSITY LOG
DPHI.DEC   : DENSITY POROSITY LIMESTONE
DRHO.G/C3  : BULK DENSITY CORRECTION
NPHI.DEC   : NEUTRON POROSITY LIMESTONE
PEF .B/E   : PHOTOELECTRIC FACTOR, BOTTOM
RHOB.G/C3  : BULK DENSITY
DTCO.US/F  : COMPRESSIONAL-WAVE INTERVAL TRANSIT TIME ACAUSTIC SLOWNESS
DTSM.US/F  : SHEAR-WAVE INTERVAL TRANSIT TIME DELTA-T
GRR .GAPI  : GAMMA RAY
ILD .OHMM  : INDUCTIO LOG DEEP
ILM .OHMM  : INDUCTION LOG MEDIUM
SFLU.OHMM  : SPHERICALLY FOCUSED LOG UNAVERAGED RESISTIVITY
SPR .MV    : SPONTANEOUS POTENTIAL
~Params ----------------------------------------------------
~Other -----------------------------------------------------
~ASCII -----------------------------------------------------
# ...
 9364.00000    8.60590    0.04910    0.12880    0.25690    3.57150    2.64610   71.66390  134.70260  131.47060    5.65500    3.77170    6.89070  -63.57650
 9364.50000    8.85960    0.06100    0.15990    0.27190    3.23100    2.62080   71.35760  137.70410  134.11760    5.42920    3.72120    6.61400  -63.58700
 9365.00000    9.10880    0.10500    0.19140    0.33040    3.03840    2.57020   71.65190  141.90680  135.00000    4.93520    3.77310    6.31980  -63.59880
 9365.50000    9.33110    0.14950    0.21950    0.32390    2.91980    2.50480   73.44770  147.61100  135.00000    4.38590    3.82580    6.14960  -63.61060
 9366.00000    9.45530    0.15670    0.24110    0.31340    2.94910    2.44850   77.04530  157.81970  123.54660    4.11560    3.87920    5.92930  -63.62240
 9366.50000    9.51210    0.15470    0.24560    0.30080    3.48140    2.43190   82.44480  174.63510  101.91180    4.02370    4.15430    6.17840  -63.63440
 9367.00000    9.48180    0.09800    0.23220    0.29660    4.72370    2.49130   85.14150  181.84080   98.82350    4.08070    5.32240    6.80000  -63.64600
 9367.50000    9.12420    0.01580    0.21300    0.28300    4.93050    2.58040   88.43880  184.24170  103.67650    4.31110    6.34880    6.83150  -63.65780
 9368.00000    8.70710   -0.04010    0.17010    0.28220    4.98940    2.74900   89.03340  177.03300  112.50000    4.43170    6.70670    6.26470  -63.66960
 9368.50000    8.58760    0.04310    0.13160    0.36420    4.53590    2.78120   89.32770  171.02550  115.58820    4.43280    3.03660    5.85080  -63.68140
 9369.00000    8.55740    0.11060    0.11380    0.34170    3.55380    2.75270   84.21670  168.32130  116.47060    4.25590    3.25190    5.53940  -63.69320
 9369.50000    8.57530    0.16180    0.10190    0.30260    3.24280    2.54160   81.20770  167.41890  117.35290    4.08600    3.62830    5.24470  -63.70500
 9370.00000    8.92840    0.19440    0.10040    0.30080    3.16860    2.41680   78.79930  167.41740  118.23530    3.92290    3.78090    5.01140  -63.71680
 9370.50000    9.31690    0.20120    0.11820    0.30080    3.09430    2.37810   79.39390  167.41590  122.20300    3.97790    3.58050    4.89850  -63.72970
 9371.00000    9.77470    0.20240    0.14480    0.30080    3.09410    2.36620   81.18970  168.01500  127.93830    4.47970    3.43730    4.89890  -64.33040
 9371.50000    9.95390    0.19520    0.15510    0.30080    3.27130    2.36790   84.18680  168.91440  133.23530    4.38010    3.48530    4.89930  -64.34220
 9372.00000    9.77490    0.17380    0.16100    0.30090    3.31540    2.39000   85.08170  170.41440  131.91180    4.20520    3.92620    4.89960  -64.35400
 9372.50000    9.23880    0.14650    0.18170    0.30150    3.30030    2.42870   83.17410  170.41290  127.50000    4.03740    4.28000    5.03590  -64.36640
 9373.00000    8.88120    0.11890    0.22310    0.30260    3.22610    2.46280   81.76540  168.00900  125.73530    3.98360    4.16570    5.10560  -64.37760
 9373.50000    8.73200    0.10020    0.23790    0.31570    3.24540    2.50480   81.75940  168.60810  124.41180    4.03950    4.10960    5.31990  -64.39070
 9374.00000    8.58100    0.08300    0.24230    0.32100    3.62480    2.53830   82.55270  183.02100  123.08820    4.09610    4.09210    5.46790  -64.40190
 9374.50000    8.58230    0.07560    0.24670    0.32990    3.74280    2.55910   85.75120  185.12160  122.64710    4.21070    4.22550    5.54360  -64.41500
 9375.00000    8.61900    0.07870    0.24820    0.34060    3.80170    2.57390   85.94670  185.12010  124.41180    4.38800    4.40320    5.67230  -64.81200
 9375.50000    8.64100    0.08820    0.24960    0.36020    3.81130    2.58130   83.53930  184.80420  128.82210    4.57290    4.52610    5.91040  -65.02660
 9376.00000    8.67680    0.09530    0.24960    0.36130    3.46090    2.57960   81.32940  180.28410  130.58820    4.74430    4.78130    6.27170  -65.03830
 9376.50000    8.69960    0.09410    0.24810    0.33350    3.29790    2.55840   81.12400  176.98390  131.02940    5.24590    4.98230    6.71630  -65.05010
 9377.00000    8.66930    0.08310    0.22590    0.31160    3.20890    2.55590   82.01690  175.49620  131.47060    5.54210    5.38500    7.29150  -65.06200
 9377.50000    8.63910    0.02630    0.20220    0.30150    3.17900    2.57530   85.91380  174.57380  132.35290    5.85490    5.79370    8.24780  -65.07590
 9378.00000    8.57910    0.01800    0.15780    0.30270    3.14910    2.62630   88.11170  172.08040  134.11760    6.10160    6.37610    8.24830  -65.08720
 9378.50000    8.54890    0.02910    0.11780    0.30860    3.11930    2.67190   87.90610  166.73480  135.88240    6.62460    6.73570    7.91710  -65.09740
 9379.00000    8.54850    0.03360    0.11040    0.30860    3.30130    2.67400   85.09960  163.07120  136.76470    6.90370    7.01890    7.91760  -65.10960
 9379.50000    8.51830    0.03100    0.10450    0.30600    3.59190    2.65680   81.78940  159.52810  136.76470    7.09680    7.02030    8.36360  -65.12090
 9380.00000    8.51790    0.01140    0.10300    0.30230    3.81350    2.67160   79.48080  158.37840  136.76470    7.49740    7.02160    8.79510  -64.84610
 9380.50000    8.50860   -0.00340    0.11630    0.29860    3.97600    2.69240   77.77280  161.72490  136.61810    7.60260    6.92770    9.08070  -64.55460
 9381.00000    8.48720   -0.02010    0.15570    0.29680    4.00530    2.71320   76.06480  160.98390  135.88240    7.46790    6.65070    8.59770  -64.56640
 9381.50000    8.48680   -0.02310    0.17050    0.32590    3.94580    2.73490   74.95730  158.92270  135.00000    7.00970    6.29820    8.14020  -64.57820
 9382.00000    8.48630   -0.02190    0.19010    0.32650    3.69410    2.74870   73.65040  158.37250  134.11760    6.03210    5.88340    7.49900  -64.59000
 9382.50000    8.45600    0.02620    0.20200    0.32760    3.48670    2.74740   73.24340  165.76110  133.23530    5.33540    5.32560    6.72170  -64.60370
 9383.00000    8.48540    0.06090    0.20240    0.33990    3.26450    2.71770   74.23710  166.77780  131.47060    4.85000    4.73030    6.10810  -64.61490
 9383.50000    8.51470    0.08330    0.19300    0.34780    3.16070    2.63940   77.03460  165.84120  133.23530    4.34880    4.35870    5.40060  -64.62610
 9384.00000    8.57380    0.07930    0.18410    0.35020    3.08640    2.59190   77.13030  165.57370  132.35290    4.00750    4.01640    4.90760  -64.63720
 9384.50000    8.69750    0.07290    0.17670    0.34840    3.20440    2.57020   76.52080  166.84860  130.58820    3.69300    3.65070    4.52100  -64.64900
 9385.00000    8.87950    0.07940    0.20780    0.34490    3.23370    2.58210   76.21450  168.47350  129.70590    3.45000    3.45720    4.31990  -64.66080
 9385.50000    9.01840    0.11300    0.22400    0.33360    3.23340    2.58800   76.50880  171.87180  131.61720    3.31230    3.36470    4.16510  -64.67260
 9386.00000    9.25700    0.13440    0.22840    0.33360    3.21830    2.54340   77.10340  175.99570  126.61760    3.16590    3.27460    4.10880  -64.33230
 9386.50000    9.43090    0.15160    0.22840    0.35140    3.17360    2.47890   77.99830  179.74730  122.64710    3.12380    3.10100    3.99820  -64.10620
 9387.00000    9.55500    0.16230    0.22540    0.37510    3.09940    2.38550   79.19360  182.73000  121.76470    3.05400    3.10160    3.89050  -64.11800
 9387.50000    9.64200    0.18550    0.21950    0.39680    3.03990    2.30670   80.98940  183.68200  124.41180    3.09720    3.10230    3.79640  -64.12980
 9388.00000    9.70110    0.22810    0.20470    0.38990    2.96570    2.28260   83.08550  184.18030  127.94120    3.05590    3.10290    3.73450  -64.14260
 9388.50000    9.70070    0.25930    0.19280    0.38460    2.89140    2.27360   84.58100  184.17870  126.61760    3.01530    3.10370    3.65900  -64.15380
 9389.00000    9.64080    0.28180    0.18390    0.38990    2.76300    2.26820   84.87530  184.17720  125.73530    2.97510    3.02060    3.63420  -64.16520
 9389.50000    9.52130    0.29420    0.17800    0.39880    2.63940    2.27270   85.46990  184.17570  126.17650    2.89560    2.98010    3.63440  -64.17700
