~Version ---------------------------------------------------
VERS.   2.0 : CWLS log ASCII Standard -VERSION 2.0
WRAP.    NO : One line per depth step
DLM . SPACE : Column Data Section Delimiter
~Well ------------------------------------------------------
STRT .F                 1486.0 : START DEPTH
STOP .F                11021.0 : STOP DEPTH
STEP .F                    0.5 : STEP
NULL .                -9999.25 : NULL VALUE
COMP .                         : COMPANY
WELL .                         : WELL
FLD  .                         : FIELD
LOC  .                         : LOCATION
PROV .                         : PROVINCE
CNTY .                         : COUNTY
STAT .                         : STATE
CTRY .                         : COUNTRY
SRVC .                         : SERVICE COMPANY
DATE .                         : DATE
UWI  .                         : UNIQUE WELL ID
API  .                         : API NUMBER
SLAT .WGS84    6.1687087211251 : SURFACE LATITUDE
SLON .WGS84 3.6499511711832042 : SURFACE LONGITUDE
DATUM.F                1865.25 : DEPTH DATUM ELEV
~Curve Information -----------------------------------------
DEPT.F     : 
CALD.IN    : CALIPER FROM DENSITY LOG
DPHI.DEC   : DENSITY POROSITY LIMESTONE
DRHO.G/C3  : BULK DENSITY CORRECTION
NPHI.DEC   : NEUTRON POROSITY LIMESTONE
PEF .B/E   : PHOTOELECTRIC FACTOR, BOTTOM
RHOB.G/C3  : BULK DENSITY
DTCO.US/F  : COMPRESSIONAL-WAVE INTERVAL TRANSIT TIME ACAUSTIC SLOWNESS
DTSM.US/F  : SHEAR-WAVE INTERVAL TRANSIT TIME DELTA-T
GRR .GAPI  : GAMMA RAY
ILD .OHMM  : INDUCTIO LOG DEEP
ILM .OHMM  : INDUCTION LOG MEDIUM
SFLU.OHMM  : SPHERICALLY FOCUSED LOG UNAVERAGED RESISTIVITY
SPR .MV    : SPONTANEOUS POTENTIAL
~Params ----------------------------------------------------
~Other -----------------------------------------------------
~ASCII -----------------------------------------------------
# ...
 9052.00000    9.95590    0.05820    0.12710    0.22560    3.17220    2.61570   80.25310  145.69440  127.44610    5.17000    5.16700    6.42080  -61.82890
 9052.50000    9.95530    0.05150    0.11670    0.23150    3.14240    2.61420   81.15700  148.88410  124.78640    5.17000    5.18240    6.42040  -61.84620
 9053.00000    9.95470    0.04790    0.11960    0.23680    3.12240    2.61860   81.76070  149.15020  124.77370    5.20190    5.26120    6.50850  -61.86030
 9053.50000    9.95420    0.04690    0.12400    0.24090    3.10740    2.62600   81.76270  148.74590  126.52570    5.28140    5.30810    6.50810  -61.87430
 9054.00000    9.95360    0.03980    0.12550    0.24030    3.09740    2.63810   82.06550  147.02290  128.27780    5.31330    5.38040    6.50760  -61.88840
 9054.50000    9.95300    0.03780    0.12250    0.23200    3.14140    2.64720   81.56920  146.74320  128.70630    5.31330    5.45430    6.50710  -62.49260
 9055.00000    9.95240    0.03860    0.11060    0.22430    3.14120    2.64970   79.97090  146.74170  125.59900    5.39500    5.52810    6.54510  -62.50740
 9055.50000    9.92200    0.04380    0.10770    0.22660    3.14100    2.64670   78.97230  146.74020  123.82170    5.47550    5.60340    6.61400  -63.11210
 9056.00000    9.92140    0.04400    0.11360    0.23140    3.15560    2.64070   78.77430  147.34750  122.92660    5.53560    5.64910    6.70470  -63.12690
 9056.50000    9.92080    0.04380    0.12680    0.23490    3.15540    2.63840   78.47700  147.94770  122.03160    5.61180    5.72600    6.79130  -63.14160
 9057.00000    9.92010    0.04610    0.13320    0.23730    3.17000    2.63770   78.78080  148.83900  121.57770    5.66840    5.83520    6.87090  -63.74630
 9057.50000    9.91960    0.04970    0.13470    0.23960    3.19930    2.63470   79.48430  149.43690  122.88860    5.73900    5.84350    6.96510  -63.76390
 9058.00000    9.91900    0.05210    0.13560    0.23960    3.22870    2.62870   80.58770  150.93690  131.69940    5.78710    5.88730    7.06060  -63.77800
 9058.50000    9.91840    0.05450    0.13410    0.23900    3.24330    2.61970   81.79240  152.43690  134.33380    5.86670    5.91330    7.09920  -63.56010
 9059.00000    9.91780    0.05700    0.12960    0.23250    3.23810    2.61520   80.69550  153.33630  134.76230    5.92710    5.91240    7.25560  -63.21530
 9059.50000    9.85770    0.05950    0.12520    0.23130    3.13920    2.61370   79.59710  153.93540  131.66140    5.97370    5.99300    7.25510  -63.23030
 9060.00000    9.82340    0.05980    0.12370    0.23240    3.07980    2.61540   79.09880  154.53450  126.20880    6.05000    5.99220    7.41530  -63.24480
 9060.50000    9.79040    0.05630    0.13250    0.23240    2.99090    2.61910   79.10180  155.13360  122.22270    6.12720    6.03260    7.45540  -63.25960
 9061.00000    9.75730    0.05230    0.14140    0.23000    2.96110    2.63030   79.10490  155.13210  123.67590    6.17510    6.07310    7.62010  -63.27430
 9061.50000    9.76620    0.04430    0.14580    0.22170    2.96090    2.64420   79.40820  154.83030  130.28090    6.26010    6.07220    7.66130  -63.08980
 9062.00000    9.78020    0.03060    0.14870    0.22170    2.96060    2.65140   79.41120  154.52840  133.79760    6.26010    6.04390    7.66060  -62.79540
 9062.50000    9.79460    0.03120    0.15020    0.22410    2.99000    2.65210   79.41420  154.52690  127.16730    6.26010    5.98790    7.76560  -62.72860
 9063.00000    9.76420    0.03360    0.14860    0.22700    3.01940    2.65060   79.11700  154.52540  123.18400    6.26010    6.06990    7.80430  -62.74340
 9063.50000    9.73390    0.03540    0.14420    0.23000    3.01920    2.64910   78.81970  154.22360  121.84780    6.26010    6.06880    7.90140  -62.75810
 9064.00000    9.73330    0.03040    0.13970    0.23050    2.96470    2.64900   78.82270  154.52250  120.95280    6.26010    6.06800    7.99860  -62.18410
 9064.50000    9.73270    0.01970    0.13230    0.23050    2.88550    2.65200   79.12600  156.02240  120.94010    6.26010    6.06720    8.09570  -62.19820
 9065.00000    9.70240    0.00960    0.12190    0.22990    2.87050    2.68920   79.42940  155.72060  120.92740    6.26010    6.06640    8.19290  -62.21240
 9065.50000    9.67200    0.00920    0.11000    0.22360    2.95910    2.69520   80.03300  154.81820  121.05920    6.26010    6.06550    8.29010  -62.22710
 9066.00000    9.67140    0.01260    0.09820    0.21530    3.09200    2.69640   80.03600  153.91580  121.48770    6.26010    6.06470    8.38720  -62.24190
 9066.50000    9.67080    0.01820    0.09220    0.21090    3.16570    2.67720   79.13810  153.31370  121.77170    6.26010    6.06390    8.42580  -62.25660
 9067.00000    9.67020    0.02940    0.08630    0.21030    3.19510    2.66730   77.63970  153.91290  122.63510    6.26010    6.06280    8.54130  -62.27140
 9067.50000    9.66960    0.03890    0.08330    0.21330    3.23930    2.65700   77.04210  151.20850  124.38710    6.26010    6.06200    8.54050  -61.69620
 9068.00000    9.66900    0.04180    0.08620    0.21560    3.25380    2.65230   77.04510  147.90370  123.05090    6.26010    6.06120    8.53990  -61.71090
 9068.50000    9.66840    0.04240    0.08770    0.21970    3.23880    2.64870   77.04810  146.70100  119.95000    6.26010    6.06050    8.53940  -61.72790
 9069.00000    9.66780    0.04240    0.08910    0.22150    3.16470    2.64570   77.65180  146.09890  118.17260    6.26010    6.05970    8.53880  -61.74040
 9069.50000    9.66720    0.04300    0.08760    0.22210    3.09540    2.64570   77.95510  144.29560  116.83640    6.26010    6.02610    8.53830  -61.75520
 9070.00000    9.66660    0.04360    0.08460    0.22210    3.03100    2.64260   77.65780  142.49230  116.38260    6.26010    5.97590    8.53770  -61.76990
 9070.50000    9.72630    0.04360    0.08010    0.22150    3.04560    2.64260   77.66080  140.98930  116.81110    6.24800    5.97500    8.53720  -61.78470
 9071.00000    9.78460    0.04360    0.07420    0.22030    3.10450    2.64090   77.06330  140.98770  117.82520    6.17510    5.89320    8.53660  -61.79940
 9071.50000    9.79000    0.04360    0.06830    0.22070    3.19310    2.63960   77.06630  140.68590  118.40030    6.17510    5.89230    8.41990  -61.81420
 9072.00000    9.81320    0.04330    0.06820    0.22500    3.22250    2.63950   77.06930  140.68440  120.29610    6.17510    5.89150    8.38140  -61.82890
 9072.50000    9.81250    0.04480    0.07260    0.22970    3.20750    2.63950   77.37260  141.88410  131.75400    6.17510    5.89050    8.19130  -61.84370
 9073.00000    9.81190    0.04710    0.08000    0.23320    3.13330    2.64090   77.67600  144.88560  135.71190    6.17510    5.88980    8.07950  -61.26840
 9073.50000    9.78150    0.04770    0.08980    0.23440    3.10350    2.64240   77.97930  147.28650  135.69930    6.17510    5.88910    7.96910  -61.28320
 9074.00000    9.78090    0.04710    0.09480    0.23080    3.25120    2.63790   78.88320  148.48650  134.80420    6.19400    5.88830    7.86030  -61.29790
 9074.50000    9.78030    0.04470    0.10360    0.22020    3.34950    2.63040   79.48680  148.48500  124.20330    6.24120    5.90360    7.75300  -61.31270
 9075.00000    9.77970    0.04230    0.10800    0.21420    3.39370    2.63480   80.39080  148.95900  116.69060    6.26010    5.96780    7.75240  -61.32740
 9075.50000    9.77910    0.04280    0.10940    0.21300    3.42810    2.63930   79.49290  153.62200  114.91330    6.27080    5.96670    7.75190  -61.47520
 9076.00000    9.77860    0.04700    0.10500    0.22010    3.30940    2.63920   78.89530  159.36110  117.98880    6.32460    5.96600    7.85820  -61.94850
 9076.50000    9.77490    0.04970    0.10050    0.23430    3.26480    2.63590   78.59800  158.79390  123.27030    6.43350    5.96530    7.85770  -61.96260
 9077.00000    9.71790    0.05150    0.09750    0.23490    3.24980    2.62970   78.60110  156.83930  128.11050    6.43350    5.99960    7.96550  -61.97640
 9077.50000    9.71730    0.05520    0.09300    0.23230    3.24960    2.62340   79.50500  155.36770  126.92020    6.43350    6.04590    8.07450  -61.99110
