~Version ---------------------------------------------------
VERS.   2.0 : CWLS log ASCII Standard -VERSION 2.0
WRAP.    NO : One line per depth step
DLM . SPACE : Column Data Section Delimiter
~Well ------------------------------------------------------
STRT .F                 1486.0 : START DEPTH
STOP .F                11021.0 : STOP DEPTH
STEP .F                    0.5 : STEP
NULL .                -9999.25 : NULL VALUE
COMP .                         : COMPANY
WELL .                         : WELL
FLD  .                         : FIELD
LOC  .                         : LOCATION
PROV .                         : PROVINCE
CNTY .                         : COUNTY
STAT .                         : STATE
CTRY .                         : COUNTRY
SRVC .                         : SERVICE COMPANY
DATE .                         : DATE
UWI  .                         : UNIQUE WELL ID
API  .                         : API NUMBER
SLAT .WGS84    6.1687087211251 : SURFACE LATITUDE
SLON .WGS84 3.6499511711832042 : SURFACE LONGITUDE
DATUM.F                1865.25 : DEPTH DATUM ELEV
~Curve Information -----------------------------------------
DEPT.F     : 
CALD.IN    : CALIPER FROM DENSITY LOG
DPHI.DEC   : DENSITY POROSITY LIMESTONE
DRHO.G/C3  : BULK DENSITY CORRECTION
NPHI.DEC   : NEUTRON POROSITY LIMESTONE
PEF .B/E   : PHOTOELECTRIC FACTOR, BOTTOM
RHOB.G/C3  : BULK DENSITY
DTCO.US/F  : COMPRESSIONAL-WAVE INTERVAL TRANSIT TIME ACAUSTIC SLOWNESS
DTSM.US/F  : SHEAR-WAVE INTERVAL TRANSIT TIME DELTA-T
GRR .GAPI  : GAMMA RAY
ILD .OHMM  : INDUCTIO LOG DEEP
ILM .OHMM  : INDUCTION LOG MEDIUM
SFLU.OHMM  : SPHERICALLY FOCUSED LOG UNAVERAGED RESISTIVITY
SPR .MV    : SPONTANEOUS POTENTIAL
~Params ----------------------------------------------------
~Other -----------------------------------------------------
~ASCII -----------------------------------------------------
# ...
 10248.00000    9.70820    0.25520    0.25000    0.32170    2.57510    2.36790   85.80170  184.00000  120.89990    2.98270    3.01600    3.86990  -49.95870
 10248.50000    9.82650    0.19870    0.24790    0.32170    2.57490    2.42090   85.49990  183.39790  127.51340    2.91450    3.00170    3.76560  -49.96170
 10249.00000    9.91510    0.15350    0.23160    0.32110    2.54500    2.44890   84.29720  183.09610  130.59740    2.91370    2.97380    3.71470  -49.96460
 10249.50000   10.00370    0.12850    0.21230    0.32050    2.51510    2.47360   83.39480  183.99550  128.97580    2.91290    2.97300    3.66440  -49.96760
 10250.00000   10.12200    0.12440    0.18120    0.32100    2.52460    2.49010   83.69360  183.99400  128.23580    2.87260    2.97250    3.56570  -50.56090
 10250.50000   10.09150    0.13150    0.16930    0.32400    2.69190    2.49760   83.69210  182.18600  127.05320    2.91140    2.97190    3.56590  -50.56340
 10251.00000   10.06110    0.18440    0.16780    0.33110    2.76560    2.48540   82.48940  181.58860  124.84310    2.95070    3.01220    3.56620  -50.56640
 10251.50000   10.12810    0.22950    0.16780    0.34050    2.78030    2.33940   81.88730  183.42420  119.10360    3.07340    3.05310    3.56640  -50.56940
 10252.00000   10.32000    0.26700    0.17810    0.33890    2.80940    2.23980   81.88580  186.40690  115.56990    3.15770    3.09440    3.56660  -50.57230
 10252.50000   10.40000    0.29010    0.22300    0.31910    2.86830    2.21750   83.08550  187.59010  110.27160    3.28900    3.22330    3.66590  -50.57520
 10253.00000   10.41520    0.28710    0.23870    0.32390    2.86800    2.21450   84.28520  186.91730  105.41440    3.42570    3.31190    3.87250  -50.57820
 10253.50000   10.41430    0.28690    0.24750    0.33570    2.77900    2.22190   84.58400  182.04040  101.43960    3.51970    3.44990    4.20420  -50.58110
 10254.00000   10.23500    0.29300    0.25000    0.33980    2.68990    2.22630   82.48040  177.27680  100.55310    3.61630    3.60980    4.50220  -50.58410
 10254.50000   10.05570   -9999.25    0.25000    0.34040    2.61570    2.22560   81.27770  175.25410  102.75470    3.66510    3.70910    4.62750  -50.58700
 10255.00000    9.81690   -9999.25    0.24590    0.33920    2.52180    2.19680   81.87680  174.97000  106.71890    3.71450    3.84580    4.50280  -50.59010
 10255.50000    9.57520   -9999.25    0.21480    0.33800    2.44740    2.09700   83.07650  178.12810  109.80290    3.76460    3.95150    4.32200  -50.59290
 10256.00000    9.39530   -9999.25    0.17630    0.34030    2.40760    2.03140   84.27620  181.71490  113.32820    3.81490    4.00510    4.20560  -50.59590
 10256.50000    9.32590   -9999.25    0.15560    0.34510    2.40730    2.04340   84.87530  184.97900  114.20840    3.86640    4.05950    4.09230  -50.00860
 10257.00000    9.23940   -9999.25    0.14820    0.35160    2.42200    2.08940   84.87380  186.67580  111.55500    3.91860    4.11460    4.03690  -50.01240
 10257.50000    9.26550   -9999.25    0.15550    0.35690    2.43630    2.11460   84.87230  185.11170  110.66840    3.97150    4.17030    4.03720  -50.01480
 10258.00000    9.76660   -9999.25    0.18400    0.35450    2.45090    2.13240   84.57050  183.90640  111.10540    4.02510    4.22680    4.24550  -50.01800
 10258.50000   10.34730   -9999.25    0.21460    0.34140    2.45060    2.15460   83.06750  183.03340  115.95410    4.07940    4.22600    4.69380  -49.76590
 10259.00000   10.61450   -9999.25    0.22050    0.33430    2.39110    2.16200   81.56450  181.49130  115.94990    4.13440    4.22520    4.95830  -49.43360
 10259.50000   10.76260   -9999.25    0.22340    0.33190    2.25770    2.13770   81.26270  173.00390  115.06330    4.19020    4.22420    5.09620  -49.43660
 10260.00000   10.79170   -9999.25    0.18790    0.33130    2.27220    2.05840   80.96090  169.90990  113.29440    4.24620    4.22340    5.09650  -49.43950
 10260.50000   10.76110   -9999.25    0.14200    0.33070    2.41980    2.01730   81.86030  167.74640  113.28950    4.24510    4.16500    5.02750  -49.44250
 10261.00000   10.51120   -9999.25    0.10790    0.32950    2.49840    2.00490   82.45940  168.95770  114.46070    4.24400    4.10760    4.95960  -49.05770
 10261.50000   10.13820   -9999.25    0.09750    0.32590    2.53760    2.00290   83.35880  176.26470  116.36790    4.30140    4.10680    4.95990  -48.85840
 10262.00000    9.77810   -9999.25    0.09900    0.31760    2.56680    2.00360   83.05700  180.54750  115.04010    4.30010    3.99530    4.96020  -48.86140
 10262.50000    9.48810   -9999.25    0.12560    0.30120    2.56650    2.00870   82.45490  182.55430  110.18290    4.29900    3.94030    4.89310  -48.86430
 10263.00000    9.15910   -9999.25    0.14820    0.28990    2.53660    2.03250   82.15310  183.45800  107.53170    4.29780    3.93950    4.82690  -48.86770
 10263.50000    8.95550   -9999.25    0.15410    0.26890    2.47720    2.05620   83.95340  183.95360  106.64510    4.35580    3.93880    4.74020  -48.87020
 10264.00000    8.92900   -9999.25    0.15500    0.26000    2.32900    2.05910   82.75070  180.98650  106.64090    4.41460    3.99220    4.69720  -48.87320
 10264.50000    9.20750   -9999.25    0.14610    0.27070    2.26950    2.02640   80.04650  177.94440  106.63660    4.47420    4.10200    4.82800  -48.87610
 10265.00000    9.35560   -9999.25    0.10170    0.29550    2.29880    2.00700   80.94590  177.94290  106.63240    4.47280    4.37130    4.96230  -48.87910
 10265.50000    9.38470   -9999.25    0.06620    0.29670    2.44650    2.00260   81.84530  177.31730  107.06940    4.47160    4.85430    5.10040  -48.88200
 10266.00000    8.84820   -9999.25    0.03510    0.27560    2.57430    2.00250   80.04200  168.45050  109.56210    4.40940    5.38760    5.46200  -48.88500
 10266.50000    8.69400   -9999.25    0.03350    0.24020    2.73680    2.00250   79.43990  157.47330  109.26760    4.23120    5.92720    6.01150  -48.88790
 10267.00000    8.60340   -9999.25    0.08230    0.22550    2.71170    2.01360   80.93990  138.93070  106.17220    4.00510    6.43240    6.43770  -48.89090
 10267.50000    8.93280    0.29450    0.11630    0.23790    2.65230    2.07580   71.62910  127.56010  103.07980    3.68880    5.68690    6.80030  -48.89380
 10268.00000    9.44540    0.24810    0.16800    0.27170    2.62240    2.16820   69.22510  121.93440  104.39910    3.39760    4.82580    5.85030  -48.89680
 10268.50000    9.76150    0.19280    0.19460    0.31380    2.66650    2.28760   70.42490  124.91710  114.98310    3.17230    4.26650    4.29650  -48.89970
 10269.00000    9.98030    0.17610    0.22760    0.32620    2.68110    2.36190   75.22810  138.75470  117.18550    3.00280    3.92990    3.70930  -48.90270
 10269.50000   10.18220    0.17300    0.24930    0.33500    2.68070    2.39750   79.43090  152.26610  116.73940    2.84230    3.61980    3.20450  -48.90560
 10270.00000   10.27070    0.18440    0.24630    0.34210    2.65090    2.41830   82.43240  168.59860  114.97050    2.72740    3.33420    2.95210  -48.90910
 10270.50000   10.27000    0.21360    0.22560    0.33910    2.62100    2.41810   86.03450  182.54120  113.20150    2.64110    2.94840    2.95230  -48.91150
 10271.00000   10.18000    0.23530    0.18710    0.32250    2.59110    2.39090   88.43540  184.86940  111.87380    2.58090    2.76530    2.95250  -48.91450
 10271.50000   10.05950    0.24630    0.16630    0.31600    2.59090    2.33780   89.63510  186.33200  111.42840    2.54500    2.64120    2.95270  -48.91740
 10272.00000    9.93730    0.24590    0.15150    0.32720    2.59050    2.29650   90.23420  186.33030  111.57000    2.50980    2.60490    2.95290  -48.92040
 10272.50000    9.83850    0.24380    0.14550    0.34800    2.57540    2.30320   90.83330  186.32880  113.18250    2.50910    2.60440    2.95310  -48.92330
 10273.00000    9.73070    0.24010    0.14840    0.35390    2.56030    2.32120   91.13210  186.32730  113.61950    2.49730    2.63980    2.91310  -48.92630
 10273.50000    9.68870    0.23120    0.16910    0.35560    2.56000    2.33750   91.43090  186.72030  114.05850    2.50790    2.71230    2.87370  -48.92920
