~Version ---------------------------------------------------
VERS.   2.0 : CWLS log ASCII Standard -VERSION 2.0
WRAP.    NO : One line per depth step
DLM . SPACE : Column Data Section Delimiter
~Well ------------------------------------------------------
STRT .F                 1486.0 : START DEPTH
STOP .F                11021.0 : STOP DEPTH
STEP .F                    0.5 : STEP
NULL .                -9999.25 : NULL VALUE
COMP .                         : COMPANY
WELL .                         : WELL
FLD  .                         : FIELD
LOC  .                         : LOCATION
PROV .                         : PROVINCE
CNTY .                         : COUNTY
STAT .                         : STATE
CTRY .                         : COUNTRY
SRVC .                         : SERVICE COMPANY
DATE .                         : DATE
UWI  .                         : UNIQUE WELL ID
API  .                         : API NUMBER
SLAT .WGS84    6.1687087211251 : SURFACE LATITUDE
SLON .WGS84 3.6499511711832042 : SURFACE LONGITUDE
DATUM.F                1865.25 : DEPTH DATUM ELEV
~Curve Information -----------------------------------------
DEPT.F     : 
CALD.IN    : CALIPER FROM DENSITY LOG
DPHI.DEC   : DENSITY POROSITY LIMESTONE
DRHO.G/C3  : BULK DENSITY CORRECTION
NPHI.DEC   : NEUTRON POROSITY LIMESTONE
PEF .B/E   : PHOTOELECTRIC FACTOR, BOTTOM
RHOB.G/C3  : BULK DENSITY
DTCO.US/F  : COMPRESSIONAL-WAVE INTERVAL TRANSIT TIME ACAUSTIC SLOWNESS
DTSM.US/F  : SHEAR-WAVE INTERVAL TRANSIT TIME DELTA-T
GRR .GAPI  : GAMMA RAY
ILD .OHMM  : INDUCTIO LOG DEEP
ILM .OHMM  : INDUCTION LOG MEDIUM
SFLU.OHMM  : SPHERICALLY FOCUSED LOG UNAVERAGED RESISTIVITY
SPR .MV    : SPONTANEOUS POTENTIAL
~Params ----------------------------------------------------
~Other -----------------------------------------------------
~ASCII -----------------------------------------------------
# ...
 10118.00000    9.74740    0.15710    0.17600    0.32100    2.74610    2.43280   82.53410  182.48020  125.29410    3.68300    3.59250    3.90710  -50.85550
 10118.50000    9.76880    0.13860    0.19820    0.31820    2.67200    2.46880   86.13470  181.87510  126.17650    3.73390    3.59290    3.90730  -50.85550
 10119.00000    9.68690    0.13940    0.21250    0.31940    2.62750    2.47560   85.23080  181.57060  125.88330    3.83760    3.59340    3.96140  -51.44540
 10119.50000    9.10730    0.14560    0.21540    0.32410    2.56820    2.43030   83.12570  181.86610  124.11860    3.94420    3.66000    4.01630  -51.74040
 10120.00000    8.42850    0.17070    0.20210    0.33180    2.53850    2.24160   81.92150  182.16190  121.32350    4.05370    3.77940    4.18490  -52.03540
 10120.50000    8.01160    0.29900    0.16800    0.33530    2.52350    2.16880   81.91850  182.75790  120.88240    4.22370    4.06550    4.36060  -52.62540
 10121.00000    7.86250    0.29960    0.15320    0.33590    2.52830    2.13760   83.71730  183.95470  120.73580    4.46120    4.47420    4.52320  -52.62540
 10121.50000    7.83240    0.29900    0.14430    0.33580    2.53800    2.12570   85.21580  184.85100  122.64710    4.71220    4.85720    4.69140  -52.62540
 10122.00000    7.95120    0.29900    0.13840    0.32990    2.53780    2.16400   86.41400  184.84650  126.61760    4.95500    5.13070    4.86620  -52.62540
 10122.50000    8.13040    0.29810    0.17390    0.31330    2.56730    2.20910   87.01160  183.64080  134.11760    5.18610    5.20200    5.14030  -52.62540
 10123.00000    8.37560    0.29600    0.19460    0.28960    2.59670    2.26210   87.90950  183.03570  138.08820    5.18640    4.99370    5.35610  -52.62540
 10123.50000    8.52090    0.23930    0.20940    0.27770    2.64100    2.30290   86.40500  182.43060  139.41180    5.04690    4.60120    5.58100  -52.62540
 10124.00000    8.61240    0.22340    0.22220    0.27710    2.65560    2.32440   83.09870  182.12580  136.18560    4.77870    4.47770    5.65820  -52.51150
 10124.50000    8.68380    0.22630    0.22810    0.28590    2.61110    2.27950   81.29390  183.02220  125.29700    4.65020    4.56080    5.73660  -52.03540
 10125.00000    8.78270    0.25190    0.23000    0.29540    2.56660    2.22510   79.48910  183.61820  120.00000    4.52510    4.66640    5.65900  -52.03540
 10125.50000    8.82700    0.29880    0.22410    0.29890    2.56640    2.20870   79.48610  183.61370  120.44120    4.40340    4.60390    5.43170  -52.03540
 10126.00000    8.82440    0.29870    0.22110    0.29830    2.65500    2.21910   81.28490  183.00860  121.32350    4.05700    4.30040    5.00380  -52.03540
 10126.50000    8.72230    0.28790    0.23150    0.29650    2.80280    2.24440   84.28490  183.00410  118.23530    3.67190    3.75160    4.54810  -52.03540
 10127.00000    8.72200    0.26130    0.24030    0.29590    2.83230    2.26370   84.88250  183.60020  111.17650    3.35180    3.40980    4.13200  -52.03540
 10127.50000    8.78120    0.24700    0.24470    0.29470    2.79270    2.28750   85.18030  184.19670  108.52940    3.00430    3.14180    3.91220  -52.03540
 10128.00000    8.90000    0.23910    0.24770    0.29410    2.72840    2.30440   83.97560  183.59120  106.76470    2.84470    2.97510    3.80680  -52.03540
 10128.50000    9.13780    0.23160    0.24770    0.29290    2.68380    2.31790   83.07170  183.28640  106.76470    2.76820    2.85590    3.65390  -52.03540
 10129.00000    9.26070    0.22700    0.24910    0.29170    2.62450    2.32600   82.76840  184.18270  109.85290    2.73080    2.77930    3.50720  -52.03540
 10129.50000    9.35000    0.22960    0.25000    0.28930    2.58000    2.32150   82.76540  184.77930  111.17650    2.69390    2.69750    3.41270  -52.31100
 10130.00000    9.38200    0.23140    0.25000    0.28630    2.53550    2.31560   82.66310  184.17370  107.35390    2.69410    2.65640    3.41290  -52.62540
 10130.50000    9.40450    0.23200    0.24860    0.28630    2.52060    2.32920   83.66030  183.56860  106.32350    2.69420    2.63250    3.32100  -52.62540
 10131.00000    9.33280    0.22600    0.24320    0.28590    2.50560    2.36610   86.36000  183.56410  106.76470    2.69440    2.58840    3.27610  -52.62540
 10131.50000    9.27060    0.20880    0.23280    0.28350    2.53510    2.41810   88.45910  183.55960  106.76470    2.69460    2.52760    3.18780  -52.62540
 10132.00000    9.23810    0.18890    0.22090    0.28030    2.59410    2.45220   91.45910  183.85540  106.76470    2.73190    2.52790    3.14470  -52.62540
 10132.50000    9.19490    0.14570    0.21800    0.27790    2.68270    2.46560   92.35700  184.15120  105.88240    2.73210    2.49390    3.14500  -52.62540
 10133.00000    9.12440    0.14580    0.22540    0.27670    2.75150    2.47000   92.05370  184.14670  105.88240    2.69510    2.46730    3.14520  -52.62540
 10133.50000    9.07530    0.14790    0.23570    0.27670    2.77120    2.45760   88.44710  184.44290  105.88240    2.69540    2.41080    3.18880  -52.62540
 10134.00000    9.01550    0.15260    0.24310    0.27670    2.72660    2.41950   87.84350  184.73870  106.76470    2.62290    2.39470    3.18900  -52.62540
 10134.50000    8.95570    0.16560    0.24750    0.27660    2.57850    2.38980   87.23990  184.73370  111.46670    2.58740    2.38860    3.23310  -52.62540
 10135.00000    8.89580    0.18840    0.25000    0.27480    2.56360    2.37300   86.33600  184.72920  117.20490    2.57010    2.36280    3.23330  -52.62540
 10135.50000    8.86180    0.19850    0.25000    0.27190    2.59300    2.36840   86.03270  184.72470  114.70590    2.55270    2.36320    3.23350  -52.62540
 10136.00000    8.79970    0.20080    0.25000    0.26470    2.66680    2.38060   86.02970  184.11960  111.61760    2.49770    2.33150    3.23380  -52.62540
 10136.50000    8.73730    0.18770    0.25000    0.26120    2.72590    2.41150   86.62730  183.51450  108.52940    2.46980    2.33180    3.18550  -52.37630
 10137.00000    8.71610    0.16090    0.25000    0.26790    2.77010    2.43570   87.82550  183.50990  105.44120    2.44510    2.33210    3.14690  -52.03540
 10137.50000    8.78900    0.14210    0.25000    0.27890    2.81440    2.45950   88.12280  183.50540  103.23530    2.41760    2.33240    3.14710  -52.03540
 10138.00000    9.04970    0.13170    0.24890    0.28070    2.82900    2.49220   87.81950  184.10150  101.91180    2.41770    2.33260    3.10450  -51.99430
 10138.50000    9.28060    0.12000    0.24740    0.27000    2.84370    2.50550   87.51620  184.09700  100.80890    2.41790    2.33290    3.06260  -51.44540
 10139.00000    9.31010    0.11920    0.24290    0.26460    2.81890    2.49960   87.21290  185.29370   99.70590    2.40490    2.33330    3.06280  -51.44540
 10139.50000    9.25030    0.13350    0.23550    0.26460    2.68060    2.48580   86.60930  185.89040   98.82350    2.38540    2.33370    3.06300  -51.44540
 10140.00000    9.07140    0.14000    0.22510    0.26810    2.72480    2.47390   86.00570  185.88530   97.94120    2.37630    2.34040    3.03940  -51.02070
 10140.50000    8.95210    0.13280    0.21480    0.27050    2.79860    2.49240   86.00270  185.28020  101.17310    2.35330    2.36640    3.02180  -50.85550
 10141.00000    8.95370    0.12090    0.20440    0.27220    2.84290    2.51170   85.99970  184.07450  107.64710    2.35350    2.36680    3.00150  -50.85550
 10141.50000    9.01100    0.11560    0.18520    0.27520    2.82790    2.51880   86.29700  183.46930  109.41180    2.35360    2.36710    2.98110  -50.85550
 10142.00000    9.04630    0.11140    0.17780    0.27710    2.79820    2.51590   86.59430  183.76580  104.55880    2.35390    2.40000    2.98130  -50.85550
 10142.50000    9.15400    0.12500    0.17630    0.27670    2.79810    2.49820   87.19190  183.76060  101.91180    2.38640    2.40030    2.98150  -50.85550
 10143.00000    9.33970    0.14690    0.20040    0.27390    2.79790    2.42670   87.48920  183.75610   99.70590    2.39310    2.40060    2.98170  -50.85550
 10143.50000    9.56440    0.17700    0.22060    0.27390    2.82740    2.41480   87.48620  184.05260   97.50000    2.40970    2.40090    2.98190  -50.85550
