~Version ---------------------------------------------------
VERS.   2.0 : CWLS log ASCII Standard -VERSION 2.0
WRAP.    NO : One line per depth step
DLM . SPACE : Column Data Section Delimiter
~Well ------------------------------------------------------
STRT .F                 1486.0 : START DEPTH
STOP .F                11021.0 : STOP DEPTH
STEP .F                    0.5 : STEP
NULL .                -9999.25 : NULL VALUE
COMP .                         : COMPANY
WELL .                         : WELL
FLD  .                         : FIELD
LOC  .                         : LOCATION
PROV .                         : PROVINCE
CNTY .                         : COUNTY
STAT .                         : STATE
CTRY .                         : COUNTRY
SRVC .                         : SERVICE COMPANY
DATE .                         : DATE
UWI  .                         : UNIQUE WELL ID
API  .                         : API NUMBER
SLAT .WGS84    6.1687087211251 : SURFACE LATITUDE
SLON .WGS84 3.6499511711832042 : SURFACE LONGITUDE
DATUM.F                1865.25 : DEPTH DATUM ELEV
~Curve Information -----------------------------------------
DEPT.F     : 
CALD.IN    : CALIPER FROM DENSITY LOG
DPHI.DEC   : DENSITY POROSITY LIMESTONE
DRHO.G/C3  : BULK DENSITY CORRECTION
NPHI.DEC   : NEUTRON POROSITY LIMESTONE
PEF .B/E   : PHOTOELECTRIC FACTOR, BOTTOM
RHOB.G/C3  : BULK DENSITY
DTCO.US/F  : COMPRESSIONAL-WAVE INTERVAL TRANSIT TIME ACAUSTIC SLOWNESS
DTSM.US/F  : SHEAR-WAVE INTERVAL TRANSIT TIME DELTA-T
GRR .GAPI  : GAMMA RAY
ILD .OHMM  : INDUCTIO LOG DEEP
ILM .OHMM  : INDUCTION LOG MEDIUM
SFLU.OHMM  : SPHERICALLY FOCUSED LOG UNAVERAGED RESISTIVITY
SPR .MV    : SPONTANEOUS POTENTIAL
~Params ----------------------------------------------------
~Other -----------------------------------------------------
~ASCII -----------------------------------------------------
# ...
 9806.00000   10.36420   -9999.25    0.03050    0.32640    2.00830    2.00240   60.90410  129.47160  112.94120    5.93670    3.43970    7.22110  -60.11960
 9806.50000   11.23480   -9999.25    0.05120    0.33530    2.17070    2.00390   60.10080  156.27270  102.94790    6.56530    5.43050   11.65880  -60.05900
 9807.00000   12.55560   -9999.25    0.08660    0.33700    2.22960    2.00380   66.60000  168.87320   92.35680    7.35940    6.51400   13.00860  -59.99850
 9807.50000   12.99420   -9999.25    0.11620    0.33100    2.31810    2.00530   76.41160  167.52830   87.79410    8.24480    7.50050   15.33130  -59.93790
 9808.00000   13.24290   -9999.25    0.13090    0.31410    2.37200    2.00520   78.51410  163.93710   87.35290    8.95040    7.92350   16.64450  -59.87740
 9808.50000   13.24150   -9999.25    0.13980    0.26760    2.40130    2.00520   79.11320  159.74540   90.44120    9.32620    6.91280   16.64560  -59.81680
 9809.00000   13.15100   -9999.25    0.14270    0.29250    2.47980    2.00450   76.11360  156.86660   93.52940    8.71140    4.34470   14.32020  -59.75630
 9809.50000   12.76300   -9999.25    0.13970    0.33100    2.52390    2.00360   71.50390  155.28680   96.17650    5.62640    3.08800   11.19420  -59.69580
 9810.00000   11.83920   -9999.25    0.13220    0.36470    2.56800    2.00210   70.30050  155.93730   94.41180    4.58430    2.88460    5.45280  -59.63520
 9810.50000   10.00380   -9999.25    0.13070    0.38190    2.65490    2.01390   73.60220  164.84200   93.52940    3.89140    3.68970    4.83820  -59.57470
 9811.00000    8.72610   -9999.25    0.14550    0.38660    2.71370    2.07480   79.00610  175.67480   93.52940    3.73560    4.17340    4.35500  -59.51410
 9811.50000    8.26770    0.28210    0.16960    0.37060    2.84650    2.14460   85.61120  178.53310   94.41180    4.30400    4.65650    4.29590  -59.45360
 9812.00000    7.99650    0.22540    0.21140    0.35390    2.92010    2.27080   88.91300  179.00310   96.46960    4.91110    4.98690    4.79350  -59.39300
 9812.50000    7.89240    0.18810    0.24000    0.33910    2.91980    2.39010   90.71330  172.54560   98.82350    4.71470    4.80990    5.49680  -59.33250
 9813.00000    7.79900    0.17410    0.24590    0.33550    2.85040    2.41130   90.71180  171.19230  103.23530    4.65100    4.59600    5.96760  -59.26870
 9813.50000    7.72360    0.16170    0.24730    0.33670    2.83020    2.47300   90.10970  172.28790  111.17650    4.91320    4.66060    6.13360  -59.27430
 9814.00000    7.69270    0.13120    0.24880    0.33730    2.97770    2.50940   88.30640  175.81470  121.32350    5.05000    4.85660    5.65050  -59.28020
 9814.50000    7.72130    0.11060    0.24870    0.33070    3.11050    2.52030   85.90250  177.49410  123.52940    5.19060    5.06080    5.34980  -59.28610
 9815.00000    7.77970    0.11430    0.24570    0.32650    3.18410    2.52190   82.59770  177.79290  123.52940    5.19130    5.13140    5.20570  -59.29200
 9815.50000    7.89760    0.13270    0.24570    0.32360    3.18380    2.50380   81.09470  177.04870  122.64710    5.12150    5.13240    5.39990  -59.29790
 9816.00000    8.05360    0.15520    0.24270    0.31940    3.12420    2.45920   79.29140  163.87900  118.67650    4.98410    4.92720    5.80900  -59.30380
 9816.50000    8.25070    0.17900    0.22780    0.31280    3.00550    2.35810   76.88750  151.89470  105.88240    4.71960    4.73030    5.97060  -59.30970
 9817.00000    8.66400    0.20600    0.20560    0.27310    2.79810    2.28640   74.48360  141.85360   99.41420    4.06480    4.01560    5.73080  -59.31560
 9817.50000    9.14030    0.25900    0.18480    0.27510    2.62020    2.20890   72.38000  134.13930   94.70780    3.54340    3.30340    4.41890  -59.32150
 9818.00000    9.50940    0.29890    0.17890    0.29010    2.56060    2.14280   72.67870  130.23160   90.44120    3.26490    3.02920    3.55010  -59.32780
 9818.50000   10.00910    0.29910    0.17730    0.30380    2.59970    2.13360   75.37990  123.94710   90.00000    3.09160    2.81670    3.18220  -59.33340
 9819.00000   10.41890    0.29920    0.18620    0.31870    2.70770    2.18410   73.87690  115.38580   91.76470    2.88780    2.74130    3.13910  -58.74910
 9819.50000   10.62610    0.29590    0.19350    0.32260    2.73700    2.20110   70.87240   94.57270   93.97060    2.77220    2.66800    3.18260  -58.75520
 9820.00000   10.74400    0.29700    0.19350    0.32340    2.70700    2.20920   66.06610   89.48950   97.05880    2.66120    2.63230    3.45520  -58.76110
 9820.50000   10.83210    0.29860    0.18610    0.32090    2.64750    2.16460   59.45800   87.98650  101.47060    2.62540    2.63280    3.83790  -58.76700
 9821.00000   10.92200   -9999.25    0.18310    0.31500    2.61760    2.11110   57.65470   86.48350  104.11760    2.66180    2.59760    3.96250  -58.77290
 9821.50000   10.94890   -9999.25    0.19490    0.29110    2.61720    2.10940   56.45200   86.78230  105.44120    2.77360    2.59810    3.96280  -58.77880
 9822.00000   10.94760   -9999.25    0.20170    0.23730    2.66130    2.19570   54.64870   89.78380  107.20590    2.95680    2.67060    3.96310  -58.78470
 9822.50000   10.94640   -9999.25    0.20360    0.27640    2.69050    2.29210   52.84540   92.18470  110.73530    3.12340    2.78290    4.07330  -58.79060
 9823.00000   10.94520   -9999.25    0.18580    0.28110    2.54720    2.30850   50.14120   93.38430  107.35680    3.45300    3.13490    4.30280  -58.79690
 9823.50000   10.88450   -9999.25    0.16210    0.27700    2.43330    2.25360   47.73730   94.58400   89.55880    3.95910    3.60970    4.80100  -58.80250
 9824.00000   10.67480   -9999.25    0.14140    0.26800    2.52650    2.10280   46.83480   97.88580   78.52940    4.60190    4.55450    6.57750  -58.80830
 9824.50000   10.16770   -9999.25    0.11470    0.25440    2.70370    2.00380   55.54200  105.09150   71.47060    5.96700    5.74670    7.75190  -58.81470
 9825.00000    9.54160   -9999.25    0.10720    0.24610    2.70330    2.00250   58.84380  121.00590   67.05880    7.22600    6.95960    9.13610  -58.82010
 9825.50000    8.91540   -9999.25    0.12050    0.24780    2.64380    2.09280   61.24470  139.02250   63.52940    8.99310    7.45330   10.62110  -58.82600
 9826.00000    8.28590    0.29620    0.11600    0.25250    2.59910    2.21610   64.84680  153.73570   60.88240   10.74280    7.15530   13.78540  -58.70030
 9826.50000    8.19890    0.26400    0.09280    0.27500    2.76150    2.31260   69.34980  180.16060   60.00000   13.37000    5.75120   15.73290  -58.24780
 9827.00000    8.41250    0.23320    0.07210    0.31590    3.35280    2.39580   80.45940  183.16210   61.76470   13.93130    4.20090   16.68750  -58.25370
 9827.50000    8.43470    0.16970    0.03900    0.43970    4.07730    2.42320   92.46990  184.06150   70.72480    9.11330    2.90530   11.53340  -58.26030
 9828.00000    7.77140    0.15930    0.03150    0.48120    3.92940    2.42790   95.77170  184.36040   91.02600    5.20990    2.43290    7.14430  -58.26590
 9828.50000    8.22720    0.29830    0.03150    0.47700    3.43070    2.12250  100.57500  183.15750  100.58820    3.22980    2.70240    4.48650  -58.27160
 9829.00000    9.20450    0.29770    0.06250    0.45210    3.08500    2.02740  105.97890  182.25510   98.82350    3.10030    2.82890    3.75550  -58.27730
 9829.50000    9.50100    0.29710    0.12020    0.42250    2.84790    2.00020  107.47890  181.65300   97.05880    3.36580    2.79110    3.65440  -58.28320
 9830.00000    8.96420    0.29680    0.16150    0.39580    2.64050    2.01360  107.47740  181.05090   96.61760    3.50710    2.71630    3.80780  -58.28910
 9830.50000    8.30830    0.29530    0.19260    0.37910    2.56620    2.15480  100.86930  180.74910   97.94120    3.46000    2.67990    3.96760  -58.29500
 9831.00000    8.03930    0.27150    0.20880    0.37140    2.52140    2.24980   96.06300  180.44730   98.82350    3.36710    2.75480    4.07800  -58.30090
 9831.50000    8.00830    0.23990    0.21320    0.35700    2.60980    2.29730   90.65610  180.14550   98.82350    3.41390    2.95020    4.13450  -58.30680
