~Version ---------------------------------------------------
VERS.   2.0 : CWLS log ASCII Standard -VERSION 2.0
WRAP.    NO : One line per depth step
DLM . SPACE : Column Data Section Delimiter
~Well ------------------------------------------------------
STRT .F                 1486.0 : START DEPTH
STOP .F                11021.0 : STOP DEPTH
STEP .F                    0.5 : STEP
NULL .                -9999.25 : NULL VALUE
COMP .                         : COMPANY
WELL .                         : WELL
FLD  .                         : FIELD
LOC  .                         : LOCATION
PROV .                         : PROVINCE
CNTY .                         : COUNTY
STAT .                         : STATE
CTRY .                         : COUNTRY
SRVC .                         : SERVICE COMPANY
DATE .                         : DATE
UWI  .                         : UNIQUE WELL ID
API  .                         : API NUMBER
SLAT .WGS84    6.1687087211251 : SURFACE LATITUDE
SLON .WGS84 3.6499511711832042 : SURFACE LONGITUDE
DATUM.F                1865.25 : DEPTH DATUM ELEV
~Curve Information -----------------------------------------
DEPT.F     : 
CALD.IN    : CALIPER FROM DENSITY LOG
DPHI.DEC   : DENSITY POROSITY LIMESTONE
DRHO.G/C3  : BULK DENSITY CORRECTION
NPHI.DEC   : NEUTRON POROSITY LIMESTONE
PEF .B/E   : PHOTOELECTRIC FACTOR, BOTTOM
RHOB.G/C3  : BULK DENSITY
DTCO.US/F  : COMPRESSIONAL-WAVE INTERVAL TRANSIT TIME ACAUSTIC SLOWNESS
DTSM.US/F  : SHEAR-WAVE INTERVAL TRANSIT TIME DELTA-T
GRR .GAPI  : GAMMA RAY
ILD .OHMM  : INDUCTIO LOG DEEP
ILM .OHMM  : INDUCTION LOG MEDIUM
SFLU.OHMM  : SPHERICALLY FOCUSED LOG UNAVERAGED RESISTIVITY
SPR .MV    : SPONTANEOUS POTENTIAL
~Params ----------------------------------------------------
~Other -----------------------------------------------------
~ASCII -----------------------------------------------------
# ...
 10404.00000    8.87840    0.21840    0.24220    0.34440    2.86620    2.33930   83.21920  184.43220  108.83160    3.33870    3.38850    4.65370  -42.92060
 10404.50000    9.11550    0.22610    0.24220    0.32770    2.83620    2.33400   82.31630  182.02830  107.05960    3.33870    3.38890    4.65340  -43.02690
 10405.00000    9.41070    0.22730    0.24360    0.33110    2.80610    2.33840   81.21190  180.82560  106.17250    3.38470    3.38940    4.65310  -43.13320
 10405.50000    9.33790    0.22190    0.24360    0.33960    2.83530    2.34730   80.24020  180.64600  107.05540    3.38470    3.43650    4.65280  -43.23960
 10406.00000    9.05390    0.21590    0.24360    0.33420    2.90890    2.35020   82.64260  182.32410  111.47800    3.43120    3.43690    4.65250  -43.29200
 10406.50000    8.79140    0.22320    0.24350    0.32590    2.92320    2.34270   83.84380  182.62310  113.68830    3.43120    3.45620    4.65210  -43.30090
 10407.00000    8.67840    0.22360    0.24200    0.31880    2.92280    2.33360   84.74470  182.02080  113.39180    3.43120    3.48510    4.65180  -43.30970
 10407.50000    8.61460    0.22120    0.23450    0.31760    2.88290    2.33130   85.04500  182.61990  109.70070    3.43790    3.48560    4.65160  -43.31860
 10408.00000    8.57000    0.22170    0.22710    0.31700    2.82330    2.31300   84.14410  183.51930  107.48620    3.47850    3.48610    4.65120  -43.32740
 10408.50000    8.59870    0.23900    0.22260    0.31880    2.74380    2.30270   83.24320  183.81830  106.59920    3.52630    3.47090    4.71490  -43.33780
 10409.00000    8.59750    0.23660    0.22550    0.32110    2.66940    2.31930   82.64260  183.21600  106.15460    3.52630    3.43960    4.71470  -43.34510
 10409.50000    8.59640    0.22470    0.24770    0.32230    2.80210    2.36330   82.34230  182.61390  106.59490    3.52630    3.39340    4.71430  -43.35470
 10410.00000    8.56130    0.19970    0.25000    0.31690    2.86090    2.40340   82.04200  182.61240  111.01760    3.52630    3.38240    4.71400  -43.36280
 10410.50000    8.37060    0.16460    0.25000    0.30690    2.86050    2.43010   81.68190  182.91120  116.76770    3.52630    3.34830    4.71370  -43.37170
 10411.00000    8.26550    0.18120    0.24900    0.31160    2.81570    2.43460   81.44140  183.21020  118.53550    3.47850    3.30340    4.71340  -43.38050
 10411.50000    8.53260    0.23170    0.24900    0.31630    2.74130    2.35460   81.74170  182.00730  118.97590    3.43120    3.30380    4.71310  -43.32300
 10412.00000    8.73930    0.25150    0.24740    0.31390    2.68170    2.27910   82.34230  181.10490  119.41620    3.43120    3.30430    4.71280  -42.80690
 10412.50000    8.55930    0.25900    0.24590    0.31390    2.58260    2.27100   83.54350  181.40390  119.85660    3.43120    3.33200    4.71240  -42.81710
 10413.00000    8.43910    0.25200    0.24290    0.31630    2.56240    2.27500   83.84380  182.00300  120.29590    3.43120    3.35060    4.71210  -42.82600
 10413.50000    8.43800    0.24900    0.23990    0.31920    2.60620    2.28250   82.04200  180.19950  120.73730    3.47850    3.35110    4.71170  -42.83640
 10414.00000    8.55590    0.24770    0.23990    0.33400    2.70940    2.29310   80.54050  178.99680  120.73420    3.49760    3.35170    4.71140  -42.84370
 10414.50000    8.73330    0.24340    0.23980    0.33880    2.78290    2.32140   80.24020  179.59590  118.96210    3.52630    3.35210    4.71110  -42.85330
 10415.00000    8.91370    0.23030    0.24570    0.33880    2.85650    2.33910   81.14110  183.79860  113.65030    3.52630    3.35250    4.64670  -42.86140
 10415.50000    9.00480    0.21370    0.24860    0.33520    2.95960    2.36730   82.04200  180.79410  111.87830    3.52630    3.30750    4.64640  -42.87020
 10416.00000    9.10520    0.18870    0.25000    0.33280    3.03310    2.40300   82.34230  178.39020  112.76110    3.46280    3.30790    4.58300  -42.87910
 10416.50000    9.18720    0.13160    0.24950    0.33280    3.03270    2.49130   82.34230  179.89020  114.97140    3.43120    3.30830    4.58270  -42.88790
 10417.00000    9.26310    0.12920    0.24850    0.33280    2.94350    2.50120   82.04200  182.29110  116.44340    3.33870    3.30880    4.58240  -42.89680
 10417.50000    9.32140    0.13320    0.24400    0.33280    2.60780    2.48890   81.44140  182.28960  117.17960    3.24870    3.26430    4.56140  -42.90560
 10418.00000    9.32010    0.18640    0.22920    0.33040    2.46910    2.40470   82.04200  183.18900  111.42420    3.24870    3.26470    4.51950  -43.35120
 10418.50000    9.28920    0.26900    0.21280    0.32980    2.45390    2.26520   83.24320  183.18750  106.99730    3.16110    3.19200    4.51910  -43.51330
 10419.00000    9.10950    0.29580    0.19210    0.33040    2.43870    2.19320   83.24320  182.58540  104.78280    3.07590    3.12030    4.51880  -43.52350
 10419.50000    9.07860    0.29850    0.20980    0.33390    2.43820    2.18580   82.34230  181.08240  103.01070    3.03420    3.00910    4.58080  -43.53190
 10420.00000    9.20430    0.29760    0.20830    0.34340    2.43780    2.20210   80.24020  181.38120  103.00860    3.03420    2.92830    4.58040  -43.54040
 10420.50000    9.25490    0.29900    0.20080    0.35760    2.39300    2.19460   79.63960  178.37670  104.77640    3.16110    2.88890    4.58010  -43.54880
 10421.00000    9.24340    0.29900    0.15940    0.34930    2.22990    2.10660   82.13980  167.26410  108.31410    3.36940    3.01030    4.57980  -43.55750
 10421.50000    9.23580    0.29900    0.12680    0.29600    2.21470    2.00830   86.44380  158.55390  110.08200    3.82760    3.17980    4.64270  -43.56640
 10422.00000    9.20510    0.29900    0.09120    0.24080    2.24860    2.00110   89.04880  142.03590  104.77010    4.32850    3.40510    4.64230  -43.57520
 10422.50000    9.07120    0.29890    0.03750    0.20290    2.53400    2.00650   87.85050  136.92930   88.40320    4.96240    3.85120    4.92700  -43.31850
 10423.00000    8.68320    0.29370    0.02160    0.14000    2.99720    2.07080   81.94420  134.82570   77.33910    6.40970    4.47650    9.85310  -43.00290
 10423.50000    8.17610    0.24420    0.01720    0.11870    3.57370    2.25020   78.04030  136.32570   62.28480    9.69370    5.13260    9.85240  -43.01180
 10424.00000    7.66900    0.08870    0.03930    0.13590    3.91350    2.48710   72.23680  137.62920   54.31810    8.68980    6.56520    9.85170  -42.43220
 10424.50000    7.42790    0.02560    0.06140    0.13760    4.35690    2.67570   66.52810  133.01940   51.21870    8.22760    8.28320   11.74950  -42.44060
 10425.00000    7.39890    0.01230    0.09100    0.12870    4.59320    2.68610   64.02500  124.30920   53.42890    7.78990    8.39830   17.50140  -42.44910
 10425.50000    7.45730    0.01230    0.11160    0.11510    4.59270    2.69350   62.62330  123.10650   69.35600    7.57990    7.73820   18.73970  -42.45750
 10426.00000    7.49690    0.03250    0.12930    0.10200    4.37040    2.69120   62.22220  127.90980   69.35390    7.64970    8.28640   17.98470  -42.46600
 10426.50000    7.55820    0.05270    0.14110    0.10200    4.05940    2.63250   63.32170  137.51790   68.46690    8.45560    8.63430   11.44820  -41.88440
 10427.00000    7.57260    0.04200    0.14700    0.12220    3.94060    2.65280   66.72380  142.32120   68.46470    8.93060    8.75430   10.98700  -41.89380
 10427.50000    7.57120    0.02300    0.14990    0.16720    4.24580    2.67950   71.42880  143.82120   69.78830    8.93060    8.40370   10.98630  -41.90270
 10428.00000    7.57010    0.01460    0.13900    0.20120    4.14660    2.68160   73.03300  139.61550   73.91400    7.89710    7.33130   10.83620  -41.91150
 10428.50000    7.56900    0.02340    0.10990    0.22650    3.82080    2.67030   71.03260  130.90530   86.15650    6.43350    6.22330    9.32120  -41.92040
 10429.00000    7.59760    0.03800    0.08770    0.23590    3.34700    2.64420   69.32960  120.69360   94.11890    5.38640    5.21550    6.90970  -41.93090
 10429.50000    7.62620    0.04410    0.08020    0.24660    3.00630    2.63670   69.62890  116.78820   98.54160    4.50970    4.52730    5.85720  -41.93930
