~Version ---------------------------------------------------
VERS.   2.0 : CWLS log ASCII Standard -VERSION 2.0
WRAP.    NO : One line per depth step
DLM . SPACE : Column Data Section Delimiter
~Well ------------------------------------------------------
STRT .F                 1486.0 : START DEPTH
STOP .F                11021.0 : STOP DEPTH
STEP .F                    0.5 : STEP
NULL .                -9999.25 : NULL VALUE
COMP .                         : COMPANY
WELL .                         : WELL
FLD  .                         : FIELD
LOC  .                         : LOCATION
PROV .                         : PROVINCE
CNTY .                         : COUNTY
STAT .                         : STATE
CTRY .                         : COUNTRY
SRVC .                         : SERVICE COMPANY
DATE .                         : DATE
UWI  .                         : UNIQUE WELL ID
API  .                         : API NUMBER
SLAT .WGS84    6.1687087211251 : SURFACE LATITUDE
SLON .WGS84 3.6499511711832042 : SURFACE LONGITUDE
DATUM.F                1865.25 : DEPTH DATUM ELEV
~Curve Information -----------------------------------------
DEPT.F     : 
CALD.IN    : CALIPER FROM DENSITY LOG
DPHI.DEC   : DENSITY POROSITY LIMESTONE
DRHO.G/C3  : BULK DENSITY CORRECTION
NPHI.DEC   : NEUTRON POROSITY LIMESTONE
PEF .B/E   : PHOTOELECTRIC FACTOR, BOTTOM
RHOB.G/C3  : BULK DENSITY
DTCO.US/F  : COMPRESSIONAL-WAVE INTERVAL TRANSIT TIME ACAUSTIC SLOWNESS
DTSM.US/F  : SHEAR-WAVE INTERVAL TRANSIT TIME DELTA-T
GRR .GAPI  : GAMMA RAY
ILD .OHMM  : INDUCTIO LOG DEEP
ILM .OHMM  : INDUCTION LOG MEDIUM
SFLU.OHMM  : SPHERICALLY FOCUSED LOG UNAVERAGED RESISTIVITY
SPR .MV    : SPONTANEOUS POTENTIAL
~Params ----------------------------------------------------
~Other -----------------------------------------------------
~ASCII -----------------------------------------------------
# ...
 9962.00000    8.43330    0.21700    0.15350    0.33440    3.17690    2.34480   72.24610   94.69650  112.83430    3.46050    3.09660    5.45900  -56.67260
 9962.50000    8.40320    0.20930    0.17270    0.33730    3.23590    2.35420   72.24460   94.71700  113.27340    3.91360    3.40810    5.53460  -56.85390
 9963.00000    8.46250    0.20330    0.18600    0.34150    3.25060    2.35270   72.54340   91.08390  112.38470    4.30670    3.70030    5.53490  -57.28040
 9963.50000    8.46220    0.21310    0.19780    0.34740    3.25040    2.34970   72.84220   88.37670  111.49810    4.54900    4.01760    5.53530  -57.28910
 9964.00000    8.58480    0.21520    0.20220    0.35450    3.20590    2.34670   72.84070   87.47140  111.93500    4.80490    4.24440    5.38620  -57.29790
 9964.50000    8.77340    0.21650    0.20370    0.36350    2.94950    2.34500   72.83920   86.26570  112.37200    4.80520    4.42320    4.82800  -57.30680
 9965.00000    8.94110    0.22610    0.20070    0.37930    2.73730    2.33780   72.83770   85.06000  112.80890    4.53100    4.60950    4.26870  -57.31560
 9965.50000    9.09710    0.25730    0.19780    0.39530    2.59890    2.31790   72.83620   84.75520  110.15760    4.07990    4.54810    4.04160  -57.32450
 9966.00000    9.26030    0.29710    0.20810    0.40060    2.58400    2.25410   72.83470   85.35130  104.71340    3.70720    4.24880    4.12490  -57.22030
 9966.50000    9.43000    0.30000    0.23030    0.39940    2.67260    2.19950   72.83330   86.54800  103.09040    3.60750    3.91540    4.19440  -56.75140
 9967.00000    9.56130    0.29580    0.24060    0.39460    2.79080    2.18920   72.83180   88.04860  105.73110    3.55870    3.75910    4.26390  -56.76270
 9967.50000    9.65030    0.28570    0.24800    0.38750    2.84980    2.20110   72.83030   89.85180  118.96210    3.55900    3.64240    4.33340  -56.77120
 9968.00000    9.70950    0.27220    0.25000    0.38030    2.90890    2.24560   72.82880   90.43850  124.25200    3.55930    3.65990    4.38900  -56.51730
 9968.50000    9.73900    0.22810    0.25000    0.37500    2.90870    2.30950   72.82730   88.90060  118.51250    3.62830    3.71150    4.38940  -56.19830
 9969.00000    9.73870    0.19510    0.24800    0.37380    2.83460    2.34960   72.82580   87.39820  112.33180    3.65840    3.76360    4.38970  -56.20650
 9969.50000    9.70430    0.19410    0.23910    0.37470    2.79010    2.38000   72.82430   86.82130  108.79810    3.70890    3.81630    4.39000  -56.21530
 9970.00000    9.51510    0.22290    0.22130    0.37850    2.77520    2.38830   72.82290   88.37840  108.79390    3.76020    3.86990    4.27170  -56.16450
 9970.50000    9.33560    0.22580    0.20650    0.38490    2.81930    2.33390   72.82130   89.21490  111.43670    3.81220    3.92410    4.10020  -55.64230
 9971.00000    9.23160    0.20760    0.19760    0.39090    2.92270    2.31990   72.81980   87.93100  114.52070    3.86490    3.92520    3.98970  -55.65190
 9971.50000    9.34680    0.20880    0.19610    0.39080    2.99660    2.34530   72.81820   86.47370  113.63420    3.81270    3.87290    3.88230  -55.66080
 9972.00000    9.44120    0.21470    0.20790    0.38780    2.98160    2.35940   72.81670   87.03900  111.42330    3.76130    3.82140    3.82970  -55.07920
 9972.50000    9.49850    0.21890    0.21380    0.37890    2.84840    2.36200   72.81520   92.20000  111.86100    3.61050    3.71930    3.77790  -55.08850
 9973.00000    9.49820    0.22060    0.21530    0.36880    2.84820    2.35550   72.81370   89.71540  112.29790    3.37220    3.52240    3.90080  -55.09730
 9973.50000    9.46810    0.22060    0.20940    0.36230    2.87770    2.34070   72.81230   88.88740  113.17390    3.14970    3.24680    4.00930  -55.10620
 9974.00000    9.40830    0.21900    0.19750    0.36350    2.93670    2.33900   72.81090   88.97040  114.49320    3.10720    3.04670    4.15870  -55.11500
 9974.50000    9.37830    0.20180    0.19160    0.36620    3.01050    2.36440   72.80940   91.35880  116.25370    3.19350    2.99200    4.27440  -55.12390
 9975.00000    9.49960    0.19430    0.19750    0.36760    3.13360    2.38840   72.80780   96.83010  120.22010    3.28220    3.20480    4.39330  -55.13310
 9975.50000    9.55630    0.19310    0.20930    0.35030    3.14340    2.39410   72.80640   97.87880  125.50990    3.46680    3.52750    4.04720  -55.14160
 9976.00000    9.51020    0.20930    0.22110    0.34140    2.84730    2.34940   72.80490   95.07580  133.88810    3.79800    4.21430    3.57840  -55.15150
 9976.50000    9.40470    0.21890    0.22800    0.33730    2.81760    2.33760   72.80340   91.74370  150.20740    3.86780    4.15820    3.12090  -55.15930
 9977.00000    9.17450    0.21210    0.23290    0.34260    2.83220    2.35190   72.50160   90.23440  153.21200    3.10850    3.34250    2.87510  -55.16810
 9977.50000    8.89340    0.20490    0.23290    0.35140    2.87650    2.37140   72.19980   89.15170  156.81510    2.86400    2.79920    2.68510  -55.17700
 9978.00000    8.39400    0.19890    0.23290    0.34790    2.92070    2.38810   72.19830   90.56740  154.60500    2.71180    2.50990    2.61280  -55.18580
 9978.50000    8.21510    0.17990    0.22550    0.30340    2.93530    2.42080   71.59620  100.80140  141.42920    2.56770    2.31300    2.57750  -55.19470
 9979.00000    8.12560    0.16020    0.14260    0.26900    2.93520    2.43270   71.59470  107.44590  124.97540    2.56790    2.25120    2.64950  -55.20350
 9979.50000    8.09550    0.16050    0.06270    0.22160    2.92030    2.43570   70.99260  112.11190  106.94460    2.67550    2.46780    3.78160  -55.21390
 9980.00000    8.15480    0.16200    0.02870    0.16110    3.21600    2.43570   70.39050  110.87090   98.11680    3.02590    2.81650    5.39810  -55.22120
 9980.50000    8.21400    0.14520    0.01680    0.15790    3.70380    2.46580   69.28930  108.77890   80.90670    3.76560    3.12790    7.29500  -55.23090
 9981.00000    8.14320    0.10940    0.03750    0.16100    3.91100    2.54860   65.78300  108.25300   76.93190    4.03220    3.21540    8.71610  -55.23890
 9981.50000    8.03480    0.07760    0.07060    0.17290    3.65930    2.59860   65.58130  108.60090   83.10410    4.08790    3.26050    8.91820  -55.24780
 9982.00000    8.00480    0.06140    0.10010    0.20190    3.34850    2.61150   68.58060  112.55220  104.71750    4.06980    3.17340    6.53980  -55.25660
 9982.50000    8.09140    0.08520    0.12630    0.22850    3.20040    2.60190   71.58210  118.68440  113.97800    3.87110    3.08860    4.90660  -55.26550
 9983.00000    8.27810    0.12970    0.14840    0.26530    3.17070    2.50080   74.68430  126.51300  115.73850    3.61570    3.17510    4.16380  -55.27430
 9983.50000    8.56930    0.14870    0.17650    0.27810    3.25930    2.47570   77.38550  143.37890  115.73420    3.33130    3.30880    4.05160  -55.28320
 9984.00000    8.53920    0.12250    0.20310    0.27780    3.36270    2.47370   80.98570  163.85130  117.49250    3.11140    3.30970    4.27990  -55.29200
 9984.50000    8.50920    0.11660    0.23120    0.27940    3.37740    2.50990   84.39020  178.98550  121.31090    2.98670    3.13440    4.48000  -55.30090
 9985.00000    8.56840    0.11820    0.24300    0.29240    3.33290    2.51580   81.69090  178.76440  126.74880    2.86690    3.00930    4.52130  -55.61430
 9985.50000    8.68820    0.12850    0.24890    0.30530    3.20950    2.50510   77.88230  178.45600  127.62910    2.86710    2.95600    4.46010  -55.90860
 9986.00000    8.93960    0.19610    0.25000    0.32970    3.09100    2.42720   76.97900  179.03090  112.18150    2.86730    2.92970    4.34010  -55.91740
 9986.50000    9.24520    0.21990    0.25000    0.35100    2.94770    2.37040   77.27680  182.87730  108.64790    2.94690    2.89070    4.10920  -56.08210
 9987.00000    9.48540    0.23530    0.21190    0.35930    2.87360    2.33310   81.57730  185.77100  109.52600    2.94710    2.93160    3.78550  -56.52560
 9987.50000    9.68310    0.24360    0.19710    0.35810    2.79950    2.31340   86.78170  186.33280  113.05120    2.90740    3.01370    3.48730  -56.53410
