~Version ---------------------------------------------------
VERS.   2.0 : CWLS log ASCII Standard -VERSION 2.0
WRAP.    NO : One line per depth step
DLM . SPACE : Column Data Section Delimiter
~Well ------------------------------------------------------
STRT .F                 1486.0 : START DEPTH
STOP .F                11021.0 : STOP DEPTH
STEP .F                    0.5 : STEP
NULL .                -9999.25 : NULL VALUE
COMP .                         : COMPANY
WELL .                         : WELL
FLD  .                         : FIELD
LOC  .                         : LOCATION
PROV .                         : PROVINCE
CNTY .                         : COUNTY
STAT .                         : STATE
CTRY .                         : COUNTRY
SRVC .                         : SERVICE COMPANY
DATE .                         : DATE
UWI  .                         : UNIQUE WELL ID
API  .                         : API NUMBER
SLAT .WGS84    6.1687087211251 : SURFACE LATITUDE
SLON .WGS84 3.6499511711832042 : SURFACE LONGITUDE
DATUM.F                1865.25 : DEPTH DATUM ELEV
~Curve Information -----------------------------------------
DEPT.F     : 
CALD.IN    : CALIPER FROM DENSITY LOG
DPHI.DEC   : DENSITY POROSITY LIMESTONE
DRHO.G/C3  : BULK DENSITY CORRECTION
NPHI.DEC   : NEUTRON POROSITY LIMESTONE
PEF .B/E   : PHOTOELECTRIC FACTOR, BOTTOM
RHOB.G/C3  : BULK DENSITY
DTCO.US/F  : COMPRESSIONAL-WAVE INTERVAL TRANSIT TIME ACAUSTIC SLOWNESS
DTSM.US/F  : SHEAR-WAVE INTERVAL TRANSIT TIME DELTA-T
GRR .GAPI  : GAMMA RAY
ILD .OHMM  : INDUCTIO LOG DEEP
ILM .OHMM  : INDUCTION LOG MEDIUM
SFLU.OHMM  : SPHERICALLY FOCUSED LOG UNAVERAGED RESISTIVITY
SPR .MV    : SPONTANEOUS POTENTIAL
~Params ----------------------------------------------------
~Other -----------------------------------------------------
~ASCII -----------------------------------------------------
# ...
 8766.00000   -9999.25   -9999.25   -9999.25   -9999.25   -9999.25   -9999.25   -9999.25   -9999.25  107.06380   18.67910   18.51130   28.22080  -70.11210
 8766.50000   -9999.25   -9999.25   -9999.25   -9999.25   -9999.25   -9999.25   -9999.25   -9999.25  115.88310   18.67910   17.76660   28.22270  -70.12390
 8767.00000   -9999.25   -9999.25   -9999.25   -9999.25   -9999.25   -9999.25   -9999.25   -9999.25  119.84940   18.93610   17.52440   27.84090  -70.13780
 8767.50000   -9999.25   -9999.25   -9999.25   -9999.25   -9999.25   -9999.25   -9999.25   -9999.25  119.40400   19.54980   17.52320   27.71720  -70.14910
 8768.00000   -9999.25   -9999.25   -9999.25   -9999.25   -9999.25   -9999.25   -9999.25   -9999.25  113.22330   20.27520   17.60200   27.46600  -69.56930
 8768.50000   -9999.25   -9999.25   -9999.25   -9999.25   -9999.25   -9999.25   -9999.25   -9999.25  111.45440   20.83700   17.84300   27.46870  -69.58110
 8769.00000   -9999.25   -9999.25   -9999.25   -9999.25   -9999.25   -9999.25   -9999.25   -9999.25  111.00900   21.41430   18.30270   27.47050  -69.29550
 8769.50000   -9999.25   -9999.25   -9999.25   -9999.25   -9999.25   -9999.25   -9999.25   -9999.25  110.56360   22.00760   18.50290   27.85090  -69.01480
 8770.00000   -9999.25   -9999.25   -9999.25   -9999.25   -9999.25   -9999.25   -9999.25   -9999.25  110.85180   20.55410   18.00230   28.23650  -68.79040
 8770.50000   -9999.25   -9999.25   -9999.25   -9999.25   -9999.25   -9999.25   -9999.25   -9999.25  112.75890   18.42560   15.07120   29.02190  -68.44670
 8771.00000   -9999.25   -9999.25   -9999.25   -9999.25   -9999.25   -9999.25   -9999.25   -9999.25  118.93120   15.01070   10.56370   28.24020  -68.45980
 8771.50000   -9999.25   -9999.25   -9999.25   -9999.25   -9999.25   -9999.25   -9999.25   -9999.25  129.95640   12.74040    8.25970   24.29500  -67.88200
 8772.00000   -9999.25   -9999.25   -9999.25   -9999.25   -9999.25   -9999.25   -9999.25   -9999.25  142.74630   10.09940    7.60900   14.84490  -67.89610
 8772.50000   -9999.25   -9999.25   -9999.25   -9999.25   -9999.25   -9999.25   -9999.25   -9999.25  145.38910    9.43240    7.20380   12.78180  -67.90740
 8773.00000   -9999.25   -9999.25   -9999.25   -9999.25   -9999.25   -9999.25   -9999.25   -9999.25  144.94370    9.30430    7.10550   11.14100  -67.91860
 8773.50000   -9999.25   -9999.25   -9999.25   -9999.25   -9999.25   -9999.25   -9999.25   -9999.25  136.99830   10.23830    7.50520   10.69100  -67.92990
 8774.00000   -9999.25   -9999.25   -9999.25   -9999.25   -9999.25   -9999.25   81.52220  153.81250  128.17060   11.42110    8.37030   11.14010  -67.35120
 8774.50000   -9999.25   -9999.25   -9999.25   -9999.25   -9999.25   -9999.25   82.64260  150.50710  125.96050   12.74040    9.20990   15.26230  -67.95280
 8775.00000   -9999.25   -9999.25   -9999.25   -9999.25   -9999.25   -9999.25   84.44440  144.03180  124.63270   14.21220   10.13380   16.56950  -67.96460
 8775.50000   -9999.25   -9999.25   -9999.25   -9999.25   -9999.25   -9999.25   83.24320  140.12190  127.56660   15.21720   11.15030   17.26510  -67.97640
 8776.00000   -9999.25   -9999.25   -9999.25   -9999.25   -9999.25   -9999.25   80.24020  136.21950  131.67950   15.85400   12.43760   17.74530  -68.57820
 8776.50000   -9999.25   -9999.25   -9999.25   -9999.25   -9999.25   -9999.25   77.23720  131.98720  135.20830   16.29330   13.31620   18.49030  -69.17990
 8777.00000    8.81930    0.04410    0.01240    0.13430    3.15600    2.64510   74.23420  127.80040  123.73140   17.68550   14.65200   19.53200  -69.78170
 8777.50000    8.77450    0.04400    0.00990    0.13430    3.08170    2.63960   72.43240  123.63690  113.58010   19.19670   16.56840   21.20810  -70.38550
 8778.00000    8.83390    0.04280    0.01430    0.13430    3.00740    2.64850   70.03000  120.63330  108.72290   21.31810   18.73550   22.81850  -70.39670
 8778.50000    8.83380    0.03810    0.02610    0.13130    2.94790    2.65990   67.32730  117.60900  106.51280   22.72080   20.90120   25.68710  -70.99790
 8779.00000    8.86340    0.02500    0.03790    0.13010    3.05190    2.67520   65.52550  114.06280  105.18510   23.88810   22.37770   27.50820  -71.00920
 8779.50000    8.89300    0.01180    0.05560    0.13120    3.13860    2.69010   64.32430  112.25850  103.85730   25.23020   23.62950   28.66290  -70.43050
 8780.00000    8.89290    0.00950    0.06750    0.12770    3.22540    2.69450   64.02400  111.11110  101.64720   26.64770   23.95390   29.05980  -70.44250
 8780.50000    8.89270    0.01120    0.07390    0.12170    3.13160    2.69000   63.72370  111.10510   98.99590   27.38600   23.95150   27.89270  -70.45430
 8781.00000    8.89260    0.01670    0.07630    0.11870    2.91740    2.66920   64.02400  111.41930   98.10930   27.01430   23.30430   26.40850  -69.87430
 8781.50000    8.89240    0.02940    0.06540    0.11930    2.70320    2.65140   64.32430  112.96560   99.71970   25.57730   22.98650   25.69720  -69.80420
 8782.00000    8.89230    0.04680    0.03930    0.12400    2.53160    2.64390   64.62460  114.72590  111.33410   23.56390   22.67300   25.00500  -69.40390
 8782.50000    8.89210    0.04900    0.02740    0.14620    2.81780    2.63620   65.52550  116.22140  121.47690   22.31040   22.36380   24.33140  -69.32150
 8783.00000    8.87700    0.05220    0.01700    0.14890    2.92840    2.63180   66.42640  117.39780  125.44330   21.41430   22.05890   24.33330  -68.74500
 8783.50000    8.83230    0.05390    0.01110    0.14770    2.96090    2.62720   67.02700  118.29270  124.55670   21.09370   21.75810   24.67070  -68.75520
 8784.00000    8.83210    0.05450    0.00960    0.15060    2.98770    2.62410   67.02700  118.87100  119.25840   20.83700   20.78840   26.78380  -68.49910
 8784.50000    8.83200    0.05450    0.01100    0.15240    3.01060    2.62160   67.02700  119.16530  112.19530   20.83700   19.77000   28.68260  -68.18880
 8785.00000    8.80210    0.05450    0.01400    0.15240    3.03360    2.61930   67.02700  119.14500  107.33820   20.83700   18.97470   30.29840  -68.20060
 8785.50000    8.80190    0.05510    0.02280    0.13460    3.05200    2.61560   66.42640  118.85290  105.56920   21.12360   18.46190   30.30040  -68.21240
 8786.00000    8.77200    0.05570    0.02580    0.13460    3.05200    2.61560   65.82580  118.54650  106.88850   21.12360   18.21010   29.08350  -68.22420
 8786.50000    8.77190    0.05680    0.02870    0.14050    2.95580    2.61850   65.82580  118.24020  121.29300   21.12360   18.20890   27.91540  -68.23600
 8787.00000    8.77170    0.05680    0.02820    0.14880    2.86470    2.62590   65.82580  118.24710  123.93730   20.83700   18.20780   26.79430  -68.24780
 8787.50000    8.77160    0.05540    0.02470    0.15820    2.77700    2.63480   66.12610  118.85450  121.87380   20.55410   18.20660   26.07250  -68.26190
 8788.00000    8.77140    0.05000    0.02270    0.16650    2.68770    2.64230   66.42640  120.65030  116.57540   20.00000   18.20540   25.71980  -68.27320
 8788.50000    8.77130    0.04010    0.02860    0.17160    2.75710    2.64980   67.02700  121.21930  114.80650   19.19670   18.20420   25.72230  -68.28320
 8789.00000    8.77110    0.03410    0.03300    0.17300    2.89590    2.65630   67.32730  120.60210  114.36110   18.59490   18.20280   25.37440  -68.29500
 8789.50000    8.77100    0.02820    0.03450    0.17300    2.89590    2.66340   67.62760  120.00600  113.91570   17.92880   17.87360   25.03030  -68.30680
 8790.00000    8.80060    0.02640    0.03450    0.15690    2.90560    2.66650   67.62760  120.00010  113.02910   17.68550   17.70940   24.02580  -68.31860
 8790.50000    8.80040    0.02690    0.03440    0.15340    2.92190    2.66740   67.62760  120.59470  113.46610   17.20870   17.23080   23.06090  -68.33040
 8791.00000    8.83000    0.02820    0.02850    0.15340    2.92190    2.66450   67.62760  120.90760  116.99130   16.74470   16.76520   22.13470  -68.34220
 8791.50000    8.82990    0.03360    0.02260    0.15690    2.92190    2.65740   67.62760  122.41240  122.72230   16.29330   15.87230   21.24570  -68.35400
