~Version ---------------------------------------------------
VERS.   2.0 : CWLS log ASCII Standard -VERSION 2.0
WRAP.    NO : One line per depth step
DLM . SPACE : Column Data Section Delimiter
~Well ------------------------------------------------------
STRT .F                 1486.0 : START DEPTH
STOP .F                11021.0 : STOP DEPTH
STEP .F                    0.5 : STEP
NULL .                -9999.25 : NULL VALUE
COMP .                         : COMPANY
WELL .                         : WELL
FLD  .                         : FIELD
LOC  .                         : LOCATION
PROV .                         : PROVINCE
CNTY .                         : COUNTY
STAT .                         : STATE
CTRY .                         : COUNTRY
SRVC .                         : SERVICE COMPANY
DATE .                         : DATE
UWI  .                         : UNIQUE WELL ID
API  .                         : API NUMBER
SLAT .WGS84    6.1687087211251 : SURFACE LATITUDE
SLON .WGS84 3.6499511711832042 : SURFACE LONGITUDE
DATUM.F                1865.25 : DEPTH DATUM ELEV
~Curve Information -----------------------------------------
DEPT.F     : 
CALD.IN    : CALIPER FROM DENSITY LOG
DPHI.DEC   : DENSITY POROSITY LIMESTONE
DRHO.G/C3  : BULK DENSITY CORRECTION
NPHI.DEC   : NEUTRON POROSITY LIMESTONE
PEF .B/E   : PHOTOELECTRIC FACTOR, BOTTOM
RHOB.G/C3  : BULK DENSITY
DTCO.US/F  : COMPRESSIONAL-WAVE INTERVAL TRANSIT TIME ACAUSTIC SLOWNESS
DTSM.US/F  : SHEAR-WAVE INTERVAL TRANSIT TIME DELTA-T
GRR .GAPI  : GAMMA RAY
ILD .OHMM  : INDUCTIO LOG DEEP
ILM .OHMM  : INDUCTION LOG MEDIUM
SFLU.OHMM  : SPHERICALLY FOCUSED LOG UNAVERAGED RESISTIVITY
SPR .MV    : SPONTANEOUS POTENTIAL
~Params ----------------------------------------------------
~Other -----------------------------------------------------
~ASCII -----------------------------------------------------
# ...
 9208.00000    9.11550    0.01260    0.05710    0.24870    3.29280    2.71540   77.46540  142.67870  122.06350    7.48520    7.26750   11.33370  -65.87300
 9208.50000    9.11490    0.02480    0.03630    0.23570    3.39600    2.67960   77.76130  142.25470  124.70210    7.18500    6.88050   10.48920  -66.39530
 9209.00000    9.14410    0.02330    0.02450    0.22920    3.64710    2.67210   76.85590  141.17430  126.01720    6.96030    6.75600    9.93040  -66.99710
 9209.50000    9.17330    0.02330    0.01560    0.23090    3.82430    2.66730   75.95060  141.87140  121.59700    6.89730    6.42500    9.23040  -67.00890
 9210.00000    9.17260    0.03470    0.01260    0.24040    3.91270    2.66230   75.04520  143.39480  119.38260    6.89800    6.33740    8.98120  -67.16780
 9210.50000    9.17200    0.04550    0.01110    0.25810    3.94190    2.64900   74.44010  145.78170  118.93300    6.80460    6.33700    8.73870  -67.62470
 9211.00000    9.17130    0.04780    0.00950    0.26520    3.80840    2.64020   74.73600  148.46850  120.98100    6.80530    6.33660    8.61990  -67.63600
 9211.50000    9.17080    0.04720    0.00800    0.26880    3.46790    2.64430   75.03180  150.83560  122.73730    6.62220    6.16540    8.50270  -68.23730
 9212.00000    9.17020    0.04190    0.00950    0.26640    3.37870    2.65810   76.22860  152.30890  124.19750    6.35670    5.83700    8.27320  -68.24850
 9212.50000    9.16960    0.03120    0.01240    0.25960    3.55570    2.67030   78.02590  153.49940  123.30670    6.01890    5.45120    8.27320  -67.66960
 9213.00000    9.16900    0.02810    0.01530    0.25690    3.73290    2.67320   76.82020  154.69200  122.41590    5.62180    5.23190    8.04980  -67.68140
 9213.50000    9.23090    0.02760    0.02410    0.26280    3.76230    2.67170   78.19640  155.89870  122.84860    5.39630    5.02140    7.83250  -67.69320
 9214.00000    9.28700    0.03200    0.04480    0.27050    3.76180    2.66270   79.29760  158.28560  127.69310    5.32340    4.95290    7.69110  -67.11370
 9214.50000    9.32430    0.05240    0.06110    0.28410    3.67270    2.62480   79.59630  160.37690  128.56700    5.25150    4.81900    7.41520  -67.12680
 9215.00000    9.34530    0.08100    0.07730    0.29290    3.52440    2.59200   79.49480  162.17720  129.44090    5.25190    4.81870    7.41520  -67.13860
 9215.50000    9.34460    0.06170    0.09350    0.29830    3.43530    2.60630   79.29280  163.07660  130.75600    5.25240    4.95180    7.31440  -66.56050
 9216.00000    9.34400    0.04780    0.11270    0.30060    3.40530    2.63520   79.69130  164.27620  134.27690    5.25270    5.08860    7.31440  -66.57450
 9216.50000    9.28380    0.05550    0.12400    0.30060    3.37540    2.63720   80.08990  165.47590  136.47430    5.25310    5.22930    7.31440  -65.99580
 9217.00000    9.25350    0.07270    0.12740    0.30060    3.34050    2.60580   81.28960  166.67560  132.93650    5.32570    5.30090    7.21500  -66.00710
 9217.50000    9.28270    0.08340    0.11410    0.29230    3.11350    2.57770   81.68940  159.16660  130.86870    5.39930    5.22860    7.31440  -65.64880
 9218.00000    9.34160    0.08000    0.12880    0.27600    2.93040    2.60140   81.28850  158.26420  129.38590    5.47400    4.95020    7.31440  -65.43950
 9218.50000    9.43040    0.03680    0.13620    0.27330    2.98920    2.66520   78.98440  158.56300  129.81860    5.62600    4.81640    7.31440  -65.45130
 9219.00000    9.55140    0.01030    0.13910    0.27560    3.16640    2.69640   77.68100  159.46240  131.13370    5.70380    4.68620    7.37480  -65.23680
 9219.50000    9.64270    0.00100    0.12730    0.28090    3.24000    2.71860   77.17860  162.46390  132.89000    5.70410    4.75040    7.41520  -64.88360
 9220.00000    9.71240    0.03120    0.09760    0.29340    3.23960    2.69130   77.47760  166.96690  137.29330    5.78310    5.18090    7.41520  -64.89680
 9220.50000    9.76600    0.09040    0.09320    0.29960    3.22450    2.58180   78.07670  172.67110  138.16720    5.86310    5.59690    7.41520  -64.82500
 9221.00000    9.77120    0.13330    0.11240    0.29980    3.22410    2.49110   79.27640  177.77470  137.27640    5.70550    5.83000    7.41520  -64.42520
 9221.50000    9.69460    0.14040    0.15760    0.30100    3.23860    2.48020   81.67730  183.47890  120.50320    5.55200    5.59520    7.41520  -64.34220
 9222.00000    9.63440    0.12970    0.24540    0.31170    3.25300    2.48040   84.97910  185.87970  113.43590    5.32930    5.37010    7.41520  -64.35570
 9222.50000    9.63380    0.12850    0.25000    0.31340    3.25260    2.49810   85.27790  186.47880  111.51480    5.18590    5.29690    7.41520  -64.36580
 9223.00000    9.66300    0.12550    0.25000    0.30570    3.25220    2.51620   83.47460  185.87670  110.77190    5.40340    5.44330    7.41520  -64.37760
 9223.50000    9.72200    0.11740    0.25000    0.30180    3.22220    2.52060   82.27190  185.27460  112.08280    5.62990    5.67070    7.41520  -64.38950
 9224.00000    9.81070    0.10140    0.25000    0.29870    3.14790    2.55020   82.27030  184.07190  113.39790    5.55380    5.51750    7.41520  -64.40120
 9224.50000    9.99330    0.09700    0.25000    0.29560    2.99960    2.55610   82.26880  181.06740  114.71290    5.40440    5.22370    7.41520  -64.41300
 9225.00000   10.11710    0.11540    0.24670    0.29790    2.92530    2.55760   82.26730  178.06290  116.91040    5.40480    4.94550    7.38170  -64.42480
 9225.50000   10.22570    0.13280    0.24220    0.30210    2.89530    2.49400   82.86640  175.35870  120.43130    5.40520    4.81180    7.31440  -64.43660
 9226.00000   10.20430    0.17360    0.23620    0.31860    2.89500    2.41600   83.46550  173.85560  129.24640    5.55620    5.15240    7.21500  -64.44840
 9226.50000   10.06640    0.20570    0.22580    0.32630    2.92420    2.37860   84.06460  172.05230  131.88500    5.94870    5.66830    6.64620  -64.46020
 9227.00000    9.80400    0.22950    0.19920    0.33280    3.01260    2.32810   84.06310  170.54930  132.31770    6.11390    5.82500    6.29220  -64.47200
 9227.50000    9.59810    0.24850    0.18140    0.33280    3.04180    2.29760   84.36190  170.84830  132.75040    5.78910    5.59070    6.03910  -64.48380
 9228.00000    9.50820    0.25380    0.16950    0.31970    2.94290    2.28450   84.36040  170.84660  134.94790    5.33370    5.22110    5.79620  -64.49560
 9228.50000    9.50770    0.25560    0.16950    0.29960    2.73030    2.28680   84.05860  169.64390  135.38060    5.05030    5.01110    5.56300  -64.50800
 9229.00000    9.56660    0.23940    0.17090    0.29820    2.70040    2.33280   83.45640  167.84060  135.37070    4.98210    4.94270    5.95700  -64.51930
 9229.50000    9.68510    0.22300    0.19160    0.29100    2.68540    2.39220   82.25370  166.03730  138.44760    4.98240    5.29190    7.31440  -64.53240
 9230.00000    9.74410    0.19370    0.21520    0.27820    2.83280    2.44260   82.25220  165.43520  141.52740    5.40850    6.06640    8.19810  -64.54280
 9230.50000    9.77330    0.15880    0.24480    0.27580    2.98040    2.46980   82.85130  166.03430  139.31310    5.95180    6.67490    8.27320  -64.55460
 9231.00000    9.77260    0.13870    0.25000    0.27640    3.11310    2.50840   82.54950  166.03270  136.65760    6.73110    6.43630    8.16070  -64.56640
 9231.50000    9.72220    0.08830    0.25000    0.27990    3.21630    2.57420   81.64710  165.67160  135.32560    6.23080    6.14850    8.16070  -64.57820
 9232.00000    9.59720    0.06530    0.24610    0.30300    3.24560    2.59980   79.54350  162.81670  134.43480    5.95320    5.98230    8.27320  -64.59000
 9232.50000    9.41270    0.06380    0.21500    0.30650    3.24520    2.60490   77.43990  159.33080  134.42630    5.87260    5.90070    8.50270  -64.60390
 9233.00000    9.37160    0.07010    0.18100    0.30770    3.23990    2.60510   76.83780  158.89430  133.53550    5.79320    5.98170    8.98120  -64.61520
 9233.50000    9.44220    0.08910    0.13360    0.30890    3.21490    2.54930   76.83630  164.74980  132.64470    5.95430    6.23140    8.98120  -64.62540
