~Version ---------------------------------------------------
VERS.   2.0 : CWLS log ASCII Standard -VERSION 2.0
WRAP.    NO : One line per depth step
DLM . SPACE : Column Data Section Delimiter
~Well ------------------------------------------------------
STRT .F                 1486.0 : START DEPTH
STOP .F                11021.0 : STOP DEPTH
STEP .F                    0.5 : STEP
NULL .                -9999.25 : NULL VALUE
COMP .                         : COMPANY
WELL .                         : WELL
FLD  .                         : FIELD
LOC  .                         : LOCATION
PROV .                         : PROVINCE
CNTY .                         : COUNTY
STAT .                         : STATE
CTRY .                         : COUNTRY
SRVC .                         : SERVICE COMPANY
DATE .                         : DATE
UWI  .                         : UNIQUE WELL ID
API  .                         : API NUMBER
SLAT .WGS84    6.1687087211251 : SURFACE LATITUDE
SLON .WGS84 3.6499511711832042 : SURFACE LONGITUDE
DATUM.F                1865.25 : DEPTH DATUM ELEV
~Curve Information -----------------------------------------
DEPT.F     : 
CALD.IN    : CALIPER FROM DENSITY LOG
DPHI.DEC   : DENSITY POROSITY LIMESTONE
DRHO.G/C3  : BULK DENSITY CORRECTION
NPHI.DEC   : NEUTRON POROSITY LIMESTONE
PEF .B/E   : PHOTOELECTRIC FACTOR, BOTTOM
RHOB.G/C3  : BULK DENSITY
DTCO.US/F  : COMPRESSIONAL-WAVE INTERVAL TRANSIT TIME ACAUSTIC SLOWNESS
DTSM.US/F  : SHEAR-WAVE INTERVAL TRANSIT TIME DELTA-T
GRR .GAPI  : GAMMA RAY
ILD .OHMM  : INDUCTIO LOG DEEP
ILM .OHMM  : INDUCTION LOG MEDIUM
SFLU.OHMM  : SPHERICALLY FOCUSED LOG UNAVERAGED RESISTIVITY
SPR .MV    : SPONTANEOUS POTENTIAL
~Params ----------------------------------------------------
~Other -----------------------------------------------------
~ASCII -----------------------------------------------------
# ...
 10560.00000    7.61600    0.08400    0.03700    0.09200    2.61530    2.58700   70.33030  124.81390   47.47000   12.22870    9.69370   73.89890  -39.44860
 10560.50000    7.60570    0.08520    0.03100    0.08840    2.60000    2.57550   64.92490  109.15730   50.54980   19.46080   11.73750   69.96220  -40.09410
 10561.00000    7.60390    0.08460    0.03390    0.07950    2.56990    2.56980   61.92190   99.30510   53.62960   22.31040   14.01930   69.01130  -40.73740
 10561.50000    7.60270    0.08340    0.04570    0.06880    2.56940    2.56520   60.12010   97.51120   55.82700   27.01430   16.29330   72.89440  -41.38140
 10562.00000    7.60120    0.07920    0.05160    0.05700    2.56890    2.56600   59.51950   96.60870   51.40680   29.32260   17.44550   76.99600  -41.78170
 10562.50000    7.59970    0.07360    0.05600    0.05280    2.59800    2.57620   59.51950   96.38180   47.86890   30.97000   18.42560   81.32840  -42.37460
 10563.00000    7.59820    0.06380    0.05600    0.04980    2.68630    2.58500   59.51950  100.28110   50.50330   32.26600   18.93610   84.73700  -42.37820
 10563.50000    7.59670    0.04180    0.05450    0.04920    2.82370    2.59830   61.92190  101.18050   52.25950   33.61630   19.63990   87.08840  -42.97100
 10564.00000    7.59050    0.03040    0.05050    0.06170    2.92170    2.61990   61.62160  101.17720   50.92750   35.66720   20.83990   90.73830  -42.97380
 10564.50000    7.56400    0.03210    0.04550    0.08180    2.96560    2.65300   60.12010  100.80320   49.15430   35.99340   24.88770   94.54130  -42.97660
 10565.00000    7.53270    0.05200    0.04550    0.11020    2.98020    2.65890   58.91890   98.43560   48.26350   34.54770   27.38600   95.84400  -42.38940
 10565.50000    7.57420    0.08110    0.06620    0.13570    2.96460    2.64110   57.71770   93.87220   50.90210   28.14480   28.92460   95.84400  -41.79270
 10566.00000    7.62140    0.11850    0.08980    0.16590    2.93460    2.54790   55.91590   89.71520   58.39360   18.42560   28.53200   83.58520  -41.15270
 10566.50000    7.76610    0.15370    0.11340    0.19080    2.88970    2.49750   55.31530   87.34870   90.59110    9.96230   24.21680   43.33510  -40.51470
 10567.00000    7.91350    0.16170    0.15630    0.23340    2.83000    2.46420   56.81680   96.72010   99.84730    5.53560    7.07930   16.40020  -39.28590
 10567.50000    8.06090    0.16110    0.19620    0.26480    2.77040    2.44320   59.51950   99.35470  102.48590    3.57480    4.44850    5.33920  -38.86380
 10568.00000    8.17850    0.15630    0.21980    0.27490    2.68110    2.43830   61.62160   93.91060   98.50690    2.37250    3.47850    3.84440  -38.27730
 10568.50000    8.29710    0.14800    0.23750    0.27370    2.65090    2.45520   61.92190   89.35870   96.58570    2.12680    2.87280    3.30720  -38.28020
 10569.00000    8.42020    0.13900    0.24050    0.27050    2.66030    2.47990   60.42040   86.60890   96.28400    2.04140    2.40520    3.21790  -38.28370
 10569.50000    8.54950    0.10100    0.23450    0.26710    2.75330    2.50450   58.91890   85.76810   98.91840    1.95940    2.07920    3.13100  -38.28650
 10570.00000    8.66660    0.10450    0.20190    0.27600    2.82680    2.52520   58.91890   85.94730  103.76290    1.95940    1.97740    3.08840  -38.28940
 10570.50000    8.77820    0.11480    0.19300    0.27840    2.76710    2.53430   59.51950   89.36450  105.66710    1.95940    1.95940    3.00500  -38.29200
 10571.00000    8.83900    0.11700    0.19000    0.27770    2.63350    2.52830   61.92190   90.92520  105.51070    1.95940    1.95940    2.95080  -38.29500
 10571.50000    8.88240    0.10610    0.21070    0.27480    2.63300    2.51650   61.92190   90.92190  102.41390    1.95940    1.95940    2.91070  -37.70790
 10572.00000    8.91050    0.10100    0.22540    0.27240    2.67690    2.51590   61.92190   90.56250   94.46430    1.98640    1.98640    2.88420  -37.71090
 10572.50000    8.90910    0.10090    0.22980    0.27240    2.79480    2.55190   61.92190   89.96010   93.13230    2.01370    2.01370    2.84500  -37.71400
 10573.00000    8.93750    0.10210    0.22540    0.27240    2.88300    2.54870   61.92190   89.71170   93.56500    2.04140    2.04140    2.80630  -37.71680
 10573.50000    8.93600    0.10390    0.21790    0.27710    2.94170    2.54550   61.92190   89.70870   95.76250    2.06950    2.06950    2.76810  -37.71980
 10574.00000    8.93450    0.10630    0.20750    0.28460    2.97080    2.54000   61.92190   89.65410  100.45610    2.06950    2.12680    2.73050  -37.72270
 10574.50000    8.92840    0.10930    0.20060    0.28300    2.98510    2.53750   62.82280   89.10210  103.39070    2.06950    2.15610    2.69340  -37.72570
 10575.00000    8.86460    0.11180    0.19170    0.27580    2.99940    2.53280   63.72370   89.09910  101.90930    2.06950    2.15610    2.73050  -37.72860
 10575.50000    8.81100    0.11580    0.18670    0.26750    3.01370    2.52730   64.62460   89.09610   98.37140    2.06950    2.08850    2.73050  -37.73160
 10576.00000    8.80950    0.12300    0.18370    0.26570    3.02780    2.52210   64.92490   89.09310   94.83350    2.04140    2.06020    2.73050  -37.73450
 10576.50000    8.79210    0.12840    0.18370    0.26750    3.04200    2.51470   65.52550   89.09010   95.70740    2.02480    2.01370    2.65680  -37.73750
 10577.00000    8.77650    0.13250    0.18360    0.27760    3.04150    2.50430   65.52550   89.08710  110.69900    2.01370    1.95940    2.62070  -37.74040
 10577.50000    8.80510    0.14600    0.18070    0.29590    3.02630    2.48650   65.22520   89.12870  115.54340    1.98640    1.95940    2.58510  -37.74340
 10578.00000    8.86300    0.14840    0.18060    0.29590    2.96660    2.46280   65.22520   89.68190  106.27030    1.95940    1.95940    2.58510  -37.74630
 10578.50000    9.04010    0.14950    0.18060    0.29350    2.92170    2.45690   64.92490   89.67870   98.76180    1.95940    1.98640    2.62070  -37.74930
 10579.00000    9.12830    0.14830    0.18350    0.28800    2.90140    2.45690   64.92490   89.67570   96.10630    1.95940    2.04140    2.65680  -37.75220
 10579.50000    9.15630    0.14770    0.18790    0.28050    2.87620    2.45740   64.92490   89.67270   99.18610    1.95940    2.06950    2.73050  -37.66700
 10580.00000    9.11900    0.14580    0.19330    0.27690    2.90520    2.46910   64.92490   89.97020  107.40910    1.98640    2.12680    2.76810  -37.25950
 10580.50000    8.82740    0.13820    0.19920    0.27810    2.90470    2.48800   64.92490   90.26750  109.75740    1.98640    2.15610    2.76810  -37.17110
 10581.00000    8.73540    0.12770    0.20700    0.27920    2.90420    2.50240   64.92490   90.26430  107.98000    2.01370    2.15610    2.69340  -37.17400
 10581.50000    9.20810    0.12450    0.20990    0.27860    2.90370    2.50330   64.92490   90.26130  106.64800    2.05820    2.11720    2.62070  -37.17700
 10582.00000    9.29760    0.12810    0.21430    0.27800    2.88840    2.49370   64.92490   90.22190  106.19830    2.06950    2.08850    2.58510  -37.17990
 10582.50000    9.11730    0.13010    0.21870    0.27860    2.85830    2.48770   64.92490   89.61960  105.74870    2.06950    2.06950    2.58510  -37.18290
 10583.00000    8.99690    0.12920    0.22310    0.29690    2.81350    2.48470   64.92490   89.01720  104.85790    2.06950    2.04140    2.62070  -37.18580
 10583.50000    8.90620    0.13040    0.23050    0.29890    2.73900    2.48450   64.92490   88.74770   96.46710    2.06950    2.01370    2.66900  -37.18880
 10584.00000    8.84520    0.12920    0.23640    0.30070    2.67430    2.49060   64.92490   89.07780   94.69390    2.06950    1.98640    2.76810  -37.19170
 10584.50000    8.84370    0.12560    0.23930    0.30110    2.70340    2.49800   64.92490   89.97340   94.68540    2.06950    1.95940    2.84500  -37.19470
 10585.00000    8.84230    0.12440    0.24370    0.30100    2.79650    2.49940   64.79630   90.84100   95.55930    2.06950    1.93280    2.88420  -37.19760
 10585.50000    8.84810    0.12840    0.24660    0.30160    2.81100    2.49380   64.62460   91.13830  100.84500    2.06950    1.90660    2.88420  -37.20060
