~Version ---------------------------------------------------
VERS.   2.0 : CWLS log ASCII Standard -VERSION 2.0
WRAP.    NO : One line per depth step
DLM . SPACE : Column Data Section Delimiter
~Well ------------------------------------------------------
STRT .FT                1180.0 : START DEPTH
STOP .FT                5251.0 : STOP DEPTH
STEP .FT                   0.5 : STEP
NULL .                -9999.25 : NULL VALUE
COMP .                         : COMPANY
WELL .                         : WELL
FLD  .                         : FIELD
LOC  .                         : LOCATION
PROV .                         : PROVINCE
CNTY .                         : COUNTY
STAT .                         : STATE
CTRY .                         : COUNTRY
SRVC .                         : SERVICE COMPANY
DATE .                         : DATE
UWI  .                         : UNIQUE WELL ID
API  .                         : API NUMBER
SLAT .WGS84 3.6007186885056015 : SURFACE LATITUDE
SLON .WGS84 4.6236815450818085 : SURFACE LONGITUDE
DATUM.F                    nan : DEPTH DATUM ELEV
~Curve Information -----------------------------------------
DEPT .FT    : 
DTCO .US/F  : DELTA-T COMPRESSIONAL
DTSM .US/F  : DELTA-T SHEAR
HSGRS.GAPI  : HNGS STANDARD GAMMA RAY FROM SONIC LOG
~Params ----------------------------------------------------
~Other -----------------------------------------------------
~ASCII -----------------------------------------------------
# ...
 2515.00000   57.83160  144.41200   59.81660
 2515.50000   58.73250  136.42400   53.27720
 2516.00000   58.90070  127.87570   46.00730
 2516.50000   58.42020  124.65250   39.23870
 2517.00000   58.13190  117.87490   34.32530
 2517.50000   60.89460  101.66550   34.02450
 2518.00000   61.09480   98.95630   40.59410
 2518.50000   61.17490   92.62200   48.39190
 2519.00000   59.49330   87.32470   52.48310
 2519.50000   59.62650   87.46490   56.57430
 2520.00000   59.93780   92.14960   60.66550
 2520.50000   60.24350   97.41480   62.66300
 2521.00000   60.31040   98.88630   62.60280
 2521.50000   60.29780  107.43470   62.30200
 2522.00000   60.02380  115.77300   64.58790
 2522.50000   59.70610  115.21240   66.87390
 2523.00000   59.42150  113.11030   69.45970
 2523.50000   59.24880  112.40970   71.83000
 2524.00000   58.79520  112.26950   74.53550
 2524.50000   57.80850  113.59080   69.84350
 2525.00000   57.28720  116.89400   63.97840
 2525.50000   56.78330  118.90270   58.96730
 2526.00000   56.29010  128.27330   60.35280
 2526.50000   56.47320  153.32990   66.79470
 2527.00000   56.93080  157.25370   75.33770
 2527.50000   56.45030  169.52950   75.60510
 2528.00000   57.89860  172.05200   75.71650
 2528.50000   58.20470  174.90150   78.26200
 2529.00000   58.64200  175.97590   86.94020
 2529.50000   59.02580  175.83570   91.78280
 2530.00000   59.11740  173.08670   93.98880
 2530.50000   59.10390  162.84460   90.57950
 2531.00000   59.21650  152.17770   80.85540
 2531.50000   59.21860  141.28200   71.85760
 2532.00000   59.14710  129.12500   63.56680
 2532.50000   58.96540  115.81190   58.31740
 2533.00000   59.04190  106.53880   54.03230
 2533.50000   59.31490   92.94560   51.57260
 2534.00000   59.53330   82.43530   51.87340
 2534.50000   59.26300   82.01480   73.73330
 2535.00000   58.81260   80.75360  100.30610
 2535.50000   59.65340   79.35220  117.44780
 2536.00000   59.55330   79.63240  126.37460
 2536.50000   59.45320  163.88770  122.38360
 2537.00000   59.87960  160.87470  120.08890
 2537.50000   59.76610  153.93790  120.23220
 2538.00000   58.97960  140.14840  117.31380
 2538.50000   58.78220   94.74370  114.41010
 2539.00000   58.73940   78.03010  111.32990
 2539.50000   58.85950   80.67710  109.85940
 2540.00000   58.97540   83.32420  109.94860
 2540.50000   59.37950   85.30170  108.89500
 2541.00000   59.95690   83.83860  109.55700
 2541.50000   58.73260   82.10100  108.49160
 2542.00000   58.77260   80.36330  110.27760
 2542.50000   56.94960   78.62560  112.37630
 2543.00000   56.99670   76.88790  114.04380
 2543.50000   57.04390   74.93160  112.86140
 2544.00000   57.09100   72.82950  112.10000
 2544.50000   57.06970   70.72740  115.12310
 2545.00000   57.01660   68.62540  118.61240
 2545.50000   56.88910   69.88660  122.10180
 2546.00000   56.77060   80.39690  123.34400
 2546.50000   56.79570   85.30170  121.38100
 2547.00000   56.97090  133.08860  119.65660
 2547.50000   56.76170  186.43720  119.05980
 2548.00000   56.71470  185.17600  120.48580
 2548.50000   56.95500  185.17600  121.91180
 2549.00000   59.29310  184.89570  122.24820
 2549.50000   59.45330  184.33510  121.07840
 2550.00000   58.21200  182.79350  122.48220
 2550.50000   56.99080  126.31800  119.66680
 2551.00000   56.89070   96.43260  116.85150
 2551.50000   56.81060   90.89170  118.10950
 2552.00000   56.79730  105.88640  120.20610
 2552.50000   56.77060   97.47810  121.46410
 2553.00000   56.95070   98.30140  118.25780
 2553.50000   57.25100  100.31580  115.05140
 2554.00000   57.45130  101.54200  111.25140
 2554.50000   57.45130  102.31280  108.46880
 2555.00000   58.61240  106.02660  105.81450
 2555.50000   58.97270  106.44700  103.24080
 2556.00000   58.89270  114.71500   94.84630
 2556.50000   61.97570  110.56690   82.57110
 2557.00000   58.41220  104.76530   67.00020
 2557.50000   58.62570  104.34490   56.72000
 2558.00000   59.69340  106.30680   50.87060
 2558.50000   59.39110  106.30680   48.93200
 2559.00000   58.92370  105.74610   48.26350
 2559.50000   58.64410  103.71420   51.97360
 2560.00000   57.96430   98.52920   60.83760
 2560.50000   57.29370   92.57360   72.15710
 2561.00000   57.22450   92.29310   76.20540
 2561.50000   57.13860   95.84340   73.79880
 2562.00000   56.95720   98.17890   78.65360
 2562.50000   56.77590   99.01980   99.48840
 2563.00000   56.59780  103.87790  118.13580
 2563.50000   56.43260  106.58720  138.81170
 2564.00000   56.41960  106.58720  143.12350
 2564.50000   56.58410  106.86760  137.88030
 2565.00000   56.75330  107.42800  124.87060
 2565.50000   56.64600  104.20490  111.81210
 2566.00000   56.54570  105.18600  101.54180
 2566.50000   56.42390  106.44720   93.63780
 2567.00000   56.18690  101.91600   92.58500
 2567.50000   56.21690   99.44020   94.52360
 2568.00000   56.23410   99.54040   98.86880
 2568.50000   56.31990  100.28100  100.80750
 2569.00000   56.31820  104.06470   99.09770
 2569.50000   56.29470  110.79130   96.24800
 2570.00000   56.27120  124.38470   93.39840
 2570.50000   56.24770  136.92690   91.59030
 2571.00000   56.22410  145.37020   89.99930
 2571.50000   56.21000  156.47620   88.40820
 2572.00000   56.22700  180.02940   85.56570
 2572.50000   56.25520  177.97730   81.88900
 2573.00000   56.28350  175.92520   80.86820
 2573.50000   56.33700  174.55400   81.35420
 2574.00000   56.36200  177.63690   80.55860
 2574.50000   56.49830  177.63690   78.56970
 2575.00000   56.87750  169.15080   76.91390
 2575.50000   57.05990  160.65880   76.13990
 2576.00000   57.07600  152.14260   80.07370
 2576.50000   56.92690  143.62650   84.00760
 2577.00000   56.55430  135.69260   86.76900
 2577.50000   56.28220  128.14670   83.92860
 2578.00000   56.14250  120.60080   77.79620
 2578.50000   55.92080  111.93770   69.64740
 2579.00000   55.92950  103.27460   62.99520
 2579.50000   55.93810   94.36700   62.70310
 2580.00000   55.93560   85.39820   72.34830
 2580.50000   55.85650   81.64260   83.40210
 2581.00000   55.86420   81.92280   94.45590
 2581.50000   55.90250   84.41730   98.70630
 2582.00000   55.94080   87.64050  100.60690
 2582.50000   55.97920   90.86360   97.26310
 2583.00000   56.00450   92.85350   95.57850
 2583.50000   55.97770   93.83460   93.42500
 2584.00000   56.07220   94.67530   94.06480
 2584.50000   56.12730   95.23580   94.94420
 2585.00000   56.18250   95.09580   97.53310
 2585.50000   56.23770   93.69440   99.60420
 2586.00000   56.29280   95.94250   99.60420
 2586.50000   56.33700  103.25330  102.01080
 2587.00000   56.33700   99.62860  104.41740
 2587.50000   56.45110   97.89850  104.61800
 2588.00000   56.56520   97.75830  102.19290
 2588.50000   56.67930   98.87950  100.70910
 2589.00000   56.77060  106.89530  100.25690
 2589.50000   56.76680  117.02730   99.80480
 2590.00000   56.74780  126.35080  100.13900
 2590.50000   56.72890  131.27670  101.81020
 2591.00000   56.81750  140.20990  105.82130
 2591.50000   56.93760  150.14490  104.93880
 2592.00000   57.12330  147.08690  106.22230
 2592.50000   57.37590  113.03340   95.60940
 2593.00000   57.22400  112.75320   84.99650
 2593.50000   57.01080   75.87680   75.11400
 2594.00000   57.89170   68.30940   71.92830
 2594.50000   57.81160   62.25540   78.85640
 2595.00000   58.53230   61.69480   85.78450
 2595.50000   56.21000   77.32020   95.87970
 2596.00000   55.68950  117.32960  102.41190
 2596.50000   55.71170   69.33980  100.36720
 2597.00000   55.73400   87.02850   92.14910
 2597.50000   55.75620  104.71720   80.44010
 2598.00000   55.77850  103.87640   79.88350
 2598.50000   55.80070  102.75510   87.03480
 2599.00000   55.74730  103.77110  100.39640
 2599.50000   55.59160  105.26020  106.58870
 2600.00000   55.87830  107.51990  109.42050
 2600.50000   57.62280  107.66010  110.29880
 2601.00000   59.60460  105.61790  110.98820
 2601.50000   59.53330  101.21370  112.43370
 2602.00000   60.17390   96.80940  112.04740
 2602.50000   59.81360   92.14680  110.95060
 2603.00000   59.99770   87.31210  111.32670
 2603.50000   61.33500   85.51820  113.69050
