~Version ---------------------------------------------------
VERS.   2.0 : CWLS log ASCII Standard -VERSION 2.0
WRAP.    NO : One line per depth step
DLM . SPACE : Column Data Section Delimiter
~Well ------------------------------------------------------
STRT .FT                1180.0 : START DEPTH
STOP .FT                5251.0 : STOP DEPTH
STEP .FT                   0.5 : STEP
NULL .                -9999.25 : NULL VALUE
COMP .                         : COMPANY
WELL .                         : WELL
FLD  .                         : FIELD
LOC  .                         : LOCATION
PROV .                         : PROVINCE
CNTY .                         : COUNTY
STAT .                         : STATE
CTRY .                         : COUNTRY
SRVC .                         : SERVICE COMPANY
DATE .                         : DATE
UWI  .                         : UNIQUE WELL ID
API  .                         : API NUMBER
SLAT .WGS84 3.6007186885056015 : SURFACE LATITUDE
SLON .WGS84 4.6236815450818085 : SURFACE LONGITUDE
DATUM.F                    nan : DEPTH DATUM ELEV
~Curve Information -----------------------------------------
DEPT .FT    : 
DTCO .US/F  : DELTA-T COMPRESSIONAL
DTSM .US/F  : DELTA-T SHEAR
HSGRS.GAPI  : HNGS STANDARD GAMMA RAY FROM SONIC LOG
~Params ----------------------------------------------------
~Other -----------------------------------------------------
~ASCII -----------------------------------------------------
# ...
 3316.00000   89.73930  139.80110   76.83210
 3316.50000   86.62280  146.49650   98.46640
 3317.00000   83.50640  148.80970  117.71920
 3317.50000   82.82520  149.96600  127.09490
 3318.00000   83.28590  151.10110  121.30360
 3318.50000   83.31980  152.15220  112.31990
 3319.00000   82.95830  152.29240  105.31500
 3319.50000   82.81590  150.81080  103.82690
 3320.00000   82.12810  148.50850  106.18340
 3320.50000   81.89500  147.52750  107.43500
 3321.00000   81.93600  147.24730  104.98560
 3321.50000   81.97700  146.68660  104.89130
 3322.00000   82.01810  145.88100  107.29060
 3322.50000   82.05910  145.70580  109.44650
 3323.00000   82.10020  145.56560  105.89060
 3323.50000   82.10170  145.70580   98.00360
 3324.00000   82.24900  145.98600   90.11660
 3324.50000   82.33370  146.54660   87.97000
 3325.00000   82.76360  147.24730   87.03510
 3325.50000   83.50510  148.74780   83.52540
 3326.00000   85.81400  152.04630   78.71940
 3326.50000   86.24640  155.34470   73.88470
 3327.00000   86.69750  157.36490   69.05010
 3327.50000   87.11060  158.62620   63.87160
 3328.00000   87.29850  160.01170   58.90800
 3328.50000   87.60920  160.84070   61.02210
 3329.00000   87.65780  160.98070   63.54540
 3329.50000   87.65780  161.54130   60.90520
 3330.00000   87.44560  158.31820   59.14410
 3330.50000   87.26950  158.17800   55.49990
 3331.00000   86.87200  158.87860   56.52500
 3331.50000   86.37780  159.71950   59.96170
 3332.00000   86.62130  159.71950   63.44990
 3332.50000   87.02720  157.26710   67.31170
 3333.00000   87.02660  157.40080   75.78530
 3333.50000   86.99950  158.42010   85.41180
 3334.00000   86.86670  159.43930   94.62430
 3334.50000   86.79910  159.57950   98.93710
 3335.00000   86.82930  159.37920   98.73520
 3335.50000   86.85960  158.87860   97.36900
 3336.00000   87.13640  158.87860  102.53530
 3336.50000   87.14420  159.95310  108.85220
 3337.00000   87.21000  161.12100  115.03840
 3337.50000   87.58330  162.28880  118.92410
 3338.00000   88.09520  164.20400  121.08010
 3338.50000   88.34470  165.32510  121.08010
 3339.00000   88.34710  165.32510  121.68170
 3339.50000   88.31690  164.99530  123.35300
 3340.00000   88.23140  164.58310  124.08660
 3340.50000   88.18020  164.17090  122.50450
 3341.00000   88.04820  162.46980  120.05330
 3341.50000   87.35750  160.10500  117.60220
 3342.00000   86.57720  158.03790  115.15100
 3342.50000   86.17870  156.63660  115.16220
 3343.00000   85.72210  155.37530  117.66900
 3343.50000   84.52850  153.43670  119.67450
 3344.00000   84.08270  151.74330  114.90760
 3344.50000   83.75400  150.05000  104.49450
 3345.00000   83.15340  149.62950   94.08130
 3345.50000   82.82300  150.41430   91.59760
 3346.00000   82.69670  151.32530   95.12390
 3346.50000   82.90270  152.15200  102.37400
 3347.00000   83.17030  152.57240  106.78910
 3347.50000   83.62090  152.71260  107.79200
 3348.00000   67.22490  152.71260  107.66880
 3348.50000   55.62650  152.22210  108.69440
 3349.00000   53.88130  151.79400  111.99020
 3349.50000   54.42190  151.24910  114.39950
 3350.00000   54.90630  150.70410  111.90610
 3350.50000   55.30650  150.15910  106.60850
 3351.00000   55.67300  149.91000  102.53520
 3351.50000   55.40530  149.62970  100.29830
 3352.00000   54.73600  150.33050   98.06140
 3352.50000   54.46830  151.53560   92.44430
 3353.00000   55.67220  152.15220   85.38050
 3353.50000   55.78670  152.99300   83.51830
 3354.00000   55.77360  153.97400   81.22630
 3354.50000   56.03700  154.60660   75.07230
 3355.00000   56.03740  155.82340   67.95270
 3355.50000   56.04830  156.52420   66.12780
 3356.00000   55.94320  156.45410   71.38220
 3356.50000   55.20960  156.52420   76.19540
 3357.00000   54.92620  156.94470   81.00850
 3357.50000   54.99260  158.12190   82.37230
 3358.00000   55.25590  159.43940   79.51440
 3358.50000   54.70000  160.14000   72.88000
 3359.00000   54.60730  160.42040   69.40840
 3359.50000   54.65360  160.56040   66.24250
 3360.00000   58.99780  160.56040   64.52230
 3360.50000   63.34200  160.56040   66.92980
 3361.00000   67.65820  160.05120   73.28060
 3361.50000   71.86230  158.77810   78.76240
 3362.00000   76.06640  157.50510   75.23600
 3362.50000   80.27060  157.08470   70.02720
 3363.00000   84.58860  157.08470   64.81830
 3363.50000   86.14540  156.66430   64.59280
 3364.00000   85.75730  156.22390   69.13600
 3364.50000   85.52490  155.82340   66.79210
 3365.00000   85.05090  154.84250   60.56250
 3365.50000   84.90230  153.86160   55.04330
 3366.00000   84.74500  153.72140   54.33440
 3366.50000   84.82940  154.28200   56.35100
 3367.00000   85.28460  155.12280   60.48760
 3367.50000   85.57950  155.96360   64.12220
 3368.00000   85.94080  156.89790   61.49970
 3368.50000   86.34620  157.98790   57.79720
 3369.00000   86.35070  158.62630   54.09480
 3369.50000   86.35520  159.04670   53.29260
 3370.00000   86.35960  159.60710   53.80830
 3370.50000   86.34840  161.38310   54.66780
 3371.00000   86.30440  163.43360   55.52730
 3371.50000   86.09110  165.05960   56.10030
 3372.00000   85.86200  165.19510   54.89800
 3372.50000   85.86740  165.15560   50.89200
 3373.00000   85.94610  165.11600   49.70550
 3373.50000   85.93340  165.07640   53.02040
 3374.00000   85.64010  164.90120   57.42890
 3374.50000   85.20080  164.34860   61.76580
 3375.00000   85.19490  163.40940   66.20100
 3375.50000   85.18900  162.68000   65.36030
 3376.00000   85.18300  161.49860   62.59740
 3376.50000   85.10660  161.50290   59.83460
 3377.00000   84.91250  161.39800   57.07170
 3377.50000   84.60140  161.13600   53.94440
 3378.00000   84.60770  160.87390   52.57730
 3378.50000   84.74490  160.47610   51.41740
 3379.00000   84.74490  160.87760   52.74510
 3379.50000   84.84370  162.12950   53.73660
 3380.00000   86.20720  161.05520   55.33720
 3380.50000   86.31960  159.88740   58.30630
 3381.00000   86.47880  162.26970   64.64030
 3381.50000   86.70300  164.37180   72.57880
 3382.00000   86.78690  163.67110   75.75410
 3382.50000   86.78690  163.39070   71.17490
 3383.00000   86.95610  163.11050   61.23100
 3383.50000   87.07520  162.54990   54.51140
 3384.00000   87.02720  159.86400   51.88080
 3384.50000   87.02720  158.76620   54.40070
 3385.00000   87.02720  158.74460   61.76580
 3385.50000   87.07220  158.63680   68.08310
 3386.00000   87.14730  158.52910   74.23890
 3386.50000   87.23090  158.42130   79.77350
 3387.00000   87.17730  158.16980   82.82350
 3387.50000   86.87900  157.46140   86.40810
 3388.00000   86.47300  156.11360   85.73710
 3388.50000   86.21300  155.79790   81.92100
 3389.00000   86.06820  155.06170   79.49530
 3389.50000   85.04340  153.94280   77.06960
 3390.00000   83.99420  152.82400   75.54480
 3390.50000   83.62010  152.32000   72.53450
 3391.00000   83.66810  153.01190   69.58650
 3391.50000   84.01060  156.47150   63.08000
 3392.00000   85.26680  159.93110   60.09560
 3392.50000   86.24910  163.39070   70.94020
 3393.00000   87.10370  165.38080   90.68170
 3393.50000   89.29170  168.94500  110.42310
 3394.00000   91.41340  175.47340  121.44640
 3394.50000   92.90460  182.00170  121.85960
 3395.00000   93.31430  184.22620  121.24780
 3395.50000   93.66370  183.65700  120.66440
 3396.00000   93.24240  179.42190  121.99700
 3396.50000   92.35840  178.84490  122.68150
 3397.00000   91.35470  176.00520  121.77910
 3397.50000   91.01360  172.67610  120.28460
 3398.00000   89.35350  169.34690  117.27430
 3398.50000   89.38180  168.01530  115.76260
 3399.00000   89.47510  169.82940  115.24720
 3399.50000   89.88490  173.13510  115.15900
 3400.00000   90.92000  177.72030  116.99430
 3400.50000   91.95520  179.47560  117.68670
 3401.00000   92.82520  180.64640  118.06530
 3401.50000   93.08170  181.43300  117.25520
 3402.00000   93.31570  181.55750  116.26520
 3402.50000   93.43090  180.10620  116.21410
 3403.00000   92.87490  179.33230  115.95870
 3403.50000   92.82860  179.22650  115.70330
 3404.00000   91.85750  175.12200  114.33490
 3404.50000   90.31630  170.51690  113.50760
