~Version ---------------------------------------------------
VERS.   2.0 : CWLS log ASCII Standard -VERSION 2.0
WRAP.    NO : One line per depth step
DLM . SPACE : Column Data Section Delimiter
~Well ------------------------------------------------------
STRT .FT                1180.0 : START DEPTH
STOP .FT                5251.0 : STOP DEPTH
STEP .FT                   0.5 : STEP
NULL .                -9999.25 : NULL VALUE
COMP .                         : COMPANY
WELL .                         : WELL
FLD  .                         : FIELD
LOC  .                         : LOCATION
PROV .                         : PROVINCE
CNTY .                         : COUNTY
STAT .                         : STATE
CTRY .                         : COUNTRY
SRVC .                         : SERVICE COMPANY
DATE .                         : DATE
UWI  .                         : UNIQUE WELL ID
API  .                         : API NUMBER
SLAT .WGS84 3.6007186885056015 : SURFACE LATITUDE
SLON .WGS84 4.6236815450818085 : SURFACE LONGITUDE
DATUM.F                    nan : DEPTH DATUM ELEV
~Curve Information -----------------------------------------
DEPT .FT    : 
DTCO .US/F  : DELTA-T COMPRESSIONAL
DTSM .US/F  : DELTA-T SHEAR
HSGRS.GAPI  : HNGS STANDARD GAMMA RAY FROM SONIC LOG
~Params ----------------------------------------------------
~Other -----------------------------------------------------
~ASCII -----------------------------------------------------
# ...
 5185.00000   63.50800  120.30040   88.17820
 5185.50000   63.70220  120.30200   89.65710
 5186.00000   63.81720  120.38290   91.13610
 5186.50000   63.66920  120.46370   92.61500
 5187.00000   63.59970  120.61730   93.95400
 5187.50000   63.49770  119.95520   95.17590
 5188.00000   63.30370  119.87720   95.22830
 5188.50000   63.26410  119.79920   94.62760
 5189.00000   63.18380  119.04080   93.11710
 5189.50000   63.36270  118.54990   92.08920
 5190.00000   63.00010  118.40440   91.06130
 5190.50000   62.37300  118.25880   90.03340
 5191.00000   62.25910  118.11320   89.00550
 5191.50000   62.37670  117.96770   87.67270
 5192.00000   62.45820  118.10000   84.77750
 5192.50000   62.48530  118.09330   79.56460
 5193.00000   62.40320  118.08660   80.28320
 5193.50000   62.50390  118.00960   83.87640
 5194.00000   62.67340  117.88930   87.46960
 5194.50000   62.84290  117.76910   88.41740
 5195.00000   62.68290  116.80620   88.92360
 5195.50000   62.19240  115.03970   89.59210
 5196.00000   62.35800  113.97090   87.65180
 5196.50000   62.67490  113.36320   84.41790
 5197.00000   63.15020  112.64010   81.35920
 5197.50000   63.62560  112.18680   79.76510
 5198.00000   64.85450  112.13840   84.85980
 5198.50000   65.61300  111.83620   92.34810
 5199.00000   65.99920  111.79940   99.27500
 5199.50000   66.38550  112.07930   99.70430
 5200.00000   67.01500  112.43850   96.47320
 5200.50000   67.50820  112.79760   90.32960
 5201.00000   67.80830  113.22510   82.48400
 5201.50000   67.53140  113.36530   77.08310
 5202.00000   67.06460  113.08500   74.22160
 5202.50000   66.59770  112.80470   73.02890
 5203.00000   66.13080  112.52450   74.60930
 5203.50000   66.21340  112.66450   72.00170
 5204.00000   66.45690  113.71550   69.39410
 5204.50000   67.44790  115.29210   69.60060
 5205.00000   68.67410  116.16800   74.03260
 5205.50000   69.53690  117.56940   78.46460
 5206.00000   70.24070  118.83070   80.74240
 5206.50000   71.20160  120.55900   81.63990
 5207.00000   71.96590  122.36910   83.00780
 5207.50000   72.46580  123.59520   87.58840
 5208.00000   71.59060  122.89460   91.04350
 5208.50000   71.05150  121.80110   92.20850
 5209.00000   70.76200  120.82780   90.44670
 5209.50000   70.10590  120.31400   87.83510
 5210.00000   69.38070  119.75050   84.59230
 5210.50000   69.32160  118.84910   76.12340
 5211.00000   69.11390  118.16960   70.65260
 5211.50000   68.79930  117.75810   77.89640
 5212.00000   68.48470  117.14900   88.60680
 5212.50000   68.38180  117.00880   97.02790
 5213.00000   69.00950  117.53610   94.77520
 5213.50000   69.27720  118.15360   87.79330
 5214.00000   69.78650  118.77120   80.81130
 5214.50000   70.25220  119.38880   77.22880
 5215.00000   70.10870  119.42080   76.05050
 5215.50000   70.09180  119.44510   79.04500
 5216.00000   70.27120  119.29460   84.90070
 5216.50000   70.46800  119.80640   90.75630
 5217.00000   70.63950  119.84070   91.72260
 5217.50000   70.81100  119.87500   84.87220
 5218.00000   70.92290  120.15500   79.00240
 5218.50000   70.87550  120.33510   76.82140
 5219.00000   71.03530  120.51250   71.90480
 5219.50000   71.38290  121.11220   66.75780
 5220.00000   71.80750  121.86170   68.94260
 5220.50000   72.05050  122.58520   80.75300
 5221.00000   72.34190  123.36600   93.45460
 5221.50000   72.66540  123.76650  107.49290
 5222.00000   72.86590  123.98470  113.10820
 5222.50000   72.98620  124.41430   93.55490
 5223.00000   72.64610  124.48990   74.00160
 5223.50000   72.21260  123.80430   57.00530
 5224.00000   71.77920  122.99090   52.46790
 5224.50000   71.36740  122.58190   51.08920
 5225.00000   71.11330  122.42020   50.11650
 5225.50000   71.10120  122.25850   49.41460
 5226.00000   71.10750  122.02440   49.49480
 5226.50000   71.14380  121.60560   50.29700
 5227.00000   70.76260  121.18300   50.93880
 5227.50000   70.36470  120.47690   -9999.25
 5228.00000   69.56170  119.74750   -9999.25
 5228.50000   68.85920  118.29740   -9999.25
 5229.00000   68.04840  116.88320   -9999.25
 5229.50000   67.52440  115.46900   -9999.25
 5230.00000   66.64740  114.05490   -9999.25
 5230.50000   65.77040  113.29350   -9999.25
 5231.00000   65.80220  112.66200   -9999.25
 5231.50000   66.04060  112.36320   -9999.25
 5232.00000   66.93010  113.28640   -9999.25
 5232.50000   68.07120  115.15190   -9999.25
 5233.00000   68.42120  116.62340   -9999.25
 5233.50000   68.54180  118.22470   -9999.25
 5234.00000   70.05440  119.43030   -9999.25
 5234.50000   71.45830  119.98780   -9999.25
 5235.00000   71.97520  121.04460   -9999.25
 5235.50000   72.32530  121.56320   -9999.25
 5236.00000   72.58580  121.01500   -9999.25
 5236.50000   72.47460  120.36540   -9999.25
 5237.00000   72.11870  120.31430   -9999.25
 5237.50000   71.87310  120.26320   -9999.25
 5238.00000   71.78500  120.21220   -9999.25
 5238.50000   71.58480  120.16110   -9999.25
 5239.00000   70.98420  120.11000   -9999.25
 5239.50000   70.11140  120.05900   -9999.25
 5240.00000   69.17050  120.00790   -9999.25
 5240.50000   68.95830  119.95680   -9999.25
 5241.00000   69.34270  119.96860   -9999.25
 5241.50000   69.42280  120.23190   -9999.25
 5242.00000   69.48850  120.37210   -9999.25
 5242.50000   69.55430  119.81150   -9999.25
 5243.00000   69.85420  119.67150   -9999.25
 5243.50000   70.31030  120.03420   -9999.25
 5244.00000   70.67740  120.48760   -9999.25
 5244.50000   70.73410  120.94090   -9999.25
 5245.00000   70.48380  121.21300   -9999.25
 5245.50000   70.23360  121.21300   -9999.25
 5246.00000   69.87920  121.21300   -9999.25
 5246.50000   67.96820  120.47720   -9999.25
 5247.00000   67.66180  119.60140   -9999.25
 5247.50000   67.34070  116.83360   -9999.25
 5248.00000   67.92400  116.04070   -9999.25
 5248.50000   67.98400  116.05690   -9999.25
 5249.00000   67.97840  116.07310   -9999.25
 5249.50000   67.97280  116.08930   -9999.25
 5250.00000   67.96720  116.10550   -9999.25
 5250.50000   67.96150  116.12170   -9999.25
 5251.00000   67.95820  116.13140   -9999.25
