~Version ---------------------------------------------------
VERS.   2.0 : CWLS log ASCII Standard -VERSION 2.0
WRAP.    NO : One line per depth step
DLM . SPACE : Column Data Section Delimiter
~Well ------------------------------------------------------
STRT .FT                1180.0 : START DEPTH
STOP .FT                5251.0 : STOP DEPTH
STEP .FT                   0.5 : STEP
NULL .                -9999.25 : NULL VALUE
COMP .                         : COMPANY
WELL .                         : WELL
FLD  .                         : FIELD
LOC  .                         : LOCATION
PROV .                         : PROVINCE
CNTY .                         : COUNTY
STAT .                         : STATE
CTRY .                         : COUNTRY
SRVC .                         : SERVICE COMPANY
DATE .                         : DATE
UWI  .                         : UNIQUE WELL ID
API  .                         : API NUMBER
SLAT .WGS84 3.6007186885056015 : SURFACE LATITUDE
SLON .WGS84 4.6236815450818085 : SURFACE LONGITUDE
DATUM.F                    nan : DEPTH DATUM ELEV
~Curve Information -----------------------------------------
DEPT .FT    : 
DTCO .US/F  : DELTA-T COMPRESSIONAL
DTSM .US/F  : DELTA-T SHEAR
HSGRS.GAPI  : HNGS STANDARD GAMMA RAY FROM SONIC LOG
~Params ----------------------------------------------------
~Other -----------------------------------------------------
~ASCII -----------------------------------------------------
# ...
 4651.00000   88.55750  172.67100  113.46270
 4651.50000   87.22610  171.12110  116.97250
 4652.00000   86.12270  169.00730  122.82210
 4652.50000   85.80480  167.49600  128.67180
 4653.00000   85.51040  166.84960  134.52140
 4653.50000   56.86020  166.20310  134.32080
 4654.00000   54.71360  165.81530  130.61050
 4654.50000   54.78490  165.39480  127.30130
 4655.00000   54.85620  165.25480  129.45730
 4655.50000   54.92750  165.43670  133.05060
 4656.00000   55.01090  165.70670  135.92530
 4656.50000   55.00940  165.97680  133.91970
 4657.00000   54.97760  166.38510  131.16200
 4657.50000   54.97770  167.33230  129.10630
 4658.00000   55.43150  167.65990  130.30970
 4658.50000   55.52390  167.33910  130.30970
 4659.00000   55.61620  166.72420  130.30970
 4659.50000   55.73630  166.10640  135.32360
 4660.00000   55.85420  164.80310  135.31740
 4660.50000   55.70080  165.24500  133.62200
 4661.00000   55.42460  166.49870  130.15860
 4661.50000   55.15370  166.05620  128.21040
 4662.00000   54.95120  165.68330  128.50550
 4662.50000   55.01280  165.62550  129.17290
 4663.00000   55.07440  165.56700  130.32470
 4663.50000   55.07130  165.50850  131.79950
 4664.00000   54.89860  165.70110  132.76040
 4664.50000   54.59410  165.70070  131.55710
 4665.00000   54.35060  165.70030  133.71610
 4665.50000   54.87110  163.64360  136.97310
 4666.00000   54.63080  163.50100  138.52620
 4666.50000   54.75830  164.47370  137.52340
 4667.00000   54.88580  163.56100  138.76570
 4667.50000   55.01120  165.14260  139.80080
 4668.00000   55.04980  163.62200  140.73220
 4668.50000   54.80170  161.92260  137.48860
 4669.00000   54.47070  160.22310  134.24500
 4669.50000   54.65430  159.81500  131.40670
 4670.00000   54.56400  158.81710  132.32280
 4670.50000   54.47080  157.76570  133.71610
 4671.00000   53.99010  157.31320  135.00260
 4671.50000   54.33000  158.66480  136.19850
 4672.00000   54.59070  160.36050  136.47360
 4672.50000   53.95010  161.16630  135.37260
 4673.00000   54.16290  161.97210  133.77300
 4673.50000   54.29490  162.30230  132.30910
 4674.00000   54.15360  162.91980  132.29500
 4674.50000   54.18280  163.95720  134.22380
 4675.00000   53.86230  165.07990  136.15250
 4675.50000   54.17060  166.36540  138.08120
 4676.00000   55.23970  167.77040  139.57660
 4676.50000   54.74690  168.26940  138.50800
 4677.00000   54.50100  168.88500  137.23170
 4677.50000   54.23480  169.30800  136.92180
 4678.00000   53.84120  169.48210  138.34120
 4678.50000   53.64210  168.68990  140.11560
 4679.00000   53.52190  168.15500  139.44730
 4679.50000   53.53970  167.58080  137.59860
 4680.00000   53.65590  167.00660  136.11960
 4680.50000   53.82280  166.43250  136.11960
 4681.00000   54.47060  165.67210  137.12230
 4681.50000   54.29490  166.02240  136.11960
 4682.00000   54.33490  166.46020  135.71850
 4682.50000   54.40160  166.89810  136.69260
 4683.00000   54.41500  167.33590  137.92450
 4683.50000   54.37900  168.16180  137.52340
 4684.00000   54.16570  169.01030  136.72120
 4684.50000   53.79280  169.53070  136.72120
 4685.00000   53.92310  170.33140  138.48610
 4685.50000   53.97690  170.82530  140.18490
 4686.00000   53.95630  171.38240  140.75170
 4686.50000   53.73820  171.48750  140.51300
 4687.00000   53.74050  170.77340  141.07240
 4687.50000   53.90010  170.49400  141.63470
 4688.00000   54.16060  170.12930  140.15530
 4688.50000   54.17890  169.60090  138.17520
 4689.00000   54.33790  169.07240  137.54220
 4689.50000   54.50070  168.64970  137.31500
 4690.00000   54.66050  168.81280  137.08780
 4690.50000   54.74990  168.94390  137.56210
 4691.00000   54.94530  169.04720  139.15290
 4691.50000   55.14070  169.07140  141.63470
 4692.00000   55.46960  169.35200  142.63770
 4692.50000   55.83190  169.91620  142.74530
 4693.00000   55.63440  170.15390  141.21650
 4693.50000   55.60770  170.39160  139.76730
 4694.00000   56.00590  170.62920  140.05520
 4694.50000   56.19740  170.86690  140.87230
 4695.00000   56.31240  170.96200  138.02480
 4695.50000   56.23300  170.80130  132.81680
 4696.00000   55.83590  170.96200  127.89700
 4696.50000   55.43880  171.08980  130.05900
 4697.00000   55.04170  170.57480  135.46370
 4697.50000   54.64450  169.90140  139.87870
 4698.00000   54.29490  169.53960  139.36930
 4698.50000   54.34850  169.94100  138.02350
 4699.00000   54.46660  170.27410  137.81380
 4699.50000   54.10770  169.67220  139.10090
 4700.00000   53.97550  169.07030  140.13060
 4700.50000   54.09420  169.10710  140.13060
 4701.00000   54.26150  169.14390  139.58440
 4701.50000   54.38580  169.44850  139.89100
 4702.00000   54.59120  169.44850  140.13060
 4702.50000   54.68540  169.44850  139.52890
 4703.00000   54.38450  169.11120  138.52620
 4703.50000   54.17490  168.72350  137.72400
 4704.00000   54.04620  168.61000  137.72400
 4704.50000   54.00250  168.20550  137.72400
 4705.00000   54.14670  167.71760  138.28110
 4705.50000   54.28540  167.22970  138.92730
 4706.00000   54.42400  166.74180  140.53170
 4706.50000   54.24640  166.16040  139.22470
 4707.00000   54.05930  165.29040  137.66080
 4707.50000   54.06340  164.20040  136.31040
 4708.00000   54.25470  163.65920  134.96000
 4708.50000   54.12730  163.57980  134.11410
 4709.00000   53.91660  164.38590  133.97710
 4709.50000   54.17140  165.18530  134.11410
 4710.00000   54.34520  166.35410  135.08340
 4710.50000   53.93150  167.52290  136.18230
 4711.00000   53.51780  168.60740  137.37300
 4711.50000   53.26950  169.06300  138.32560
 4712.00000   54.24650  169.20980  138.92730
 4712.50000   54.27050  169.44240  140.21650
 4713.00000   54.31050  169.67490  140.86220
 4713.50000   85.27210  169.90750  141.18730
 4714.00000   86.58340  169.94370  141.51230
 4714.50000   86.33310  169.40830  141.83730
 4715.00000   86.23300  169.07030  141.84290
 4715.50000   86.29240  168.12440  141.16570
 4716.00000   86.36650  167.17850  141.63470
 4716.50000   86.36650  167.03420  142.77630
 4717.00000   86.43860  167.38870  144.20330
 4717.50000   86.48670  167.39240  145.34490
 4718.00000   86.54260  168.19360  144.74320
 4718.50000   86.62270  168.43970  141.48430
 4719.00000   86.68780  169.35010  140.61080
 4719.50000   86.72690  170.74360  140.75600
 4720.00000   86.54150  170.26580  140.90110
 4720.50000   85.83860  169.33680  141.04620
 4721.00000   85.07190  169.94710  141.53440
 4721.50000   84.87170  171.62330  142.13610
 4722.00000   84.87170  171.48850  141.93550
 4722.50000   85.18510  171.55260  139.30640
 4723.00000   85.45390  172.44630  133.17990
 4723.50000   85.79600  173.27080  130.20340
 4724.00000   86.25970  173.33510  129.00010
 4724.50000   86.80680  174.22040  129.65910
 4725.00000   87.48610  175.44660  130.53900
 4725.50000   88.16540  176.22810  131.10580
 4726.00000   88.70880  176.24420  131.99320
 4726.50000   88.59750  176.17420  133.15430
 4727.00000   88.52370  176.06560  133.96280
 4727.50000   88.44990  175.85660  133.97790
 4728.00000   88.35510  174.96890  133.68250
 4728.50000   87.83460  175.58670  133.38710
 4729.00000   87.27400  175.42260  133.75190
 4729.50000   87.22970  175.11730  135.81000
 4730.00000   87.19940  174.77010  138.12510
 4730.50000   87.14730  174.82910  136.72120
 4731.00000   87.28310  174.89180  132.91080
 4731.50000   87.66540  174.97430  132.30910
 4732.00000   87.86220  176.22350  133.86220
 4732.50000   87.92480  175.69490  134.89690
 4733.00000   88.02060  174.92890  135.48990
 4733.50000   88.13200  174.25360  136.08290
 4734.00000   88.25980  174.83700  137.50960
 4734.50000   88.40650  176.57150  139.88090
 4735.00000   88.36010  176.68810  140.33110
 4735.50000   88.25500  176.71150  139.62010
 4736.00000   88.24930  176.71150  138.43500
 4736.50000   88.24910  177.09660  137.73690
 4737.00000   88.14610  179.58080  138.32560
 4737.50000   87.97010  185.18240  137.72400
 4738.00000   87.97240  185.04230  136.63010
 4738.50000   88.14110  178.29220  135.53620
 4739.00000   88.22170  176.13530  134.51520
 4739.50000   88.24030  175.62530  133.11140
