~Version ---------------------------------------------------
VERS.   2.0 : CWLS log ASCII Standard -VERSION 2.0
WRAP.    NO : One line per depth step
DLM . SPACE : Column Data Section Delimiter
~Well ------------------------------------------------------
STRT .FT                1180.0 : START DEPTH
STOP .FT                5251.0 : STOP DEPTH
STEP .FT                   0.5 : STEP
NULL .                -9999.25 : NULL VALUE
COMP .                         : COMPANY
WELL .                         : WELL
FLD  .                         : FIELD
LOC  .                         : LOCATION
PROV .                         : PROVINCE
CNTY .                         : COUNTY
STAT .                         : STATE
CTRY .                         : COUNTRY
SRVC .                         : SERVICE COMPANY
DATE .                         : DATE
UWI  .                         : UNIQUE WELL ID
API  .                         : API NUMBER
SLAT .WGS84 3.6007186885056015 : SURFACE LATITUDE
SLON .WGS84 4.6236815450818085 : SURFACE LONGITUDE
DATUM.F                    nan : DEPTH DATUM ELEV
~Curve Information -----------------------------------------
DEPT .FT    : 
DTCO .US/F  : DELTA-T COMPRESSIONAL
DTSM .US/F  : DELTA-T SHEAR
HSGRS.GAPI  : HNGS STANDARD GAMMA RAY FROM SONIC LOG
~Params ----------------------------------------------------
~Other -----------------------------------------------------
~ASCII -----------------------------------------------------
 1180.00000   61.60540  127.83230   42.71880
 1180.50000   61.06390  125.99550   39.44070
 1181.00000   59.95370  120.29820   37.17290
 1181.50000   59.35520  115.60070   34.95950
 1182.00000   58.99150  113.88400   36.84890
 1182.50000   58.50710  112.16730   40.92410
 1183.00000   58.65160  111.96680   44.99920
 1183.50000   59.02000  113.40610   45.59920
 1184.00000   59.56490  115.10290   42.28570
 1184.50000   59.78670  116.46070   38.97210
 1185.00000   59.98060  117.20390   37.31780
 1185.50000   59.89830  117.39180   39.00080
 1186.00000   58.89950  117.55460   42.56010
 1186.50000   58.95780  116.78210   45.62730
 1187.00000   58.83660  116.71590   43.37590
 1187.50000   58.58630  116.38480   39.25620
 1188.00000   59.03650  115.83140   35.13660
 1188.50000   61.17400  115.52320   33.19740
 1189.00000   60.09130  116.04090   33.72540
 1189.50000   59.66360  117.01330   35.55670
 1190.00000   59.36580  117.85930   38.99480
 1190.50000   59.77260  118.67930   42.96920
 1191.00000   61.60900  121.22680   48.73580
 1191.50000   61.95310  123.44100   47.73810
 1192.00000   60.47190  124.27680   44.37380
 1192.50000   57.85160  124.87630   40.28900
 1193.00000   59.14570  125.11190   42.11420
 1193.50000   62.38510  125.34750   44.89930
 1194.00000   61.96570  126.61010   43.68330
 1194.50000   62.17110  126.88610   41.26910
 1195.00000   61.43620  126.91540   40.87600
 1195.50000   61.04040  127.32400   43.94970
 1196.00000   64.41100  127.36620   47.02350
 1196.50000   63.61310  127.31370   45.25830
 1197.00000   63.61390  126.86240   42.32930
 1197.50000   58.07150  126.43580   39.40030
 1198.00000   60.15060  127.15810   39.01550
 1198.50000   60.10610  127.92670   40.78620
 1199.00000   58.03030  128.64760   42.55700
 1199.50000   57.93420  129.05690   42.22070
 1200.00000   53.68330  138.36490   40.51730
 1200.50000   62.37980  144.23000   39.50580
 1201.00000   69.51840  144.44580   44.77730
 1201.50000   70.21780  144.16540   51.16990
 1202.00000   70.00960  141.02640   56.29330
 1202.50000   68.78330  137.45290   50.52320
 1203.00000   67.76060  133.51510   44.75320
 1203.50000   67.76060  127.88950   40.90040
 1204.00000   67.63570  121.18290   39.04010
 1204.50000   66.92760  111.09290   42.14820
 1205.00000   67.05250  111.51340   46.55160
 1205.50000   68.09380  120.54620   49.55020
 1206.00000   69.88470  139.61630   50.92990
 1206.50000   66.46380  135.96730   50.26630
 1207.00000   59.18100  132.31820   48.37980
 1207.50000   59.16910  136.52230   45.43580
 1208.00000   60.15080  138.53820   42.69460
 1208.50000   60.34720  136.00500   40.23760
 1209.00000   60.19220  138.57380   38.64400
 1209.50000   60.14740  147.52870   38.13390
 1210.00000   60.44790  144.02520   40.93860
 1210.50000   60.12600  141.50270   47.37880
 1211.00000   59.59790  140.94200   56.28800
 1211.50000   59.27030  140.80180   65.81450
 1212.00000   59.20710  145.00600   68.53670
 1212.50000   59.04630  144.44560   64.80140
 1213.00000   58.62330  138.41960   64.29090
 1213.50000   58.55860  135.96710   70.42750
 1214.00000   58.55770  133.23450   68.33060
 1214.50000   58.55690  121.57490   57.84620
 1215.00000   58.55620  105.20680   43.91260
 1215.50000   58.71380  105.48700   38.49700
 1216.00000   59.50200  120.48190   46.81550
 1216.50000   59.81140  121.04230   54.07910
 1217.00000   59.78430  123.91530   51.15760
 1217.50000   59.58370  133.37460   46.28330
 1218.00000   59.46100  145.00600   42.38380
 1218.50000   59.55650  148.22930   46.09230
 1219.00000   59.52620  162.94380   57.34120
 1219.50000   59.25680  211.59520   72.30930
 1220.00000   58.98740  205.44920   87.27750
 1220.50000   58.71800  198.00190   92.84600
 1221.00000   58.44860  199.40330   97.62410
 1221.50000   58.12510  202.34620   97.78580
 1222.00000   57.97320  201.50540   93.58240
 1222.50000   58.58480  191.55560   88.32830
 1223.00000   58.96580  185.24940   84.59840
 1223.50000   59.01440  178.80300   82.58910
 1224.00000   58.24390  166.58290   86.09190
 1224.50000   57.45260  160.58510   87.11580
 1225.00000   57.39010  159.74430   83.27870
 1225.50000   57.49720  154.59060   81.79760
 1226.00000   57.67570  145.91050   75.30220
 1226.50000   57.85420  144.17450   64.77390
 1227.00000   58.29940  144.31470   52.72270
 1227.50000   59.21570  145.01530   43.49480
 1228.00000   59.12960  148.16850   52.64850
 1228.50000   59.08110  151.78860   64.29930
 1229.00000   59.15980  155.38540   75.95000
 1229.50000   59.02100  155.10520   87.60080
 1230.00000   58.74380  148.09830   87.60080
 1230.50000   58.45290  142.07240   76.34230
 1231.00000   58.81900  141.37180   64.17240
 1231.50000   59.44800  135.70980   50.48490
 1232.00000   59.65830  120.00070   43.46590
 1232.50000   59.18760  119.08990   46.64220
 1233.00000   58.33740  118.10880   53.00420
 1233.50000   57.48720  113.71780   51.79430
 1234.00000   56.81230  109.28010   44.93610
 1234.50000   56.50820  109.56030   39.34190
 1235.00000   56.22400  117.64170   36.34610
 1235.50000   58.80030  122.59320   36.51150
 1236.00000   60.75680  123.85440   40.77540
 1236.50000   62.71330  125.67630   47.34310
 1237.00000   63.99050  126.79730   64.17240
 1237.50000   64.28660  127.21770   75.95810
 1238.00000   64.49080  134.92540   72.78690
 1238.50000   64.80780  131.78630   62.83820
 1239.00000   65.12470  128.56320   52.88950
 1239.50000   65.44170  124.27500   56.49310
 1240.00000   65.75860  122.03280   68.63940
 1240.50000   66.07560  122.17270   79.40040
 1241.00000   66.40870  129.17980   82.52270
 1241.50000   66.43660  129.31980   79.39800
 1242.00000   65.46860  129.60020   75.95880
 1242.50000   64.63700  129.88040   72.65520
 1243.00000   66.38780  129.60020   70.76800
 1243.50000   61.78400  128.47890   69.49140
 1244.00000   57.12450  120.77150   63.09720
 1244.50000   52.34520  113.51970   52.44020
 1245.00000   52.63150  112.01820   45.82210
 1245.50000   53.50780  109.51350   41.07340
 1246.00000   53.14200  106.65150   41.65740
 1246.50000   53.29070  106.23110   42.05120
 1247.00000   54.03450  103.05470   41.11180
 1247.50000   54.18320  100.99940   40.87200
 1248.00000   53.57000   98.94410   43.78650
 1248.50000   53.02300   96.44160   46.69650
 1249.00000   52.27270   95.16030   46.49440
 1249.50000   51.14190   95.30030   45.18090
 1250.00000   50.60320   96.84200   45.40310
 1250.50000   50.39080   96.98220   51.38480
 1251.00000   50.30970   95.09050   51.64080
 1251.50000   50.22600   93.61890   49.68730
 1252.00000   50.40120   94.31970   47.73380
 1252.50000   51.28040   97.54280   49.94450
 1253.00000   51.97590  100.06530   54.28010
 1253.50000   52.26750  101.04640   57.36640
 1254.00000   53.68940  108.05320   55.72490
 1254.50000   54.77470  106.82000   51.62110
 1255.00000   54.99540  105.62870   47.51720
 1255.50000   55.72410  105.11030   47.53170
 1256.00000   56.33670  104.68990   52.51650
 1256.50000   56.31840  104.68990   51.46140
 1257.00000   56.27980  105.74090   48.01540
 1257.50000   56.27810  106.79190   45.03020
 1258.00000   56.42750  107.21230   45.03890
 1258.50000   56.51720  106.79190   46.86270
 1259.00000   56.02540  104.98570   48.48120
 1259.50000   55.45510  103.97360   48.67420
 1260.00000   56.69120  103.42860   47.17270
 1260.50000   56.74640  103.42860   45.56020
 1261.00000   57.26530  104.26950   43.94770
 1261.50000   58.01490  105.76790   46.13180
 1262.00000   58.19550  107.06150   48.17400
 1262.50000   58.42150  108.35510   49.28110
 1263.00000   58.76730  109.17420   48.84820
 1263.50000   58.86560  109.87500   50.73100
 1264.00000   59.01450  110.01500   52.51590
 1264.50000   60.02470  110.01500   50.73760
 1265.00000   59.93360  109.81320   47.77380
 1265.50000   59.13940  109.30870   44.80990
 1266.00000   58.91800  108.80420   42.29060
 1266.50000   57.98870  108.29970   40.06780
 1267.00000   58.35920  107.79520   40.76290
 1267.50000   58.38970  107.49260   45.04700
 1268.00000   57.58450  106.31540   49.33120
 1268.50000   56.89040  104.83010   53.61530
