~Version ---------------------------------------------------
VERS.   2.0 : CWLS log ASCII Standard -VERSION 2.0
WRAP.    NO : One line per depth step
DLM . SPACE : Column Data Section Delimiter
~Well ------------------------------------------------------
STRT .FT                1180.0 : START DEPTH
STOP .FT                5251.0 : STOP DEPTH
STEP .FT                   0.5 : STEP
NULL .                -9999.25 : NULL VALUE
COMP .                         : COMPANY
WELL .                         : WELL
FLD  .                         : FIELD
LOC  .                         : LOCATION
PROV .                         : PROVINCE
CNTY .                         : COUNTY
STAT .                         : STATE
CTRY .                         : COUNTRY
SRVC .                         : SERVICE COMPANY
DATE .                         : DATE
UWI  .                         : UNIQUE WELL ID
API  .                         : API NUMBER
SLAT .WGS84 3.6007186885056015 : SURFACE LATITUDE
SLON .WGS84 4.6236815450818085 : SURFACE LONGITUDE
DATUM.F                    nan : DEPTH DATUM ELEV
~Curve Information -----------------------------------------
DEPT .FT    : 
DTCO .US/F  : DELTA-T COMPRESSIONAL
DTSM .US/F  : DELTA-T SHEAR
HSGRS.GAPI  : HNGS STANDARD GAMMA RAY FROM SONIC LOG
~Params ----------------------------------------------------
~Other -----------------------------------------------------
~ASCII -----------------------------------------------------
# ...
 4918.00000   58.19040  102.92500   60.71230
 4918.50000   57.74020  102.08410   60.91290
 4919.00000   56.99840  101.94390   60.91290
 4919.50000   57.69420  102.13080   60.63940
 4920.00000   57.64650  102.59810   60.18360
 4920.50000   57.28340  103.20540   58.92410
 4921.00000   56.99770  103.62580   55.14710
 4921.50000   56.87760  104.04620   50.90550
 4922.00000   56.86090  104.18640   47.74650
 4922.50000   56.70890  104.16650   47.71960
 4923.00000   56.45340  104.14150   49.78320
 4923.50000   56.31770  104.11660   51.24740
 4924.00000   56.83330  104.37940   52.41570
 4924.50000   57.19360  104.64210   53.73600
 4925.00000   57.37990  104.60080   55.13880
 4925.50000   57.34290  104.57850   56.07950
 4926.00000   57.29900  104.55620   57.79050
 4926.50000   57.41810  104.88190   59.50140
 4927.00000   57.76060  104.91630   60.04320
 4927.50000   57.95280  104.95060   59.17920
 4928.00000   57.90490  105.16770   57.30330
 4928.50000   57.85750  105.34700   55.08330
 4929.00000   57.81010  105.29550   56.34330
 4929.50000   57.75590  105.16910   58.42070
 4930.00000   57.88480  105.65180   60.49800
 4930.50000   58.09410  106.13460   60.81320
 4931.00000   58.25220  106.51480   59.30900
 4931.50000   58.50820  106.66280   61.11400
 4932.00000   58.76420  106.71720   59.91070
 4932.50000   58.77270  106.91130   57.55420
 4933.00000   58.78130  107.10540   57.54290
 4933.50000   58.59080  107.56140   59.42500
 4934.00000   58.28750  108.11170   61.06080
 4934.50000   57.86630  108.41400   61.28620
 4935.00000   57.38870  108.36890   60.64010
 4935.50000   57.60240  108.23590   58.41330
 4936.00000   58.02340  108.23670   56.79660
 4936.50000   58.46810  108.47290   56.20050
 4937.00000   58.93500  108.86950   57.02140
 4937.50000   59.56140  109.45910   55.48230
 4938.00000   59.31520  110.04880   54.69640
 4938.50000   58.04970  109.50610   54.69640
 4939.00000   57.05100  107.31970   56.90240
 4939.50000   57.98890  108.17020   59.91070
 4940.00000   60.99920  111.95900   62.31730
 4940.50000   63.09640  115.74780   61.12110
 4941.00000   63.22450  117.84980   59.41880
 4941.50000   83.34850  123.25290   58.41430
 4942.00000   90.43720  129.48130   59.55520
 4942.50000   88.35510  135.70970   62.07230
 4943.00000   89.03580  141.11280   64.58950
 4943.50000   88.55530  148.54000   67.10670
 4944.00000   83.39020  149.38080   66.99930
 4944.50000   78.93170  150.22160   65.90740
 4945.00000   77.39480  150.92230   64.22260
 4945.50000   76.50350  148.61190   62.38050
 4946.00000   71.39060  142.54430   60.53830
 4946.50000   69.65680  136.56980   58.69620
 4947.00000   69.27640  132.14390   56.85400
 4947.50000   68.89600  131.58330   55.34770
 4948.00000   70.41280  131.02290   54.37950
 4948.50000   71.72670  130.74240   53.79340
 4949.00000   73.04060  131.30310   54.92380
 4949.50000   73.83460  131.72350   57.37380
 4950.00000   73.98310  132.14390   59.82390
 4950.50000   73.42440  132.14390   62.27390
 4951.00000   72.50640  130.04180   64.72390
 4951.50000   70.87790  128.29010   63.09080
 4952.00000   59.58700  125.09020   60.36910
 4952.50000   57.31030  119.95180   57.64740
 4953.00000   58.10500  110.14220   56.22060
 4953.50000   58.37200  109.44160   55.11760
 4954.00000   58.93250  108.74100   55.31810
 4954.50000   58.58020  107.19930   56.02000
 4955.00000   58.86570  106.91910   58.55560
 4955.50000   60.91440  109.69080   61.44500
 4956.00000   63.81750  114.12960   64.17950
 4956.50000   66.93750  119.71400   66.43020
 4957.00000   70.18070  125.29830   67.36930
 4957.50000   72.92210  130.88260   67.93270
 4958.00000   74.54720  135.36710   67.43130
 4958.50000   75.93180  139.85150   66.93000
 4959.00000   77.20730  142.30380   66.93000
 4959.50000   77.71100  144.47610   66.44260
 4960.00000   76.83990  145.03650   64.73990
 4960.50000   76.05970  145.03650   63.11950
 4961.00000   75.66740  143.17980   63.11950
 4961.50000   72.82620  137.15380   62.85650
 4962.00000   69.13250  131.81100   61.54180
 4962.50000   69.10250  128.07990   58.61040
 4963.00000   67.43860  125.41730   56.20050
 4963.50000   66.68220  124.57640   55.89870
 4964.00000   66.08860  124.29620   54.71380
 4964.50000   66.73660  123.87580   53.17510
 4965.00000   67.79780  124.15600   54.54410
 4965.50000   68.91940  125.69750   57.12710
 4966.00000   70.69040  126.67850   59.71020
 4966.50000   72.35680  129.57460   58.15590
 4967.00000   73.76320  136.34800   57.02780
 4967.50000   73.90730  136.20780   57.64150
 4968.00000   72.28910  129.90160   58.86070
 4968.50000   70.12450  131.72350   58.41750
 4969.00000   68.75490  129.06080   56.99180
 4969.50000   68.31130  128.50040   56.28220
 4970.00000   68.27980  128.64040   56.96180
 4970.50000   68.40890  131.86370   58.31320
 4971.00000   68.97950  133.26500   59.58050
 4971.50000   70.39850  130.18210   61.13930
 4972.00000   70.87080  132.70440   62.48810
 4972.50000   71.15740  135.97430   62.59310
 4973.00000   72.22270  137.46910   64.23700
 4973.50000   74.21070  138.02970   64.92440
 4974.00000   75.65880  141.72000   64.92440
 4974.50000   76.26460  146.00200   62.54140
 4975.00000   76.37810  147.55900   60.29270
 4975.50000   76.15650  147.41900   58.53960
 4976.00000   76.03390  147.34890   57.73500
 4976.50000   75.94220  147.69920   57.10830
 4977.00000   75.52240  148.04950   57.34370
 4977.50000   75.18850  148.39980   57.60080
 4978.00000   75.62590  148.39980   58.22460
 4978.50000   76.71920  148.39980   58.30630
 4979.00000   77.81260  147.69920   59.08570
 4979.50000   77.99130  147.27880   59.86520
 4980.00000   76.15690  146.37790   60.64460
 4980.50000   74.06720  143.97550   61.30070
 4981.00000   71.97750  141.58400   60.54640
 4981.50000   70.00270  138.20800   59.17920
 4982.00000   69.58300  134.80660   57.13250
 4982.50000   70.07190  134.80660   55.54770
 4983.00000   70.73940  135.64740   55.19550
 4983.50000   71.91110  136.06780   55.05720
 4984.00000   72.02330  135.64740   57.10240
 4984.50000   71.61260  136.48820   57.20710
 4985.00000   71.33690  137.54550   58.06830
 4985.50000   72.44420  138.69210   59.43600
 4986.00000   73.43190  139.83860   59.91010
 4986.50000   74.42480  140.98520   58.80610
 4987.00000   75.05980  141.67320   57.96220
 4987.50000   75.48450  141.16870   57.40330
 4988.00000   75.90920  140.27190   58.36670
 4988.50000   75.58890  139.99150   58.81910
 4989.00000   74.81030  138.16990   59.27140
 4989.50000   74.14750  136.06780   59.85850
 4990.00000   74.23210  134.94660   61.09190
 4990.50000   74.31670  134.38620   62.32540
 4991.00000   74.35310  134.10570   61.50280
 4991.50000   74.56860  133.68530   59.22060
 4992.00000   75.02120  133.68530   58.95970
 4992.50000   75.43170  134.10570   58.90740
 4993.00000   75.85980  136.37700   58.69880
 4993.50000   76.63690  138.64820   59.37350
 4994.00000   77.48760  140.91940   61.32480
 4994.50000   78.33830  143.19060   61.58970
 4995.00000   79.13730  145.46180   60.71230
 4995.50000   79.24560  147.27880   60.71230
 4996.00000   79.09940  147.27880   62.98520
 4996.50000   79.08050  147.27880   67.12980
 4997.00000   79.04040  147.27880   66.12710
 4997.50000   79.03710  147.67770   65.72600
 4998.00000   79.03390  148.10880   64.52270
 4998.50000   79.03060  148.54000   62.76790
 4999.00000   78.99360  148.82020   61.31390
 4999.50000   79.14050  148.96040   61.31390
 5000.00000   79.59570  149.10060   62.31610
 5000.50000   79.69550  149.24060   62.05980
 5001.00000   78.42130  147.12390   60.83760
 5001.50000   77.11980  145.00720   60.05800
 5002.00000   75.62870  142.89050   61.85340
 5002.50000   75.03890  140.77380   63.04470
 5003.00000   74.98540  138.98360   61.76170
 5003.50000   75.06840  137.36810   59.55360
 5004.00000   73.22650  135.10470   58.46830
 5004.50000   72.75940  133.44040   57.95950
 5005.00000   72.20160  132.15210   57.57950
 5005.50000   71.46480  132.25480   57.47410
 5006.00000   71.70180  132.70470   58.29600
 5006.50000   73.08680  134.01530   61.26920
