~Version ---------------------------------------------------
VERS.   2.0 : CWLS log ASCII Standard -VERSION 2.0
WRAP.    NO : One line per depth step
DLM . SPACE : Column Data Section Delimiter
~Well ------------------------------------------------------
STRT .FT                1180.0 : START DEPTH
STOP .FT                5251.0 : STOP DEPTH
STEP .FT                   0.5 : STEP
NULL .                -9999.25 : NULL VALUE
COMP .                         : COMPANY
WELL .                         : WELL
FLD  .                         : FIELD
LOC  .                         : LOCATION
PROV .                         : PROVINCE
CNTY .                         : COUNTY
STAT .                         : STATE
CTRY .                         : COUNTRY
SRVC .                         : SERVICE COMPANY
DATE .                         : DATE
UWI  .                         : UNIQUE WELL ID
API  .                         : API NUMBER
SLAT .WGS84 3.6007186885056015 : SURFACE LATITUDE
SLON .WGS84 4.6236815450818085 : SURFACE LONGITUDE
DATUM.F                    nan : DEPTH DATUM ELEV
~Curve Information -----------------------------------------
DEPT .FT    : 
DTCO .US/F  : DELTA-T COMPRESSIONAL
DTSM .US/F  : DELTA-T SHEAR
HSGRS.GAPI  : HNGS STANDARD GAMMA RAY FROM SONIC LOG
~Params ----------------------------------------------------
~Other -----------------------------------------------------
~ASCII -----------------------------------------------------
# ...
 3850.00000   85.34610  162.93340  110.89890
 3850.50000   89.03660  167.38250  114.03420
 3851.00000   89.78500  171.47540  119.39120
 3851.50000   90.05690  173.39780  123.86050
 3852.00000   92.11030  178.30370  128.52750
 3852.50000   92.75140  180.07330  131.21410
 3853.00000   93.26390  181.66540  127.35280
 3853.50000   93.38510  181.08630  123.73570
 3854.00000   93.39820  178.98860  119.92120
 3854.50000   92.66520  176.68620  120.51960
 3855.00000   91.93210  174.27740  122.58320
 3855.50000   91.81510  173.03370  123.83300
 3856.00000   91.58150  169.24740  124.17930
 3856.50000   89.46500  166.36040  122.90510
 3857.00000   88.10330  164.16180  121.29080
 3857.50000   87.96470  163.21070  120.75020
 3858.00000   86.26270  158.95440  120.87890
 3858.50000   84.79510  157.41980  118.91110
 3859.00000   84.48610  156.99620  118.02000
 3859.50000   84.36590  156.16170  115.48410
 3860.00000   83.81540  153.47910  115.81670
 3860.50000   83.15760  151.13870  111.94500
 3861.00000   82.72580  148.45170  111.48450
 3861.50000   82.33300  147.68490  110.21980
 3862.00000   81.25520  146.38650  109.69630
 3862.50000   80.08370  143.52010  103.33300
 3863.00000   78.97930  141.84850   96.26870
 3863.50000   78.87030  140.40950   88.90410
 3864.00000   78.10840  139.55200   86.27630
 3864.50000   77.36610  137.39960   84.60740
 3865.00000   76.81350  136.82100   83.21110
 3865.50000   76.63700  138.43940   83.71400
 3866.00000   77.02730  140.05780   87.18170
 3866.50000   78.74500  142.15980   90.64940
 3867.00000   80.21040  145.66340   94.11710
 3867.50000   81.21770  149.02670   96.75100
 3868.00000   81.87240  150.84850  103.11510
 3868.50000   83.27750  153.65120  102.73140
 3869.00000   84.68260  157.03620  100.52170
 3869.50000   85.74910  160.42120  100.65240
 3870.00000   86.54650  163.22230  108.98350
 3870.50000   87.26740  164.86220  116.88530
 3871.00000   87.60520  165.28260  123.08390
 3871.50000   87.84480  165.28260  122.08110
 3872.00000   87.84190  164.26790  123.92620
 3872.50000   87.34740  162.57680  125.83170
 3873.00000   86.67710  161.06480  127.26550
 3873.50000   86.00680  160.50560  128.69930
 3874.00000   85.33650  159.85000  129.10040
 3874.50000   85.06340  159.15560  126.07960
 3875.00000   84.09460  157.25670  121.37920
 3875.50000   83.12580  155.25970  116.67880
 3876.00000   82.80080  153.26280  112.73660
 3876.50000   82.60770  151.66510  111.17300
 3877.00000   81.82950  150.26690  109.49450
 3877.50000   81.05130  148.86870  106.71060
 3878.00000   80.72100  147.47050  102.29110
 3878.50000   80.81710  146.07240   99.17940
 3879.00000   80.73350  144.67420   97.71430
 3879.50000   80.56130  143.94870   98.82500
 3880.00000   80.46270  145.08920   98.05240
 3880.50000   80.86540  146.15460   95.22190
 3881.00000   81.33720  147.43280   94.13490
 3881.50000   81.86630  148.76410   94.59330
 3882.00000   82.12650  150.09540   94.06500
 3882.50000   82.29420  151.20250   94.80470
 3883.00000   82.74040  152.98920  102.41350
 3883.50000   83.65760  155.72190  108.02890
 3884.00000   83.96410  156.26230  110.95560
 3884.50000   83.95140  156.80260  112.56670
 3885.00000   85.04020  157.25800  115.49380
 3885.50000   85.29040  157.95920  119.76510
 3886.00000   85.49890  159.08530  121.92040
 3886.50000   85.93440  159.37940  122.49940
 3887.00000   87.00000  159.09320  123.97340
 3887.50000   86.34570  157.39670  125.44740
 3888.00000   85.88600  155.62730  126.33630
 3888.50000   85.81000  154.90760  126.04990
 3889.00000   84.77560  152.98920  124.73370
 3889.50000   83.36940  149.06570  119.86930
 3890.00000   81.96310  146.64950  110.40050
 3890.50000   81.38900  144.61010  100.93170
 3891.00000   80.52930  142.16320   91.46290
 3891.50000   79.96040  140.00860   85.38050
 3892.00000   79.46350  138.39770   84.97940
 3892.50000   78.43750  138.70120   84.97940
 3893.00000   78.51340  139.68090   87.38600
 3893.50000   79.05060  140.42790   82.82350
 3894.00000   79.58770  141.17490   72.87960
 3894.50000   80.19860  141.92190   64.72390
 3895.00000   80.73890  142.66890   65.92720
 3895.50000   81.61940  143.41600   79.08830
 3896.00000   81.69310  143.93140   87.38600
 3896.50000   81.69880  144.44690   86.58380
 3897.00000   81.65180  144.96230   77.85990
 3897.50000   81.57670  145.29820   69.13600
 3898.00000   81.50160  145.36490   68.33380
 3898.50000   81.03560  144.57890   70.74040
 3899.00000   80.42060  143.78850   77.53830
 3899.50000   79.70500  143.04860   84.33620
 3900.00000   79.04000  143.16380   91.13410
 3900.50000   79.18490  143.90040   95.00530
 3901.00000   79.50360  145.72600   92.70480
 3901.50000   79.82230  147.05120   85.36830
 3902.00000   80.87650  148.34140   78.99460
 3902.50000   81.60060  151.28330   84.34480
 3903.00000   82.21580  154.66840   97.22900
 3903.50000   82.68680  156.80390  112.08790
 3904.00000   83.50360  155.59060  120.22160
 3904.50000   84.58520  156.87770  122.72300
 3905.00000   85.27220  157.71910  125.22430
 3905.50000   85.44750  157.50890  125.94050
 3906.00000   85.03710  155.72220  127.79500
 3906.50000   83.68020  152.77930  128.83170
 3907.00000   83.33470  150.46700  128.78160
 3907.50000   83.17710  148.05070  124.29070
 3908.00000   81.18480  146.31040  105.07040
 3908.50000   80.26630  144.13630   85.85010
 3909.00000   80.04890  143.14090   70.27430
 3909.50000   79.53770  142.25430   75.25350
 3910.00000   78.25230  138.52220   86.68650
 3910.50000   78.25100  137.31660   97.02490
 3911.00000   78.37870  136.29290  104.43270
 3911.50000   78.70150  136.86680   99.69940
 3912.00000   79.64910  139.22110   89.26980
 3912.50000   80.36890  139.32620   81.31940
 3913.00000   80.86050  138.39670   75.90460
 3913.50000   80.76270  138.11820   72.48100
 3914.00000   79.81060  140.25730   66.76940
 3914.50000   78.68180  141.37230   60.56890
 3915.00000   77.55730  140.81970   56.65180
 3915.50000   76.64220  140.55860   58.70820
 3916.00000   74.42080  140.29750   63.31190
 3916.50000   74.49170  140.08700   65.46190
 3917.00000   74.56270  140.07880   61.76580
 3917.50000   74.97040  140.07070   57.03330
 3918.00000   75.42650  140.74520   53.62020
 3918.50000   76.12400  142.05890   60.75680
 3919.00000   76.45870  142.72360   66.93810
 3919.50000   77.54290  143.07150   73.11940
 3920.00000   80.25340  143.51440   77.76370
 3920.50000   81.97240  143.56100   82.09690
 3921.00000   81.64750  143.56100   88.23150
 3921.50000   81.32260  143.14060   92.44990
 3922.00000   80.99770  141.62710   90.71880
 3922.50000   80.79600  140.75830   89.97450
 3923.00000   80.67500  140.75830   89.59210
 3923.50000   79.73660  140.89830   87.78710
 3924.00000   78.97740  139.65270   78.34460
 3924.50000   78.96810  136.92750   69.92840
 3925.00000   78.86800  134.20240   65.62570
 3925.50000   77.45800  134.88120   63.77130
 3926.00000   76.03830  135.15270   65.06340
 3926.50000   75.86720  134.03170   61.76580
 3927.00000   75.55250  133.33090   57.68480
 3927.50000   74.90900  133.19090   53.92820
 3928.00000   74.65160  133.33090   49.89610
 3928.50000   74.65160  133.75130   51.02080
 3929.00000   75.22950  134.31190   53.04190
 3929.50000   75.95190  135.78800   55.80510
 3930.00000   77.30090  137.56330   57.44870
 3930.50000   78.74120  139.09560   58.94810
 3931.00000   80.18150  142.39740   61.27500
 3931.50000   81.62180  145.10250   65.67650
 3932.00000   81.81760  145.66310   71.91810
 3932.50000   82.33540  146.34670   76.85400
 3933.00000   82.78640  147.25220   80.36680
 3933.50000   83.00320  148.15780   88.14800
 3934.00000   83.15330  148.86400   95.92920
 3934.50000   82.55840  148.58290  100.60140
 3935.00000   81.31030  147.19720   93.18010
 3935.50000   80.31020  145.56410   84.93770
 3936.00000   79.45750  143.93100   76.69540
 3936.50000   78.57650  141.24350   74.26720
 3937.00000   77.89810  139.65580   73.33490
 3937.50000   77.72010  140.02850   69.94130
 3938.00000   77.77380  140.30940   66.31530
 3938.50000   77.95610  140.61810   70.80800
