~Version ---------------------------------------------------
VERS.   2.0 : CWLS log ASCII Standard -VERSION 2.0
WRAP.    NO : One line per depth step
DLM . SPACE : Column Data Section Delimiter
~Well ------------------------------------------------------
STRT .FT                1180.0 : START DEPTH
STOP .FT                5251.0 : STOP DEPTH
STEP .FT                   0.5 : STEP
NULL .                -9999.25 : NULL VALUE
COMP .                         : COMPANY
WELL .                         : WELL
FLD  .                         : FIELD
LOC  .                         : LOCATION
PROV .                         : PROVINCE
CNTY .                         : COUNTY
STAT .                         : STATE
CTRY .                         : COUNTRY
SRVC .                         : SERVICE COMPANY
DATE .                         : DATE
UWI  .                         : UNIQUE WELL ID
API  .                         : API NUMBER
SLAT .WGS84 3.6007186885056015 : SURFACE LATITUDE
SLON .WGS84 4.6236815450818085 : SURFACE LONGITUDE
DATUM.F                    nan : DEPTH DATUM ELEV
~Curve Information -----------------------------------------
DEPT .FT    : 
DTCO .US/F  : DELTA-T COMPRESSIONAL
DTSM .US/F  : DELTA-T SHEAR
HSGRS.GAPI  : HNGS STANDARD GAMMA RAY FROM SONIC LOG
~Params ----------------------------------------------------
~Other -----------------------------------------------------
~ASCII -----------------------------------------------------
# ...
 3049.00000   57.34070  117.97470   37.85030
 3049.50000   57.45970  117.97470   45.11020
 3050.00000   57.14170  128.76510   58.24620
 3050.50000   56.68890  136.19230   71.50500
 3051.00000   56.23600  138.29440   84.94810
 3051.50000   55.78320  151.20710  104.28120
 3052.00000   55.37460  162.61840  119.37370
 3052.50000   56.84830  171.08660  121.87270
 3053.00000   60.15660  171.78750  123.09460
 3053.50000   59.83440  172.78840  124.35830
 3054.00000   59.17540  173.46910  126.19270
 3054.50000   58.67840  172.16110  128.38560
 3055.00000   58.10870  171.78750  126.44310
 3055.50000   57.69410  172.34790  124.14160
 3056.00000   57.59860  170.66620  115.74450
 3056.50000   58.02960  166.46210  110.42200
 3057.00000   58.74770  165.76150  106.71060
 3057.50000   58.82650  165.76150  109.13830
 3058.00000   56.02330  167.44310  113.05640
 3058.50000   57.35700  168.14370  115.31260
 3059.00000   57.96450  168.00370  118.92250
 3059.50000   57.68830  167.58330  118.54640
 3060.00000   57.03440  167.44310  115.19560
 3060.50000   56.19470  167.44320  111.10100
 3061.00000   56.03170  167.44320  109.22730
 3061.50000   56.25640  163.50090  111.41530
 3062.00000   55.56000  159.09850  114.05910
 3062.50000   55.50850  157.31670  112.85580
 3063.00000   55.49970  156.15560  104.03170
 3063.50000   55.42420  154.33370   95.20750
 3064.00000   55.36660  154.05350   96.67650
 3064.50000   55.34380  154.19370  101.01340
 3065.00000   55.21460  155.80530  104.78370
 3065.50000   55.14300  158.81830  109.55300
 3066.00000   55.68600  160.63990  112.27370
 3066.50000   56.41370  164.80410  114.79860
 3067.00000   56.81330  168.48780  116.44870
 3067.50000   56.75930  169.04820  118.09890
 3068.00000   56.00790  171.71090  119.65460
 3068.50000   54.63340  173.39250  120.04950
 3069.00000   55.20350  173.81290  120.17060
 3069.50000   54.57530  174.51350  121.77840
 3070.00000   53.40500  175.76210  122.75010
 3070.50000   53.68360  177.48200  124.23650
 3071.00000   53.61090  178.99810  125.37380
 3071.50000   53.33600  183.55250  123.60320
 3072.00000   53.93500  191.61040  121.28750
 3072.50000   54.30280  191.61040  118.18330
 3073.00000   54.80370  191.89070  120.66200
 3073.50000   55.05040  192.17090  123.66920
 3074.00000   53.86880  192.31110  126.18060
 3074.50000   53.66030  195.39410  121.97220
 3075.00000   54.60410  199.87850  120.52400
 3075.50000   54.61300  199.35300  119.87830
 3076.00000   54.51410  197.68890  121.68000
 3076.50000   54.65250  196.93560  121.31900
 3077.00000   55.05820  196.23490  120.51680
 3077.50000   55.05040  196.09480  119.71460
 3078.00000   64.04690  196.93560  118.67180
 3078.50000   93.73710  197.77640  118.67180
 3079.00000   97.66350  198.33700  120.11210
 3079.50000   97.24350  197.91660  121.84410
 3080.00000   96.80240  196.62530  122.88330
 3080.50000   96.36130  195.47420  123.27130
 3081.00000   95.92010  194.55330  123.05650
 3081.50000   95.85590  194.27300  119.63740
 3082.00000   95.83090  193.29210  120.42240
 3082.50000   95.70800  192.03080  121.65160
 3083.00000   95.26820  190.62950  122.88070
 3083.50000   94.94660  189.46660  121.82150
 3084.00000   94.24970  187.15540  121.06660
 3084.50000   93.94130  184.84430  120.75570
 3085.00000   94.03090  182.53320  120.94200
 3085.50000   94.21130  180.22210  124.33980
 3086.00000   93.76880  177.91090  125.32930
 3086.50000   93.34320  175.59980  124.03830
 3087.00000   92.17020  173.28870  122.74900
 3087.50000   90.11410  170.14930  122.48040
 3088.00000   88.69020  167.64690  120.70980
 3088.50000   88.59090  165.14440  114.91870
 3089.00000   86.45950  162.74200  109.90030
 3089.50000   85.34750  160.68010  107.51640
 3090.00000   85.11070  158.81830  108.20910
 3090.50000   84.64330  156.30110  108.39640
 3091.00000   84.10080  156.02550  107.36970
 3091.50000   84.38060  156.31200  108.62460
 3092.00000   84.93890  157.01750  111.73350
 3092.50000   84.98720  156.88210  114.48700
 3093.00000   84.94310  156.37990  116.34320
 3093.50000   84.73740  155.94710  116.38540
 3094.00000   84.39460  155.35660  117.42730
 3094.50000   84.05190  154.66100  117.26680
 3095.00000   83.98330  154.24620  114.43870
 3095.50000   84.03250  154.53120  110.90430
 3096.00000   83.92760  154.81760  106.86140
 3096.50000   83.75130  155.10280  104.66630
 3097.00000   83.57990  155.10820  106.81560
 3097.50000   83.27520  155.11300  110.64800
 3098.00000   83.07840  154.48750  114.52180
 3098.50000   82.88900  153.86270  115.06070
 3099.00000   83.05750  153.58710  111.35060
 3099.50000   83.30250  153.87260  107.64050
 3100.00000   84.71940  155.27970  107.03880
 3100.50000   85.01520  158.57610  107.32660
 3101.00000   85.98520  161.87250  106.36340
 3101.50000   87.06850  164.64950  103.69500
 3102.00000   88.01860  167.29660  103.98840
 3102.50000   88.43640  167.57680  112.24640
 3103.00000   89.24080  167.57680  123.28140
 3103.50000   89.54970  167.57680  125.59430
 3104.00000   89.61640  167.57680  124.85790
 3104.50000   89.71880  168.13740  122.25880
 3105.00000   90.00230  168.41760  121.74920
 3105.50000   90.15000  167.99720  122.51230
 3106.00000   90.15980  167.71700  123.12100
 3106.50000   89.82000  168.69800  124.71140
 3107.00000   89.24180  170.65990  124.89790
 3107.50000   88.75360  170.16940  124.08340
 3108.00000   85.31590  169.67890  120.38270
 3108.50000   77.72810  169.18850  117.08490
 3109.00000   70.48950  168.69800  114.44350
 3109.50000   60.43830  168.27760  115.80520
 3110.00000   56.26550  167.99720  118.06890
 3110.50000   56.77730  168.51530  118.67060
 3111.00000   56.48440  168.98670  117.27960
 3111.50000   55.91330  168.57070  118.43450
 3112.00000   55.30180  167.90190  118.55870
 3112.50000   56.12420  167.27570  118.91340
 3113.00000   56.57780  166.90160  117.76930
 3113.50000   56.65400  166.48500  117.79320
 3114.00000   56.59400  165.86720  117.81830
 3114.50000   56.42320  164.76530  119.68810
 3115.00000   56.34260  164.26580  120.07440
 3115.50000   56.26190  164.27130  119.34740
 3116.00000   56.14920  164.83730  116.71520
 3116.50000   56.08190  169.04050  115.06070
 3117.00000   55.97420  173.94330  115.06070
 3117.50000   55.88040  178.48310  116.63340
 3118.00000   55.77370  184.18060  117.55670
 3118.50000   55.66310  185.05310  119.68350
 3119.00000   55.57500  186.85090  122.11120
 3119.50000   55.52320  186.85580  122.95390
 3120.00000   56.61980  186.57940  123.44920
 3120.50000   57.57600  185.66030  123.96000
 3121.00000   57.72240  164.05620  123.96570
 3121.50000   57.85580  145.11640  121.62870
 3122.00000   57.72270  178.75920  117.35450
 3122.50000   57.44990  153.81540  115.27530
 3123.00000   55.52130  147.16090  114.96040
 3123.50000   53.62850  112.19030  114.09670
 3124.00000   53.81450  140.79000  113.95770
 3124.50000   54.97340  121.02700  114.65570
 3125.00000   55.05970   89.48730  119.14100
 3125.50000   53.76990   92.09930  122.07990
 3126.00000   53.68290   95.51720  123.08260
 3126.50000   53.61580   95.79980  123.28320
 3127.00000   53.48450   96.78260  121.87930
 3127.50000   53.35310   97.06520  121.07720
 3128.00000   53.22180   94.82480  119.02710
 3128.50000   52.58800   94.96730  116.46460
 3129.00000   51.44830  126.10670  114.45910
 3129.50000   50.44000  154.73040  109.04430
 3130.00000   50.47540  147.29250   94.50470
 3130.50000   50.54620  135.36110   79.96510
 3131.00000   51.38070  125.04700   65.42550
 3131.50000   -9999.25  119.72170   50.88600
 3132.00000   -9999.25  115.18130   51.28710
 3132.50000   -9999.25  115.08130   60.38700
 3133.00000   -9999.25  115.32150   73.54810
 3133.50000   -9999.25  116.89100   93.92540
 3134.00000   -9999.25  120.92690  110.26340
 3134.50000   -9999.25  121.06710  117.81450
 3135.00000   -9999.25  121.90790  114.18040
 3135.50000   -9999.25  133.39930  109.74730
 3136.00000   -9999.25  133.39930  108.45860
 3136.50000   -9999.25  131.71760  107.93530
 3137.00000   -9999.25  130.31620  106.19970
 3137.50000   -9999.25  128.91470   99.97050
