~Version ---------------------------------------------------
VERS.   2.0 : CWLS log ASCII Standard -VERSION 2.0
WRAP.    NO : One line per depth step
DLM . SPACE : Column Data Section Delimiter
~Well ------------------------------------------------------
STRT .FT                1180.0 : START DEPTH
STOP .FT                5251.0 : STOP DEPTH
STEP .FT                   0.5 : STEP
NULL .                -9999.25 : NULL VALUE
COMP .                         : COMPANY
WELL .                         : WELL
FLD  .                         : FIELD
LOC  .                         : LOCATION
PROV .                         : PROVINCE
CNTY .                         : COUNTY
STAT .                         : STATE
CTRY .                         : COUNTRY
SRVC .                         : SERVICE COMPANY
DATE .                         : DATE
UWI  .                         : UNIQUE WELL ID
API  .                         : API NUMBER
SLAT .WGS84 3.6007186885056015 : SURFACE LATITUDE
SLON .WGS84 4.6236815450818085 : SURFACE LONGITUDE
DATUM.F                    nan : DEPTH DATUM ELEV
~Curve Information -----------------------------------------
DEPT .FT    : 
DTCO .US/F  : DELTA-T COMPRESSIONAL
DTSM .US/F  : DELTA-T SHEAR
HSGRS.GAPI  : HNGS STANDARD GAMMA RAY FROM SONIC LOG
~Params ----------------------------------------------------
~Other -----------------------------------------------------
~ASCII -----------------------------------------------------
# ...
 4384.00000   83.99590  159.71860  124.58900
 4384.50000   84.40640  160.98530  125.54060
 4385.00000   84.84930  160.79730  121.93490
 4385.50000   84.91510  160.18910  118.89960
 4386.00000   84.83680  159.87380  117.06740
 4386.50000   84.71710  159.55850  118.72910
 4387.00000   84.78910  159.24310  119.87510
 4387.50000   84.64800  158.98300  119.87510
 4388.00000   84.50690  158.80570  120.35260
 4388.50000   84.30650  158.81870  121.73790
 4389.00000   84.51280  159.42240  123.00780
 4389.50000   84.84900  159.81690  123.88610
 4390.00000   85.17300  161.34840  122.45290
 4390.50000   85.85600  163.83070  120.68440
 4391.00000   86.70440  166.48440  120.67730
 4391.50000   87.17720  167.58830  122.39220
 4392.00000   87.62900  169.49070  122.42140
 4392.50000   88.07820  171.64540  121.26640
 4393.00000   88.68090  172.48620  120.89320
 4393.50000   88.98660  172.36890  121.74850
 4394.00000   89.15790  172.28810  123.92590
 4394.50000   89.10150  172.17090  125.62900
 4395.00000   88.66870  170.64690  126.12950
 4395.50000   88.45400  168.41870  124.33730
 4396.00000   88.13950  166.02230  122.36780
 4396.50000   86.67980  164.55090  121.23630
 4397.00000   83.49090  158.66510  121.03390
 4397.50000   81.62770  153.62010  118.81220
 4398.00000   80.03720  151.71460  112.63590
 4398.50000   79.88990  152.06460  105.08450
 4399.00000   79.19010  152.83530   96.60210
 4399.50000   79.11650  154.30010   93.73760
 4400.00000   80.12040  155.87070   99.21220
 4400.50000   80.51080  156.35280  107.32120
 4401.00000   82.07230  159.92630  117.96450
 4401.50000   83.92890  164.07040  122.32180
 4402.00000   85.40560  167.32520  124.80360
 4402.50000   86.21640  168.33460  126.49320
 4403.00000   87.49670  171.32770  124.88880
 4403.50000   88.10270  172.09400  124.52230
 4404.00000   88.00440  172.25860  124.15570
 4404.50000   87.84070  171.94220  123.78920
 4405.00000   88.08330  171.09850  123.38720
 4405.50000   88.58150  171.94470  125.53430
 4406.00000   88.65510  172.37570  123.35250
 4406.50000   88.64880  172.38690  118.32080
 4407.00000   88.60590  171.73340  113.27120
 4407.50000   88.39730  170.21110  114.13270
 4408.00000   85.66680  168.16010  117.29670
 4408.50000   81.77200  164.55130  118.82400
 4409.00000   80.21400  157.39090  112.90600
 4409.50000   80.03720  152.07630  103.98450
 4410.00000   76.90480  147.62920   95.06290
 4410.50000   76.05970  145.60070   86.14140
 4411.00000   76.44710  144.65330   82.37230
 4411.50000   76.77210  145.82270   87.28720
 4412.00000   77.12340  148.42560   95.56340
 4412.50000   78.16850  151.35300  103.44580
 4413.00000   80.73270  158.87530  109.75260
 4413.50000   82.17540  161.50290  115.67760
 4414.00000   83.83280  164.23930  120.07560
 4414.50000   85.73590  172.78100  121.88680
 4415.00000   88.31850  179.87360  123.64930
 4415.50000   90.11330  186.06790  125.41180
 4416.00000   91.05820  188.54560  125.71460
 4416.50000   91.97780  190.41070  124.78850
 4417.00000   93.07560  192.19310  122.42930
 4417.50000   94.85240  192.37090  120.33150
 4418.00000   95.87090  192.33050  118.87230
 4418.50000   95.81000  191.75440  118.28750
 4419.00000   95.38550  185.85980  117.04560
 4419.50000   93.77430  180.99610  116.51270
 4420.00000   90.25710  173.65630  115.29820
 4420.50000   87.86940  166.51630  114.25970
 4421.00000   86.51900  161.76540  113.17110
 4421.50000   83.66480  160.42930  110.10380
 4422.00000   81.46610  157.05580  105.98700
 4422.50000   80.62640  155.14700  101.85070
 4423.00000   80.62640  156.14240  100.82280
 4423.50000   81.02400  159.08530  108.26470
 4424.00000   81.93510  161.64550  116.64470
 4424.50000   83.14280  165.39110  120.27620
 4425.00000   84.35060  167.32410  121.07840
 4425.50000   85.68570  169.17520  120.55590
 4426.00000   86.48660  170.52040  119.90270
 4426.50000   86.75690  171.27730  119.42470
 4427.00000   87.30310  172.08450  121.80690
 4427.50000   87.69650  172.42940  124.19530
 4428.00000   78.85580  172.99010  126.32940
 4428.50000   56.56750  173.97110  125.68220
 4429.00000   52.10980  174.89060  123.20240
 4429.50000   53.25640  176.13840  117.53660
 4430.00000   53.38180  179.28320  118.20720
 4430.50000   52.91750  183.04870  121.81080
 4431.00000   52.89150  184.82230  125.72840
 4431.50000   55.05610  186.91090  125.66780
 4432.00000   59.08300  188.44210  120.53830
 4432.50000   64.86480  190.36700  118.71960
 4433.00000   70.09540  191.06770  120.44990
 4433.50000   74.95850  191.06770  122.28170
 4434.00000   79.82170  190.78740  122.28170
 4434.50000   84.68480  188.25460  118.34600
 4435.00000   89.23890  185.26360  114.80430
 4435.50000   93.24060  182.21290  111.40180
 4436.00000   93.24060  178.63430  110.56670
 4436.50000   91.98320  175.16590  111.02910
 4437.00000   89.92080  170.64640  112.10760
 4437.50000   87.05340  161.99630  111.41320
 4438.00000   85.87490  158.97880  107.14570
 4438.50000   85.69070  157.12300  102.87820
 4439.00000   83.06110  156.62660   99.23130
 4439.50000   81.72550  155.13810  101.35380
 4440.00000   80.57260  154.07140  103.59940
 4440.50000   79.68740  154.77200  105.84500
 4441.00000   79.82950  156.59470  108.40820
 4441.50000   80.55480  158.69870  112.00350
 4442.00000   81.82110  162.23840  114.86580
 4442.50000   83.40450  166.51610  116.69000
 4443.00000   84.77750  170.33140  118.14930
 4443.50000   85.02780  171.48750  117.87220
 4444.00000   86.35370  174.20790  117.84740
 4444.50000   88.56340  177.55060  116.30530
 4445.00000   89.52410  179.68560  115.46300
 4445.50000   89.95750  180.42870  116.36540
 4446.00000   90.63720  180.79830  117.86960
 4446.50000   90.96480  181.20520  117.76210
 4447.00000   91.17120  180.57410  117.86960
 4447.50000   91.37080  179.58950  118.19420
 4448.00000   91.44990  179.21270  118.79360
 4448.50000   91.43840  176.11210  119.97550
 4449.00000   90.22070  172.53850  121.15740
 4449.50000   89.77880  167.91020  122.83320
 4450.00000   86.83980  163.78040  120.72940
 4450.50000   87.01660  165.58540  117.31810
 4451.00000   83.93900  167.87610  112.00350
 4451.50000   81.24880  170.36470  108.74840
 4452.00000   78.55850  172.93880  105.56330
 4452.50000   78.25130  175.09190  104.59360
 4453.00000   78.32490  180.59230  103.62390
 4453.50000   79.77180  187.42410  104.64250
 4454.00000   81.21860  178.78220  107.17230
 4454.50000   82.44980  162.89980  110.04810
 4455.00000   82.70760  165.00190  111.08960
 4455.50000   85.94850  165.76740  113.80840
 4456.00000   88.37920  167.49330  119.91650
 4456.50000   89.29410  167.96620  125.23980
 4457.00000   89.57460  168.43920  129.84520
 4457.50000   89.28620  170.32710  130.77030
 4458.00000   88.23770  184.38770  130.69560
 4458.50000   87.04790  182.51920  128.54880
 4459.00000   85.85810  187.33070  126.44310
 4459.50000   85.18340  167.94480  124.93890
 4460.00000   84.50870  164.07750  122.95980
 4460.50000   84.35760  161.16440  121.27890
 4461.00000   85.21380  158.66480  122.83990
 4461.50000   85.72760  156.34460  125.63080
 4462.00000   84.59070  155.22280  128.42180
 4462.50000   84.43860  152.58090  131.28880
 4463.00000   82.89180  147.88130  131.26770
 4463.50000   75.60100  143.10450  126.82470
 4464.00000   52.80110  138.01880  114.48520
 4464.50000   58.66430  132.93310  100.83960
 4465.00000   58.84100  131.91600   87.97100
 4465.50000   73.01680  135.28680   77.10780
 4466.00000   87.19260  138.65760   72.26750
 4466.50000   89.19700  142.02840   77.72280
 4467.00000   86.62440  143.88910   91.59740
 4467.50000   87.12490  146.04740  110.49940
 4468.00000   88.67440  151.47740  124.11170
 4468.50000   88.18600  159.40060  132.12850
 4469.00000   88.37880  162.55370  133.51240
 4469.50000   88.26800  164.42870  132.06690
 4470.00000   88.64220  165.44510  130.26000
 4470.50000   88.99390  165.84300  129.38250
 4471.00000   89.14690  165.14240  130.20340
 4471.50000   88.90670  163.74090  131.17440
 4472.00000   87.37520  163.60070  132.91080
 4472.50000   87.22500  162.20890  131.43740
