~Version ---------------------------------------------------
VERS.   2.0 : CWLS log ASCII Standard -VERSION 2.0
WRAP.    NO : One line per depth step
DLM . SPACE : Column Data Section Delimiter
~Well ------------------------------------------------------
STRT .FT                1180.0 : START DEPTH
STOP .FT                5251.0 : STOP DEPTH
STEP .FT                   0.5 : STEP
NULL .                -9999.25 : NULL VALUE
COMP .                         : COMPANY
WELL .                         : WELL
FLD  .                         : FIELD
LOC  .                         : LOCATION
PROV .                         : PROVINCE
CNTY .                         : COUNTY
STAT .                         : STATE
CTRY .                         : COUNTRY
SRVC .                         : SERVICE COMPANY
DATE .                         : DATE
UWI  .                         : UNIQUE WELL ID
API  .                         : API NUMBER
SLAT .WGS84 3.6007186885056015 : SURFACE LATITUDE
SLON .WGS84 4.6236815450818085 : SURFACE LONGITUDE
DATUM.F                    nan : DEPTH DATUM ELEV
~Curve Information -----------------------------------------
DEPT .FT    : 
DTCO .US/F  : DELTA-T COMPRESSIONAL
DTSM .US/F  : DELTA-T SHEAR
HSGRS.GAPI  : HNGS STANDARD GAMMA RAY FROM SONIC LOG
~Params ----------------------------------------------------
~Other -----------------------------------------------------
~ASCII -----------------------------------------------------
# ...
 1447.00000   52.90170  112.51070   65.07420
 1447.50000   52.34740  109.84170   73.49720
 1448.00000   54.67650  114.18590   80.35190
 1448.50000   61.23540  129.12060   86.04680
 1449.00000   68.04080  141.06890   82.24840
 1449.50000   68.19070  147.25840   71.28450
 1450.00000   63.69270  143.15420   60.32060
 1450.50000   63.52610  126.13760   49.35670
 1451.00000   62.89100  118.08170   46.13080
 1451.50000   60.90220  112.26600   43.86270
 1452.00000   60.00920  121.61320   42.23400
 1452.50000   59.02610  125.81740   40.40730
 1453.00000   57.15710   87.55980   39.95600
 1453.50000   56.09680  111.26630   42.21220
 1454.00000   55.00740  117.96950   48.88880
 1454.50000   53.83820  129.04040   59.59470
 1455.00000   53.37110  129.04040   71.71550
 1455.50000   53.27910  128.62000   77.45520
 1456.00000   53.39170  124.78030   71.54040
 1456.50000   53.94700  121.19280   54.90900
 1457.00000   53.55870  121.05260   43.57080
 1457.50000   52.61420  120.63220   35.84670
 1458.00000   55.19640  117.70490   32.72470
 1458.50000   53.84700  110.77580   31.47580
 1459.00000   51.69790  106.47840   38.60230
 1459.50000   53.02470  112.19590   52.54050
 1460.00000   53.51030  113.62540   63.36480
 1460.50000   54.75500  112.50410   70.45810
 1461.00000   58.15340  111.80350   63.93770
 1461.50000   57.70300  112.50410   57.70470
 1462.00000   57.16960  124.46260   50.05380
 1462.50000   56.64310  132.54400   45.07360
 1463.00000   56.12690  134.36560   44.07760
 1463.50000   55.62230  138.70990   51.12770
 1464.00000   55.14480  138.14930   67.48230
 1464.50000   54.66720  136.24350   79.97560
 1465.00000   53.16160  131.28270   86.82140
 1465.50000   49.94870  129.52090   73.64840
 1466.00000   50.04880  127.91940   58.16300
 1466.50000   51.87900  115.52700   43.88280
 1467.00000   53.03510   98.07010   29.60260
 1467.50000   53.44720   97.64970   28.30620
 1468.00000   56.08490   95.26720   32.90800
 1468.50000   58.72260   84.33650   39.50480
 1469.00000   60.30690   83.49570   53.64350
 1469.50000   59.42480   83.91610   68.38390
 1470.00000   59.23630  111.61740   88.86490
 1470.50000   60.06320  117.83720   89.03520
 1471.00000   60.28910  116.86380   72.74370
 1471.50000   59.97680  115.88950   56.45230
 1472.00000   60.05350  123.60490   40.16080
 1472.50000   59.95480  123.47140   35.19390
 1473.00000   58.07600  117.93400   34.33600
 1473.50000   56.39790  113.81730   43.33660
 1474.00000   56.92550  113.54380   54.57010
 1474.50000   58.90170  115.23320   59.23380
 1475.00000   59.97590  118.55300   59.06350
 1475.50000   59.99710  121.87280   52.74110
 1476.00000   59.73380  124.45360   47.36040
 1476.50000   58.93760  126.31940   43.05580
 1477.00000   58.14140  118.12060   43.39640
 1477.50000   58.02300  108.04530   45.66700
 1478.00000   63.22650   95.63550   46.12110
 1478.50000   61.53590   87.70270   46.16370
 1479.00000   59.84520   94.15760   46.27010
 1479.50000   59.45170   93.88510   47.14290
 1480.00000   58.59300   83.40560   50.20820
 1480.50000   56.61240   79.71190   53.27350
 1481.00000   57.03590   79.71190   63.79580
 1481.50000   58.11180   84.68690   78.49470
 1482.00000   60.61070   91.34340   90.91320
 1482.50000   61.69360   97.01900   99.91100
 1483.00000   61.69360  102.09910  104.02110
 1483.50000   61.03760  109.63140  103.68050
 1484.00000   60.15260  112.78460   91.04600
 1484.50000   60.15260  111.94370   78.31110
 1485.00000   60.31460  111.66330   60.92050
 1485.50000   60.44410  112.64430   47.83090
 1486.00000   59.31000  115.02660   34.74130
 1486.50000   59.22060  121.26280   29.54130
 1487.00000   59.18990  125.67710   35.18150
 1487.50000   59.24770  122.40730   43.91650
 1488.00000   59.58030  119.13740   53.27500
 1488.50000   59.58030  116.98870   55.65760
 1489.00000   59.42360  116.84850   50.13690
 1489.50000   59.29570  120.93010   50.14730
 1490.00000   59.65010  123.99550   56.20090
 1490.50000   60.42210  122.87450   62.25440
 1491.00000   60.15410  119.99380   61.49340
 1491.50000   60.10110  117.54910   55.01650
 1492.00000   59.98600  117.54910   48.53970
 1492.50000   59.37180  119.51120   43.60120
 1493.00000   59.18990  121.22070   43.06190
 1493.50000   58.73070  123.18260   43.24810
 1494.00000   59.53350  125.14460   45.37390
 1494.50000   60.27420  126.81820   54.69770
 1495.00000   59.87470  128.41990   68.10810
 1495.50000   59.80750  130.02150   69.62750
 1496.00000   59.64980  130.58190   62.78480
 1496.50000   59.28000  131.98330   54.23770
 1497.00000   59.10210  125.67710   50.29590
 1497.50000   59.02170  125.67710   50.10000
 1498.00000   58.90140  126.37780   52.96910
 1498.50000   58.31320  126.51800   59.30250
 1499.00000   57.75280  129.88130   65.63600
 1499.50000   57.44550  138.42970   70.86970
 1500.00000   57.67730  145.01610   62.56770
 1500.50000   58.72970  150.76170   48.74220
 1501.00000   58.97970  157.06790   39.66650
 1501.50000   58.24510  158.18910   46.14940
 1502.00000   55.69620  161.69240   62.67620
 1502.50000   56.59400  159.17010   82.22320
 1503.00000   57.24800  156.36730   95.33010
 1503.50000   57.53060  156.22710   97.97000
 1504.00000   57.84140  164.77560   80.36340
 1504.50000   57.86190  168.41900   65.97730
 1505.00000   56.95480  168.69950   49.34670
 1505.50000   56.76310  168.69950   45.51950
 1506.00000   56.32090  157.15560   55.13450
 1506.50000   57.10760  109.94670   70.59200
 1507.00000   57.29270   90.64270   86.04940
 1507.50000   57.27890   89.94210   81.53660
 1508.00000   56.11270   88.54060   65.78490
 1508.50000   58.60540   92.93750   47.92790
 1509.00000   59.05400  100.03200   37.58080
 1509.50000   58.71820  101.43340   30.36330
 1510.00000   58.40410  101.99370   26.10600
 1510.50000   58.15340  101.99370   27.73490
 1511.00000   58.15340  102.13400   35.20970
 1511.50000   58.34960  103.81560   42.52150
 1512.00000   58.67670  108.01980   49.83320
 1512.50000   58.85950  119.23070   57.85510
 1513.00000   58.88130  121.14420   64.03140
 1513.50000   59.20670  129.52750   72.70350
 1514.00000   59.77300  140.39150   76.51300
 1514.50000   60.33340  147.39840   75.35500
 1515.00000   62.39560  146.97790   73.90750
 1515.50000   70.07080  142.18520   72.93680
 1516.00000   72.73870  136.71990   71.06360
 1516.50000   72.73040  132.14970   64.72830
 1517.00000   72.93340  124.57350   59.44620
 1517.50000   73.27180  116.99740   54.94900
 1518.00000   72.97060  109.42120   48.95370
 1518.50000   72.08940  110.54220   40.08430
 1519.00000   71.20820  113.62530   31.21480
 1519.50000   70.42000  107.87950   32.89570
 1520.00000   69.71990  106.89890   39.10740
 1520.50000   68.86950  100.45220   48.52270
 1521.00000   67.70260   92.93220   61.30410
 1521.50000   66.06100   91.63000   74.08550
 1522.00000   62.81550   89.67040   84.64920
 1522.50000   58.50090   90.37290   84.30070
 1523.00000   53.14780   91.49620   75.24760
 1523.50000   49.81550   91.77850   63.75560
 1524.00000   53.14020   91.50030   52.11280
 1524.50000   53.15400   92.62360   41.04190
 1525.00000   53.51450   96.82990   30.82870
 1525.50000   54.49500   98.79360   31.16530
 1526.00000   53.12200   99.21650   34.12260
 1526.50000   51.37440   99.77900   40.31260
 1527.00000   52.48430  101.65840   49.04680
 1527.50000   52.48130  103.65660   62.44520
 1528.00000   52.64880  105.65490   74.30630
 1528.50000   54.84550  107.65310   81.46650
 1529.00000   54.70740  110.17850   87.17170
 1529.50000   56.67880  110.32160   91.17680
 1530.00000   57.41180  111.72610   92.68310
 1530.50000   57.39170  113.48070   90.03510
 1531.00000   58.67680  113.96920   85.23010
 1531.50000   60.29390  109.90240   77.13550
 1532.00000   61.91100  110.31950   69.04090
 1532.50000   62.23370  109.47540   59.82330
 1533.00000   57.36650  106.38920   58.96150
 1533.50000   56.00200  103.30290   61.37470
 1534.00000   55.49790  103.44000   59.51970
 1534.50000   55.13330  105.11840   54.07860
 1535.00000   56.10580  104.97560   50.34690
 1535.50000   56.62480  104.41170   51.39680
