~Version ---------------------------------------------------
VERS.   2.0 : CWLS log ASCII Standard -VERSION 2.0
WRAP.    NO : One line per depth step
DLM . SPACE : Column Data Section Delimiter
~Well ------------------------------------------------------
STRT .FT                1180.0 : START DEPTH
STOP .FT                5251.0 : STOP DEPTH
STEP .FT                   0.5 : STEP
NULL .                -9999.25 : NULL VALUE
COMP .                         : COMPANY
WELL .                         : WELL
FLD  .                         : FIELD
LOC  .                         : LOCATION
PROV .                         : PROVINCE
CNTY .                         : COUNTY
STAT .                         : STATE
CTRY .                         : COUNTRY
SRVC .                         : SERVICE COMPANY
DATE .                         : DATE
UWI  .                         : UNIQUE WELL ID
API  .                         : API NUMBER
SLAT .WGS84 3.6007186885056015 : SURFACE LATITUDE
SLON .WGS84 4.6236815450818085 : SURFACE LONGITUDE
DATUM.F                    nan : DEPTH DATUM ELEV
~Curve Information -----------------------------------------
DEPT .FT    : 
DTCO .US/F  : DELTA-T COMPRESSIONAL
DTSM .US/F  : DELTA-T SHEAR
HSGRS.GAPI  : HNGS STANDARD GAMMA RAY FROM SONIC LOG
~Params ----------------------------------------------------
~Other -----------------------------------------------------
~ASCII -----------------------------------------------------
# ...
 2248.00000   57.45740  146.23070   70.73620
 2248.50000   57.44580  148.45990   75.90450
 2249.00000   57.37620  151.13350   82.54010
 2249.50000   57.35600  156.32950   89.17560
 2250.00000   57.34430  160.12280   89.17560
 2250.50000   57.26830  165.49480   86.31060
 2251.00000   57.24550  170.21270   82.72940
 2251.50000   57.25800  170.35290   79.14810
 2252.00000   57.27050  177.07950   81.03850
 2252.50000   57.28300  177.64020   84.65550
 2253.00000   57.29550  177.64020   88.37340
 2253.50000   57.32330   -9999.25   88.37340
 2254.00000   57.35930   -9999.25   88.37340
 2254.50000   57.33870   -9999.25   89.77730
 2255.00000   57.19880   -9999.25   94.79100
 2255.50000   57.21450   -9999.25   94.12250
 2256.00000   57.25110   -9999.25   96.42450
 2256.50000   58.97280   -9999.25  102.51390
 2257.00000   59.09290   -9999.25  106.58860
 2257.50000   57.55540   -9999.25   98.96940
 2258.00000   57.21110   -9999.25   91.34890
 2258.50000   57.22840   -9999.25   85.53090
 2259.00000   57.24560   -9999.25   86.99280
 2259.50000   57.26290   -9999.25   89.97780
 2260.00000   57.28020   -9999.25   88.43630
 2260.50000   57.29740  108.55220   86.75870
 2261.00000   57.31470  109.21560   88.01650
 2261.50000   57.31300  108.68080   89.78470
 2262.00000   57.29870   99.92220   90.77910
 2262.50000   57.28430   99.08130   90.37800
 2263.00000   57.27000   99.15150   88.37250
 2263.50000   57.25570   94.52700   84.94650
 2264.00000   57.24420   97.16160   81.52050
 2264.50000   57.24420   99.85220   79.74900
 2265.00000   57.17680   93.96640   83.27770
 2265.50000   57.16180   93.96640   85.40420
 2266.00000   57.14780   94.66700   87.23320
 2266.50000   57.03370   95.50780   89.11810
 2267.00000   56.93760   96.76910   91.98240
 2267.50000   56.93760   97.60990   90.37800
 2268.00000   56.89760   98.87110   88.37250
 2268.50000   56.85760   98.45070   87.16930
 2269.00000   56.81750   96.76910   91.04960
 2269.50000   56.69740   96.76910   94.72940
 2270.00000   56.77210   96.76910   97.78670
 2270.50000   56.81750   96.06820   95.92220
 2271.00000   56.92870   97.18930   97.11560
 2271.50000   57.06990  100.76280   98.47880
 2272.00000   57.21100  104.47650   98.46770
 2272.50000   57.24800  104.47650   95.79370
 2273.00000   57.26720  103.63570   93.11970
 2273.50000   57.28640  103.21520   90.98050
 2274.00000   57.27830  102.93500   91.20340
 2274.50000   57.22920  103.77590   92.31760
 2275.00000   57.18000  102.79480   92.98610
 2275.50000   57.13090  102.51460   95.18040
 2276.00000   57.01540  105.31730   96.92160
 2276.50000   56.97760  100.99630   96.94120
 2277.00000   56.95260  101.25320   93.92130
 2277.50000   56.93810  103.49550   91.78280
 2278.00000   56.93930  103.10320   94.91440
 2278.50000   56.94050  102.68280   99.46540
 2279.00000   56.94180  102.26240  104.01630
 2279.50000   56.94300  101.84200  107.02450
 2280.00000   56.94420  101.49370  107.42560
 2280.50000   56.94280  101.25360  106.16240
 2281.00000   56.93960  100.97320  104.39320
 2281.50000   56.96170  101.25360  103.02790
 2282.00000   56.98340  101.86090  102.98910
 2282.50000   56.94780  102.32800  101.17280
 2283.00000   56.91210  102.93530   99.60320
 2283.50000   56.92710  104.58190   95.16330
 2284.00000   57.10910  105.31750   92.92450
 2284.50000   57.29110  105.31750   91.18020
 2285.00000   57.25110  100.09750   90.57860
 2285.50000   56.97580   99.15150   91.18020
 2286.00000   56.81070   96.57290   92.38350
 2286.50000   57.61140   92.88030   91.84360
 2287.00000   57.93330   90.74330   89.14430
 2287.50000   58.33560   89.76230   86.44500
 2288.00000   58.73790   89.06160   87.78520
 2288.50000   58.73920   89.06160   90.17750
 2289.00000   58.71170   90.18270   85.04050
 2289.50000   58.36010   92.56500   76.47890
 2290.00000   58.25440   96.20870   67.91740
 2290.50000   58.04050   96.62910   67.95380
 2291.00000   57.81170   97.77020   69.11490
 2291.50000   57.69730   99.57200   66.73520
 2292.00000   57.36620  100.41280   64.50800
 2292.50000   56.89070  100.55280   65.09590
 2293.00000   56.77060  100.55280   68.03550
 2293.50000   56.77060   98.95530   70.86570
 2294.00000   56.78930   97.46990   71.90760
 2294.50000   56.83590   96.20870   73.97420
 2295.00000   56.88250   95.36780   76.81040
 2295.50000   56.93760   95.92820   78.34590
 2296.00000   56.87760   96.06840   76.90760
 2296.50000   56.81740   96.48890   74.51030
 2297.00000   56.81700   96.76910   74.33510
 2297.50000   56.81650   97.18950   77.24780
 2298.00000   56.79580   97.32970   81.21470
 2298.50000   56.77010   97.32970   83.45420
 2299.00000   56.74430   96.90930   82.80270
 2299.50000   56.71860   96.06840   80.11110
 2300.00000   56.69280   93.82590   81.59680
 2300.50000   56.66710   93.54570   82.37230
 2301.00000   56.64130   94.24640   82.06860
 2301.50000   56.61560   95.08720   83.08270
 2302.00000   56.61080   95.67120   85.12750
 2302.50000   56.61120   96.58870   87.58330
 2303.00000   56.61170   97.89000   90.03910
 2303.50000   56.61210   99.19120   92.49490
 2304.00000   56.61260   99.71170   95.66000
 2304.50000   56.61300  100.69280   99.00250
 2305.00000   56.61350  104.47650   99.40360
 2305.50000   56.56010  105.48080   97.26990
 2306.00000   56.47430  108.40040   94.87240
 2306.50000   56.45710  108.62460   95.28070
 2307.00000   56.45710  109.24120   94.85650
 2307.50000   56.42350  111.20310   90.53560
 2308.00000   56.47920  112.74460   86.21470
 2308.50000   56.43970  113.58540   82.75800
 2309.00000   56.35530  114.28620   83.35970
 2309.50000   56.23730  114.14600   89.01960
 2310.00000   56.25730  113.30520   95.59320
 2310.50000   56.40290  110.86280  102.03940
 2311.00000   56.47540  108.12000  104.81850
 2311.50000   56.36520  107.13920  102.33780
 2312.00000   56.21680  105.59750   99.23700
 2312.50000   56.21650  102.98170   95.97620
 2313.00000   56.21610  101.39340   94.84360
 2313.50000   56.21580  100.41260   94.59040
 2314.00000   56.13000   98.31050  100.58270
 2314.50000   56.44450   97.60970  107.82230
 2315.00000   56.51030   96.20840  115.06190
 2315.50000   56.21000   94.40660  115.89750
 2316.00000   56.40220   93.54570  116.09030
 2316.50000   56.45030   92.74500  116.36540
 2317.00000   55.96980   91.16350  115.20570
 2317.50000   55.92800   90.32260  108.27580
 2318.00000   55.91960   90.51370  100.72520
 2318.50000   56.01220   91.46920   94.34980
 2319.00000   56.02260   92.42470   91.38170
 2319.50000   56.01060   93.54570   92.75600
 2320.00000   56.06730   95.36780   95.92960
 2320.50000   56.06060   97.56990   97.79830
 2321.00000   55.91380   99.57200   95.61790
 2321.50000   55.76700  100.57280   91.98410
 2322.00000   55.64960  101.53380   88.68810
 2322.50000   55.83970  104.00020   86.74370
 2323.00000   56.41010  106.71900   85.33380
 2323.50000   56.41010  107.27940   83.93060
 2324.00000   57.25110  108.82100   86.18540
 2324.50000   57.07760  106.76100   85.64190
 2325.00000   56.78840  104.02830   84.36160
 2325.50000   56.33020   99.85220   86.73950
 2326.00000   55.80970  101.81400   89.37530
 2326.50000   55.76970  101.81400   86.85370
 2327.00000   55.30290   99.36160   82.16260
 2327.50000   55.14090   97.18950   79.34790
 2328.00000   55.15950   99.43180   85.74720
 2328.50000   55.13570   99.16700   93.49560
 2329.00000   54.95220   94.65150   98.80700
 2329.50000   54.76870   92.56490  100.83720
 2330.00000   54.76870   95.64800  101.54090
 2330.50000   55.64500  113.86580  103.01350
 2331.00000   56.69050  108.82080  101.00810
 2331.50000   55.62090  108.40040  102.62780
 2332.00000   55.08130  109.80170  102.12960
 2332.50000   57.21100  121.12950  101.29930
 2333.00000   57.41330  125.49720  100.46900
 2333.50000   58.22460  129.28090   97.72400
 2334.00000   57.74790  131.52320   88.32330
 2334.50000   57.49130  134.96900   80.35140
 2335.00000   59.13290  138.41490   78.74700
 2335.50000   57.45920  141.86070   87.48530
 2336.00000   57.05080  145.30660   91.38170
 2336.50000   59.64490  148.75240   90.17840
