~Version ---------------------------------------------------
VERS.   2.0 : CWLS log ASCII Standard -VERSION 2.0
WRAP.    NO : One line per depth step
DLM . SPACE : Column Data Section Delimiter
~Well ------------------------------------------------------
STRT .FT                1180.0 : START DEPTH
STOP .FT                5251.0 : STOP DEPTH
STEP .FT                   0.5 : STEP
NULL .                -9999.25 : NULL VALUE
COMP .                         : COMPANY
WELL .                         : WELL
FLD  .                         : FIELD
LOC  .                         : LOCATION
PROV .                         : PROVINCE
CNTY .                         : COUNTY
STAT .                         : STATE
CTRY .                         : COUNTRY
SRVC .                         : SERVICE COMPANY
DATE .                         : DATE
UWI  .                         : UNIQUE WELL ID
API  .                         : API NUMBER
SLAT .WGS84 3.6007186885056015 : SURFACE LATITUDE
SLON .WGS84 4.6236815450818085 : SURFACE LONGITUDE
DATUM.F                    nan : DEPTH DATUM ELEV
~Curve Information -----------------------------------------
DEPT .FT    : 
DTCO .US/F  : DELTA-T COMPRESSIONAL
DTSM .US/F  : DELTA-T SHEAR
HSGRS.GAPI  : HNGS STANDARD GAMMA RAY FROM SONIC LOG
~Params ----------------------------------------------------
~Other -----------------------------------------------------
~ASCII -----------------------------------------------------
# ...
 1714.00000   56.63720   69.78920   53.51990
 1714.50000   56.73010   78.84200   50.39490
 1715.00000   56.77130  113.92810   46.69710
 1715.50000   56.81250  152.16780   45.54870
 1716.00000   56.83150  151.60740   54.97710
 1716.50000   56.81740  147.82360   64.40560
 1717.00000   56.89230  147.68340   71.95020
 1717.50000   56.99750  148.52420   67.21320
 1718.00000   56.69720  152.30800   58.33210
 1718.50000   56.69990  152.30800   49.94140
 1719.00000   56.80320  159.93550   44.80010
 1719.50000   57.05760  165.48100   57.46740
 1720.00000   56.85850  166.32190   78.28690
 1720.50000   57.11200  172.34780   95.75900
 1721.00000   58.44480  178.51390   88.54890
 1721.50000   57.51100  179.35470   74.97390
 1722.00000   56.52410  179.17950   66.02140
 1722.50000   56.57630  179.07430   64.08210
 1723.00000   56.57420  178.93430   67.91870
 1723.50000   56.43560  175.51840   68.25930
 1724.00000   56.21250  172.48790   62.14490
 1724.50000   56.09660  173.60890   56.00370
 1725.00000   56.16870  174.87020   49.75500
 1725.50000   56.18670  174.87020   46.97260
 1726.00000   56.23000  155.14580   52.67610
 1726.50000   56.18670  134.26510   59.59260
 1727.00000   56.40950  130.44650   66.50910
 1727.50000   56.99330  129.04510   72.70840
 1728.00000   56.93520  128.76470   72.79500
 1728.50000   57.00700  168.84440   67.29320
 1729.00000   57.77050  167.63550   60.32870
 1729.50000   58.38140  160.89140   55.65760
 1730.00000   58.41600  155.82900   55.48810
 1730.50000   58.16880  151.88780   55.99900
 1731.00000   57.78940  148.20920   60.38730
 1731.50000   57.58470  145.72180   65.23420
 1732.00000   57.27390  145.44140   69.28200
 1732.50000   56.99540  145.44140   68.66770
 1733.00000   56.71700  147.26330   65.81930
 1733.50000   56.43850  151.41480   65.36520
 1734.00000   56.17410  157.77360   66.11970
 1734.50000   56.39770  158.75460   66.55590
 1735.00000   57.47550  164.44770   66.73030
 1735.50000   56.18680  168.00370   67.40880
 1736.00000   59.46430  168.00370   71.73720
 1736.50000   59.64150  167.16290   76.06550
 1737.00000   56.59060  160.43630   79.07410
 1737.50000   56.50730  156.93280   81.20280
 1738.00000   59.33570  149.61440   76.20340
 1738.50000   56.49390  142.07810   67.87100
 1739.00000   56.93340  140.67680   59.53870
 1739.50000   58.90090  136.47270   53.71640
 1740.00000   56.56410  136.75290   55.54350
 1740.50000   55.85650  136.89300   60.56250
 1741.00000   55.64330  137.87390   65.68330
 1741.50000   55.40370  139.97600   70.80410
 1742.00000   55.41210  142.59190   75.19270
 1742.50000   55.76070  147.26320   76.65240
 1743.00000   56.03250  150.34640   77.85470
 1743.50000   56.17520  150.90680   79.69690
 1744.00000   56.28940  151.32720   87.63940
 1744.50000   56.38310  151.32720   97.84740
 1745.00000   56.47800  151.04700   94.63530
 1745.50000   56.68230  148.80480   82.82350
 1746.00000   56.98970  146.14220   70.56160
 1746.50000   57.36730  144.74080   65.28040
 1747.00000   57.65980  140.49670   69.90320
 1747.50000   57.77840  136.89310   73.02760
 1748.00000   57.60820  138.57480   60.64760
 1748.50000   57.05770  144.31240   45.29960
 1749.00000   56.88690  151.18720   36.60590
 1749.50000   56.70050  152.30820   48.14120
 1750.00000   56.15080  156.76460   67.11840
 1750.50000   55.95230  166.32200   73.36810
 1751.00000   55.87370  168.00370   64.96280
 1751.50000   55.73750  178.09360   55.07240
 1752.00000   55.77180  188.60390   51.22990
 1752.50000   55.77790  191.84330   57.50290
 1753.00000   55.69260  199.24130   67.13910
 1753.50000   55.82690  203.96030   77.09740
 1754.00000   55.90830  204.24060   92.71890
 1754.50000   55.97660  202.13850   97.86690
 1755.00000   56.21260  198.21850  100.95570
 1755.50000   56.17980  189.48080   96.76750
 1756.00000   55.96300  175.09560   86.86360
 1756.50000   56.09250  175.79650   76.95960
 1757.00000   56.09550  174.20820   67.05570
 1757.50000   56.12780  171.63900   60.26170
 1758.00000   56.06410  169.95070   56.29460
 1758.50000   55.97660  168.78940   51.00730
 1759.00000   55.77260  164.02490   47.32620
 1759.50000   55.57510  161.50240   52.73990
 1760.00000   55.51000  161.64240   66.67670
 1760.50000   55.61550  163.76780   81.63160
 1761.00000   55.61640  164.30510   84.26700
 1761.50000   55.61730  164.58520   74.09510
 1762.00000   55.72820  167.10780   62.03950
 1762.50000   55.73630  168.42460   52.21460
 1763.00000   55.89300  167.80600   45.52130
 1763.50000   56.01980  167.24540   42.67800
 1764.00000   56.12260  158.60570   43.01310
 1764.50000   56.32980  156.17700   44.52990
 1765.00000   56.57300  152.53350   45.61020
 1765.50000   56.57560  150.57160   44.43610
 1766.00000   56.55720  145.34650   42.71980
 1766.50000   56.51120  140.34150   41.91260
 1767.00000   56.32690  140.06120   40.87640
 1767.50000   55.97690  144.82580   38.90310
 1768.00000   55.95680  145.52660   42.27280
 1768.50000   56.01800  149.87070   49.59520
 1769.00000   56.09480  155.57640   54.60180
 1769.50000   56.11300  158.27900   53.24760
 1770.00000   56.18880  158.83970   49.51480
 1770.50000   56.33270  161.86260   45.78200
 1771.00000   56.37410  165.28600   49.28530
 1771.50000   56.33690  165.84640   57.19200
 1772.00000   56.21680  170.47100   65.09880
 1772.50000   56.21680  171.03160   68.60210
 1773.00000   56.15410  170.75140   62.63980
 1773.50000   56.02880  166.05680   57.01220
 1774.00000   55.97660  165.70640   58.26120
 1774.50000   55.92850  165.56620   65.04360
 1775.00000   55.91000  163.20730   69.28330
 1775.50000   56.06840  159.82060   68.02090
 1776.00000   56.15900  159.54020   64.86480
 1776.50000   56.17400  157.09790   61.93740
 1777.00000   56.17400  155.19610   59.35310
 1777.50000   55.79880  154.35530   60.59800
 1778.00000   55.83800  154.35530   58.18550
 1778.50000   55.85880  155.00910   52.15400
 1779.00000   55.93510  155.75650   46.12260
 1779.50000   55.97490  155.73310   48.81590
 1780.00000   55.97810  155.61650   55.54930
 1780.50000   56.01940  157.53890   60.56250
 1781.00000   56.12070  160.80140   63.15050
 1781.50000   56.17920  160.52120   60.93350
 1782.00000   56.33690  157.99870   57.23840
 1782.50000   56.33690  157.99870   54.68850
 1783.00000   56.45460  157.34620   54.74930
 1783.50000   56.65070  156.18570   56.16840
 1784.00000   56.89080  155.02520   55.64080
 1784.50000   56.75820  153.86470   54.32160
 1785.00000   56.67060  152.70420   52.81740
 1785.50000   57.58010  151.54360   51.18970
 1786.00000   57.72370  150.38310   49.91840
 1786.50000   57.68270  150.57150   49.35670
 1787.00000   57.65820  152.67350   50.20820
 1787.50000   57.82620  152.67340   54.72100
 1788.00000   58.14920  152.43980   59.23380
 1788.50000   58.42300   -9999.25   59.57430
 1789.00000   56.67370   -9999.25   56.84960
 1789.50000   54.92450   -9999.25   54.12490
 1790.00000   55.23120   -9999.25   55.03320
 1790.50000   56.55640   -9999.25   56.16840
 1791.00000   57.88150   -9999.25   56.62590
 1791.50000   58.06620   -9999.25   57.24860
 1792.00000   58.47660   -9999.25   57.87140
 1792.50000   59.25600   -9999.25   56.68140
 1793.00000   58.99570   -9999.25   52.99850
 1793.50000   58.17310   -9999.25   49.36690
 1794.00000   59.12880   -9999.25   46.46170
 1794.50000   58.72000   -9999.25   51.71650
 1795.00000   57.38790   -9999.25   56.61470
 1795.50000   56.98620   -9999.25   59.00750
 1796.00000   57.26840   -9999.25   61.40030
 1796.50000   56.64140   78.24600   64.39470
 1797.00000   56.71590   78.24600   65.36430
 1797.50000   56.54710   77.96560   61.57800
 1798.00000   56.21830   75.30310   56.30010
 1798.50000   56.21700   77.26500   50.58620
 1799.00000   56.12890   77.96560   45.52130
 1799.50000   55.97650   85.34610   41.34750
 1800.00000   55.98670   92.58640   42.18020
 1800.50000   55.99930   95.03400   52.02660
 1801.00000   55.97640   92.95990   62.85450
 1801.50000   55.97810   92.11920   73.68240
 1802.00000   56.08820   92.11920   80.51970
 1802.50000   56.21240   92.11920   79.43790
