~Version ---------------------------------------------------
VERS.   2.0 : CWLS log ASCII Standard -VERSION 2.0
WRAP.    NO : One line per depth step
DLM . SPACE : Column Data Section Delimiter
~Well ------------------------------------------------------
STRT .FT                1180.0 : START DEPTH
STOP .FT                5251.0 : STOP DEPTH
STEP .FT                   0.5 : STEP
NULL .                -9999.25 : NULL VALUE
COMP .                         : COMPANY
WELL .                         : WELL
FLD  .                         : FIELD
LOC  .                         : LOCATION
PROV .                         : PROVINCE
CNTY .                         : COUNTY
STAT .                         : STATE
CTRY .                         : COUNTRY
SRVC .                         : SERVICE COMPANY
DATE .                         : DATE
UWI  .                         : UNIQUE WELL ID
API  .                         : API NUMBER
SLAT .WGS84 3.6007186885056015 : SURFACE LATITUDE
SLON .WGS84 4.6236815450818085 : SURFACE LONGITUDE
DATUM.F                    nan : DEPTH DATUM ELEV
~Curve Information -----------------------------------------
DEPT .FT    : 
DTCO .US/F  : DELTA-T COMPRESSIONAL
DTSM .US/F  : DELTA-T SHEAR
HSGRS.GAPI  : HNGS STANDARD GAMMA RAY FROM SONIC LOG
~Params ----------------------------------------------------
~Other -----------------------------------------------------
~ASCII -----------------------------------------------------
# ...
 2782.00000   44.61010  131.81950   53.69440
 2782.50000   43.91030  128.58550   61.71650
 2783.00000   43.07530  125.35160   65.12590
 2783.50000   43.07530  120.78810   59.96880
 2784.00000   44.80060  115.33820   53.49390
 2784.50000   44.09130  112.23030   57.12390
 2785.00000   43.79600  111.02510   63.69200
 2785.50000   51.48610  108.83900   68.98650
 2786.00000   53.26930  107.38160   72.14520
 2786.50000   53.24530  107.38160   78.73930
 2787.00000   54.20620  108.64290   86.34520
 2787.50000   54.23960  109.65890   92.24570
 2788.00000   57.21440  110.53470   88.30130
 2788.50000   59.47140  111.41060   81.68600
 2789.00000   59.78130  111.72580   78.76350
 2789.50000   62.04670  112.28640   91.83700
 2790.00000   62.24840  112.84700  112.65690
 2790.50000   62.21420  113.40740  111.65410
 2791.00000   62.72750  114.03800   98.76860
 2791.50000   62.68700  114.56360   92.15040
 2792.00000   60.44740  115.08910   84.97020
 2792.50000   56.76880  115.64970   79.21470
 2793.00000   58.05040  115.22930   72.27560
 2793.50000   60.21140  114.02410   69.13700
 2794.00000   56.93750  112.69280   70.74140
 2794.50000   56.63010  112.00620   78.01600
 2795.00000   55.24060  109.71720   82.61570
 2795.50000   55.60760  108.08220   75.94200
 2796.00000   55.22180  107.66180   69.26840
 2796.50000   53.69300  106.82100   63.47140
 2797.00000   52.16420  106.40060   61.34600
 2797.50000   52.12420  105.55970   61.81860
 2798.00000   54.07610  104.13030   62.29110
 2798.50000   54.91930  102.19640   63.12040
 2799.00000   55.07560  102.49070   62.60650
 2799.50000   55.14020  102.98130   61.95180
 2800.00000   55.18180  103.17750   61.70840
 2800.50000   55.66770  102.51170   65.37570
 2801.00000   57.28930  101.54830   74.52930
 2801.50000   56.08810  101.21540   82.57280
 2802.00000   55.87790  100.51480   80.42410
 2802.50000   55.62760   97.29170   75.55360
 2803.00000   55.20720   95.61000   78.21920
 2803.50000   54.67330  106.56880   91.54740
 2804.00000   54.83020  119.74170  104.20710
 2804.50000   58.82250  129.24320  116.86680
 2805.00000   62.81470  137.79150  117.06740
 2805.50000   61.44000  137.15090  104.94640
 2806.00000   58.49050  135.54940   90.29660
 2806.50000   65.23040  134.84860   76.10950
 2807.00000   65.37720  133.21380   64.77400
 2807.50000   56.04810  131.34530   62.02800
 2808.00000   62.84250  130.92470   59.36460
 2808.50000   62.88870  130.92480   58.22630
 2809.00000   62.93490  132.43830   58.58610
 2809.50000   65.36390  134.47020   58.48920
 2810.00000   64.10940  136.39020   55.94040
 2810.50000   60.27820  138.34580   53.72870
 2811.00000   56.83400  139.74150   57.07700
 2811.50000   56.78160  139.87490   64.17330
 2812.00000   54.99740  139.86830   67.70800
 2812.50000   64.09180  138.43570   71.09230
 2813.00000   71.82830  135.56290   69.11550
 2813.50000   77.40410  131.25440   64.12400
 2814.00000   77.44370  121.65330   59.30360
 2814.50000   77.36170  116.14390   55.42170
 2815.00000   68.01330  115.01590   53.86420
 2815.50000   54.52370  112.90640   54.67930
 2816.00000   54.22730  110.51630   57.42200
 2816.50000   53.67780  111.34940   61.76670
 2817.00000   54.63660  117.33710   67.48240
 2817.50000   54.39890  122.40670   71.09230
 2818.00000   54.00450  123.37980   77.56050
 2818.50000   53.58980  173.73550   86.01880
 2819.00000   53.20060  173.03030   94.85780
 2819.50000   52.86650  169.15530  100.06190
 2820.00000   52.52290  146.20030  104.04710
 2820.50000   52.17940  136.67670  106.43820
 2821.00000   51.83590  135.98190  103.94960
 2821.50000   51.54290  129.55680   99.73350
 2822.00000   51.50090  123.83180   93.83620
 2822.50000   51.27290  120.59150   81.21410
 2823.00000   50.80230  115.16830   68.59200
 2823.50000   51.02540  110.09540   55.96990
 2824.00000   51.25020  108.70190   44.93630
 2824.50000   51.36200  106.60740   42.91410
 2825.00000   51.87280  104.51220   45.33740
 2825.50000   52.05680  102.88280   49.74950
 2826.00000   51.57920  101.45620   59.98950
 2826.50000   51.80320  103.14680   72.68670
 2827.00000   51.82510  104.29640   83.42520
 2827.50000   53.41090  105.88020   89.99320
 2828.00000   57.47100  107.63970   88.58210
 2828.50000   57.43380  108.34730   84.53530
 2829.00000   57.94420  109.58770   80.62750
 2829.50000   58.79390  110.18450   80.28440
 2830.00000   58.93280  111.23830   82.97390
 2830.50000   59.07170  111.71640   82.37340
 2831.00000   59.08680  111.84560   72.18150
 2831.50000   59.01190  111.69490   62.39060
 2832.00000   58.81200  110.98330   52.59970
 2832.50000   58.48380  110.83270   44.92020
 2833.00000   57.40350  110.68170   42.36720
 2833.50000   55.36960  110.19420   41.61110
 2834.00000   55.32760  109.85620   42.52700
 2834.50000   55.32760  109.51810   43.68850
 2835.00000   55.28080  109.18000   43.95950
 2835.50000   55.21100  108.84190   43.49330
 2836.00000   53.69300  108.35950   41.71720
 2836.50000   52.14870  107.66050   40.85910
 2837.00000   52.11240  107.05940   41.40820
 2837.50000   51.30770  106.80400   41.90820
 2838.00000   51.43940  107.94900   43.02010
 2838.50000   52.14730  108.72690   45.77260
 2839.00000   53.73520  108.87550   48.53020
 2839.50000   53.89260  110.26570   51.31280
 2840.00000   53.80940  111.58620   54.68060
 2840.50000   57.65320  112.77740   61.49330
 2841.00000   59.42010  113.05780   73.49800
 2841.50000   59.88760  112.91760   79.81530
 2842.00000   60.12520  112.17010   84.79560
 2842.50000   60.25570  111.19850   86.18450
 2843.00000   57.57660  109.61030   86.51350
 2843.50000   54.89750  108.02210   90.56400
 2844.00000   54.49710  106.61140   94.60580
 2844.50000   53.32260  105.49030   94.40530
 2845.00000   52.29790  104.50930   88.15590
 2845.50000   52.06470  103.52830   81.90650
 2846.00000   50.93360  102.82760   78.22130
 2846.50000   51.82320  102.68740   78.56560
 2847.00000   51.79090  102.68740   80.48440
 2847.50000   51.37820  102.40720   81.93240
 2848.00000   51.21050  102.19700   82.39830
 2848.50000   51.34390  101.84660   82.26760
 2849.00000   51.77440  101.70660   81.11880
 2849.50000   51.61430  103.38830   78.65010
 2850.00000   52.04160  103.80870   75.73720
 2850.50000   53.21010  104.92950   75.76350
 2851.00000   54.38730  105.91050   79.98550
 2851.50000   54.59310  106.05050   84.95830
 2852.00000   54.85740  106.47090   88.51580
 2852.50000   53.96050  107.03160   91.91700
 2853.00000   53.93530  107.45200   95.71650
 2853.50000   55.05440  108.57300   96.68650
 2854.00000   56.09860  110.33880   89.91740
 2854.50000   56.09860  112.58110   79.96550
 2855.00000   54.05660  115.86020   70.01460
 2855.50000   54.02290  108.43300   70.22300
 2856.00000   54.29570   99.88450   85.35210
 2856.50000   54.67870   90.95070  100.48120
 2857.00000   54.71060   85.59050  115.61020
 2857.50000   54.17670   85.73070  128.93040
 2858.00000   54.21680   86.99190  135.96240
 2858.50000   55.57810   88.81360  135.75010
 2859.00000   54.95350   91.40300  126.05810
 2859.50000   54.65720   93.99240  119.73220
 2860.00000   55.54370   96.58190  118.74760
 2860.50000   55.84110   99.17130  121.33080
 2861.00000   55.55510  101.00520  125.46720
 2861.50000   55.62600  100.47270  128.05930
 2862.00000   56.30760   96.94120  128.70110
 2862.50000   57.53100   92.59690  127.76850
 2863.00000   57.83480   92.59690  126.21420
 2863.50000   56.90660   92.87730  124.65990
 2864.00000   55.97840   94.27860  123.10560
 2864.50000   55.80680   95.39980  123.28620
 2865.00000   55.63520   96.21540  125.29170
 2865.50000   55.33780   96.37850  123.68720
 2866.00000   54.93740   96.37850  128.30000
 2866.50000   55.12040   96.37850  125.86470
 2867.00000   56.03560   96.37850  123.00440
 2867.50000   56.49890   94.17460  119.37940
 2868.00000   62.42080   88.76010  120.18570
 2868.50000   99.47730   40.60360  121.25030
 2869.00000   57.19560   40.60360  123.10110
 2869.50000   56.91540   40.74360  125.00790
 2870.00000   56.96240   40.74360  126.91470
 2870.50000   57.00940   40.74360  126.31500
