~Version ---------------------------------------------------
VERS.   2.0 : CWLS log ASCII Standard -VERSION 2.0
WRAP.    NO : One line per depth step
DLM . SPACE : Column Data Section Delimiter
~Well ------------------------------------------------------
STRT .FT                1180.0 : START DEPTH
STOP .FT                5251.0 : STOP DEPTH
STEP .FT                   0.5 : STEP
NULL .                -9999.25 : NULL VALUE
COMP .                         : COMPANY
WELL .                         : WELL
FLD  .                         : FIELD
LOC  .                         : LOCATION
PROV .                         : PROVINCE
CNTY .                         : COUNTY
STAT .                         : STATE
CTRY .                         : COUNTRY
SRVC .                         : SERVICE COMPANY
DATE .                         : DATE
UWI  .                         : UNIQUE WELL ID
API  .                         : API NUMBER
SLAT .WGS84 3.6007186885056015 : SURFACE LATITUDE
SLON .WGS84 4.6236815450818085 : SURFACE LONGITUDE
DATUM.F                    nan : DEPTH DATUM ELEV
~Curve Information -----------------------------------------
DEPT .FT    : 
DTCO .US/F  : DELTA-T COMPRESSIONAL
DTSM .US/F  : DELTA-T SHEAR
HSGRS.GAPI  : HNGS STANDARD GAMMA RAY FROM SONIC LOG
~Params ----------------------------------------------------
~Other -----------------------------------------------------
~ASCII -----------------------------------------------------
# ...
 4117.00000   79.68320  143.53030  101.33590
 4117.50000   78.15420  142.45300  100.48080
 4118.00000   78.47770  142.94660   99.22370
 4118.50000   78.97930  143.54530   93.57250
 4119.00000   79.29560  143.30090   89.77590
 4119.50000   79.75070  142.58440   90.62380
 4120.00000   80.24050  143.13050  103.65260
 4120.50000   80.46690  143.38220  115.31140
 4121.00000   80.75950  143.38280  119.07670
 4121.50000   80.87210  142.76720  114.82690
 4122.00000   80.80810  141.29700  102.36530
 4122.50000   80.28920  139.89450   88.81050
 4123.00000   79.10060  137.85480   75.25560
 4123.50000   78.23760  135.13790   66.12710
 4124.00000   77.76670  133.80810   60.49660
 4124.50000   76.79790  133.69590   58.72290
 4125.00000   75.97650  133.35010   56.44440
 4125.50000   75.79110  134.15300   55.41030
 4126.00000   76.48280  135.52440   55.22230
 4126.50000   77.17450  136.89570   55.89920
 4127.00000   77.71810  138.26710   59.63440
 4127.50000   78.12650  139.23180   68.68410
 4128.00000   78.43880  140.86120   79.70170
 4128.50000   78.60450  141.79850   84.92840
 4129.00000   79.06940  142.99020   90.34320
 4129.50000   79.11910  142.99940   93.49180
 4130.00000   79.44400  143.28600   94.20290
 4130.50000   79.88220  143.98880   91.78850
 4131.00000   79.88390  144.69160   89.37220
 4131.50000   79.76560  144.83470   94.28380
 4132.00000   79.56470  144.83910  105.57150
 4132.50000   79.39070  145.26910  114.60010
 4133.00000   79.86100  146.57260  113.98590
 4133.50000   80.82370  147.32440  107.67220
 4134.00000   81.38170  147.54060  100.16550
 4134.50000   81.74040  147.87370   93.81150
 4135.00000   81.96080  148.37830   97.33420
 4135.50000   82.50180  150.43930  104.54640
 4136.00000   82.82170  152.70200  111.83270
 4136.50000   82.91050  153.23690  120.24820
 4137.00000   83.22660  154.43200  122.17300
 4137.50000   83.59430  155.41200  123.48140
 4138.00000   83.58120  154.39250  121.92460
 4138.50000   83.51930  153.58680  118.66760
 4139.00000   83.40880  152.78100  113.44280
 4139.50000   82.88040  151.61880  107.43310
 4140.00000   82.64020  150.48390  101.42350
 4140.50000   82.49190  149.52120  102.59570
 4141.00000   82.18060  149.10080  108.49880
 4141.50000   82.10360  148.26040  114.02180
 4142.00000   82.18300  148.32490  114.20970
 4142.50000   82.05720  148.68350  114.19860
 4143.00000   81.74900  148.92560  115.80000
 4143.50000   81.69820  149.35660  118.37650
 4144.00000   82.03050  149.78770  120.54230
 4144.50000   82.44560  151.35260  120.25330
 4145.00000   83.02250  152.88450  119.11850
 4145.50000   83.99420  153.32010  122.44070
 4146.00000   84.50470  155.46670  126.64760
 4146.50000   84.79470  155.56470  128.52200
 4147.00000   85.48960  158.15110  126.30160
 4147.50000   85.79580  159.54160  126.69020
 4148.00000   86.20230  160.04380  125.80690
 4148.50000   86.61680  160.10510  124.70710
 4149.00000   86.78700  160.79000  123.84310
 4149.50000   86.71490  161.08700  124.52990
 4150.00000   86.56490  160.28950  125.22020
 4150.50000   86.21640  159.08570  123.73440
 4151.00000   85.72160  157.68670  125.57900
 4151.50000   85.50830  157.34220  123.95570
 4152.00000   85.24420  156.99780  127.19390
 4152.50000   84.84000  155.69500  126.40610
 4153.00000   83.85950  153.83050  123.13280
 4153.50000   83.12340  152.04380  119.42250
 4154.00000   82.79310  151.30800  117.82970
 4154.50000   82.11280  149.40820  116.52720
 4155.00000   81.65400  148.41220  117.95840
 4155.50000   81.46740  147.23370  115.61220
 4156.00000   81.11580  146.05510  115.36150
 4156.50000   81.04920  144.87660  113.25580
 4157.00000   81.19760  145.29130  114.99390
 4157.50000   81.32790  145.95370  117.62280
 4158.00000   81.62190  147.36120  120.32400
 4158.50000   81.83960  148.58210  123.02520
 4159.00000   82.10520  149.73110  122.93350
 4159.50000   82.37080  151.35300  121.82990
 4160.00000   82.91890  152.42190  121.07720
 4160.50000   83.41300  152.98700  122.56120
 4161.00000   83.56380  153.71900  124.68700
 4161.50000   83.62950  153.76090  123.76290
 4162.00000   84.04270  154.46960  122.60780
 4162.50000   84.26450  155.77130  121.45270
 4163.00000   84.46030  155.72020  119.75490
 4163.50000   84.83950  155.18420  117.98760
 4164.00000   85.10530  156.64720  116.77790
 4164.50000   85.10870  158.75560  116.96590
 4165.00000   85.17500  158.40190  118.87950
 4165.50000   85.17500  157.51750  122.57130
 4166.00000   85.17500  157.46310  125.48920
 4166.50000   85.10530  157.32920  123.84210
 4167.00000   84.94520  156.62810  121.78310
 4167.50000   84.74500  155.88440  119.79370
 4168.00000   84.54480  155.50060  119.63140
 4168.50000   83.96420  154.88170  119.78770
 4169.00000   83.03330  154.26280  120.27500
 4169.50000   82.76300  153.95030  121.67880
 4170.00000   82.98130  154.83520  120.68330
 4170.50000   83.39680  155.09850  118.89810
 4171.00000   83.82780  157.13750  117.70780
 4171.50000   83.97530  158.77590  118.06310
 4172.00000   84.28670  159.38080  119.03070
 4172.50000   85.15030  160.86620  120.19530
 4173.00000   85.94830  165.26260  121.27890
 4173.50000   86.13930  165.14030  120.56510
 4174.00000   86.54210  165.10490  117.99850
 4174.50000   87.07560  164.95780  116.33830
 4175.00000   86.82420  164.95780  117.67560
 4175.50000   86.71230  164.35800  119.19770
 4176.00000   86.43710  161.28270  121.07840
 4176.50000   86.29950  160.60000  118.95600
 4177.00000   86.40870  160.38820  116.08730
 4177.50000   86.31260  160.30440  113.95880
 4178.00000   86.06350  160.20380  114.49050
 4178.50000   86.11720  160.54770  117.34310
 4179.00000   86.36040  161.03280  119.07290
 4179.50000   86.31830  161.57960  118.93220
 4180.00000   86.39540  162.95000  116.76200
 4180.50000   86.60680  164.32050  115.27660
 4181.00000   86.60680  165.56310  116.46830
 4181.50000   86.54190  164.86230  117.17640
 4182.00000   86.54950  164.45580  116.50330
 4182.50000   86.60890  164.71240  116.87450
 4183.00000   86.81990  164.84170  117.89720
 4183.50000   87.22640  164.78030  118.38840
 4184.00000   87.63160  164.14870  116.37870
 4184.50000   87.68790  162.23870  110.49830
 4185.00000   87.47760  160.76040  107.79920
 4185.50000   86.75970  158.98050  103.83000
 4186.00000   85.87240  156.48430  105.12460
 4186.50000   84.98520  154.08550  106.49210
 4187.00000   84.56680  151.62330  107.85960
 4187.50000   82.99920  149.48730  107.47460
 4188.00000   81.16110  147.35130  109.76140
 4188.50000   80.78110  145.21540  112.60400
 4189.00000   80.03720  143.99610  115.91310
 4189.50000   79.01160  143.17170  118.16920
 4190.00000   77.58060  141.18240  119.92400
 4190.50000   76.73130  140.37020  120.27500
 4191.00000   76.37440  139.56430  116.95970
 4191.50000   75.87320  138.98990  107.40230
 4192.00000   75.37190  140.01610   99.75890
 4192.50000   74.92530  140.82040   98.58790
 4193.00000   75.68780  141.36330  101.38020
 4193.50000   77.44780  142.68950  106.58760
 4194.00000   79.20060  144.79250  111.95940
 4194.50000   80.16330  146.99880  118.92130
 4195.00000   80.70600  148.68040  123.64650
 4195.50000   81.41170  150.11240  122.89930
 4196.00000   82.10580  151.88060  121.23050
 4196.50000   82.34070  151.62330  120.27500
 4197.00000   82.36750  151.23070  119.80490
 4197.50000   82.24890  150.31460  118.62980
 4198.00000   81.31770  149.09430  117.45480
 4198.50000   80.90120  147.65540  116.30100
 4199.00000   80.06560  145.53180  112.30320
 4199.50000   78.56710  142.07030  109.38370
 4200.00000   77.66550  138.60880  109.78950
 4200.50000   77.24620  136.57090  112.23820
 4201.00000   76.81720  135.93220  109.29610
 4201.50000   76.12770  135.29340  104.45780
 4202.00000   75.31630  135.29340   99.61950
 4202.50000   75.16780  135.29340   99.21840
 4203.00000   74.83520  136.27430  102.29350
 4203.50000   74.96590  143.47030  106.13740
 4204.00000   75.04490  142.92800  108.44370
 4204.50000   75.91110  139.21720  108.44370
 4205.00000   76.78720  142.44040  107.84210
 4205.50000   77.52880  145.94390  112.16300
