~Version ---------------------------------------------------
VERS.   2.0 : CWLS log ASCII Standard -VERSION 2.0
WRAP.    NO : One line per depth step
DLM . SPACE : Column Data Section Delimiter
~Well ------------------------------------------------------
STRT .FT                1180.0 : START DEPTH
STOP .FT                5251.0 : STOP DEPTH
STEP .FT                   0.5 : STEP
NULL .                -9999.25 : NULL VALUE
COMP .                         : COMPANY
WELL .                         : WELL
FLD  .                         : FIELD
LOC  .                         : LOCATION
PROV .                         : PROVINCE
CNTY .                         : COUNTY
STAT .                         : STATE
CTRY .                         : COUNTRY
SRVC .                         : SERVICE COMPANY
DATE .                         : DATE
UWI  .                         : UNIQUE WELL ID
API  .                         : API NUMBER
SLAT .WGS84 3.6007186885056015 : SURFACE LATITUDE
SLON .WGS84 4.6236815450818085 : SURFACE LONGITUDE
DATUM.F                    nan : DEPTH DATUM ELEV
~Curve Information -----------------------------------------
DEPT .FT    : 
DTCO .US/F  : DELTA-T COMPRESSIONAL
DTSM .US/F  : DELTA-T SHEAR
HSGRS.GAPI  : HNGS STANDARD GAMMA RAY FROM SONIC LOG
~Params ----------------------------------------------------
~Other -----------------------------------------------------
~ASCII -----------------------------------------------------
# ...
 1981.00000   57.05770  131.60090   54.42820
 1981.50000   57.07120  130.39230   51.23320
 1982.00000   57.08460  129.95800   48.03820
 1982.50000   57.09810  130.00650   45.13580
 1983.00000   57.11160  130.18210   41.91140
 1983.50000   57.12500  130.72800   40.51470
 1984.00000   57.13850  131.18450   40.04200
 1984.50000   57.15200  131.30210   40.47170
 1985.00000   57.16540  131.41980   39.80560
 1985.50000   57.17890  131.59240   38.25450
 1986.00000   57.27810  131.61170   36.70340
 1986.50000   57.29790  131.63110   35.15220
 1987.00000   57.29790  131.03550   34.12460
 1987.50000   57.35800  129.97180   32.92900
 1988.00000   57.35460  129.02810   33.11820
 1988.50000   57.35130  128.76090   33.60900
 1989.00000   57.34790  129.12020   35.30660
 1989.50000   57.34460  129.20420   37.00420
 1990.00000   57.34120  128.78380   38.25520
 1990.50000   57.29780  128.19230   38.72020
 1991.00000   57.32700  127.60090   39.40140
 1991.50000   57.29780  127.00950   40.25290
 1992.00000   57.29780  126.04150   42.83730
 1992.50000   57.29780  125.07350   47.16970
 1993.00000   57.29780  124.15890   51.50210
 1993.50000   57.28690  123.75410   55.00410
 1994.00000   57.29780  123.83190   52.61000
 1994.50000   57.29780  123.90980   48.11280
 1995.00000   57.31990  123.98770   43.27170
 1995.50000   57.43040  124.36920   42.07170
 1996.00000   57.45960  124.57930   45.76040
 1996.50000   57.38450  127.26210   49.44910
 1997.00000   57.36150  130.18500   48.03410
 1997.50000   57.39610  132.49720   45.02130
 1998.00000   57.43080  132.42720   46.29850
 1998.50000   57.35410  131.86650   48.42720
 1999.00000   57.14120  131.16580   47.23510
 1999.50000   57.05760  129.99810   44.68070
 2000.00000   57.06000  128.51910   42.12620
 2000.50000   57.11130  128.05340   40.08260
 2001.00000   57.27600  127.77010   41.71750
 2001.50000   57.25300  127.48690   43.76100
 2002.00000   57.05770  126.41250   44.23790
 2002.50000   57.06030  125.00000   44.68070
 2003.00000   57.14600  124.57960   49.22200
 2003.50000   57.33440  124.57960   53.83430
 2004.00000   57.17240  124.57960   56.94220
 2004.50000   56.99430  124.29940   55.75010
 2005.00000   57.90940  125.07020   50.39510
 2005.50000   58.27550  126.12120   46.08560
 2006.00000   57.38420  126.82190   45.19160
 2006.50000   57.10400  127.52250   51.65930
 2007.00000   57.32800  128.36330   61.87120
 2007.50000   57.29980  128.77210   71.27630
 2008.00000   57.90000  129.18090   77.11030
 2008.50000   58.83610  130.32540   67.37480
 2009.00000   58.87610  131.58670   56.68470
 2009.50000   58.88610  132.00710   48.73910
 2010.00000   58.89860  133.28820   44.91030
 2010.50000   58.91120  135.09000   40.39940
 2011.00000   58.87610  136.21120   38.15180
 2011.50000   57.07430  136.63160   38.03390
 2012.00000   56.95420  136.78730   38.07320
 2012.50000   57.01050  136.91180   36.90360
 2013.00000   57.15140  137.19200   35.62950
 2013.50000   57.29220  136.42130   36.03070
 2014.00000   57.43300  132.56750   39.37210
 2014.50000   57.57380  132.84790   42.71360
 2015.00000   57.71160  132.99730   45.56730
 2015.50000   57.97380  132.34340   45.25610
 2016.00000   58.29520  131.68940   47.11580
 2016.50000   58.58730  131.16620   51.40040
 2017.00000   58.83380  131.02600   55.68490
 2017.50000   58.95560  124.75480   55.38410
 2018.00000   58.91620  122.47760   51.67890
 2018.50000   58.74540  102.38740   48.69120
 2019.00000   58.51880   71.25160   46.25830
 2019.50000   58.29210   68.51890   44.75470
 2020.00000   57.97480   72.20260   44.05150
 2020.50000   57.27460   80.01030   45.25480
 2021.00000   57.19440   80.15030   46.85920
 2021.50000   56.73040   80.43070   53.66230
 2022.00000   56.59730   81.41150   65.61810
 2022.50000   56.58140   83.26010   77.57380
 2023.00000   56.71450   91.58170   83.15830
 2023.50000   56.80010   98.71860   80.15940
 2024.00000   56.88570  102.43990   76.60740
 2024.50000   56.95420  110.88630   75.13640
 2025.00000   56.93730  112.10170   76.68290
 2025.50000   56.89500  112.10170   78.61600
 2026.00000   56.85280  112.10170   80.54910
 2026.50000   56.81050  117.56710   80.75260
 2027.00000   56.76830  116.77300   78.07940
 2027.50000   56.72600  115.18480   74.56600
 2028.00000   56.68370  131.70200   71.75520
 2028.50000   56.64150  133.80410   72.46740
 2029.00000   56.69780  147.61010   74.24770
 2029.50000   56.70020  145.76020   75.67200
 2030.00000   56.76320  157.02420   74.96390
 2030.50000   56.93750  194.51600   73.54430
 2031.00000   56.90220  176.96630   71.74480
 2031.50000   56.87400  176.12550   67.31670
 2032.00000   60.79790  166.75620   59.59520
 2032.50000   60.09720  156.78640   49.10900
 2033.00000   59.93210  156.36600   42.38080
 2033.50000   59.95710  152.30200   39.49390
 2034.00000   57.23440  149.07880   39.56710
 2034.50000   57.23440  149.07880   40.19960
 2035.00000   59.39990  149.21900   41.18880
 2035.50000   59.74320  149.77960   44.07930
 2036.00000   59.48940  146.99670   47.62240
 2036.50000   59.03620  139.68960   51.16550
 2037.00000   59.00190  138.84880   52.47570
 2037.50000   59.01640  138.28820   49.51890
 2038.00000   59.03090  135.94080   45.59360
 2038.50000   58.96790  135.06510   41.66830
 2039.00000   58.63070  133.94380   38.43150
 2039.50000   58.55740  133.24320   39.39060
 2040.00000   58.85320  132.68290   43.15540
 2040.50000   59.59680  132.26250   46.92020
 2041.00000   59.51670  131.42160   50.68500
 2041.50000   59.31660  130.58080   53.79230
 2042.00000   57.88080  131.84220   53.73240
 2042.50000   56.75400  132.68290   53.07670
 2043.00000   56.71400  133.24350   54.72120
 2043.50000   56.97730  133.38370   60.29990
 2044.00000   57.24060  133.38370   71.34720
 2044.50000   57.29790  133.80410   79.95030
 2045.00000   57.41800  138.14830   76.60010
 2045.50000   57.49310  140.25030   67.72320
 2046.00000   57.48480  144.82240   57.94510
 2046.50000   57.24210  147.81780   55.68380
 2047.00000   57.21430  151.18110   62.31860
 2047.50000   57.16970  157.20710   73.37660
 2048.00000   57.15960  163.65350   84.91720
 2048.50000   57.35670  167.37620   97.18180
 2049.00000   57.74000  171.15820  109.44640
 2049.50000   57.15440  167.06670  119.45860
 2050.00000   86.12180  162.81270  117.27130
 2050.50000   81.35040  159.64550  110.80020
 2051.00000   58.05410  157.62750  103.23570
 2051.50000   57.97410  155.65360   99.36890
 2052.00000   58.36590  152.43050   95.30770
 2052.50000   58.68320  152.01010   81.53800
 2053.00000   61.04910  150.60870   69.09420
 2053.50000   72.14800  145.56370   56.65040
 2054.00000   70.73870  140.79910   45.85690
 2054.50000   70.66650  139.11730   48.46400
 2055.00000   70.19430  137.29560   51.97370
 2055.50000   70.43550  136.73500   54.07940
 2056.00000   71.02670  136.73500   50.96580
 2056.50000   71.75630  137.83280   48.23800
 2057.00000   72.21210  139.11730   47.32620
 2057.50000   72.35710  139.11730   48.33290
 2058.00000   73.20240  139.11730   49.56560
 2058.50000   73.75410  139.11730   48.97380
 2059.00000   73.88380  138.97730   48.47630
 2059.50000   76.37620  135.50180   47.91430
 2060.00000   75.99580  133.79210   46.92460
 2060.50000   71.01090  133.79210   46.17740
 2061.00000   66.02600  134.21250   46.17270
 2061.50000   61.04110  134.21250   46.16800
 2062.00000   57.05320  134.43890   46.16330
 2062.50000   57.37350  134.81630   44.03830
 2063.00000   57.53370  135.19360   39.51640
 2063.50000   57.53370  135.19360   34.47760
 2064.00000   57.86230  135.19360   32.41970
 2064.50000   57.85400  135.33370   33.25840
 2065.00000   58.91220  135.75400   35.35500
 2065.50000   58.92360  136.31460   37.03230
 2066.00000   57.69380  136.45480   37.63400
 2066.50000   58.29440  135.89420   37.73680
 2067.00000   57.85250  135.75400   37.24820
 2067.50000   56.96760  135.75400   36.64660
 2068.00000   56.69730  136.14640   37.55380
 2068.50000   56.67330  136.77710   39.17880
 2069.00000   56.57710  137.29560   40.74930
 2069.50000   56.57630  137.29560   41.15890
