~Version ---------------------------------------------------
VERS.   2.0 : CWLS log ASCII Standard -VERSION 2.0
WRAP.    NO : One line per depth step
DLM . SPACE : Column Data Section Delimiter
~Well ------------------------------------------------------
STRT .FT                1180.0 : START DEPTH
STOP .FT                5251.0 : STOP DEPTH
STEP .FT                   0.5 : STEP
NULL .                -9999.25 : NULL VALUE
COMP .                         : COMPANY
WELL .                         : WELL
FLD  .                         : FIELD
LOC  .                         : LOCATION
PROV .                         : PROVINCE
CNTY .                         : COUNTY
STAT .                         : STATE
CTRY .                         : COUNTRY
SRVC .                         : SERVICE COMPANY
DATE .                         : DATE
UWI  .                         : UNIQUE WELL ID
API  .                         : API NUMBER
SLAT .WGS84 3.6007186885056015 : SURFACE LATITUDE
SLON .WGS84 4.6236815450818085 : SURFACE LONGITUDE
DATUM.F                    nan : DEPTH DATUM ELEV
~Curve Information -----------------------------------------
DEPT .FT    : 
DTCO .US/F  : DELTA-T COMPRESSIONAL
DTSM .US/F  : DELTA-T SHEAR
HSGRS.GAPI  : HNGS STANDARD GAMMA RAY FROM SONIC LOG
~Params ----------------------------------------------------
~Other -----------------------------------------------------
~ASCII -----------------------------------------------------
# ...
 3583.00000   83.78600  155.47850  111.25140
 3583.50000   83.75260  157.42450  110.86260
 3584.00000   84.08070  161.23850  112.09340
 3584.50000   84.78500  162.92510  112.75560
 3585.00000   85.86470  164.63830  113.80840
 3585.50000   86.27110  166.05540  115.70640
 3586.00000   86.40230  166.06620  117.30580
 3586.50000   86.53350  165.72330  119.34460
 3587.00000   86.41400  164.81250  120.33050
 3587.50000   86.23200  164.26980  120.09000
 3588.00000   86.04990  163.72720  117.29260
 3588.50000   85.86780  163.18450  112.30430
 3589.00000   85.74410  162.76410  108.04260
 3589.50000   85.80100  163.03920  109.04540
 3590.00000   85.88600  163.60040  115.06190
 3590.50000   86.33650  163.91210  118.87230
 3591.00000   87.51360  166.46000  118.40440
 3591.50000   88.32820  168.22930  117.95870
 3592.00000   88.45590  168.98600  118.85650
 3592.50000   88.66860  169.66920  121.62990
 3593.00000   89.45960  170.64670  123.06210
 3593.50000   90.03010  172.10980  124.70690
 3594.00000   90.20830  172.85940  124.01280
 3594.50000   90.30720  173.14820  123.14280
 3595.00000   90.44730  173.62260  125.08940
 3595.50000   90.44960  173.67430  126.64920
 3596.00000   90.48930  173.72600  127.89700
 3596.50000   90.71290  173.90490  126.69370
 3597.00000   91.04270  174.29610  125.49050
 3597.50000   91.27680  174.76770  122.03470
 3598.00000   91.35950  174.93850  117.87330
 3598.50000   91.39200  175.00350  113.51010
 3599.00000   91.41570  175.31760  113.22200
 3599.50000   91.50460  175.37660  116.69850
 3600.00000   91.37480  175.33790  121.27800
 3600.50000   91.24500  175.16610  124.18690
 3601.00000   91.19310  175.25010  125.23980
 3601.50000   91.21590  175.35820  125.08940
 3602.00000   91.33000  175.57390  125.45070
 3602.50000   91.44410  176.00230  127.35740
 3603.00000   91.55810  176.33220  129.39990
 3603.50000   91.67220  176.66210  129.21240
 3604.00000   91.78630  176.99200  128.80130
 3604.50000   91.84200  177.00830  126.96950
 3605.00000   91.89200  176.69400  129.07780
 3605.50000   91.94780  176.60840  127.69650
 3606.00000   91.79560  176.21450  128.89980
 3606.50000   91.62570  176.00700  127.69650
 3607.00000   91.45590  175.77670  129.15300
 3607.50000   91.22960  175.40090  126.64860
 3608.00000   91.05110  175.37630  128.16570
 3608.50000   91.04550  175.49100  127.70280
 3609.00000   90.97890  175.68210  127.29540
 3609.50000   91.04360  175.94160  127.09490
 3610.00000   91.17430  176.66570  127.33060
 3610.50000   91.33210  177.05520  128.61760
 3611.00000   91.22960  175.58060  127.34550
 3611.50000   90.98000  174.52410  125.84140
 3612.00000   90.93830  176.29410  125.98340
 3612.50000   90.94730  176.99510  127.14900
 3613.00000   90.95630  173.46050  128.57010
 3613.50000   90.96540  169.92580  125.08180
 3614.00000   90.97440  169.70090  124.75750
 3614.50000   90.97190  169.49070  126.14840
 3615.00000   90.96650  170.91280  126.37140
 3615.50000   90.87870  172.95160  125.46000
 3616.00000   90.49990  172.13370  125.80890
 3616.50000   90.15670  171.18710  126.89880
 3617.00000   89.84280  170.43670  129.10030
 3617.50000   88.88300  166.69120  130.10310
 3618.00000   87.92320  163.72920  129.50150
 3618.50000   87.08720  160.76710  125.44330
 3619.00000   85.76280  158.56000  121.37330
 3619.50000   84.41820  157.68910  117.30330
 3620.00000   83.60340  154.60330  113.60810
 3620.50000   83.36210  154.12210  111.09120
 3621.00000   83.24340  155.51170  109.11850
 3621.50000   83.18340  156.87740  106.71910
 3622.00000   83.24340  158.37010  106.03860
 3622.50000   83.24340  159.71590  110.48110
 3623.00000   83.64240  160.61670  116.03410
 3623.50000   84.58590  161.29240  118.62330
 3624.00000   85.47200  164.58800  117.63810
 3624.50000   86.08090  166.03370  114.73220
 3625.00000   86.42210  167.07310  113.54700
 3625.50000   87.35620  169.80580  117.17160
 3626.00000   88.13820  171.17220  122.20390
 3626.50000   88.40850  171.59260  127.04650
 3627.00000   88.45650  170.63710  129.80770
 3627.50000   88.32040  169.68160  131.17260
 3628.00000   87.58980  168.75480  129.99750
 3628.50000   87.08720  166.98280  125.24150
 3629.00000   86.46700  165.93510  118.64980
 3629.50000   86.46700  165.06980  112.05810
 3630.00000   86.48340  164.90730  105.46650
 3630.50000   86.48670  164.90800  102.82980
 3631.00000   86.28380  165.07640  107.72900
 3631.50000   86.25800  165.27610  113.20840
 3632.00000   87.04550  165.47580  117.02730
 3632.50000   87.53560  165.67550  118.62750
 3633.00000   87.76920  166.72690  123.08560
 3633.50000   87.98630  165.71670  121.96600
 3634.00000   88.27860  165.33820  120.81720
 3634.50000   88.40850  165.66970  120.34270
 3635.00000   88.70880  165.96980  120.87950
 3635.50000   89.03590  167.17880  122.31920
 3636.00000   88.81190  167.28370  124.56380
 3636.50000   88.64600  167.38870  126.40570
 3637.00000   88.33280  167.06620  125.08560
 3637.50000   87.52540  163.76930  126.21760
 3638.00000   86.96710  160.10250  122.08280
 3638.50000   86.56400  159.19060  121.88230
 3639.00000   85.91130  157.29870  120.81270
 3639.50000   85.51480  155.90610  118.67340
 3640.00000   85.27030  154.56600  118.47120
 3640.50000   84.62560  153.61510  119.27340
 3641.00000   83.99010  149.74340  120.87780
 3641.50000   83.82630  148.18090  121.07840
 3642.00000   83.62150  146.97710  125.08940
 3642.50000   83.08880  146.45440  125.08940
 3643.00000   82.52420  145.49690  110.67490
 3643.50000   82.36050  144.64400   92.14910
 3644.00000   82.23110  145.06610   74.87670
 3644.50000   81.99730  147.44350   62.51790
 3645.00000   81.94300  149.03740   62.31730
 3645.50000   81.94270  150.06210   62.31730
 3646.00000   82.37610  151.08690   63.10890
 3646.50000   82.78770  152.11160   63.90060
 3647.00000   82.86750  152.57670   64.69220
 3647.50000   82.86870  153.18770   65.32550
 3648.00000   82.56750  154.22270   65.52610
 3648.50000   81.81100  154.68140   65.92720
 3649.00000   81.88360  155.37190   64.74330
 3649.50000   82.58070  156.77800   63.42480
 3650.00000   83.27790  159.17670   63.08860
 3650.50000   83.47240  159.31790   62.81960
 3651.00000   84.11210  158.98950   63.74710
 3651.50000   84.56470  158.65140   65.92810
 3652.00000   84.62120  158.19460   77.56540
 3652.50000   84.37850  157.26140   93.75080
 3653.00000   84.05340  153.55140  103.96680
 3653.50000   83.82540  152.47040   93.98740
 3654.00000   83.40400  151.14620   80.28220
 3654.50000   83.16000  148.78470   69.83790
 3655.00000   83.12320  147.67760   64.12310
 3655.50000   82.97640  147.84900   61.91710
 3656.00000   82.55450  148.02040   63.87250
 3656.50000   82.52260  148.30700   66.63010
 3657.00000   82.77250  148.90390   69.88900
 3657.50000   83.08040  151.48900   70.39020
 3658.00000   83.24340  152.43800   68.21420
 3658.50000   83.13070  152.23850   65.37660
 3659.00000   82.75000  151.02540   65.60220
 3659.50000   82.52260  150.36130   68.60490
 3660.00000   82.43800  150.58870   73.90990
 3660.50000   82.36250  149.86800   78.16550
 3661.00000   82.25490  149.06930   81.57010
 3661.50000   82.22900  149.98490   76.01640
 3662.00000   82.16090  150.94030   69.76850
 3662.50000   82.16030  151.44190   63.52060
 3663.00000   82.22700  152.17430   62.74350
 3663.50000   82.21110  152.29100   62.67970
 3664.00000   82.00220  153.12920   60.32840
 3664.50000   81.84160  152.94960   59.48900
 3665.00000   81.57230  152.22000   60.64150
 3665.50000   81.05560  152.23720   61.79400
 3666.00000   81.29220  152.25430   60.83930
 3666.50000   81.53860  152.41520   59.01380
 3667.00000   81.76320  152.45920   57.18840
 3667.50000   82.06730  152.50310   57.34650
 3668.00000   82.21590  152.17420   59.23640
 3668.50000   82.37380  152.50270   66.45590
 3669.00000   82.81510  152.60890   75.77690
 3669.50000   83.49290  152.92260   81.36950
 3670.00000   83.78990  152.94210   77.93790
 3670.50000   83.82540  153.09440   69.35880
 3671.00000   83.80100  152.72050   65.92720
 3671.50000   83.72130  151.59330   68.48420
