~Version ---------------------------------------------------
VERS.   2.0 : CWLS log ASCII Standard -VERSION 2.0
WRAP.    NO : One line per depth step
DLM . SPACE : Column Data Section Delimiter
~Well ------------------------------------------------------
STRT .F                  226.0 : START DEPTH
STOP .F                10621.0 : STOP DEPTH
STEP .F                    0.5 : STEP
NULL .                -9999.25 : NULL VALUE
COMP .                         : COMPANY
WELL .                         : WELL
FLD  .                         : FIELD
LOC  .                         : LOCATION
PROV .                         : PROVINCE
CNTY .                         : COUNTY
STAT .                         : STATE
CTRY .                         : COUNTRY
SRVC .                         : SERVICE COMPANY
DATE .                         : DATE
UWI  .                         : UNIQUE WELL ID
API  .                         : API NUMBER
SLAT .WGS84 3.1294088764448986 : SURFACE LATITUDE
SLON .WGS84     8.694246695527 : SURFACE LONGITUDE
DATUM.F                    nan : DEPTH DATUM ELEV
~Curve Information -----------------------------------------
DEPT .F     : 
DPHZ .DEC   : DENSITY POROSITY LIMESTONE
HCALD.IN    : HILT CALIPER
HSGR .GAPI  : STANDARD GAMMA RAY, SPECTROSCOPY GAMMA RAY
PEFZ .B/E   : HILT PHOTOELECTRIC FACTOR
TNPH .DEC   : THERMAL NEUTRON POROSITY LIMESTONE
HDRA .G/C3  : DELTA RHO HIP TOOL
RHOZ .G/C3  : HILT BULK DENSITY
DT   .US/F  : INTERVAL TRANSIT TIME
DTCO .US/F  : COMPRESSIONAL-WAVE INTERVAL TRANSIT TIME ACOUSTIC SLOWNESS
DTSM .US/F  : SHEAR-WAVE INTERVAL TRANSIT TIME DELTA-T
RLA3 .OHMM  : HRLTB RESISTIVITY 3
RLA4 .OHMM  : HTLTB RESISTIVITY 4
RLA5 .OHMM  : HRLTB RESISTIVITY 5
~Params ----------------------------------------------------
~Other -----------------------------------------------------
~ASCII -----------------------------------------------------
# ...
 4776.00000   -0.07130    9.40120   40.89850    3.39130    0.02950    0.00690    2.81240   48.12640   -9999.25   -9999.25  558.35400  881.73990 1327.20780
 4776.50000   -0.07160    9.40100   38.47200    3.39140    0.02860    0.00830    2.82240   48.21670   -9999.25   -9999.25  607.47320 1196.65920 1776.55000
 4777.00000   -0.07070    9.40090   37.86650    3.42170    0.03070    0.00530    2.82790   48.39730   -9999.25   -9999.25  619.09330 1504.67590 1649.75700
 4777.50000   -0.06350    9.40070   37.71620    3.45190    0.03190    0.00380    2.83010   48.75850   -9999.25   -9999.25  561.71230 1658.22490 1751.51090
 4778.00000   -0.05780    9.40060   38.78000    3.31670    0.03380    0.00370    2.82740   49.39050   -9999.25   -9999.25  488.89340 1525.70860 1066.10890
 4778.50000   -0.04860    9.40040   40.32080    3.12140    0.03560    0.00370    2.81280   50.29350   -9999.25   -9999.25  425.51450  992.16490  838.53710
 4779.00000   -0.03290    9.41550   43.33680    3.07640    0.03800    0.00370    2.80090   50.92550   -9999.25   -9999.25  386.08850  729.45480  886.33280
 4779.50000   -0.02210    9.40020   53.95930    3.09160    0.04100    0.00360    2.78850   51.37950   -9999.25   -9999.25  309.20210  627.56250  544.97530
 4780.00000   -0.02750    9.40000   60.33410    3.09170    0.04490    0.00360    2.77720   51.74410   -9999.25   -9999.25  235.89230  333.68440  260.95150
 4780.50000   -0.02910    9.39980   60.79080    3.09190    0.04770    0.00360    2.76250   52.27990   -9999.25   -9999.25  173.83010  195.53900  208.91520
 4781.00000   -0.02940    9.39970   63.82720    3.06200    0.04680    0.00350    2.74880   53.31830   -9999.25   -9999.25  169.00390  280.52910  291.54680
 4781.50000   -0.02070    9.39950   69.74680    2.92680    0.04650    0.00350    2.75100   53.95030   -9999.25   -9999.25  208.79670  315.66130  337.28580
 4782.00000   -0.01200    9.39940   75.41930    2.83670    0.05460    0.00350    2.75630   54.40180   -9999.25   -9999.25  224.59190  158.78300  149.88790
 4782.50000   -0.00780    9.39920   80.22000    2.82180    0.05940    0.00350    2.75730   54.94360   -9999.25   -9999.25   85.04210   73.99950   73.66020
 4783.00000   -0.01580    9.39910   81.58720    2.98190    0.06220    0.00340    2.74220   53.18280   -9999.25   -9999.25   72.99780   79.87050   70.64630
 4783.50000   -0.03420    9.39890   79.70880    3.16800    0.06280    0.00340    2.72560   50.60950   -9999.25   -9999.25   99.72250  121.12830  110.17380
 4784.00000   -0.06000    9.39880   69.75450    3.30350    0.05040    0.00340    2.73000   49.39050   -9999.25   -9999.25  159.79160  195.91520  189.37110
 4784.50000   -0.08590    9.39860   58.52680    3.42390    0.03960    0.00330    2.74920   47.05900   -9999.25   -9999.25  308.77320  291.60860  344.09830
 4785.00000   -0.08890    9.44390   40.01540    3.52930    0.02990    0.00330    2.78110   45.82390   -9999.25   -9999.25  501.67690  869.58460 1030.96790
 4785.50000   -0.08630    9.47410   30.60870    3.61970    0.01640    0.00330    2.81430   45.46280   -9999.25   -9999.25  798.31180 2013.92970 5384.25880
 4786.00000   -0.08450    9.48910   26.81660    3.66500    0.01100    0.00320    2.83780   45.77880   -9999.25   -9999.25  916.96910 4272.73290 3598.36210
 4786.50000   -0.08750    9.48890   27.88030    3.66510    0.01040    0.00320    2.84740   46.23020   -9999.25   -9999.25  923.22580 5275.79250 4816.62990
 4787.00000   -0.08760    9.50390   28.64050    3.62020    0.01340    0.00320    2.85210   46.63660   -9999.25   -9999.25  923.09600 6879.84420 7205.21480
 4787.50000   -0.08670    9.51890   30.46290    3.48500    0.02000    0.00320    2.85340   46.90740   -9999.25   -9999.25  922.94450 9208.31050 9218.91110
 4788.00000   -0.07810    9.54910   35.32020    3.36210    0.02670    0.00310    2.85340   46.95260   -9999.25   -9999.25  781.31770 2329.94140 1541.13900
 4788.50000   -0.07260    9.57920   41.84680    3.28980    0.02850    0.00310    2.85010   46.68170   -9999.25   -9999.25  587.88110 1504.67590 1964.56970
 4789.00000   -0.07140    9.59500   51.86340    3.38020    0.02910    0.00160    2.84450   46.36460   -9999.25   -9999.25  749.26890 2603.59890 2120.74410
 4789.50000   -0.07140    9.60920   65.20150    3.42540    0.02640    0.00000    2.82630   46.17930   -9999.25   -9999.25  825.55790 2695.53930 2611.72610
 4790.00000   -0.07140    9.63940   70.39930    3.42560    0.02520    0.00000    2.82320   46.04970   -9999.25   -9999.25  872.53950 2829.73580 3325.68580
 4790.50000   -0.07660    9.66950   70.68430    3.42570    0.02400   -0.00000    2.83110   45.95940   -9999.25   -9999.25  780.78880 2950.06640 2877.58570
 4791.00000   -0.08780    9.66940   69.47220    3.42590    0.02250    0.00140    2.85330   45.91420   -9999.25   -9999.25  698.68580 2790.72630 3105.64720
 4791.50000   -0.09950    9.65410   64.31430    3.38090    0.02070    0.00290    2.86310   45.77880   -9999.25   -9999.25  885.25630 3096.93460 6219.46390
 4792.00000   -0.10770    9.66910   56.88030    3.41110    0.01920    0.00440    2.87020   45.50790   -9999.25   -9999.25  996.55740 8531.44240 22478.30860
 4792.50000   -0.11010    9.66890   45.80440    3.60680    0.01770    0.00590    2.87740   45.14670   -9999.25   -9999.25 1029.86460 29347.49610 76317.75000
 4793.00000   -0.10780    9.65360   41.40530    3.66740    0.01650    0.00580    2.88000   44.78560   -9999.25   -9999.25 1058.65600 41082.33200 98668.99220
 4793.50000   -0.10540    9.65350   40.79980    3.71230    0.01530    0.00580    2.88420   44.51470   -9999.25   -9999.25 1065.87940 79239.46090 55046.35550
 4794.00000   -0.10600    9.65330   45.05020    3.60720    0.01440    0.00580    2.88490   44.46950   -9999.25   -9999.25 1073.17640 63410.38280 87655.98440
 4794.50000   -0.10820    9.65320   51.12150    3.51720    0.01410    0.00580    2.88490   44.52270   -9999.25   -9999.25 1043.63680 33022.84380 44369.32420
 4795.00000   -0.10940    9.65300   46.87410    3.42710    0.01320    0.00570    2.88420   44.60500   -9999.25   -9999.25  980.35220 17559.47460 17011.19340
 4795.50000   -0.10610    9.65290   40.65400    3.36700    0.01300    0.00570    2.88060   44.87580   -9999.25   -9999.25  920.90520 7122.79100 9230.61430
 4796.00000   -0.09890    9.65330   39.12130    3.30710    0.01510    0.00260    2.86730   45.23700   -9999.25   -9999.25  871.08330 7581.91750 7389.69970
 4796.50000   -0.09890    9.66770   38.98780    3.29220    0.01660    0.00260    2.83830   45.59820   -9999.25   -9999.25  841.30870 5509.60450 5999.08400
 4797.00000   -0.07420    9.66750   42.63160    3.48780    0.01780    0.00260    2.82930   46.00450   -9999.25   -9999.25  946.42600 12154.93650 10168.87110
 4797.50000   -0.08180    9.66740   43.99870    3.66840    0.01870    0.00260    2.82620   45.59820   -9999.25   -9999.25  966.19810 23339.87700 27262.78710
 4798.00000   -0.09240    9.66720   45.06250    3.77380    0.01930    0.00250    2.83000   45.14670   -9999.25   -9999.25  933.13590 22387.86330 20140.30080
 4798.50000   -0.09480    9.66710   50.37500    3.80410    0.02020    0.00250    2.83660   44.87500   -9999.25   -9999.25  822.51290 11430.03320 2753.99830
 4799.00000   -0.09630    9.66700   53.56320    3.81920    0.02060    0.00250    2.84760   44.59940   -9999.25   -9999.25  773.57040 2567.70680 2412.37570
 4799.50000   -0.09370    9.65170   54.06820    3.83500    0.01970    0.00090    2.85930   44.28890   -9999.25   -9999.25  823.25980 4795.50200 3789.14870
 4800.00000   -0.08640    9.66670   53.56600    3.75940    0.01790   -0.00030    2.86050   44.15350   -9999.25   -9999.25  888.40410 5988.14400 6559.44730
 4800.50000   -0.07830    9.64480   45.50110    3.60430    0.01700    0.00090    2.85180   45.10160   -9999.25   -9999.25  932.47270 7323.31050 7656.03910
 4801.00000   -0.07320    9.63600   36.88060    3.47270    0.01660    0.00080    2.84320   45.37250   -9999.25   -9999.25  887.92740 6879.84420 2811.09620
 4801.50000   -0.07060    9.62080   34.15220    3.39710    0.01970    0.00080    2.83450   45.41760   -9999.25   -9999.25  758.76600 1921.42040 1528.29490
