~Version ---------------------------------------------------
VERS.   2.0 : CWLS log ASCII Standard -VERSION 2.0
WRAP.    NO : One line per depth step
DLM . SPACE : Column Data Section Delimiter
~Well ------------------------------------------------------
STRT .F                  226.0 : START DEPTH
STOP .F                10621.0 : STOP DEPTH
STEP .F                    0.5 : STEP
NULL .                -9999.25 : NULL VALUE
COMP .                         : COMPANY
WELL .                         : WELL
FLD  .                         : FIELD
LOC  .                         : LOCATION
PROV .                         : PROVINCE
CNTY .                         : COUNTY
STAT .                         : STATE
CTRY .                         : COUNTRY
SRVC .                         : SERVICE COMPANY
DATE .                         : DATE
UWI  .                         : UNIQUE WELL ID
API  .                         : API NUMBER
SLAT .WGS84 3.1294088764448986 : SURFACE LATITUDE
SLON .WGS84     8.694246695527 : SURFACE LONGITUDE
DATUM.F                    nan : DEPTH DATUM ELEV
~Curve Information -----------------------------------------
DEPT .F     : 
DPHZ .DEC   : DENSITY POROSITY LIMESTONE
HCALD.IN    : HILT CALIPER
HSGR .GAPI  : STANDARD GAMMA RAY, SPECTROSCOPY GAMMA RAY
PEFZ .B/E   : HILT PHOTOELECTRIC FACTOR
TNPH .DEC   : THERMAL NEUTRON POROSITY LIMESTONE
HDRA .G/C3  : DELTA RHO HIP TOOL
RHOZ .G/C3  : HILT BULK DENSITY
DT   .US/F  : INTERVAL TRANSIT TIME
DTCO .US/F  : COMPRESSIONAL-WAVE INTERVAL TRANSIT TIME ACOUSTIC SLOWNESS
DTSM .US/F  : SHEAR-WAVE INTERVAL TRANSIT TIME DELTA-T
RLA3 .OHMM  : HRLTB RESISTIVITY 3
RLA4 .OHMM  : HTLTB RESISTIVITY 4
RLA5 .OHMM  : HRLTB RESISTIVITY 5
~Params ----------------------------------------------------
~Other -----------------------------------------------------
~ASCII -----------------------------------------------------
# ...
 9014.00000   -0.00060    9.94230   55.27650    5.13550   -0.00950    0.01090    2.71140   -9999.25   49.90330   92.78430  472.17350  996.33190 1997.23230
 9014.50000   -0.00460    9.92770   56.60090    5.10540   -0.00830    0.01090    2.71220   -9999.25   50.13930   92.62740  360.11500  717.76400 1739.09230
 9015.00000    0.00330    9.94380   55.69040    5.07530   -0.00740    0.01090    2.70780   -9999.25   50.46940   92.62740  313.36670  546.69610 1002.52170
 9015.50000    0.00870    9.94460   53.71780    5.04520   -0.00620    0.00940    2.69770   -9999.25   50.98800   93.09800  278.31550  455.84270  830.50770
 9016.00000    0.01110    9.95190   52.20030    5.04520   -0.00430    0.00940    2.69160   -9999.25   51.03550   93.25490  217.25740  381.81710  528.08440
 9016.50000    0.01290    9.96130   51.59330    5.04520   -0.00230    0.00790    2.68940   -9999.25   50.84760   93.41180  130.59230  174.12380  227.37920
 9017.00000    0.01480    9.96920   52.20030    5.06020   -0.00260    0.00640    2.68890   -9999.25   50.56550   93.41180  121.81420  164.59980  248.55230
 9017.50000    0.01670    9.98680   59.48410    5.07530   -0.00440    0.00640    2.68760   -9999.25   50.03640   93.56860  195.22890  368.76110  431.16380
 9018.00000    0.01840    9.99700   71.92720    5.13550   -0.00560    0.00800    2.68560   -9999.25   48.82400   93.56860  308.59380  625.46760  823.57640
 9018.50000    0.01660   10.01170   77.57570    5.16570   -0.00620    0.00950    2.68240   -9999.25   48.25930   94.03920  364.44250  866.93050 1232.95000
 9019.00000    0.01720   10.01470   79.98920    5.18070   -0.00530    0.01100    2.67910   -9999.25   48.35390   94.19610  354.38040  825.08470 1035.72010
 9019.50000    0.02080    9.99610   83.45980    5.22590   -0.00350    0.01560    2.67340   -9999.25   48.49570   94.19610  244.94340  443.70260  672.46890
 9020.00000    0.02690    9.96640   89.07440    5.29020   -0.00170    0.02310    2.66790   -9999.25   48.96710   94.19610  172.08830  271.71960  448.94760
 9020.50000    0.03230    9.93690   94.99240    5.49700    0.00200    0.03380    2.66110   -9999.25   50.28620   94.66670  140.68880  216.24920  264.42200
 9021.00000    0.03830    9.92250   97.57210    5.76810    0.00650    0.02170    2.64460   -9999.25   52.45310   95.45100  159.37320  196.02220  220.15730
 9021.50000    0.04080    9.92330   87.86040    6.40060    0.01050    0.00810    2.65270   -9999.25   54.81760   96.55650  108.01550  136.38450  178.26910
 9022.00000    0.04150    9.92400   77.08650    6.88250    0.01550    0.00350    2.67730   -9999.25   55.56230   98.66910   64.61370   64.25590   72.36980
 9022.50000    0.02990    9.93440   71.62370    7.01810    0.02030    0.00050    2.68490   -9999.25   54.99760  100.78430   51.37480   55.86270   59.53660
 9023.00000    0.01790    9.94090   69.34750    6.91270    0.01670    0.00810    2.69070   -9999.25   55.18660   99.21570   49.95640   58.20250   68.41250
 9023.50000    0.00710    9.94320   67.82040    6.64160    0.01040    0.02500    2.69460   -9999.25   55.84640   96.86270   73.66570   78.33680   92.26250
 9024.00000    0.00590    9.95740   66.70590    6.37050    0.00770    0.03860    2.69610   -9999.25   55.65840   94.82350   92.60530   97.94340  111.31170
 9024.50000    0.00890    9.95820   64.18820    6.31020    0.00350    0.03240    2.69590   -9999.25   54.76410   94.03920   83.42950  119.76600  130.60570
 9025.00000    0.01130    9.95900   60.39450    6.21230    0.00110    0.01570    2.69530   -9999.25   54.24650   93.56860  104.15390  147.47370  151.12520
 9025.50000    0.01190    9.97500   55.23520    5.88860   -0.00110    0.00360    2.69610   -9999.25   53.96440   93.25490  172.82990  197.41360  264.23070
 9026.00000    0.00980    9.97570   52.80730    5.57230   -0.00320    0.00210    2.69760   -9999.25   53.67620   93.41180  151.44150  257.00780  318.13340
 9026.50000    0.00890    9.97650   52.65550    5.39160   -0.00500    0.00370    2.69910   -9999.25   53.02350   93.25490  193.21390  494.11390  479.56210
 9027.00000    0.00950    9.97720   52.95900    5.25600   -0.00740    0.00820    2.70040   -9999.25   52.41170   92.94120  336.24980  822.60560  961.76900
 9027.50000    0.00710    9.97800   53.26250    5.16570   -0.00860    0.00980    2.70210   -9999.25   51.75280   92.62740  422.70050 1236.50720 1480.49190
 9028.00000    0.00560    9.99410   49.46890    5.16570   -0.00800    0.00830    2.70380   -9999.25   51.14100   92.62740  462.50550 1390.82740 1888.46390
 9028.50000    0.00410    9.99480   45.35220    5.19580   -0.00680    0.00980    2.70550   -9999.25   52.08340   93.25490  347.87870  818.78640 1984.33530
 9029.00000    0.00290    9.99900   43.22670    5.16570   -0.00590    0.01610    2.70810   -9999.25   53.49670   94.35290  269.02730  478.67930  994.75980
 9029.50000    0.00170   10.01150   42.48860    5.13550   -0.00500    0.01560    2.70250   -9999.25   54.91010   97.01960  296.41130  427.90620  702.14500
 9030.00000    0.00170   10.01220   45.67530    5.10540   -0.00320    0.00980    2.69280   -9999.25   55.94660   98.90200  334.05750  686.46780  994.15450
 9030.50000    0.00480   10.01290   59.63580    5.04520    0.00110    0.00990    2.68540   -9999.25   54.86300   98.11760  372.51000  906.22410 1182.83020
 9031.00000    0.01080   10.01370   64.94690    4.98490    0.00710    0.01140    2.68200   -9999.25   52.93350   97.80390  155.32160  774.34970  952.96860
 9031.50000    0.01870   10.01440   62.06370    4.98490    0.00950    0.01140    2.67760   -9999.25   52.36880   96.07840   63.87000   88.44760  129.19220
 9032.00000    0.02650   10.00000   48.71020    5.01510    0.00880    0.01140    2.67400   -9999.25   51.89830   94.98040  132.34230  123.44940   87.46530
 9032.50000    0.02520   10.00080   41.27470    5.04520    0.00690    0.01080    2.67140   -9999.25   51.56910   95.13730  169.86830  193.95050  344.59210
 9033.00000    0.02350    9.98630   34.29440    5.09040    0.00470    0.00990    2.66940   -9999.25   51.14570   96.07840  164.03580  233.92800  328.11330
 9033.50000    0.02560    9.98720   31.86650    5.13550    0.00290    0.00990    2.66870   -9999.25   50.62810   96.07840  123.99350  162.72780  138.27910
 9034.00000    0.02890    9.95750   32.01820    5.13550    0.00320    0.00840    2.66790   -9999.25   50.67570   95.76470  108.10610  127.44430  133.58770
 9034.50000    0.03010    9.97350   32.47340    5.13550    0.00350    0.00690    2.66870   -9999.25   51.10790   95.60020  115.04750  133.42020  165.70890
 9035.00000    0.02950    9.98940   33.83910    5.13550    0.00260    0.00540    2.67100   -9999.25   51.63450   95.45100  138.72730  185.29410  248.07760
 9035.50000    0.02780    9.99020   36.87410    5.13550    0.00110    0.00390    2.67410   -9999.25   51.99580   95.13730  164.97490  214.30480  281.12020
 9036.00000    0.02470    9.98760   39.90900    5.13550    0.00050    0.00400    2.67700   -9999.25   51.99630   95.13730  163.79530  224.84070  295.07920
 9036.50000    0.01930    9.97640   43.55080    5.13550    0.00080    0.00400    2.67840   -9999.25   51.90260   94.82350  154.91210  205.23360  277.08320
 9037.00000    0.01750    9.96200   46.58570    5.16570    0.00110    0.00400    2.68020   -9999.25   51.76170   94.82350  147.50610  195.32720  241.00400
 9037.50000    0.01940    9.96280   48.40670    5.19580    0.00110    0.00550    2.68380   -9999.25   51.71500   94.50980  141.98740  188.50560  247.74250
 9038.00000    0.02310    9.94300   50.37940    5.22590    0.00110    0.00550    2.68750   -9999.25   51.71560   94.35290  133.79910  185.75960  269.70490
 9038.50000    0.02240    9.93390   52.98920    5.21080    0.00110    0.00560    2.69290   -9999.25   51.99860   94.19610  132.84250  211.83550  298.79210
 9039.00000    0.01280    9.91960   55.61690    5.21080   -0.00020    0.00710    2.69680   -9999.25   52.68780   94.88420  169.33080  226.94040  333.90770
 9039.50000    0.00790    9.92040   58.57360    5.21080   -0.00260    0.00710    2.69930   -9999.25   53.97760   97.96080  209.93170  241.43540  362.90270
