~Version ---------------------------------------------------
VERS.   2.0 : CWLS log ASCII Standard -VERSION 2.0
WRAP.    NO : One line per depth step
DLM . SPACE : Column Data Section Delimiter
~Well ------------------------------------------------------
STRT .F                  226.0 : START DEPTH
STOP .F                10621.0 : STOP DEPTH
STEP .F                    0.5 : STEP
NULL .                -9999.25 : NULL VALUE
COMP .                         : COMPANY
WELL .                         : WELL
FLD  .                         : FIELD
LOC  .                         : LOCATION
PROV .                         : PROVINCE
CNTY .                         : COUNTY
STAT .                         : STATE
CTRY .                         : COUNTRY
SRVC .                         : SERVICE COMPANY
DATE .                         : DATE
UWI  .                         : UNIQUE WELL ID
API  .                         : API NUMBER
SLAT .WGS84 3.1294088764448986 : SURFACE LATITUDE
SLON .WGS84     8.694246695527 : SURFACE LONGITUDE
DATUM.F                    nan : DEPTH DATUM ELEV
~Curve Information -----------------------------------------
DEPT .F     : 
DPHZ .DEC   : DENSITY POROSITY LIMESTONE
HCALD.IN    : HILT CALIPER
HSGR .GAPI  : STANDARD GAMMA RAY, SPECTROSCOPY GAMMA RAY
PEFZ .B/E   : HILT PHOTOELECTRIC FACTOR
TNPH .DEC   : THERMAL NEUTRON POROSITY LIMESTONE
HDRA .G/C3  : DELTA RHO HIP TOOL
RHOZ .G/C3  : HILT BULK DENSITY
DT   .US/F  : INTERVAL TRANSIT TIME
DTCO .US/F  : COMPRESSIONAL-WAVE INTERVAL TRANSIT TIME ACOUSTIC SLOWNESS
DTSM .US/F  : SHEAR-WAVE INTERVAL TRANSIT TIME DELTA-T
RLA3 .OHMM  : HRLTB RESISTIVITY 3
RLA4 .OHMM  : HTLTB RESISTIVITY 4
RLA5 .OHMM  : HRLTB RESISTIVITY 5
~Params ----------------------------------------------------
~Other -----------------------------------------------------
~ASCII -----------------------------------------------------
# ...
 3164.00000   -0.07250    9.47400   27.76890    3.42190    0.02290    0.00750    2.84000   47.43510   -9999.25   -9999.25  347.87390  440.46220  513.60430
 3164.50000   -0.06290    9.47410   20.32060    3.42140    0.02500    0.00590    2.82600   47.79740   -9999.25   -9999.25  286.43160  326.80820  182.46760
 3165.00000   -0.05260    9.47430   18.03950    3.42100    0.02790    0.00740    2.80720   47.88870   -9999.25   -9999.25   28.00430   72.97940   41.27290
 3165.50000   -0.05500    9.47440   18.54160    3.42050    0.03140    0.00430    2.79210   47.48290   -9999.25   -9999.25   26.12650   40.06950   39.86610
 3166.00000   -0.05740    9.47460   20.46780    3.45310    0.03350    0.00130    2.78910   47.07720   -9999.25   -9999.25   35.70470   48.79440   40.99270
 3166.50000   -0.05760    9.45950   22.13810    3.51080    0.03410   -0.00030    2.79460   47.06410   -9999.25   -9999.25  284.60950  247.58270  231.13600
 3167.00000   -0.05730    9.45970   24.26430    3.54080    0.03110   -0.00190    2.80030   47.30480   -9999.25   -9999.25  248.02310  237.48400  252.05070
 3167.50000   -0.05420    9.41440   25.78250    3.38820    0.02840   -0.00040    2.79840   47.48640   -9999.25   -9999.25  199.65330  119.45850  141.27550
 3168.00000   -0.04940    9.38420   26.84490    3.17500    0.02660    0.00110    2.79290   47.30680   -9999.25   -9999.25  691.57510  677.32390  620.11950
 3168.50000   -0.04190    9.38440   28.21120    3.05300    0.02510    0.00100    2.78220   46.99140   -9999.25   -9999.25  347.87390  658.77800  568.18910
 3169.00000   -0.03550    9.41490   29.73850    3.05260    0.02670    0.00100    2.76880   46.76640   -9999.25   -9999.25  221.55990  252.79190  237.72840
 3169.50000   -0.04690    9.44530   31.61770    3.14370    0.03150    0.00090    2.76490   46.58650   -9999.25   -9999.25  345.46780  261.71880  420.22150
 3170.00000   -0.06500    9.46060   32.15820    3.29890    0.03570    0.00090    2.77940   46.45190   -9999.25   -9999.25  326.80820  475.85030  514.02190
 3170.50000   -0.07050    9.47590   27.59700    3.50710    0.03720    0.00090    2.81070   46.40760   -9999.25   -9999.25  224.65690  409.24850  290.84250
 3171.00000   -0.07680    9.46090   24.70840    3.62820    0.03450    0.00380    2.83860   46.36330   -9999.25   -9999.25  154.43530  165.53500  161.16740
 3171.50000   -0.08980    9.46110   27.44210    3.71890    0.03090    0.00530    2.85140   46.36420   -9999.25   -9999.25  154.42220  157.68470  170.38790
 3172.00000   -0.09370    9.46120   29.41630    3.73380    0.02730    0.00530    2.85510   46.59110   -9999.25   -9999.25  243.60540  302.78580  338.93050
 3172.50000   -0.09270    9.46140   29.11090    3.62690    0.02610    0.00520    2.84300   46.81790   -9999.25   -9999.25  352.73660  482.05300  500.11450
 3173.00000   -0.07670    9.46150   27.73900    3.59600    0.02910    0.00370    2.83400   46.90910   -9999.25   -9999.25  245.87020  347.87390  603.31960
 3173.50000   -0.06700    9.46170   25.66660    3.59560    0.03460    0.00210    2.84840   47.04560   -9999.25   -9999.25  261.71880  333.30550  358.37630
 3174.00000   -0.06910    9.45380   21.81130    3.62700    0.03640    0.00360    2.85320   47.45310   -9999.25   -9999.25   92.40320  130.73840   94.44590
 3174.50000   -0.06910    9.44680   18.61830    3.68590    0.03640    0.00350    2.83340   48.40270   -9999.25   -9999.25  101.12840  252.14410  133.67250
 3175.00000   -0.06780    9.44720   17.09710    3.71580    0.03670    0.00650    2.81510   50.16570   -9999.25   -9999.25  320.07370  450.25270  450.79040
 3175.50000   -0.05730    9.45070   16.94360    3.71530    0.03760    0.00950    2.81200   50.44340   -9999.25   -9999.25  317.85990  422.49620  403.40240
 3176.00000   -0.05240    9.45420   17.24610    3.83640    0.03940    0.01250    2.81200   50.75500   -9999.25   -9999.25  184.97750  245.87020  327.54460
 3176.50000   -0.04450    9.45770   17.39660    3.97280    0.04740    0.01240    2.81130   51.07210   -9999.25   -9999.25  139.16560   90.49910  106.31940
 3177.00000   -0.03150    9.46120   17.54710    3.92670    0.04940    0.00930    2.78930   51.34410   -9999.25   -9999.25   49.83620   42.76590   42.80240
 3177.50000   -0.00370    9.46460   17.56340    3.98710    0.04910    0.00630    2.76170   51.66120   -9999.25   -9999.25   44.27610   48.45690   44.05090
 3178.00000    0.01980    9.46810   18.15170    4.04740    0.05010    0.00620    2.72090   51.84280   -9999.25   -9999.25   68.56010   66.22160   63.04490
 3178.50000    0.01170    9.47160   18.91010    4.08000    0.05400    0.00620    2.70260   51.66300   -9999.25   -9999.25   71.97330   67.17720   66.77570
 3179.00000   -0.01000    9.47510   19.66850    4.10730    0.05460    0.00610    2.68430   50.62080   -9999.25   -9999.25   39.62240   42.15860   34.04440
 3179.50000   -0.03350    9.47860   20.57890    4.09160    0.05190    0.00610    2.71630   49.30310   -9999.25   -9999.25   28.39570   27.97400   27.26070
 3180.00000   -0.04710    9.60000   22.09720    4.03030    0.04740    0.00450    2.75090   47.50920   -9999.25   -9999.25   27.81060   27.42720   27.26300
 3180.50000   -0.05910    9.63050   24.07140    3.95390    0.04130    0.00300    2.77650   46.78720   -9999.25   -9999.25   30.86210   51.22360   31.11130
 3181.00000   -0.07090    9.63060   26.65350    3.89270    0.03320    0.00140    2.79480   46.42660   -9999.25   -9999.25   59.26120  114.58580   88.80810
 3181.50000   -0.07720    9.63080   28.81100    3.89220    0.02870   -0.00010    2.80120   46.11120   -9999.25   -9999.25   97.00350  205.27390  185.45600
 3182.00000   -0.08450    9.63090   29.99360    3.89180    0.02600   -0.00020    2.80650   45.93120   -9999.25   -9999.25  402.45980  542.42320  398.19430
 3182.50000   -0.09050    9.63110   31.51190    3.89130    0.02450   -0.00020    2.81930   46.20330   -9999.25   -9999.25  524.16960  894.06500  885.49130
 3183.00000   -0.08860    9.61610   36.06970    3.89080    0.02540   -0.00030    2.83910   46.56690   -9999.25   -9999.25  515.26220  857.59690  870.27750
 3183.50000   -0.07650    9.61620   40.01960    3.78400    0.02780    0.00270    2.85010   46.75420   -9999.25   -9999.25  434.39020  676.16160  708.87160
 3184.00000   -0.06990    9.61640   41.23390    3.67710    0.03320    0.00270    2.84050   46.88390   -9999.25   -9999.25  422.49620  576.80250  679.97110
 3184.50000   -0.06440    9.61650   40.01670    3.66160    0.03690   -0.00040    2.81160   46.79440   -9999.25   -9999.25  280.52910  569.42750  704.06090
 3185.00000   -0.07330    9.61670   37.27960    3.67640    0.03780   -0.00050    2.80990   46.56940   -9999.25   -9999.25  184.97750  388.73260  587.77140
 3185.50000   -0.08970    9.61680   34.18350    3.69100    0.03750   -0.00050    2.82200   46.29920   -9999.25   -9999.25  434.39020  157.68470  281.50020
 3186.00000   -0.10020    9.61700   31.80520    3.70580    0.03720    0.00250    2.84700   46.11910   -9999.25   -9999.25  148.13600  135.35510  132.95850
 3186.50000   -0.10150    9.61710   29.98000    3.70390    0.03690    0.00550    2.86030   46.07110   -9999.25   -9999.25  298.61170  216.99420 1761.65300
 3187.00000   -0.09030    9.61730   28.15480    3.67440    0.03720    0.00840    2.86840   46.35060   -9999.25   -9999.25  828.34570 2869.29050 1955.20080
 3187.50000   -0.08720    9.62000   26.63360    3.64350    0.03720    0.00540    2.86500   46.81480   -9999.25   -9999.25  851.66520 2394.17110 1632.25890
 3188.00000   -0.08420    9.63280   25.56830    3.58230    0.03720   -0.00070    2.84190   47.34290   -9999.25   -9999.25  876.79390 2463.42380 1786.65940
 3188.50000   -0.07750    9.63290   23.89510    3.47550    0.03730    0.00230    2.83270   47.75040   -9999.25   -9999.25  900.29210 2176.13060 1824.40210
 3189.00000   -0.06480    9.63300   22.22190    3.36870    0.03610    0.00220    2.81910   48.11270   -9999.25   -9999.25  715.99650 1827.44310 1259.58190
 3189.50000   -0.04730    9.60290   24.23110    3.30740    0.03520    0.00220    2.80350   48.42990   -9999.25   -9999.25  425.43880  850.76840  507.95860
