~Version ---------------------------------------------------
VERS.   2.0 : CWLS log ASCII Standard -VERSION 2.0
WRAP.    NO : One line per depth step
DLM . SPACE : Column Data Section Delimiter
~Well ------------------------------------------------------
STRT .F                  226.0 : START DEPTH
STOP .F                10621.0 : STOP DEPTH
STEP .F                    0.5 : STEP
NULL .                -9999.25 : NULL VALUE
COMP .                         : COMPANY
WELL .                         : WELL
FLD  .                         : FIELD
LOC  .                         : LOCATION
PROV .                         : PROVINCE
CNTY .                         : COUNTY
STAT .                         : STATE
CTRY .                         : COUNTRY
SRVC .                         : SERVICE COMPANY
DATE .                         : DATE
UWI  .                         : UNIQUE WELL ID
API  .                         : API NUMBER
SLAT .WGS84 3.1294088764448986 : SURFACE LATITUDE
SLON .WGS84     8.694246695527 : SURFACE LONGITUDE
DATUM.F                    nan : DEPTH DATUM ELEV
~Curve Information -----------------------------------------
DEPT .F     : 
DPHZ .DEC   : DENSITY POROSITY LIMESTONE
HCALD.IN    : HILT CALIPER
HSGR .GAPI  : STANDARD GAMMA RAY, SPECTROSCOPY GAMMA RAY
PEFZ .B/E   : HILT PHOTOELECTRIC FACTOR
TNPH .DEC   : THERMAL NEUTRON POROSITY LIMESTONE
HDRA .G/C3  : DELTA RHO HIP TOOL
RHOZ .G/C3  : HILT BULK DENSITY
DT   .US/F  : INTERVAL TRANSIT TIME
DTCO .US/F  : COMPRESSIONAL-WAVE INTERVAL TRANSIT TIME ACOUSTIC SLOWNESS
DTSM .US/F  : SHEAR-WAVE INTERVAL TRANSIT TIME DELTA-T
RLA3 .OHMM  : HRLTB RESISTIVITY 3
RLA4 .OHMM  : HTLTB RESISTIVITY 4
RLA5 .OHMM  : HRLTB RESISTIVITY 5
~Params ----------------------------------------------------
~Other -----------------------------------------------------
~ASCII -----------------------------------------------------
# ...
 5296.00000   -0.03290    9.66670   54.58320    3.62170    0.03820    0.01580    2.75310   59.00860   -9999.25   -9999.25   27.98910   41.16370   39.41370
 5296.50000   -0.02440    9.66670   54.12510    3.48670    0.04600    0.01740    2.72850   59.59520   -9999.25   -9999.25   22.10710   25.54880   24.24130
 5297.00000    0.00930    9.66670   70.07880    3.33660    0.06970    0.01290    2.70290   59.66020   -9999.25   -9999.25   20.06140   19.92160   21.96550
 5297.50000    0.01500    9.66670   75.24300    3.21660    0.08360    0.00080    2.68760   58.96270   -9999.25   -9999.25   18.84780   17.76650   25.26060
 5298.00000    0.01730    9.57580   77.06370    3.08150    0.08420   -0.00520    2.68480   57.87610   -9999.25   -9999.25   23.86590   20.99090   38.30140
 5298.50000    0.01800    9.56060   74.17310    3.03660    0.08090   -0.00580    2.69830   56.95870   -9999.25   -9999.25   42.46150   39.77280   51.25400
 5299.00000    0.01880    9.56060   69.30690    3.02200    0.07660    0.00540    2.69490   56.07120   -9999.25   -9999.25   54.51710   57.47720   59.70030
 5299.50000    0.01900    9.56060   65.80850    3.00720    0.07350    0.00690    2.68770   56.38840   -9999.25   -9999.25   39.07350   38.42050   38.81310
 5300.00000    0.01290    9.56080   67.22310    3.25780    0.07070   -0.00060    2.70440   57.87810   -9999.25   -9999.25   25.58810   29.30520   26.67580
 5300.50000    0.00190    9.56160   64.88130    3.64880    0.06710   -0.00060    2.73960   58.14830   -9999.25   -9999.25   23.35100   24.63540   24.88200
 5301.00000   -0.01830    9.53220   47.64130    4.10010    0.06010    0.00540    2.77480   56.92850   -9999.25   -9999.25   27.62240   24.00120   35.19760
 5301.50000   -0.05690    9.50280   36.25750    4.21960    0.04900    0.00690    2.81550   55.48320   -9999.25   -9999.25   40.74170   55.14970   57.20410
 5302.00000   -0.10180    9.47340   30.18470    4.23350    0.02760    0.00690    2.87100   53.54120   -9999.25   -9999.25   67.97820   85.17430  117.26360
 5302.50000   -0.10870    9.44390   28.81600    4.30770    0.01890   -0.00090    2.88550   52.54730   -9999.25   -9999.25  152.30640  156.34750  159.72360
 5303.00000   -0.11600    9.44220   28.51030    4.32160    0.01740   -0.00540    2.89720   52.09520   -9999.25   -9999.25  120.29050  111.25380  111.30490
 5303.50000   -0.11960    9.40050   32.45200    4.21090    0.01800   -0.00810    2.90360   52.36540   -9999.25   -9999.25  155.51090  137.99350  175.94260
 5304.00000   -0.09420    9.38600   52.32770    3.99350    0.02850   -0.00660    2.84630   53.94490   -9999.25   -9999.25  242.48080  210.81440  227.41160
 5304.50000   -0.07680    9.38710   61.88460    3.57860    0.05090   -0.00360    2.81660   55.61470   -9999.25   -9999.25  116.18760  240.56790  238.69670
 5305.00000   -0.05390    9.38790   65.72680    3.18530    0.05990   -0.00210    2.78180   56.57520   -9999.25   -9999.25   53.77380  147.94940  177.31990
 5305.50000   -0.04210    9.35850   67.03810    3.09360    0.07470   -0.00510    2.76350   56.96780   -9999.25   -9999.25   29.60320   27.17030   38.90980
 5306.00000   -0.03230    9.35940   64.45470    3.09240    0.08370   -0.00510    2.75830   56.65090   -9999.25   -9999.25   28.23050   34.65010   39.72220
 5306.50000   -0.02940    9.33000   59.14070    3.15160    0.08890   -0.00210    2.75740   56.06330   -9999.25   -9999.25   44.89500   46.71400   51.73080
 5307.00000   -0.03000    9.33110   56.86150    3.27100    0.09010   -0.00060    2.76950   55.61120   -9999.25   -9999.25   47.45830   47.47190   50.18360
 5307.50000   -0.03450    9.34690   55.94810    3.45090    0.08980    0.00090    2.79870   55.29450   -9999.25   -9999.25   43.89940   41.50290   43.45320
 5308.00000   -0.04570    9.33260   54.12420    3.58540    0.08130    0.00090    2.81910   55.02300   -9999.25   -9999.25   42.47010   39.54920   42.84410
 5308.50000   -0.06200    9.33370   50.47940    3.68980    0.05510    0.00090    2.82440   54.79660   -9999.25   -9999.25   64.85700   69.42540   61.07750
 5309.00000   -0.06800    9.33680   49.41420    3.53780    0.04120   -0.00060    2.81950   54.70560   -9999.25   -9999.25   91.12940   92.30570   83.51120
 5309.50000   -0.06560    9.35060   54.92480    3.25000    0.03910   -0.00060    2.78070   54.75010   -9999.25   -9999.25   95.66620   83.75790   94.63170
 5310.00000   -0.04330    9.33630   62.86220    3.02260    0.03790   -0.00060    2.75240   54.97500   -9999.25   -9999.25   51.58040   53.48050  101.43370
 5310.50000   -0.01190    9.32230   65.03430    2.91580    0.03970    0.00090    2.72200   55.33560   -9999.25   -9999.25   48.12170   59.71180   58.94160
 5311.00000    0.00290    9.27750   71.10120    2.86940    0.04280   -0.00060    2.69110   55.60580   -9999.25   -9999.25   67.61500   69.07720   67.25670
 5311.50000    0.00800    9.24810   76.86450    2.86820    0.04820   -0.00060    2.69140   55.69540   -9999.25   -9999.25   61.78120   76.65290   73.11960
 5312.00000    0.00860    9.21860   77.77210    2.89720    0.05300   -0.00060    2.70680   54.88210   -9999.25   -9999.25   54.52540   58.85810   65.74500
 5312.50000   -0.00890    9.20450   78.07260    2.91350    0.05510    0.00240    2.72950   54.15910   -9999.25   -9999.25   49.13420   50.50890   51.95960
 5313.00000   -0.02120    9.20550   78.52490    2.93970    0.05480    0.00540    2.75660   52.44290   -9999.25   -9999.25   57.56450   57.76560   64.45160
 5313.50000   -0.03150    9.20640   79.88760    2.95390    0.05030    0.00690    2.77070   51.17810   -9999.25   -9999.25  146.09390  121.14150  159.18190
 5314.00000   -0.03900    9.19210   81.70560    2.98260    0.04250    0.00240    2.78070   50.53810   -9999.25   -9999.25  184.97750  188.92150  203.02340
 5314.50000   -0.03180    9.19320   84.33820    3.01160    0.03760    0.00090    2.76810   50.58970   -9999.25   -9999.25  179.91260  214.04580  219.13520
 5315.00000   -0.02060    9.19400   89.43800    3.04060    0.03640    0.00240    2.73380   51.13080   -9999.25   -9999.25  177.43240  156.56210  167.02340
 5315.50000   -0.01700    9.17980   93.22860    3.05480    0.03670    0.00390    2.72680   52.39430   -9999.25   -9999.25  149.16780  137.18230  137.43470
 5316.00000   -0.01460    9.19580   96.41230    3.06870    0.04010    0.00690    2.72050   54.78640   -9999.25   -9999.25  128.04430  121.03910  122.93340
 5316.50000   -0.00950    9.22700   97.92750    2.99170    0.04370    0.00690    2.70740   56.00470   -9999.25   -9999.25  124.53830  140.99940  122.90800
 5317.00000   -0.00030    9.25820   97.92390    2.88500    0.05090    0.00690    2.69760   57.13270   -9999.25   -9999.25   98.35940  137.11270  106.12080
 5317.50000    0.01400    9.25930   94.88600    2.83850    0.05700    0.00690    2.68330   58.21550   -9999.25   -9999.25   65.86370   82.33260   65.68700
 5318.00000    0.02430    9.26010   91.39290    2.85250    0.06090    0.00690    2.67310   59.38870   -9999.25   -9999.25   45.01990   41.17120   46.38030
 5318.50000    0.02490    9.26100   83.80270    2.91160    0.06490    0.00690    2.66680   59.70410   -9999.25   -9999.25   30.64860   31.64740   34.86410
 5319.00000    0.02520    9.26190   77.49950    2.97070    0.07080    0.00540    2.66520   59.38720   -9999.25   -9999.25   33.08020   33.45010   34.61710
 5319.50000    0.02610    9.26280   72.92540    2.99970    0.07210    0.00540    2.66400   58.98020   -9999.25   -9999.25   34.96900   34.15010   35.09500
 5320.00000    0.02880    9.26370   70.59130    3.04470    0.07030    0.00390    2.66140   58.03150   -9999.25   -9999.25   33.54260   32.29740   33.18680
 5320.50000    0.03090    9.24940   68.00860    3.10480    0.06090    0.00240    2.66510   54.37400   -9999.25   -9999.25   31.73090   29.29960   29.27500
 5321.00000    0.00890    9.23510   61.63240    3.24300    0.05640    0.00240    2.69650   51.25820   -9999.25   -9999.25   40.73780   32.06300   31.82660
 5321.50000   -0.00220    9.22110   46.45490    3.37170    0.05460    0.00390    2.74250   47.91670   -9999.25   -9999.25   54.14830   38.13690   46.27750
