~Version ---------------------------------------------------
VERS.   2.0 : CWLS log ASCII Standard -VERSION 2.0
WRAP.    NO : One line per depth step
DLM . SPACE : Column Data Section Delimiter
~Well ------------------------------------------------------
STRT .F                  226.0 : START DEPTH
STOP .F                10621.0 : STOP DEPTH
STEP .F                    0.5 : STEP
NULL .                -9999.25 : NULL VALUE
COMP .                         : COMPANY
WELL .                         : WELL
FLD  .                         : FIELD
LOC  .                         : LOCATION
PROV .                         : PROVINCE
CNTY .                         : COUNTY
STAT .                         : STATE
CTRY .                         : COUNTRY
SRVC .                         : SERVICE COMPANY
DATE .                         : DATE
UWI  .                         : UNIQUE WELL ID
API  .                         : API NUMBER
SLAT .WGS84 3.1294088764448986 : SURFACE LATITUDE
SLON .WGS84     8.694246695527 : SURFACE LONGITUDE
DATUM.F                    nan : DEPTH DATUM ELEV
~Curve Information -----------------------------------------
DEPT .F     : 
DPHZ .DEC   : DENSITY POROSITY LIMESTONE
HCALD.IN    : HILT CALIPER
HSGR .GAPI  : STANDARD GAMMA RAY, SPECTROSCOPY GAMMA RAY
PEFZ .B/E   : HILT PHOTOELECTRIC FACTOR
TNPH .DEC   : THERMAL NEUTRON POROSITY LIMESTONE
HDRA .G/C3  : DELTA RHO HIP TOOL
RHOZ .G/C3  : HILT BULK DENSITY
DT   .US/F  : INTERVAL TRANSIT TIME
DTCO .US/F  : COMPRESSIONAL-WAVE INTERVAL TRANSIT TIME ACOUSTIC SLOWNESS
DTSM .US/F  : SHEAR-WAVE INTERVAL TRANSIT TIME DELTA-T
RLA3 .OHMM  : HRLTB RESISTIVITY 3
RLA4 .OHMM  : HTLTB RESISTIVITY 4
RLA5 .OHMM  : HRLTB RESISTIVITY 5
~Params ----------------------------------------------------
~Other -----------------------------------------------------
~ASCII -----------------------------------------------------
# ...
 6882.00000   -0.05770    9.64610   39.89720    4.26750    0.02570   -0.00010    2.82460   51.25960   -9999.25   -9999.25  474.09230  914.15590  695.94040
 6882.50000   -0.03880    9.64620   40.35580    4.37270    0.02920    0.00290    2.79710   51.16960   -9999.25   -9999.25  279.76980 1080.21740  278.50680
 6883.00000   -0.05960    9.66150   38.54040    4.41780    0.05030    0.00440    2.77870   49.76540   -9999.25   -9999.25   75.40620  116.44070   59.70560
 6883.50000   -0.07520    9.66170   33.84080    4.23690    0.05490    0.00740    2.79700   47.86280   -9999.25   -9999.25   37.41990   41.12080   44.91710
 6884.00000   -0.09530    9.64660   25.91220    3.98070    0.05420    0.00740    2.86000   46.22980   -9999.25   -9999.25  255.44250  124.02870  464.82410
 6884.50000   -0.10660    9.63170   21.49840    3.73960    0.03800    0.00440    2.87460   45.58500   -9999.25   -9999.25  519.70690  220.72820 1226.95670
 6885.00000   -0.10510    9.63180   21.10750    3.81480    0.01410    0.00290    2.88190   45.19100   -9999.25   -9999.25  614.57760  708.61490 1771.42110
 6885.50000   -0.10140    9.63200   23.99620    3.84470    0.01140    0.00280    2.88040   45.19190   -9999.25   -9999.25  574.54270 1510.49080 1128.12070
 6886.00000   -0.09790    9.63210   29.91870    3.87470    0.01200    0.00280    2.87680   45.37380   -9999.25   -9999.25  510.53990  962.35360 1104.61180
 6886.50000   -0.09000    9.63230   38.42080    3.87450    0.01920    0.00430    2.87060   45.96360   -9999.25   -9999.25  547.02080 1068.30820 1295.21150
 6887.00000   -0.08640    9.63240   45.10210    3.75390    0.02620    0.00730    2.86190   47.05180   -9999.25   -9999.25  405.85290  963.00570  728.10600
 6887.50000   -0.08280    9.63260   46.01590    3.69350    0.02920    0.01030    2.85690   47.41500   -9999.25   -9999.25  402.96630  817.91860  896.20970
 6888.00000   -0.08880    9.63270   44.20050    3.66320    0.03190    0.01050    2.85160   48.00580   -9999.25   -9999.25  397.28150  868.37730  438.51660
 6888.50000   -0.09030    9.63290   41.32170    3.61790    0.03520    0.01330    2.84300   49.86360   -9999.25   -9999.25  130.02940  320.12370  285.37930
 6889.00000   -0.07360    9.63300   42.42490    3.57110    0.04730    0.01480    2.83410   50.86130   -9999.25   -9999.25   65.97740  232.42480  420.35990
 6889.50000   -0.06410    9.63320   44.69400    3.49710    0.06080    0.01480    2.84100   51.45110   -9999.25   -9999.25   56.53690  155.46620  208.10710
 6890.00000   -0.07620    9.63330   44.37110    3.45180    0.06210    0.01170    2.84510   50.99860   -9999.25   -9999.25   43.72900   40.17820   75.22130
 6890.50000   -0.08490    9.63350   41.64410    3.43660    0.05530    0.00720    2.84800   47.50980   -9999.25   -9999.25   68.14330   85.64440  327.12390
 6891.00000   -0.09670    9.63370   36.33750    3.55690    0.03190    0.00420    2.85090   46.92130   -9999.25   -9999.25  230.90160  205.42350  469.02130
 6891.50000   -0.10080    9.63380   31.18260    3.64710    0.02130    0.00270    2.85550   46.69370   -9999.25   -9999.25  345.17400  402.88960  549.95030
 6892.00000   -0.09680    9.63400   30.27650    3.75240    0.02310    0.00110    2.86220   46.60540   -9999.25   -9999.25  280.24010  503.25880  419.47650
 6892.50000   -0.08940    9.63410   28.30830    3.84260    0.02220   -0.00190    2.86740   46.28900   -9999.25   -9999.25  263.83290  479.55500  360.86130
 6893.00000   -0.08610    9.63430   25.42960    3.91830    0.02010   -0.00490    2.86660   45.56460   -9999.25   -9999.25  347.98840  334.38050  725.04750
 6893.50000   -0.09030    9.63440   20.12290    3.96510    0.01650   -0.00790    2.86900   44.84020   -9999.25   -9999.25  453.53570  599.71140 1596.87540
 6894.00000   -0.09920    9.61940   18.29260    4.00780    0.01070   -0.01100    2.87600   44.79540   -9999.25   -9999.25  661.49510 2369.17700 12794.93360
 6894.50000   -0.10720    9.61950   18.00740    4.03780    0.00430   -0.00800    2.88400   44.84150   -9999.25   -9999.25  797.50760 15873.32030 19662.49410
 6895.00000   -0.11080    9.61970   18.61990    4.06780    0.00130   -0.00350    2.89630   44.97810   -9999.25   -9999.25  759.50990 24587.65230 24034.86720
 6895.50000   -0.11260    9.61980   19.99000    3.91700    0.00140    0.00100    2.89920   45.30130   -9999.25   -9999.25  698.66950 11785.45700 5837.64650
 6896.00000   -0.11570    9.61850   21.96720    3.78130    0.00230    0.00400    2.90160   45.43280   -9999.25   -9999.25  728.16020 4916.87890 6544.57080
 6896.50000   -0.11930    9.60500   23.33730    3.67570    0.00380    0.00700    2.90310   45.43340   -9999.25   -9999.25  743.27670 9444.57910 10890.05080
 6897.00000   -0.12020    9.60520   24.10050    3.60030    0.00650    0.00400    2.90410   45.79660   -9999.25   -9999.25  727.76790 9077.12890 5365.60010
 6897.50000   -0.10470    9.60530   25.16710    3.55500    0.01370    0.00100    2.90540   46.70360   -9999.25   -9999.25  687.09830 4528.93460 3323.84420
 6898.00000   -0.07110    9.60550   26.68900    3.53980    0.01950   -0.00200    2.85620   48.65290   -9999.25   -9999.25  441.43010 1451.38550  927.44880
 6898.50000   -0.05260    9.62080   30.53520    3.56970    0.02850    0.01150    2.81220   52.27890   -9999.25   -9999.25  186.74580  174.80860  189.40200
 6899.00000   -0.04410    9.63610   42.47400    3.56960    0.04630    0.01450    2.79560   53.56310   -9999.25   -9999.25   76.84080   57.59960   51.59090
 6899.50000   -0.04060    9.63620   49.31230    3.56940    0.06560    0.01150    2.78990   54.36500   -9999.25   -9999.25   38.66180   19.51340   71.67520
 6900.00000   -0.04120    9.62010   47.95140    3.56390    0.09310    0.00690    2.78800   52.50770   50.10970   91.73810   37.07850   20.63450  123.07280
 6900.50000   -0.04420    9.61540   41.69920    3.50510    0.08870    0.00370    2.79260   50.37840   50.01470   89.96080   55.03790   45.98370  156.83310
 6901.00000   -0.04970    9.61080   40.20220    3.38620    0.06690   -0.00060    2.81290   48.61170   49.96660   89.64710  121.31610   82.75400  214.20690
 6901.50000   -0.06020    9.60690   39.32610    3.96130    0.03330   -0.00220    2.84090   48.11370   49.96570   89.80390  157.92820  145.24330  367.81310
 6902.00000   -0.07350    9.60730   38.72660    4.02170    0.01130   -0.00220    2.87280   48.34110   49.58860   89.64710  191.93210  450.37790 1272.44190
 6902.50000   -0.12290    9.60760   37.67180    4.02190    0.00860    0.00230    2.88910   48.52300   49.16450   89.49020  658.42640 1065.36780 1544.64600
 6903.00000   -0.11660    9.60790   36.76880    4.02200    0.01100    0.00380    2.89930   48.37490   48.64640   87.95280  237.45960 1539.59220  671.87930
 6903.50000   -0.10720    9.60820   35.71400    3.96190    0.01920    0.00380    2.90320   47.84480   47.79230   84.47060  131.65840  251.66090  202.30490
 6904.00000   -0.09690    9.60850   33.90050    3.61570    0.02100    0.00380    2.88150   47.02970   46.62240   83.05880  237.33160  138.58990 1511.18460
 6904.50000   -0.09900    9.60880   25.56190    3.49530    0.02040    0.00380    2.86900   45.98810   45.91610   82.74510  512.36080 1104.48520 1201.73910
 6905.00000   -0.09950    9.63940   21.92750    3.42020    0.01760    0.00380    2.87520   45.17300   45.63310   82.74510  556.67720 1308.11280 1911.76610
 6905.50000   -0.10230    9.65490   22.84540    3.57090    0.01460    0.00370    2.88340   44.99240   45.72620   82.58820  580.17460 1976.94180 1967.30360
 6906.00000   -0.10820    9.67030   23.76330    3.73800    0.01250    0.00370    2.89100   45.08370   45.81960   82.58820  673.23190 8483.97070 14488.66110
 6906.50000   -0.11680    9.67060   25.16210    3.78210    0.01250    0.00370    2.89420   45.03900   45.72440   82.43140  820.15820 23186.62700 9009.38770
 6907.00000   -0.11560    9.67090   26.25710    3.81240    0.01040    0.00370    2.89700   44.94920   45.62950   82.27450  819.93710 11284.39550 8086.91600
 6907.50000   -0.11260    9.67120   27.42930    3.82760    0.01010    0.00370    2.89630   44.90440   45.72240   82.27450  797.28810 13845.29100 14277.56350
