~Version ---------------------------------------------------
VERS.   2.0 : CWLS log ASCII Standard -VERSION 2.0
WRAP.    NO : One line per depth step
DLM . SPACE : Column Data Section Delimiter
~Well ------------------------------------------------------
STRT .F                  226.0 : START DEPTH
STOP .F                10621.0 : STOP DEPTH
STEP .F                    0.5 : STEP
NULL .                -9999.25 : NULL VALUE
COMP .                         : COMPANY
WELL .                         : WELL
FLD  .                         : FIELD
LOC  .                         : LOCATION
PROV .                         : PROVINCE
CNTY .                         : COUNTY
STAT .                         : STATE
CTRY .                         : COUNTRY
SRVC .                         : SERVICE COMPANY
DATE .                         : DATE
UWI  .                         : UNIQUE WELL ID
API  .                         : API NUMBER
SLAT .WGS84 3.1294088764448986 : SURFACE LATITUDE
SLON .WGS84     8.694246695527 : SURFACE LONGITUDE
DATUM.F                    nan : DEPTH DATUM ELEV
~Curve Information -----------------------------------------
DEPT .F     : 
DPHZ .DEC   : DENSITY POROSITY LIMESTONE
HCALD.IN    : HILT CALIPER
HSGR .GAPI  : STANDARD GAMMA RAY, SPECTROSCOPY GAMMA RAY
PEFZ .B/E   : HILT PHOTOELECTRIC FACTOR
TNPH .DEC   : THERMAL NEUTRON POROSITY LIMESTONE
HDRA .G/C3  : DELTA RHO HIP TOOL
RHOZ .G/C3  : HILT BULK DENSITY
DT   .US/F  : INTERVAL TRANSIT TIME
DTCO .US/F  : COMPRESSIONAL-WAVE INTERVAL TRANSIT TIME ACOUSTIC SLOWNESS
DTSM .US/F  : SHEAR-WAVE INTERVAL TRANSIT TIME DELTA-T
RLA3 .OHMM  : HRLTB RESISTIVITY 3
RLA4 .OHMM  : HTLTB RESISTIVITY 4
RLA5 .OHMM  : HRLTB RESISTIVITY 5
~Params ----------------------------------------------------
~Other -----------------------------------------------------
~ASCII -----------------------------------------------------
# ...
 4230.00000    0.02940    9.36970   64.67380    2.70980    0.07870    0.00450    2.62780   59.98200   -9999.25   -9999.25   22.16260   22.80320   23.71380
 4230.50000    0.04560    9.36950   61.55020    2.66420    0.07450    0.00450    2.62220   60.61450   -9999.25   -9999.25   28.06190   21.42090   23.29880
 4231.00000    0.05020    9.35420   57.98710    2.63370    0.07000    0.00300    2.61930   60.93090   -9999.25   -9999.25   30.29270   20.40370   21.88230
 4231.50000    0.05230    9.33890   57.83090    2.63320    0.06640    0.00300    2.61720   61.20760   -9999.25   -9999.25   31.36790   19.43470   19.85120
 4232.00000    0.05470    9.30850   65.86890    2.63270    0.06550    0.00290    2.61320   61.24780   -9999.25   -9999.25   22.18050   18.77060   19.19830
 4232.50000    0.05750    9.30830   68.29350    2.63230    0.06730    0.00290    2.60950   60.93230   -9999.25   -9999.25   24.85770   19.97920   21.41920
 4233.00000    0.05870    9.29300   68.13620    2.62790    0.06990    0.00290    2.61590   60.57160   -9999.25   -9999.25   28.09030   21.28360   22.32700
 4233.50000    0.05910    9.29290   67.06960    2.62290    0.07330    0.00290    2.63510   60.03030   -9999.25   -9999.25   25.49750   22.34520   22.95310
 4234.00000    0.05790    9.29270   65.69950    2.61780    0.07570    0.00140    2.65290   59.35350   -9999.25   -9999.25   26.40260   23.43210   23.59480
 4234.50000    0.03350    9.27740   62.49380    2.67560    0.08690    0.00290    2.67450   58.08390   -9999.25   -9999.25   42.91190   28.06430   30.29280
 4235.00000    0.01790    9.27730   59.82370    2.81050    0.09500    0.00290    2.69450   56.44250   -9999.25   -9999.25   62.85330   42.85470   45.94750
 4235.50000    0.00520    9.29230   56.12510    2.96040    0.09980    0.00280    2.71690   53.03440   -9999.25   -9999.25  104.30260   65.89560   72.65800
 4236.00000   -0.00770    9.29210   52.47880    3.08030    0.09870    0.00280    2.74500   49.24250   -9999.25   -9999.25  228.42550  137.51340  146.51640
 4236.50000   -0.03690    9.29200   45.03880    3.14000    0.07330    0.00280    2.77870   48.70120   -9999.25   -9999.25  279.37140  288.96660  403.27310
 4237.00000   -0.05220    9.29180   43.82160    3.13950    0.05190    0.00280    2.80070   48.52090   -9999.25   -9999.25  285.30270  463.22490  500.79240
 4237.50000   -0.05980    9.29160   46.09220    3.15410    0.04350    0.00280    2.81090   49.37920   -9999.25   -9999.25  283.38820  524.83180  555.69030
 4238.00000   -0.06540    9.29150   47.90870    3.15360    0.04290    0.00280    2.81400   50.57110   -9999.25   -9999.25  305.93150  575.66120  599.71090
 4238.50000   -0.06420    9.29130   51.09090    3.13810    0.04260    0.00280    2.80170   51.45700   -9999.25   -9999.25  314.58510  619.86590  563.27340
 4239.00000   -0.04700    9.29120   53.66610    3.04750    0.04260    0.00270    2.76020   51.90890   -9999.25   -9999.25  190.97680  228.14270  303.50760
 4239.50000   -0.02950    9.29100   55.34530    2.98690    0.05040    0.00270    2.74780   52.08990   -9999.25   -9999.25  141.75890  143.29070  149.42440
 4240.00000   -0.02430    9.29090   56.38870    2.98640    0.06130    0.00270    2.75330   51.77430   -9999.25   -9999.25  168.63180  193.10980  221.96060
 4240.50000   -0.02420    9.29080   54.25870    2.98600    0.06130    0.00270    2.77860   51.45870   -9999.25   -9999.25  207.67720  214.28760  209.92760
 4241.00000   -0.03600    9.30580   46.06000    2.98550    0.06190    0.00270    2.80870   51.36890   -9999.25   -9999.25  230.49280  284.80480  300.57700
 4241.50000   -0.05640    9.32080   37.55790    3.16560    0.05700    0.00270    2.82460   51.32410   -9999.25   -9999.25  264.05390  425.94000  497.28160
 4242.00000   -0.07720    9.33580   32.69760    3.66280    0.03230    0.00270    2.83500   51.73100   -9999.25   -9999.25  798.01620  682.79880  835.85810
 4242.50000   -0.08080    9.35080   30.87220    3.87140    0.02390    0.00260    2.83850   52.00230   -9999.25   -9999.25  904.26250  840.70540  796.05540
 4243.00000   -0.07780    9.35060   32.68870    3.52500    0.02330    0.00260    2.82620   52.09300   -9999.25   -9999.25  337.82640  805.66470  381.16340
 4243.50000   -0.05760    9.36560   35.71920    3.28400    0.02580    0.00260    2.78830   52.04830   -9999.25   -9999.25  229.14300  396.91170  227.94400
 4244.00000   -0.04340    9.36540   37.87060    3.16320    0.04200    0.00410    2.78060   51.91330   -9999.25   -9999.25  235.63660  216.99420  267.37340
 4244.50000   -0.04370    9.38050   38.44180    3.25300    0.04320    0.00560    2.77850   51.64140   -9999.25   -9999.25  278.36830  270.96080  318.02380
 4245.00000   -0.04790    9.39540   34.03560    3.34280    0.03780    0.00710    2.79660   51.21450   -9999.25   -9999.25  317.64100  324.54780  362.82810
 4245.50000   -0.05100    9.39530   31.75500    3.43260    0.03350    0.00710    2.80570   50.47010   -9999.25   -9999.25  313.32880  373.09400  414.22330
 4246.00000   -0.05680    9.42550   30.38490    3.52240    0.03020    0.00860    2.81650   49.92870   -9999.25   -9999.25  302.32660  434.35180  495.20750
 4246.50000   -0.07250    9.42530   29.47000    3.65730    0.02690    0.01000    2.82960   49.34230   -9999.25   -9999.25  388.66150  523.92200  589.69040
 4247.00000   -0.08240    9.44030   27.79630    3.77910    0.02210    0.00850    2.84710   48.89120   -9999.25   -9999.25  531.13090  597.77620  668.11210
 4247.50000   -0.08930    9.45530   24.75700    3.91650    0.01760    0.00400    2.86800   48.44020   -9999.25   -9999.25  799.83470  720.98340  857.77420
 4248.00000   -0.09980    9.45510   20.50370    4.03180    0.01180    0.00700    2.88980   47.97980   -9999.25   -9999.25 1255.65780 1027.20100 1729.71900
 4248.50000   -0.11940    9.47010   18.37480    4.09150    0.00490    0.00550    2.89860   47.49310   -9999.25   -9999.25 1300.22750 1840.17100 8427.22950
 4249.00000   -0.12110    9.47000   18.93490    4.07600    0.00460    0.00390    2.90570   47.26780   -9999.25   -9999.25 1300.49070 10802.12700 12007.62990
 4249.50000   -0.11200    9.46980   23.52420    4.06060    0.00940    0.00390    2.91160   47.31340   -9999.25   -9999.25 1300.75380 11498.41890 3585.06540
 4250.00000   -0.09970    9.48490   24.73460    4.06010    0.01760    0.00240    2.89880   47.58470   -9999.25   -9999.25 1020.62490 2909.39820 2141.07620
 4250.50000   -0.10000    9.49980   26.70870    3.86040    0.02030    0.00240    2.87170   47.81090   -9999.25   -9999.25  828.96040 2085.04740 2515.03050
 4251.00000   -0.10000    9.51480   28.07590    3.69920    0.02090    0.00390    2.86190   47.90160   -9999.25   -9999.25  926.30850 3460.67750 3390.21800
 4251.50000   -0.09700    9.51470   29.89840    3.63910    0.01850    0.00840    2.84290   47.99230   -9999.25   -9999.25 1180.88180 6716.35010 6981.09810
 4252.00000   -0.08280    9.51450   35.07400    3.60900    0.01790    0.00990    2.82650   48.03800   -9999.25   -9999.25 1164.69270 6156.72170 4292.72610
 4252.50000   -0.06990    9.51660   38.36810    3.62410    0.01790    0.00990    2.81130   47.99100   -9999.25   -9999.25 1055.23070 3389.36350 3206.32520
 4253.00000   -0.05690    9.52940   44.47070    3.63910    0.01820    0.00680    2.78860   49.79410   -9999.25   -9999.25  913.80840 2869.29050 2641.07370
 4253.50000   -0.04300    9.52920   49.47980    3.48870    0.01850    0.00380    2.76250   51.78010   -9999.25   -9999.25  840.87680 2362.50980 1985.16640
 4254.00000   -0.02600    9.52910   64.50400    3.03760    0.02590    0.00530    2.73420   53.49520   -9999.25   -9999.25 1893.12080 1863.44630 1608.91520
 4254.50000    0.00630    9.52890   67.08520    2.96240    0.03780    0.00680    2.66390   55.25550   -9999.25   -9999.25   93.97030  350.29680  277.99910
 4255.00000    0.02680    9.52880   68.45240    2.91730    0.04810    0.00680    2.66320   56.51920   -9999.25   -9999.25   46.32240   79.31810   48.28730
 4255.50000    0.02860    9.52860   68.15040    2.88680    0.05530    0.00680    2.67470   56.78960   -9999.25   -9999.25   40.60610   49.13420   40.58720
