~Version ---------------------------------------------------
VERS.   2.0 : CWLS log ASCII Standard -VERSION 2.0
WRAP.    NO : One line per depth step
DLM . SPACE : Column Data Section Delimiter
~Well ------------------------------------------------------
STRT .F                  226.0 : START DEPTH
STOP .F                10621.0 : STOP DEPTH
STEP .F                    0.5 : STEP
NULL .                -9999.25 : NULL VALUE
COMP .                         : COMPANY
WELL .                         : WELL
FLD  .                         : FIELD
LOC  .                         : LOCATION
PROV .                         : PROVINCE
CNTY .                         : COUNTY
STAT .                         : STATE
CTRY .                         : COUNTRY
SRVC .                         : SERVICE COMPANY
DATE .                         : DATE
UWI  .                         : UNIQUE WELL ID
API  .                         : API NUMBER
SLAT .WGS84 3.1294088764448986 : SURFACE LATITUDE
SLON .WGS84     8.694246695527 : SURFACE LONGITUDE
DATUM.F                    nan : DEPTH DATUM ELEV
~Curve Information -----------------------------------------
DEPT .F     : 
DPHZ .DEC   : DENSITY POROSITY LIMESTONE
HCALD.IN    : HILT CALIPER
HSGR .GAPI  : STANDARD GAMMA RAY, SPECTROSCOPY GAMMA RAY
PEFZ .B/E   : HILT PHOTOELECTRIC FACTOR
TNPH .DEC   : THERMAL NEUTRON POROSITY LIMESTONE
HDRA .G/C3  : DELTA RHO HIP TOOL
RHOZ .G/C3  : HILT BULK DENSITY
DT   .US/F  : INTERVAL TRANSIT TIME
DTCO .US/F  : COMPRESSIONAL-WAVE INTERVAL TRANSIT TIME ACOUSTIC SLOWNESS
DTSM .US/F  : SHEAR-WAVE INTERVAL TRANSIT TIME DELTA-T
RLA3 .OHMM  : HRLTB RESISTIVITY 3
RLA4 .OHMM  : HTLTB RESISTIVITY 4
RLA5 .OHMM  : HRLTB RESISTIVITY 5
~Params ----------------------------------------------------
~Other -----------------------------------------------------
~ASCII -----------------------------------------------------
# ...
 2644.00000   -9999.25   -9999.25   27.33760   -9999.25    0.07890   -9999.25   -9999.25   -9999.25   -9999.25   -9999.25   -9999.25   -9999.25   -9999.25
 2644.50000   -9999.25   -9999.25   30.98650   -9999.25    0.07280   -9999.25   -9999.25   -9999.25   -9999.25   -9999.25   -9999.25   -9999.25   -9999.25
 2645.00000   -9999.25   -9999.25   30.53210   -9999.25    0.06800   -9999.25   -9999.25   -9999.25   -9999.25   -9999.25   -9999.25   -9999.25   -9999.25
 2645.50000   -9999.25   -9999.25   30.07720   -9999.25    0.06620   -9999.25   -9999.25   -9999.25   -9999.25   -9999.25   -9999.25   -9999.25   -9999.25
 2646.00000   -9999.25   -9999.25   30.53500   -9999.25    0.06860   -9999.25   -9999.25   -9999.25   -9999.25   -9999.25   -9999.25   -9999.25   -9999.25
 2646.50000   -9999.25   -9999.25   31.14440   -9999.25    0.07040   -9999.25   -9999.25   -9999.25   -9999.25   -9999.25   -9999.25   -9999.25   -9999.25
 2647.00000   -9999.25   -9999.25   30.84200   -9999.25    0.07400   -9999.25   -9999.25   -9999.25   -9999.25   -9999.25   -9999.25   -9999.25   -9999.25
 2647.50000   -9999.25   -9999.25   28.10790   -9999.25    0.07790   -9999.25   -9999.25   -9999.25   -9999.25   -9999.25   -9999.25   -9999.25   -9999.25
 2648.00000   -0.29080    9.37440   29.65370    4.43340    0.08010    0.21670    2.96290   45.15870   -9999.25   -9999.25    0.20000    0.20000    0.20000
 2648.50000   -0.06540   10.12120   31.79570    4.45470    0.07590    0.21420    2.96290   45.70300   -9999.25   -9999.25    0.21080    0.22030    4.69310
 2649.00000   -0.03470   10.40910   33.58390    4.28690    0.06870    0.20510    2.82160   45.93030   -9999.25   -9999.25    0.84100    1.88190   16.16310
 2649.50000   -0.03590   10.56060   35.56110    4.11910    0.06370    0.21420    2.78480   45.88580   -9999.25   -9999.25    6.16250    9.48830   21.81270
 2650.00000   -0.04190   10.65150   36.62640    4.04260    0.06160    0.21720    2.78080   45.20770   -9999.25   -9999.25   24.84080   43.32880   26.67620
 2650.50000   -0.04640   10.72730   37.84370    4.02670    0.06040    0.20970    2.78930   44.12180   -9999.25   -9999.25   54.70600   83.62860   51.94910
 2651.00000   -0.04970   10.80300   39.51690    4.04140    0.06160    0.18100    2.80400   43.08110   -9999.25   -9999.25   91.35460  116.25030  112.90170
 2651.50000   -0.05390   10.90910   41.03820    3.95960    0.06440    0.14170    2.81260   42.62900   -9999.25   -9999.25  213.06110  229.43450  261.71880
 2652.00000   -0.06210   10.98480   39.06400    3.85760    0.06500    0.09490    2.81710   43.12820   -9999.25   -9999.25  340.80170  340.80370  416.67170
 2652.50000   -0.06720   11.03040   35.41810    3.76590    0.06440    0.06570    2.81720   43.58630   -9999.25   -9999.25  360.28470  495.80050  428.40210
 2653.00000   -0.07020   11.07680   31.46820    3.70450    0.06440    0.05060    2.81220   43.89970   -9999.25   -9999.25  305.02230  411.10230  410.92790
 2653.50000   -0.06960   11.13840   29.19000    3.58230    0.06620    0.03600    2.79870   43.76480   -9999.25   -9999.25  340.87110  489.03210  482.05320
 2654.00000   -0.06270   11.22730   28.27970    3.49050    0.06980    0.02390    2.78620   43.94700   -9999.25   -9999.25  249.26800  619.23240  581.40840
 2654.50000   -0.05150   11.33330   27.82520    3.44450    0.07560    0.01480    2.78020   44.58180   -9999.25   -9999.25  426.34710  632.30430  565.48930
 2655.00000   -0.04550   11.86360   27.82670    3.61090    0.07820    0.01180    2.78420   44.67300   -9999.25   -9999.25  585.87210  623.62990  627.53670
 2655.50000   -0.05000   12.22730   27.84390    3.89900    0.07890    0.04500    2.79260   43.04400   -9999.25   -9999.25  475.77620  531.65170  577.38750
 2656.00000   -0.05420   12.66670   28.62130    4.53670    0.08190    0.12660    2.79070   41.73160   -9999.25   -9999.25  378.40750  520.73130  657.55190
 2656.50000   -0.00550   13.30300   31.78300    4.90090    0.08790    0.14020    2.76500   45.61890   -9999.25   -9999.25  450.13950 1199.10950 1131.24180
 2657.00000    0.01200   13.48480   32.69630    4.94600    0.12300    0.14470    2.70170   46.62420   -9999.25   -9999.25  517.19650 1257.45100  958.32440
 2657.50000   -0.00640   13.12120   33.60970    4.80850    0.16100    0.14320    2.68590   46.21750   -9999.25   -9999.25  363.04650  453.33920  410.92790
 2658.00000   -0.04910   12.48480   34.21910    4.10880    0.17370    0.13720    2.74980   44.90520   -9999.25   -9999.25  329.45130  329.45350  324.54760
 2658.50000   -0.05750   12.28790   35.13240    3.57630    0.16310    0.06830    2.79520   44.09090   -9999.25   -9999.25  466.16180 3464.79420  783.60450
 2659.00000   -0.04880   12.15150   36.65360    3.51490    0.14110    0.01510    2.79420   43.36730   -9999.25   -9999.25  721.88530 4735.34080 1155.84250
 2659.50000   -0.02410   12.06060   38.32690    3.79470    0.11630    0.00270    2.71190   42.95960   -9999.25   -9999.25  901.75730 5111.38090 1346.52260
 2660.00000    0.04360   12.04550   43.79950    4.08000    0.12150    0.02690    2.68010   45.53050   -9999.25   -9999.25  882.15940 6038.25390 1504.67690
 2660.50000    0.04240   11.99180   46.38460    4.15140    0.12250    0.05710    2.64910   47.53620   -9999.25   -9999.25 1232.15810 18412.20700 1454.18360
 2661.00000    0.00810   10.81920   48.96970    3.93790    0.11260    0.07520    2.65670   48.44270   -9999.25   -9999.25 1496.56930 19651.78520 1752.90360
 2661.50000   -0.04000    9.69700   50.99940    3.54210    0.09950    0.06310    2.74970   48.98700   -9999.25   -9999.25 1435.62300 1247.98550 1624.05330
 2662.00000   -0.06420    9.71210   46.97600    3.17680    0.04040    0.03440    2.80830   48.17270   -9999.25   -9999.25  136.52620  118.83120  347.44410
 2662.50000   -0.06790    9.54550   40.08270    3.07000    0.02600    0.00880    2.83500   46.04530   -9999.25   -9999.25   83.41210   89.40570   77.68360
 2663.00000   -0.08310    9.43940   33.53460    3.14540    0.01750    0.01180    2.84630   44.59710   -9999.25   -9999.25   91.29450  141.36680  221.56000
 2663.50000   -0.08820    9.36360   29.67620    3.19020    0.00940    0.00880    2.85550   43.66670   -9999.25   -9999.25  275.26480  510.53510  386.04400
 2664.00000   -0.09090    9.33330   31.19780    3.20500    0.00390    0.00270    2.85830   42.83310   -9999.25   -9999.25  759.44900 1312.20700 1020.09690
 2664.50000   -0.09120    9.31820   32.11120    3.20420    0.00150   -0.00030    2.85910   42.92450   -9999.25   -9999.25 1330.63760 1312.29630 1318.77490
 2665.00000   -0.09090    9.31820   33.32850    3.18840    0.00210   -0.00030    2.85760   43.24240   -9999.25   -9999.25 1293.67970 1258.85420 1291.59900
 2665.50000   -0.09000    9.31820   33.63360    3.17260    0.00270    0.00270    2.85280   43.96780   -9999.25   -9999.25 1160.52610 1165.92860 1213.38660
 2666.00000   -0.08790    9.30300   32.11570    3.20240    0.00390    0.00270    2.84070   44.46680   -9999.25   -9999.25  525.09390  824.10750  951.69570
 2666.50000   -0.07640    9.31820   33.94090    3.21700    0.00510    0.00270    2.82670   44.92050   -9999.25   -9999.25  476.49530  493.32270  465.61100
 2667.00000   -0.08000    9.31820   37.58980    3.23160    0.00790    0.00270    2.82690   45.38260   -9999.25   -9999.25  463.48770  463.48860  485.41040
 2667.50000   -0.07970    9.32270   40.17490    3.26140    0.01120    0.00270    2.83290   45.60150   -9999.25   -9999.25  414.79280  363.54660  372.87640
 2668.00000   -0.07970    9.32730   41.08820    3.27600    0.01430    0.00270    2.84290   45.05920   -9999.25   -9999.25  490.01760  450.85140  468.85360
 2668.50000   -0.07940    9.33200   40.63380    3.29060    0.01670    0.00270    2.85810   44.42610   -9999.25   -9999.25  273.55110  291.18450  274.74820
 2669.00000   -0.09060    9.33330   33.18850    3.27240    0.01570    0.01180    2.87560   43.83830   -9999.25   -9999.25  229.99060  246.51700  219.37960
 2669.50000   -0.09860    9.33330   29.97920    3.25880    0.01330    0.00570    2.88460   43.43160   -9999.25   -9999.25  351.24730  587.04770  467.47310
