~Version ---------------------------------------------------
VERS.   2.0 : CWLS log ASCII Standard -VERSION 2.0
WRAP.    NO : One line per depth step
DLM . SPACE : Column Data Section Delimiter
~Well ------------------------------------------------------
STRT .F                  226.0 : START DEPTH
STOP .F                10621.0 : STOP DEPTH
STEP .F                    0.5 : STEP
NULL .                -9999.25 : NULL VALUE
COMP .                         : COMPANY
WELL .                         : WELL
FLD  .                         : FIELD
LOC  .                         : LOCATION
PROV .                         : PROVINCE
CNTY .                         : COUNTY
STAT .                         : STATE
CTRY .                         : COUNTRY
SRVC .                         : SERVICE COMPANY
DATE .                         : DATE
UWI  .                         : UNIQUE WELL ID
API  .                         : API NUMBER
SLAT .WGS84 3.1294088764448986 : SURFACE LATITUDE
SLON .WGS84     8.694246695527 : SURFACE LONGITUDE
DATUM.F                    nan : DEPTH DATUM ELEV
~Curve Information -----------------------------------------
DEPT .F     : 
DPHZ .DEC   : DENSITY POROSITY LIMESTONE
HCALD.IN    : HILT CALIPER
HSGR .GAPI  : STANDARD GAMMA RAY, SPECTROSCOPY GAMMA RAY
PEFZ .B/E   : HILT PHOTOELECTRIC FACTOR
TNPH .DEC   : THERMAL NEUTRON POROSITY LIMESTONE
HDRA .G/C3  : DELTA RHO HIP TOOL
RHOZ .G/C3  : HILT BULK DENSITY
DT   .US/F  : INTERVAL TRANSIT TIME
DTCO .US/F  : COMPRESSIONAL-WAVE INTERVAL TRANSIT TIME ACOUSTIC SLOWNESS
DTSM .US/F  : SHEAR-WAVE INTERVAL TRANSIT TIME DELTA-T
RLA3 .OHMM  : HRLTB RESISTIVITY 3
RLA4 .OHMM  : HTLTB RESISTIVITY 4
RLA5 .OHMM  : HRLTB RESISTIVITY 5
~Params ----------------------------------------------------
~Other -----------------------------------------------------
~ASCII -----------------------------------------------------
# ...
 10080.00000    0.02220    9.32820   37.54160    6.11140    0.00440    0.14960    2.23520   -9999.25   54.83520   87.73330   87.89720   41.51310   62.61840
 10080.50000    0.08310    9.34440   31.77380    6.83400    0.00680    0.15420    1.93680   -9999.25   55.82420   88.67140  232.23130   97.73220  174.47400
 10081.00000    0.29660    9.39070   24.18500    7.80190    0.00800    0.03620    1.72750   -9999.25   53.46940   88.19760  404.58260  439.61170 1308.38880
 10081.50000    0.56500    9.45220   21.45220    8.63020    0.00320   -0.01380    1.56570   -9999.25   51.11460   86.78220  549.00740 1415.71620 1777.88160
 10082.00000    0.69880   12.47730   21.14720    9.48370    0.00020   -0.01980    1.41070   -9999.25   47.25270   82.07320 1227.94860 2019.04770 1732.22200
 10082.50000    0.69910   15.28960   21.79180    9.95030   -0.00280    0.01500    1.37400   -9999.25   47.91210   85.36430 1533.13150 1887.52690 1926.71350
 10083.00000    0.69940   16.20210   22.96520    9.98020   -0.00340    0.04220    1.37270   -9999.25   49.79590   86.77290 1129.51090 1557.09030 1556.23720
 10083.50000    0.69970   16.29410   23.72210    9.94970   -0.00460    0.05280    1.37470   -9999.25   49.70170   88.80910  969.21500 1415.33090 1611.11780
 10084.00000    0.70000   16.31250   24.63110    9.91930   -0.00520    0.05130    1.38010   -9999.25   54.08160  101.82560 1245.22440 2878.79760 3372.87620
 10084.50000    0.70000   16.38690   24.93350    9.88880   -0.00510    0.05130    1.38420   -9999.25   65.00790  118.45000 1608.52940 4163.16360 5532.23390
 10085.00000    0.70000   16.46360   25.23550    9.84340   -0.00510    0.05280    1.38680   -9999.25   74.00310  140.72140 1193.31310 4621.17870 4744.56010
 10085.50000    0.70000   16.47960   27.81330    9.81300   -0.00510    0.05430    1.38720   -9999.25   76.22420  143.85560  929.35150 2418.44780 2911.70120
 10086.00000    0.70000   16.48030   47.08350    9.79760    0.00040    0.04670    1.38760   -9999.25   78.10050  144.63690  634.35670 1851.91430 1859.00220
 10086.50000    0.70000   16.46570   64.25330    9.76710    0.03010    0.04830    1.38680   -9999.25   76.45210  139.95880  109.56000  128.11190  593.25120
 10087.00000    0.70000   16.49700   77.12570    9.73670    0.11100    0.04830    1.38520   -9999.25   71.27160  130.01620   28.49810   39.50030   43.14610
 10087.50000    0.70000   16.54330   90.93300    9.67620    0.17560    0.02710    1.38070   -9999.25   60.48670  106.66610   15.68650   24.94730   24.86800
 10088.00000    0.69980   16.58970   92.14550    9.64580    0.29870    0.00740    1.37620   -9999.25   56.57770  102.42770   12.20330    7.64270    4.56820
 10088.50000    0.69950   16.62100   92.75100    9.64550    0.44480    0.00770    1.37470   -9999.25   56.20090  101.48350   13.95080    6.88050    5.17800
 10089.00000    0.69950   16.65210   92.29430    9.69040    0.50620    0.02100    1.38080   -9999.25   59.30930  106.81370   11.30070    6.50740    6.56180
 10089.50000    0.69950   16.69840   90.62360    9.52440    0.55070    0.02710    1.45230   -9999.25   67.08010  119.04600    8.36250    5.94390    6.84110
 10090.00000    0.69950   16.71440   88.04250    9.18700    0.55820    0.03460    1.51980   -9999.25   72.49610  126.72920    7.66930    6.28390    7.28230
 10090.50000    0.69920   16.69990   84.83220    8.98090    0.54290    0.05430    1.92350   -9999.25   74.32940  128.45160   16.79960    7.68920    8.08350
 10091.00000    0.67560   16.45750   84.70110    9.43310    0.49780    0.07850    1.93860   -9999.25   76.12250  129.38970   19.70470    8.30070    9.08800
 10091.50000    0.49590   16.10870   87.73420    9.07140    0.47430    0.09210    1.94750   -9999.25   80.07850  128.28860   26.73880    9.02320   17.76500
 10092.00000    0.54680   13.52560   89.09840    8.92050    0.51890    0.06490    1.70130   -9999.25   76.49920  125.30510   29.05720   21.39120   25.16970
 10092.50000    0.62370   11.82440   90.15920    9.64310    0.52250   -0.01000    1.69110   -9999.25   73.67350  121.64380   24.42510   29.66930   30.16600
 10093.00000    0.64050   12.61560   91.91690    9.94640    0.44610   -0.04400    1.82430   -9999.25   72.63740  119.28540   20.38950   16.99530   32.56560
 10093.50000    0.61580   13.40660   96.32000    9.97380    0.38920   -0.04250    1.95050   -9999.25   72.63740  118.23710    2.78120    4.80680    2.93760
 10094.00000    0.60890   13.75690  104.11520    9.13010    0.31440   -0.03190    2.10470   -9999.25   73.53220  121.99790    6.00850    3.13080    7.95980
 10094.50000    0.55470   13.72730  122.01960    6.29850    0.28280   -0.00920    2.26070   -9999.25   74.85090  123.24970   14.01380   11.42800   13.90130
 10095.00000    0.30500   13.33290  128.69490    4.58130    0.26020    0.01950    2.41070   -9999.25   74.70960  123.40430   16.48890   17.59520   17.98880
 10095.50000    0.24660   11.95060  129.65310    3.40630    0.26080    0.04830    2.49920   -9999.25   74.66250  121.20440   17.98260   18.99460   20.69980
 10096.00000    0.12430   10.40530  126.48160    2.95420    0.26870    0.08310    2.50610   -9999.25   75.27470  117.43660   14.59990   14.27680   22.79180
 10096.50000    0.12860    9.93080  123.53120    2.87670    0.27230    0.11550    2.50770   -9999.25   71.46000  113.35510   12.10330   11.58510   18.61470
 10097.00000    0.12490   10.19010  124.89500    2.95360    0.28010    0.14510    2.50840   -9999.25   69.95290  114.29320   10.03370   10.58200   17.11710
 10097.50000    0.11470   10.14520  125.34920    3.07690    0.28740    0.16320    2.50910   -9999.25   71.03610  116.48620    8.61160   10.07790   16.87750
 10098.00000    0.11110   10.00920  119.88450    3.19400    0.31200    0.10730    2.51480   -9999.25   70.47100  117.42430   10.24200   13.68910   19.80810
 10098.50000    0.10290    9.93400  113.81320    3.25390    0.29970    0.06640    2.52460   -9999.25   69.01100  116.14570   11.84750   14.27200   22.45210
 10099.00000    0.09720    9.90410  109.71460    3.28380    0.29160    0.02860    2.53770   -9999.25   66.79750  107.61120   12.09510   13.59220   24.74920
 10099.50000    0.09310    9.90500  110.16840    3.31350    0.30510    0.01350    2.54920   -9999.25   63.26530   91.68880   12.26250   13.97490   26.00230
 10100.00000    0.09010    9.89610  112.29130    3.22290    0.30270    0.00890    2.56170   -9999.25   55.21190   81.17600   13.23360   14.46890   24.73910
 10100.50000    0.08770    9.85710  113.55870    3.37050    0.29880    0.00730    2.56230   -9999.25   51.29840   79.44740   14.68960   15.77360   27.77680
 10101.00000    0.10970    9.76930  115.01940    3.49740    0.29520    0.00590    2.55500   -9999.25   50.83200   79.75880   16.06180   18.30570   36.28490
 10101.50000    0.12530    9.72390  113.56090    3.61350    0.25910    0.00590    2.52250   -9999.25   49.89010   80.38240   16.49780   22.23080   30.47450
 10102.00000    0.11070    9.72400  103.63570    3.55300    0.22660    0.00600    2.52230   -9999.25   49.41920   82.26170   13.11190   23.00670   37.03670
 10102.50000    0.09690    9.75640   94.71190    3.43220    0.17880    0.00610    2.53660   -9999.25   49.13660   85.58480   79.64460   75.59640   94.63390
 10103.00000    0.09400    9.78510   79.23830    3.35660    0.13580    0.00900    2.54810   -9999.25   48.80690   86.99960  122.40920  194.19240  238.47410
 10103.50000    0.09740    9.78530   74.69050    3.29610    0.11050    0.01210    2.55180   -9999.25   48.00630   86.37520  128.48010  212.98150  335.79100
 10104.00000    0.11180    9.78540   72.83750    3.28070    0.10530    0.01810    2.54850   -9999.25   46.20910   81.51560   82.60150  149.23080  321.75540
 10104.50000    0.11080    9.77030   68.08550    3.40090    0.10160    0.02870    2.48180   -9999.25   45.98120   79.00810   57.34610   70.80470  125.42050
 10105.00000    0.11850    9.75530   49.66700    3.67170    0.10040    0.03780    2.46020   -9999.25   49.32500   80.73740   45.90020   63.74140   93.50100
 10105.50000    0.20670    9.72510   43.29810    3.95750    0.09920    0.04840    2.42350   -9999.25   53.46940   84.50520   41.05400   57.99310   73.61110
