~Version ---------------------------------------------------
VERS.   2.0 : CWLS log ASCII Standard -VERSION 2.0
WRAP.    NO : One line per depth step
DLM . SPACE : Column Data Section Delimiter
~Well ------------------------------------------------------
STRT .F                  226.0 : START DEPTH
STOP .F                10621.0 : STOP DEPTH
STEP .F                    0.5 : STEP
NULL .                -9999.25 : NULL VALUE
COMP .                         : COMPANY
WELL .                         : WELL
FLD  .                         : FIELD
LOC  .                         : LOCATION
PROV .                         : PROVINCE
CNTY .                         : COUNTY
STAT .                         : STATE
CTRY .                         : COUNTRY
SRVC .                         : SERVICE COMPANY
DATE .                         : DATE
UWI  .                         : UNIQUE WELL ID
API  .                         : API NUMBER
SLAT .WGS84 3.1294088764448986 : SURFACE LATITUDE
SLON .WGS84     8.694246695527 : SURFACE LONGITUDE
DATUM.F                    nan : DEPTH DATUM ELEV
~Curve Information -----------------------------------------
DEPT .F     : 
DPHZ .DEC   : DENSITY POROSITY LIMESTONE
HCALD.IN    : HILT CALIPER
HSGR .GAPI  : STANDARD GAMMA RAY, SPECTROSCOPY GAMMA RAY
PEFZ .B/E   : HILT PHOTOELECTRIC FACTOR
TNPH .DEC   : THERMAL NEUTRON POROSITY LIMESTONE
HDRA .G/C3  : DELTA RHO HIP TOOL
RHOZ .G/C3  : HILT BULK DENSITY
DT   .US/F  : INTERVAL TRANSIT TIME
DTCO .US/F  : COMPRESSIONAL-WAVE INTERVAL TRANSIT TIME ACOUSTIC SLOWNESS
DTSM .US/F  : SHEAR-WAVE INTERVAL TRANSIT TIME DELTA-T
RLA3 .OHMM  : HRLTB RESISTIVITY 3
RLA4 .OHMM  : HTLTB RESISTIVITY 4
RLA5 .OHMM  : HRLTB RESISTIVITY 5
~Params ----------------------------------------------------
~Other -----------------------------------------------------
~ASCII -----------------------------------------------------
# ...
 8468.00000    0.00440    9.92100   21.54780    5.23370   -0.01050    0.01440    2.70020   -9999.25   50.73800   94.09590  189.59840  374.09180  541.88960
 8468.50000    0.00920    9.93620   21.54780    5.23290   -0.01110    0.01740    2.69440   -9999.25   50.31530   93.94060  167.28580  287.03910  512.59940
 8469.00000    0.01370    9.92100   22.00300    5.23440   -0.01110    0.01920    2.68980   -9999.25   49.98660   93.62800  159.30930  258.48920  427.90440
 8469.50000    0.01580    9.92100   22.91350    5.26180   -0.00840    0.02040    2.68750   -9999.25   49.93990   93.31610  158.16460  235.51660  362.20010
 8470.00000    0.01730    9.92100   25.34140    5.29120   -0.00870    0.02040    2.68630   -9999.25   50.03450   93.31760  149.58120  215.52740  315.22210
 8470.50000    0.01980    9.92100   27.16240    5.35070   -0.00870    0.01740    2.68560   -9999.25   50.17680   93.50040  138.54840  205.20660  306.58460
 8471.00000    0.02660    9.92100   29.43850    5.42240   -0.00650    0.01280    2.68140   -9999.25   50.09920   93.94850  125.51900  194.02460  294.07010
 8471.50000    0.03060    9.92100   32.47340    5.49460   -0.00560    0.00980    2.66910   -9999.25   49.47170   94.42060  116.41360  183.45210  259.50890
 8472.00000    0.03240    9.92100   33.83910    5.56010   -0.00620    0.00830    2.66310   -9999.25   49.37800   95.20640  114.77100  161.79080  242.09520
 8472.50000    0.03120    9.93620   35.36390    5.64740   -0.00680    0.00520    2.66170   -9999.25   50.31900   96.14920  108.54260  137.80590  230.60570
 8473.00000    0.03090    9.92100   35.81180    5.75300   -0.00710    0.00520    2.66170   -9999.25   51.63610   98.03310   91.22720  122.38340  191.17110
 8473.50000    0.03450    9.93620   35.81180    5.85760   -0.00560    0.00670    2.66170   -9999.25   53.32930   98.97580   76.67410   63.58770  108.91260
 8474.00000    0.03570    9.92100   36.11530    5.99210    0.00130    0.00670    2.65920   -9999.25   53.51790   99.29100   38.02640   38.88030   58.69510
 8474.50000    0.03660    9.90580   36.57060    6.12670    0.00530    0.00670    2.65410   -9999.25   53.00120   98.81940   49.83400   46.45020   60.34870
 8475.00000    0.02190    9.89060   37.02580    6.24620    0.00710    0.00820    2.68510   -9999.25   52.90750   98.66660   70.48780   79.92240   92.18920
 8475.50000    0.01310    9.85700   32.47340    6.08040    0.00950    0.00970    2.69070   -9999.25   53.00210   98.66850   68.53920   93.11870  109.55990
 8476.00000    0.01140    9.82980   28.98330    6.17000    0.01190    0.01870    2.68650   -9999.25   52.76740   99.14060   60.47330   75.01770  106.66660
 8476.50000    0.02850    9.82980   27.46590    6.33450    0.01370    0.01870    2.66230   -9999.25   52.48580   99.29900   57.99090   72.42680   96.78240
 8477.00000    0.04830    9.82980   26.40360    6.54850    0.01550    0.01720    2.64800   -9999.25   52.43920   99.61420   57.17600   76.01800   97.45690
 8477.50000    0.04170    9.82980   25.64490    6.67860    0.01740    0.01570    2.64190   -9999.25   52.58680   98.98830   55.98260   80.34460  103.74380
 8478.00000    0.03330    9.86020   24.88620    6.70800    0.01860    0.01560    2.65140   -9999.25   53.14550   98.04860   58.54620   86.75990  116.74660
 8478.50000    0.01950    9.86020   27.25940    6.76750    0.01380    0.01210    2.66010   -9999.25   53.94540   98.67790   68.59540   89.75060  142.79910
 8479.00000    0.01740    9.87540   29.89380    6.87200    0.01140    0.00800    2.66830   -9999.25   55.02730   99.93440   53.28070   79.69950  134.14550
 8479.50000    0.02370    9.87540   30.04550    6.97650    0.00840    0.00500    2.67100   -9999.25   55.30990  100.24960   54.38700   81.35400  116.74660
 8480.00000    0.03450    9.89060   29.59030    7.09610    0.00720    0.00350    2.66890   -9999.25   55.40440   98.99620   61.18160   85.98430  122.56330
 8480.50000    0.03690    9.89060   29.59030    7.23060    0.00750    0.00350    2.66450   -9999.25   55.78100   98.05650   68.34900   89.62170  137.33990
 8481.00000    0.02850    9.89060   29.43850    7.38020    0.00660    0.00340    2.66960   -9999.25   56.36250   97.43060   68.81110   91.48210  146.82220
 8481.50000    0.01650    9.89060   29.43850    7.40960    0.00660    0.00340    2.67880   -9999.25   56.62830   96.94370   59.45800   82.38300  130.46970
 8482.00000    0.01200    9.90580   29.89380    6.62160    0.00600    0.00340    2.68190   -9999.25   54.65400   96.49240   57.45570   83.50980  126.89460
 8482.50000    0.02100    9.89060   30.50080    5.80170    0.00570    0.00340    2.68410   -9999.25   51.55100   96.18020   68.27500   94.71220  156.29350
 8483.00000    0.01710    9.86020   31.41120    5.74100    0.00610    0.00490    2.68410   -9999.25   48.16590   96.02530   76.37680  102.32970  164.08060
 8483.50000    0.01470    9.81460   32.47830    5.71040    0.00550    0.00640    2.68410   -9999.25   46.99070   95.55620   86.05940  114.90470  169.87920
 8484.00000    0.01350    9.76900   33.26820    5.70980    0.00430    0.00640    2.68330   -9999.25   48.30780   95.24400   96.51500  134.81230  180.83790
 8484.50000    0.02350    9.75370   34.59790    5.66420    0.00420    0.00490    2.68250   -9999.25   50.34000   95.24810  112.40660  158.16900  197.92700
 8485.00000    0.01710    9.73000   37.17750    5.42340    0.00370    0.00480    2.68230   -9999.25   52.77590   98.32530  138.38970  188.17420  225.85010
 8485.50000    0.00990    9.70190   45.37180    5.16760    0.00370    0.00630    2.68250   -9999.25   53.19960  105.60180  161.17630  236.69360  331.89720
 8486.00000    0.00120    9.69300   57.96660    4.97130    0.02690    0.00780    2.68290   -9999.25   53.34110  111.87790  166.82260  223.79590  359.69300
 8486.50000    0.02970    9.67780   99.84830    4.61860    0.05250    0.00930    2.68600   -9999.25   53.43560  118.78130   42.44350   49.73290  149.91370
 8487.00000    0.04510    9.67780   99.84830    4.51840    0.06600    0.00780    2.69230   -9999.25   53.85930  120.66480   30.20260   43.86070   38.15690
 8487.50000    0.04690    9.66260  100.45520    4.47440    0.06870    0.00780    2.69730   -9999.25   54.75310  112.66670   62.64160   51.11080   40.61840
 8488.00000    0.04420    9.64740   78.06100    4.45880    0.05310    0.00470    2.65330   -9999.25   56.29400  107.36640  112.18850  133.50370  142.79910
 8488.50000    0.02430    9.63220   62.82250    4.44320    0.02920    0.00170    2.65810   -9999.25   58.79800  101.84660  142.99850  197.08730  308.72160
 8489.00000    0.00840    9.61700   55.69040    4.42760    0.02350    0.00170    2.67950   -9999.25   61.29070  100.74970  163.11200  177.48430  222.73430
 8489.50000    0.01050    9.59630   57.00980    4.42700    0.02280    0.00020    2.68990   -9999.25   62.37260  102.79080  174.78790  267.54410  298.18380
 8490.00000    0.01470    9.58510   60.84980    4.45650    0.02820    0.00170    2.68910   -9999.25   63.12540  105.61580  151.04040  296.89310  333.23410
 8490.50000    0.02490    9.55620   62.67070    4.47090    0.03510    0.00160    2.68360   -9999.25   63.78420  106.55850  120.08890  172.43490  299.86040
 8491.00000    0.03490    9.52580   60.54630    4.46910    0.03810    0.00010    2.66720   -9999.25   64.25710  106.71690  100.23350  140.86360  142.79910
 8491.50000    0.03580    9.50670   55.38700    4.34940    0.03630    0.00010    2.65380   -9999.25   64.72560  107.71640   92.19820  139.83900  153.07040
 8492.00000    0.02050    9.46500   54.78000    4.27380    0.03090   -0.00090    2.65830   -9999.25   64.25590  110.32810  100.51580  146.77270  155.21170
 8492.50000    0.01180    9.44980   54.32470    4.25820    0.02880    0.00010    2.67610   -9999.25   62.75160  111.89830  113.47180  124.13640  133.21690
 8493.00000    0.01030    9.43910   57.66310    4.24260    0.02920    0.00160    2.68680   -9999.25   61.24740  112.21350  124.15270  168.57120  252.39790
 8493.50000    0.01930    9.40430   63.27770    4.21200    0.03940    0.00190    2.68450   -9999.25   60.21330  112.84250  105.07390  149.70550  261.31770
