~Version ---------------------------------------------------
VERS.   2.0 : CWLS log ASCII Standard -VERSION 2.0
WRAP.    NO : One line per depth step
DLM . SPACE : Column Data Section Delimiter
~Well ------------------------------------------------------
STRT .F                  226.0 : START DEPTH
STOP .F                10621.0 : STOP DEPTH
STEP .F                    0.5 : STEP
NULL .                -9999.25 : NULL VALUE
COMP .                         : COMPANY
WELL .                         : WELL
FLD  .                         : FIELD
LOC  .                         : LOCATION
PROV .                         : PROVINCE
CNTY .                         : COUNTY
STAT .                         : STATE
CTRY .                         : COUNTRY
SRVC .                         : SERVICE COMPANY
DATE .                         : DATE
UWI  .                         : UNIQUE WELL ID
API  .                         : API NUMBER
SLAT .WGS84 3.1294088764448986 : SURFACE LATITUDE
SLON .WGS84     8.694246695527 : SURFACE LONGITUDE
DATUM.F                    nan : DEPTH DATUM ELEV
~Curve Information -----------------------------------------
DEPT .F     : 
DPHZ .DEC   : DENSITY POROSITY LIMESTONE
HCALD.IN    : HILT CALIPER
HSGR .GAPI  : STANDARD GAMMA RAY, SPECTROSCOPY GAMMA RAY
PEFZ .B/E   : HILT PHOTOELECTRIC FACTOR
TNPH .DEC   : THERMAL NEUTRON POROSITY LIMESTONE
HDRA .G/C3  : DELTA RHO HIP TOOL
RHOZ .G/C3  : HILT BULK DENSITY
DT   .US/F  : INTERVAL TRANSIT TIME
DTCO .US/F  : COMPRESSIONAL-WAVE INTERVAL TRANSIT TIME ACOUSTIC SLOWNESS
DTSM .US/F  : SHEAR-WAVE INTERVAL TRANSIT TIME DELTA-T
RLA3 .OHMM  : HRLTB RESISTIVITY 3
RLA4 .OHMM  : HTLTB RESISTIVITY 4
RLA5 .OHMM  : HRLTB RESISTIVITY 5
~Params ----------------------------------------------------
~Other -----------------------------------------------------
~ASCII -----------------------------------------------------
# ...
 10600.00000    0.01560    9.03950   47.95140    4.18670    0.07640    0.01120    2.66790   -9999.25   -9999.25   -9999.25   -9999.25   -9999.25   -9999.25
 10600.50000    0.01730    9.03950   48.10320    3.80210    0.09830    0.00740    2.66870   -9999.25   -9999.25   -9999.25   -9999.25   -9999.25   -9999.25
 10601.00000    0.03720    9.03950   48.10320    3.46320    0.15340    0.00590    2.66520   -9999.25   -9999.25   -9999.25   -9999.25   -9999.25   -9999.25
 10601.50000    0.08810    9.03950   48.10320    3.43280    0.17240    0.00590    2.64910   -9999.25   -9999.25   -9999.25   -9999.25   -9999.25   -9999.25
 10602.00000    0.10370    9.03950   47.95140    3.52280    0.16540    0.00740    2.61180   -9999.25   -9999.25   -9999.25   -9999.25   -9999.25   -9999.25
 10602.50000    0.11550    9.03950   47.95140    3.61290    0.16460    0.00890    2.55050   -9999.25   -9999.25   -9999.25   -9999.25   -9999.25   -9999.25
 10603.00000    0.11160    9.03950   47.79970    3.64280    0.16030    0.01200    2.52930   -9999.25   -9999.25   -9999.25   -9999.25   -9999.25   -9999.25
 10603.50000    0.09200    9.02430   47.64800    3.73280    0.11580    0.01650    2.52880   -9999.25   -9999.25   -9999.25   -9999.25   -9999.25   -9999.25
 10604.00000    0.06040    8.93190   47.64800    3.88310    0.07550    0.01650    2.55800   -9999.25   -9999.25   -9999.25   -9999.25   -9999.25   -9999.25
 10604.50000    0.01660    8.82480   47.49620    4.30450    0.03420    0.01200    2.59030   -9999.25   -9999.25   -9999.25   -9999.25   -9999.25   -9999.25
 10605.00000   -0.01970    8.78120   47.49620    4.53010    0.03630    0.01040    2.64340   -9999.25   -9999.25   -9999.25   -9999.25   -9999.25   -9999.25
 10605.50000   -0.03690    8.79640   47.49620    4.38400    0.04630    0.01040    2.71650   -9999.25   -9999.25   -9999.25   -9999.25   -9999.25   -9999.25
 10606.00000   -0.04200    8.79640   47.49620    4.21320    0.04420    0.01040    2.77710   -9999.25   -9999.25   -9999.25   -9999.25   -9999.25   -9999.25
 10606.50000   -0.04110    8.81160   47.34450    4.21290    0.03810    0.01040    2.77900   -9999.25   -9999.25   -9999.25   -9999.25   -9999.25   -9999.25
 10607.00000   -0.02090    8.81160   47.19270    4.22770    0.03600    0.01040    2.77840   -9999.25   -9999.25   -9999.25   -9999.25   -9999.25   -9999.25
 10607.50000    0.00070    8.81160   47.19270    4.24250    0.03660    0.01350    2.74020   -9999.25   -9999.25   -9999.25   -9999.25   -9999.25   -9999.25
 10608.00000    0.01040    8.82200   47.19270    4.21200    0.03810    0.01500    2.71210   -9999.25   -9999.25   -9999.25   -9999.25   -9999.25   -9999.25
 10608.50000    0.01850    8.82670   47.49620    4.18160    0.03940    0.01350    2.69700   -9999.25   -9999.25   -9999.25   -9999.25   -9999.25   -9999.25
 10609.00000    0.02420    8.82670   47.64800    4.12110    0.03910    0.01500    2.68450   -9999.25   -9999.25   -9999.25   -9999.25   -9999.25   -9999.25
 10609.50000    0.03530    8.79640   47.64800    4.10510    0.03810    0.02100    2.65640   -9999.25   -9999.25   -9999.25   -9999.25   -9999.25   -9999.25
 10610.00000    0.05310    8.79640   47.19270    4.15060    0.03780    0.03160    2.64160   -9999.25   -9999.25   -9999.25   -9999.25   -9999.25   -9999.25
 10610.50000    0.06660    8.79640   47.04100    4.18040    0.03720    0.04220    2.63610   -9999.25   -9999.25   -9999.25   -9999.25   -9999.25   -9999.25
 10611.00000    0.06510    8.79640   46.88920    4.21030    0.03660    0.05280    2.63310   -9999.25   -9999.25   -9999.25   -9999.25   -9999.25   -9999.25
 10611.50000    0.04700    8.79640   46.88920    4.20990    0.03570    0.06340    2.62650   -9999.25   -9999.25   -9999.25   -9999.25   -9999.25   -9999.25
 10612.00000    0.04370    8.79640   47.04100    4.04390    0.03480    0.04220    2.62400   -9999.25   -9999.25   -9999.25   -9999.25   -9999.25   -9999.25
 10612.50000    0.04670    8.79640   47.04100    3.66710    0.03450    0.02560    2.63350   -9999.25   -9999.25   -9999.25   -9999.25   -9999.25   -9999.25
 10613.00000    0.06330    8.79640   47.11120    3.42590    0.03750    0.01650    2.63550   -9999.25   -9999.25   -9999.25   -9999.25   -9999.25   -9999.25
 10613.50000    0.07950    8.79640   47.19270    3.19970    0.03940    0.02120    2.61800   -9999.25   -9999.25   -9999.25   -9999.25   -9999.25   -9999.25
 10614.00000    0.08370    8.82670   47.49620    3.12410    0.03720    0.02560    2.58510   -9999.25   -9999.25   -9999.25   -9999.25   -9999.25   -9999.25
 10614.50000    0.08670    8.85710   47.64800    3.19910    0.03660    0.02860    2.57650   -9999.25   -9999.25   -9999.25   -9999.25   -9999.25   -9999.25
 10615.00000    0.09120    8.88750   47.64310    3.27700    0.03780    0.03160    2.57120   -9999.25   -9999.25   -9999.25   -9999.25   -9999.25   -9999.25
 10615.50000    0.09030    8.87120   47.02170    3.36410    0.03880    0.03310    2.57000   -9999.25   -9999.25   -9999.25   -9999.25   -9999.25   -9999.25
 10616.00000    0.08070    8.84190   46.43400    3.58970    0.03870    0.03920    2.58890   -9999.25   -9999.25   -9999.25   -9999.25   -9999.25   -9999.25
 10616.50000    0.02070    8.78120   45.97880    4.02620    0.03780    0.04520    2.62650   -9999.25   -9999.25   -9999.25   -9999.25   -9999.25   -9999.25
 10617.00000    0.00660    8.67480   45.37180    4.23670    0.03690    0.05130    2.65960   -9999.25   -9999.25   -9999.25   -9999.25   -9999.25   -9999.25
 10617.50000    0.00540    8.27960   44.91650    4.05570    0.03690    0.06340    2.69960   -9999.25   -9999.25   -9999.25   -9999.25   -9999.25   -9999.25
 10618.00000    0.00240    7.50460   44.00610    3.93490    0.03660    0.08150    2.70730   -9999.25   -9999.25   -9999.25   -9999.25   -9999.25   -9999.25
 10618.50000   -0.00390    7.06380   43.24730    3.81410    0.03600    0.09970    2.72120   -9999.25   -9999.25   -9999.25   -9999.25   -9999.25   -9999.25
 10619.00000   -0.02320    6.72950   42.64040    3.76870    0.03600    0.11820    2.73620   -9999.25   -9999.25   -9999.25   -9999.25   -9999.25   -9999.25
 10619.50000   -0.03010    6.47110   41.88160    3.75330    0.03600    0.13710    2.74620   -9999.25   -9999.25   -9999.25   -9999.25   -9999.25   -9999.25
 10620.00000   -0.03220    6.22800   41.42640    3.75300    0.03650    0.15570    2.75480   -9999.25   -9999.25   -9999.25   -9999.25   -9999.25   -9999.25
 10620.50000   -0.02770    6.04150   40.96400    3.78280    0.03690    0.16630    2.75980   -9999.25   -9999.25   -9999.25   -9999.25   -9999.25   -9999.25
 10621.00000   -0.02380    6.00000   40.36420    3.78760    0.03700    0.16170    2.75440   -9999.25   -9999.25   -9999.25   -9999.25   -9999.25   -9999.25
