~Version ---------------------------------------------------
VERS.   2.0 : CWLS log ASCII Standard -VERSION 2.0
WRAP.    NO : One line per depth step
DLM . SPACE : Column Data Section Delimiter
~Well ------------------------------------------------------
STRT .F                  226.0 : START DEPTH
STOP .F                10621.0 : STOP DEPTH
STEP .F                    0.5 : STEP
NULL .                -9999.25 : NULL VALUE
COMP .                         : COMPANY
WELL .                         : WELL
FLD  .                         : FIELD
LOC  .                         : LOCATION
PROV .                         : PROVINCE
CNTY .                         : COUNTY
STAT .                         : STATE
CTRY .                         : COUNTRY
SRVC .                         : SERVICE COMPANY
DATE .                         : DATE
UWI  .                         : UNIQUE WELL ID
API  .                         : API NUMBER
SLAT .WGS84 3.1294088764448986 : SURFACE LATITUDE
SLON .WGS84     8.694246695527 : SURFACE LONGITUDE
DATUM.F                    nan : DEPTH DATUM ELEV
~Curve Information -----------------------------------------
DEPT .F     : 
DPHZ .DEC   : DENSITY POROSITY LIMESTONE
HCALD.IN    : HILT CALIPER
HSGR .GAPI  : STANDARD GAMMA RAY, SPECTROSCOPY GAMMA RAY
PEFZ .B/E   : HILT PHOTOELECTRIC FACTOR
TNPH .DEC   : THERMAL NEUTRON POROSITY LIMESTONE
HDRA .G/C3  : DELTA RHO HIP TOOL
RHOZ .G/C3  : HILT BULK DENSITY
DT   .US/F  : INTERVAL TRANSIT TIME
DTCO .US/F  : COMPRESSIONAL-WAVE INTERVAL TRANSIT TIME ACOUSTIC SLOWNESS
DTSM .US/F  : SHEAR-WAVE INTERVAL TRANSIT TIME DELTA-T
RLA3 .OHMM  : HRLTB RESISTIVITY 3
RLA4 .OHMM  : HTLTB RESISTIVITY 4
RLA5 .OHMM  : HRLTB RESISTIVITY 5
~Params ----------------------------------------------------
~Other -----------------------------------------------------
~ASCII -----------------------------------------------------
# ...
 9534.00000    0.00800    9.66860   58.52530    4.74880   -0.00780    0.00340    2.71510   -9999.25   52.07160   90.84530  575.81720 1652.87000 1095.76820
 9534.50000    0.01830    9.66480   57.46450    4.65830   -0.00770    0.00350    2.71430   -9999.25   52.16530   91.31280  395.66680  794.31080  730.26490
 9535.00000    0.02380    9.65490   57.76950    4.70330   -0.00840    0.00500    2.71160   -9999.25   52.26210   91.46670  392.45210  714.25130  706.99850
 9535.50000    0.02440    9.65580   59.13670    4.79350   -0.01010    0.00500    2.70080   -9999.25   52.55470   91.46350  569.54310  969.00230 1237.70810
 9536.00000    0.01870    9.65650   53.82710    4.87050   -0.01100    0.00570    2.68640   -9999.25   53.05860   90.98920  665.16740 2253.21850 6224.63280
 9536.50000    0.01390    9.65730   48.82100    4.94380   -0.01130    0.00660    2.68060   -9999.25   52.35170   90.51560  683.72170 6231.64260 9848.01270
 9537.00000    0.01110    9.64280   47.14590    4.82320   -0.01130    0.00810    2.68310   -9999.25   51.03260   90.19880  683.43550 10126.39450 13742.92770
 9537.50000    0.02050    9.59810   46.85120    4.58210   -0.00950    0.00970    2.68790   -9999.25   50.18440   91.13690  678.48110 3709.32060 3499.26590
 9538.00000    0.02440    9.56830   53.37810    4.55180   -0.00650    0.01120    2.69130   -9999.25   50.46650   92.38880  682.97830 2687.99580 2998.47490
 9538.50000    0.02650    9.55380   59.29250    4.70230   -0.00310    0.00670    2.69480   -9999.25   51.31380   93.32690  697.11490 7623.51760 7205.47120
 9539.00000    0.02840    9.55480   77.23820    4.89790   -0.00030    0.00680    2.69500   -9999.25   51.78430   93.95130  721.49030 4803.01270 7933.08250
 9539.50000    0.02950    9.52510   83.76330    5.00340    0.00260    0.00680    2.68630   -9999.25   52.01930   93.94820  402.57450 1758.39600 2047.81980
 9540.00000    0.02770    9.52580   81.79060    5.06740    0.00440    0.00830    2.67510   -9999.25   51.56940   93.94450  274.73450  649.11980  500.05920
 9540.50000    0.02110    9.51140   69.95450    5.18360    0.00380    0.01140    2.67140   -9999.25   50.55830   93.78460  331.24880  309.78100  404.00440
 9541.00000    0.01360    9.49690   55.82350    5.24370    0.00320    0.01290    2.66980   -9999.25   50.08690   94.40900  449.40630  414.23900 2038.68550
 9541.50000    0.00270    9.48270   47.95140    5.27370    0.00270    0.01450    2.67590   -9999.25   49.99240   95.19030  527.01510 1304.15530 2261.04960
 9542.00000   -0.00480    9.46800   41.57810    5.30360    0.00390    0.01450    2.69860   -9999.25   52.20530   95.81470  515.98200 1882.70920 2386.53030
 9542.50000   -0.00630    9.46890   40.66770    5.30350    0.00640    0.01300    2.71520   -9999.25   55.26610   96.12610  580.39070 1728.68440 4020.25730
 9543.00000   -0.00060    9.46960   40.36420    5.24310    0.01470    0.01000    2.73120   -9999.25   57.57330   96.13240  592.61100 2067.93550 3443.69870
 9543.50000    0.02560    9.47620   44.00610    5.06070    0.02130    0.01460    2.73770   -9999.25   59.03280   95.95220  421.89400 2063.56810 2447.33980
 9544.00000    0.04460    9.49350   63.12590    4.67430    0.02650    0.03430    2.73590   -9999.25   60.25840   95.80170  139.73740  635.14220  556.46330
 9544.50000    0.06020    9.50230   77.23820    3.67630    0.02980    0.05400    2.68500   -9999.25   61.32660   96.42610  112.64810  149.74440  240.20400
 9545.00000    0.07110    9.50300   78.30050    2.89310    0.02950    0.07110    2.65650   -9999.25   63.83510   97.83490  100.07710  133.92900  217.92330
 9545.50000    0.08190    9.47350   59.63580    2.47120    0.02860    0.08730    2.61920   -9999.25   65.15330  101.12590   95.96290  131.89750  239.92860
 9546.00000    0.10030    9.44390   50.53110    2.50120    0.02920    0.09950    2.60510   -9999.25   64.91740  103.63270   95.27520  159.92190  256.98140
 9546.50000    0.11230    9.39900   47.49620    2.72690    0.03230    0.10400    2.58170   -9999.25   65.01110  105.82570   40.83680   85.31250  104.35720
 9547.00000    0.11570    9.33900   46.13050    3.01290    0.03680    0.09950    2.54580   -9999.25   65.24610  106.60710   23.43860   38.50820   54.48840
 9547.50000    0.11420    9.29390   45.22000    3.21040    0.04430    0.06170    2.53630   -9999.25   65.66950  106.76080   17.99020   23.94270   36.82320
 9548.00000    0.10180    9.24930   44.46130    3.33120    0.05030    0.03760    2.52950   -9999.25   66.28130  106.91460   14.40230   21.33610   26.53600
 9548.50000    0.09700    9.21960   44.91650    3.40410    0.05490    0.02090    2.52800   -9999.25   66.79970  107.69520   14.20020   19.48590   20.86760
 9549.00000    0.09640    9.19000   45.85160    3.43400    0.05940    0.01190    2.54230   -9999.25   67.03390  108.79010   14.90210   18.01670   18.25270
 9549.50000    0.10540    9.16050   47.34450    3.43390    0.06420    0.00890    2.55350   -9999.25   66.75080  110.19890   11.68330   13.33150   16.07720
 9550.00000    0.11620    9.16100   49.01370    3.37000    0.06780    0.00930    2.55740   -9999.25   65.76130  110.19580   10.59790   10.87460   11.32910
 9550.50000    0.12800    9.16110   50.53110    3.29820    0.06840    0.01420    2.54250   -9999.25   64.01830  107.83980    9.56520   11.00710   11.00590
 9551.00000    0.12920    9.19150   52.04860    3.22220    0.06750    0.01500    2.52310   -9999.25   62.79340  106.42500   10.66370   12.02790   14.09910
 9551.50000    0.12990    9.25230   54.78000    3.22190    0.06720    0.01500    2.51450   -9999.25   62.51040  106.26510   12.50520   13.24500   18.19950
 9552.00000    0.13050    9.31310   56.29740    3.25180    0.06720    0.01500    2.50980   -9999.25   63.96980  107.07150   12.85400   13.49010   19.36940
 9552.50000    0.13110    9.29790   54.17300    3.31180    0.06720    0.01350    2.50800   -9999.25   65.52350  107.89450   10.72720   12.64210   16.16310
 9553.00000    0.13170    9.25230   50.00320    3.37690    0.06730    0.01040    2.50690   -9999.25   68.77840  108.62740    9.79840   12.18750   15.82740
 9553.50000    0.13290    9.19150   47.49620    3.44900    0.06670    0.00740    2.50570   -9999.25   70.00330  110.20130    9.26600   13.04250   18.83970
 9554.00000    0.13810    9.19150   46.28220    3.53670    0.06670    0.00590    2.50500   -9999.25   69.27280  111.60780   10.79100   11.24820   26.88270
 9554.50000    0.14200    9.20930   45.67530    3.61170    0.06670    0.01200    2.50370   -9999.25   67.31990  108.78430    9.65280   10.91820   32.22350
 9555.00000    0.14350    9.22190   45.52350    3.64160    0.06610    0.02300    2.50200   -9999.25   65.62490  107.05880   13.27900   19.24870   28.02740
 9555.50000    0.14500    9.20670   47.49620    3.61110    0.06610    0.03920    2.49730   -9999.25   65.67240  106.43140   18.78180   25.42950   24.04060
 9556.00000    0.14750    9.17630   52.35200    3.58080    0.06970    0.04830    2.48830   -9999.25   64.87230  105.96080   17.63850   20.92580   40.83540
 9556.50000    0.15470    9.10030   57.20790    3.76110    0.07270    0.03770    2.48160   -9999.25   64.21340  105.49020   15.77930   18.85080   43.47700
 9557.00000    0.16020    9.02430   59.81940    4.00180    0.07680    0.02100    2.47880   -9999.25   63.64870  104.86270   18.76290   21.25260   43.77820
 9557.50000    0.15340    9.00910   60.24280    4.51720    0.07930    0.01200    2.47500   -9999.25   63.69630  104.23530   16.32420   21.66700   40.82640
 9558.00000    0.12640    9.04070   55.69040    4.72400    0.07660    0.00890    2.46870   -9999.25   63.83800  103.60780   16.31870   21.51670   39.70080
 9558.50000    0.11440    9.08220   58.11840    4.81410    0.06790    0.00740    2.46350   -9999.25   63.69720  102.98040   16.31330   20.92580   38.60630
 9559.00000    0.10900    9.11550   67.52660    4.81380    0.06310    0.00590    2.48660   -9999.25   63.46220  102.82350   18.73620   19.79220   37.54200
 9559.50000    0.11930    9.10030   68.58880    4.82870    0.06130    0.00290    2.51190   -9999.25   63.70040  103.37310   16.41590   19.51860   37.53940
