~Version ---------------------------------------------------
VERS.   2.0 : CWLS log ASCII Standard -VERSION 2.0
WRAP.    NO : One line per depth step
DLM . SPACE : Column Data Section Delimiter
~Well ------------------------------------------------------
STRT .F                  226.0 : START DEPTH
STOP .F                10621.0 : STOP DEPTH
STEP .F                    0.5 : STEP
NULL .                -9999.25 : NULL VALUE
COMP .                         : COMPANY
WELL .                         : WELL
FLD  .                         : FIELD
LOC  .                         : LOCATION
PROV .                         : PROVINCE
CNTY .                         : COUNTY
STAT .                         : STATE
CTRY .                         : COUNTRY
SRVC .                         : SERVICE COMPANY
DATE .                         : DATE
UWI  .                         : UNIQUE WELL ID
API  .                         : API NUMBER
SLAT .WGS84 3.1294088764448986 : SURFACE LATITUDE
SLON .WGS84     8.694246695527 : SURFACE LONGITUDE
DATUM.F                    nan : DEPTH DATUM ELEV
~Curve Information -----------------------------------------
DEPT .F     : 
DPHZ .DEC   : DENSITY POROSITY LIMESTONE
HCALD.IN    : HILT CALIPER
HSGR .GAPI  : STANDARD GAMMA RAY, SPECTROSCOPY GAMMA RAY
PEFZ .B/E   : HILT PHOTOELECTRIC FACTOR
TNPH .DEC   : THERMAL NEUTRON POROSITY LIMESTONE
HDRA .G/C3  : DELTA RHO HIP TOOL
RHOZ .G/C3  : HILT BULK DENSITY
DT   .US/F  : INTERVAL TRANSIT TIME
DTCO .US/F  : COMPRESSIONAL-WAVE INTERVAL TRANSIT TIME ACOUSTIC SLOWNESS
DTSM .US/F  : SHEAR-WAVE INTERVAL TRANSIT TIME DELTA-T
RLA3 .OHMM  : HRLTB RESISTIVITY 3
RLA4 .OHMM  : HTLTB RESISTIVITY 4
RLA5 .OHMM  : HRLTB RESISTIVITY 5
~Params ----------------------------------------------------
~Other -----------------------------------------------------
~ASCII -----------------------------------------------------
# ...
 6362.00000   -0.04630   10.15880   37.51150    3.39640    0.08200    0.00360    2.82850   49.10870   -9999.25   -9999.25   85.31340   31.39920   44.46110
 6362.50000   -0.06170   10.17430   32.26100    3.51650    0.06910    0.00200    2.83780   47.48300   -9999.25   -9999.25  106.48800  125.66390  162.00220
 6363.00000   -0.07510   10.22000   27.66460    3.65180    0.03130    0.00500    2.84220   47.07640   -9999.25   -9999.25  115.70940  215.79050  218.24150
 6363.50000   -0.08320   10.25060   28.12710    3.78700    0.02600    0.00500    2.84540   51.27450   -9999.25   -9999.25   80.65190  254.80250  199.37850
 6364.00000   -0.06060   10.28120   30.10710    3.96740    0.02810    0.00500    2.80900   56.78190   -9999.25   -9999.25   51.99430  187.73950  126.99690
 6364.50000   -0.00660   10.29900   30.26620    4.14790    0.05640    0.00500    2.73650   58.68070   -9999.25   -9999.25   29.14400   59.35240   65.24320
 6365.00000    0.04100   10.31220   30.57710    4.25300    0.07820    0.00650    2.67120   59.13620   -9999.25   -9999.25   10.34470    6.56870   13.05080
 6365.50000    0.03040   10.31250   31.19140    4.31300    0.10140    0.00650    2.61320   60.21170   -9999.25   -9999.25    3.80980    4.32540    5.97490
 6366.00000    0.06200   10.32790   32.60750    4.23740    0.12050    0.00640    2.54010   62.82970   -9999.25   -9999.25   15.03710    5.93000    8.31050
 6366.50000    0.11180   10.32820   38.94690    4.41770    0.12520    0.00790    2.50540   63.50650   -9999.25   -9999.25   40.81520   44.61110   45.44390
 6367.00000    0.12510   10.31330   38.49900    4.44760    0.12100    0.00040    2.60480   63.64160   -9999.25   -9999.25    7.20580   15.32750   14.36730
 6367.50000    0.09100   10.29850   32.74000    4.47740    0.09030   -0.00560    2.70650   59.75850   -9999.25   -9999.25    9.98040    8.61690    8.19020
 6368.00000    0.01140   10.29640   29.25540    4.11560    0.06970    0.00190    2.72460   51.95000   -9999.25   -9999.25   39.23100   20.49940   31.01040
 6368.50000   -0.05280   10.28390   29.71980    3.88950    0.03570    0.00650    2.78570   49.82520   -9999.25   -9999.25   63.55630   57.20130   58.68320
 6369.00000   -0.06060   10.31460   36.10040    3.81390    0.03110    0.01090    2.82260   53.43650   -9999.25   -9999.25   38.56240   72.90190   75.92650
 6369.50000   -0.07000   10.33000   43.39150    4.25020    0.03450    0.01090    2.83060   55.37740   -9999.25   -9999.25   19.26890   42.72320   53.22500
 6370.00000   -0.08210   10.33030   38.45290    4.64150    0.03600    0.01080    2.84760   56.09930   -9999.25   -9999.25   13.62000   17.45790   17.91220
 6370.50000   -0.09930   10.33060   33.24110    4.92740    0.03210    0.01080    2.85060   56.68580   -9999.25   -9999.25   23.06570   17.93840   52.83240
 6371.00000   -0.10950   10.33090   28.54430    5.16800    0.02600    0.01230    2.89760   56.00810   -9999.25   -9999.25   54.49520   61.65230   58.61440
 6371.50000   -0.11500   10.33120   26.88250    5.16780    0.02090    0.01230    2.90500   54.93210   -9999.25   -9999.25   69.93620   19.22110   18.40310
 6372.00000   -0.10860   10.33160   27.04160    5.16750    0.01850    0.00440    2.89360   53.43380   -9999.25   -9999.25   15.99800   14.26070   90.68470
 6372.50000   -0.10220   10.33190   29.47680    4.21920    0.02670   -0.01180    2.87220   52.30470   -9999.25   -9999.25   13.32310   44.46310   31.85890
 6373.00000   -0.07690   10.22610   34.64350    3.69090    0.04660   -0.01480    2.83840   52.48480   -9999.25   -9999.25   41.53880   67.39140   76.73890
 6373.50000   -0.05970   10.16580   36.95410    3.35930    0.05870    0.00020    2.80780   54.24510   -9999.25   -9999.25   45.13590   94.64060  112.35090
 6374.00000   -0.04690   10.13580   38.15010    3.35900    0.07310    0.00470    2.79200   54.78640   -9999.25   -9999.25   12.16520  125.73420  124.64660
 6374.50000   -0.04200   10.13640   38.76440    3.34370    0.07470    0.00620    2.78990   54.23900   -9999.25   -9999.25   22.08270   12.74560   25.28180
 6375.00000   -0.04710   10.16670   39.53050    3.46380    0.06800    0.00770    2.79250   53.22060   -9999.25   -9999.25   40.08540   14.13910   48.17270
 6375.50000   -0.05250   10.16700   41.66230    3.59910    0.06290    0.01070    2.79220   55.41710   -9999.25   -9999.25   55.13630   45.95710   61.39320
 6376.00000   -0.05010   10.16730   44.85630    3.71930    0.06290    0.01220    2.78070   58.53180   -9999.25   -9999.25   20.02400   67.76170   71.49630
 6376.50000   -0.02300   10.16760   46.68450    3.77920    0.07830    0.01220    2.75400   59.38910   -9999.25   -9999.25    7.27260   29.72470   20.12650
 6377.00000   -0.02540   10.16790   45.45580    3.82410    0.09040    0.00760    2.75580   58.57600   -9999.25   -9999.25   17.91240    8.57150    8.55790
 6377.50000   -0.03140   10.16820   43.21090    3.56770    0.08860    0.00610    2.75980   57.85330   -9999.25   -9999.25   29.71200   31.78440   25.41890
 6378.00000   -0.03390   10.16850   39.42460    3.40180    0.08400    0.00910    2.76190   58.08150   -9999.25   -9999.25   23.95830   19.55480   20.78290
 6378.50000   -0.02570   10.16880   40.49420    3.39180    0.09070    0.01210    2.76160   58.25870   -9999.25   -9999.25    7.90770   12.89470    9.42390
 6379.00000   -0.03510   10.16910   41.26020    3.74760    0.08920    0.01360    2.78430   55.91050   -9999.25   -9999.25   16.12740    9.05130   10.09830
 6379.50000   -0.05890   10.16940   40.20530    4.07290    0.07650    0.01360    2.80730   53.33670   -9999.25   -9999.25   24.90890   11.14100   29.99430
 6380.00000   -0.07730   10.16970   38.39170    4.48490    0.04910    0.01360    2.83910   52.34310   -9999.25   -9999.25  111.60850   47.13150  110.03360
 6380.50000   -0.08300   10.18520   35.96870    5.01170    0.02720    0.01650    2.86510   52.52320   -9999.25   -9999.25   60.60870  145.93430  155.12820
 6381.00000   -0.09140   10.20060   33.46510    5.22230    0.01920    0.00150    2.88300   53.15630   -9999.25   -9999.25   26.36250   67.56190   40.94960
 6381.50000   -0.11010   10.23120   24.60680    5.17680    0.01830    0.00150    2.89080   52.87820   -9999.25   -9999.25  244.20380   32.59040  173.24230
 6382.00000   -0.11320   10.23160   25.37280    4.92050    0.01890    0.00140    2.88860   53.10870   -9999.25   -9999.25  208.14850  196.37000  241.61880
 6382.50000   -0.10120   10.23190   28.41510    4.55870    0.02290   -0.00160    2.85430   54.77870   -9999.25   -9999.25   46.52310  164.30310  145.59580
 6383.00000   -0.07250   10.18670   29.63640    4.40410    0.03580   -0.00310    2.82540   56.44870   -9999.25   -9999.25   19.88940   77.52510   61.59610
 6383.50000   -0.06370   10.15670   29.34020    4.48280    0.04810    0.00440    2.81710   56.13230   -9999.25   -9999.25   20.83780   25.55030   20.85770
 6384.00000   -0.05800   10.14180   29.34760    4.88910    0.06330    0.01340    2.80880   55.00310   -9999.25   -9999.25   23.56040   14.06830   24.64530
 6384.50000   -0.04420   10.21790   31.08320    5.25030    0.08650    0.01490    2.79930   54.46090   -9999.25   -9999.25   25.24500   26.07510   25.15750
 6385.00000   -0.00770   10.27930   35.28210    5.43070    0.11150    0.01640    2.78450   58.94480   -9999.25   -9999.25   30.01750   25.70900   28.10340
 6385.50000    0.14090   10.35490   39.38660    5.49070    0.15960    0.01330    2.28860   79.83240   -9999.25   -9999.25   27.61390   29.32020   33.18530
 6386.00000    0.34740   10.52190   44.40150    5.52050    0.19460    0.01040    2.09570   99.51600   -9999.25   -9999.25    6.34560   11.65320   13.09870
 6386.50000    0.47350   11.14340   45.01400    5.52020    0.23680    0.01940    2.06980  100.77970   -9999.25   -9999.25    1.31410    3.22920    1.90450
 6387.00000    0.41920   11.18910   39.56030    5.48970    0.22960    0.02240    2.47860   93.15180   -9999.25   -9999.25    2.36440    1.28350    1.32440
 6387.50000    0.16970   11.08340   34.56010    5.45930    0.11490    0.02240    2.62280   79.15340   -9999.25   -9999.25   11.43310    2.41470   27.11210
