~Version ---------------------------------------------------
VERS.   2.0 : CWLS log ASCII Standard -VERSION 2.0
WRAP.    NO : One line per depth step
DLM . SPACE : Column Data Section Delimiter
~Well ------------------------------------------------------
STRT .F                  226.0 : START DEPTH
STOP .F                10621.0 : STOP DEPTH
STEP .F                    0.5 : STEP
NULL .                -9999.25 : NULL VALUE
COMP .                         : COMPANY
WELL .                         : WELL
FLD  .                         : FIELD
LOC  .                         : LOCATION
PROV .                         : PROVINCE
CNTY .                         : COUNTY
STAT .                         : STATE
CTRY .                         : COUNTRY
SRVC .                         : SERVICE COMPANY
DATE .                         : DATE
UWI  .                         : UNIQUE WELL ID
API  .                         : API NUMBER
SLAT .WGS84 3.1294088764448986 : SURFACE LATITUDE
SLON .WGS84     8.694246695527 : SURFACE LONGITUDE
DATUM.F                    nan : DEPTH DATUM ELEV
~Curve Information -----------------------------------------
DEPT .F     : 
DPHZ .DEC   : DENSITY POROSITY LIMESTONE
HCALD.IN    : HILT CALIPER
HSGR .GAPI  : STANDARD GAMMA RAY, SPECTROSCOPY GAMMA RAY
PEFZ .B/E   : HILT PHOTOELECTRIC FACTOR
TNPH .DEC   : THERMAL NEUTRON POROSITY LIMESTONE
HDRA .G/C3  : DELTA RHO HIP TOOL
RHOZ .G/C3  : HILT BULK DENSITY
DT   .US/F  : INTERVAL TRANSIT TIME
DTCO .US/F  : COMPRESSIONAL-WAVE INTERVAL TRANSIT TIME ACOUSTIC SLOWNESS
DTSM .US/F  : SHEAR-WAVE INTERVAL TRANSIT TIME DELTA-T
RLA3 .OHMM  : HRLTB RESISTIVITY 3
RLA4 .OHMM  : HTLTB RESISTIVITY 4
RLA5 .OHMM  : HRLTB RESISTIVITY 5
~Params ----------------------------------------------------
~Other -----------------------------------------------------
~ASCII -----------------------------------------------------
# ...
 5816.00000   -0.09740    9.93940   32.36520    4.36750    0.02020    0.01250    2.83490   48.80860   -9999.25   -9999.25  286.01280  295.55740  362.42580
 5816.50000   -0.11800    9.95450   21.29370    4.87950    0.00570    0.01250    2.83980   49.45350   -9999.25   -9999.25  315.04250  398.30320  615.35990
 5817.00000   -0.12700    9.95700   17.20260    5.13550   -0.01120    0.00940    2.87640   50.11290   -9999.25   -9999.25  342.12120  651.90850 1597.85570
 5817.50000   -0.14690    9.95450   18.57420    5.15060   -0.01700    0.00340    2.92510   50.51920   -9999.25   -9999.25  464.00310 1334.46090 1653.79760
 5818.00000   -0.14150    9.96970   25.25690    5.13550   -0.01550    0.00340    2.94280   50.24830   -9999.25   -9999.25  412.01820 1551.95090 1608.12100
 5818.50000   -0.13400    9.96970   27.23560    5.04520   -0.00850    0.00340    2.94780   49.75170   -9999.25   -9999.25  103.46130  802.55360  424.51210
 5819.00000   -0.13000   10.00000   26.93800    4.84940   -0.00520    0.00180    2.91500   49.48080   -9999.25   -9999.25  142.28130  208.76260  156.32910
 5819.50000   -0.12920   10.00000   20.57070    5.00000   -0.00370    0.00330    2.90850   49.34540   -9999.25   -9999.25  244.32940  134.80860  220.67070
 5820.00000   -0.15000   10.04550   16.63130    5.09040   -0.00710    0.00480    2.93480   49.84200   -9999.25   -9999.25  509.57070  277.42920 1122.70250
 5820.50000   -0.16630   10.12120   14.00670    5.15060   -0.01580    0.00330    2.96640   50.15800   -9999.25   -9999.25  659.29810 2684.02640 2264.94120
 5821.00000   -0.16930   10.16670   12.04030    5.10370   -0.01760    0.00320    2.98130   50.15800   -9999.25   -9999.25  630.95510 4676.15090 5006.83940
 5821.50000   -0.16330   10.19700   10.73250    5.03010   -0.01970    0.00270    2.98600   50.42890   -9999.25   -9999.25  568.19140 4331.98830 4237.97900
 5822.00000   -0.16090   10.21210   10.13150    5.09040   -0.02060    0.00210    2.98020   50.79010   -9999.25   -9999.25  537.14450 2609.74660 1615.80050
 5822.50000   -0.16300   10.24240    9.98420    5.24100   -0.02030    0.00470    2.97390   50.56430   -9999.25   -9999.25  625.34160 2224.45900 1947.90920
 5823.00000   -0.16750   10.24240   10.44690    5.30120   -0.01940    0.01380    2.97810   50.38370   -9999.25   -9999.25  679.20370 2384.04130 2891.54640
 5823.50000   -0.16510   10.24240   11.81850    5.30120   -0.01850    0.01680    2.97990   50.47400   -9999.25   -9999.25  688.24020 4514.26710 4005.07100
 5824.00000   -0.16000   10.24020   13.94890    5.27110   -0.01730    0.01980    2.97010   50.69980   -9999.25   -9999.25  503.19300 3491.51370  574.22610
 5824.50000   -0.15570   10.22730   15.32060    5.24100   -0.01580    0.01220    2.94620   50.74490   -9999.25   -9999.25  137.33090  946.84360  198.66620
 5825.00000   -0.14920   10.22730   14.87130    5.21080   -0.01400    0.00620    2.94710   50.79010   -9999.25   -9999.25   85.60620  154.70260   95.88330
 5825.50000   -0.15280   10.22730   14.11850    5.19580   -0.01340    0.00310    2.95950   50.92550   -9999.25   -9999.25  443.21050   91.91360  636.67390
 5826.00000   -0.15430   10.22730   13.21400    5.18070   -0.01270    0.00310    2.96080   51.06670   -9999.25   -9999.25  580.60320  476.82080  869.87620
 5826.50000   -0.14310   10.09090   13.06820    5.13100   -0.00800    0.00010    2.95110   51.42210   -9999.25   -9999.25  175.81490  849.77470  589.55520
 5827.00000   -0.12020   10.00000   20.25810    4.81930   -0.00140    0.01060    2.92040   50.88040   -9999.25   -9999.25   65.57430  763.14090   85.71560
 5827.50000   -0.10970    9.93940   27.64910    4.50300    0.01490    0.01510    2.90420   49.97740   -9999.25   -9999.25  119.86440   64.93490  425.33130
 5828.00000   -0.09910    9.90910   30.84170    4.24700    0.02730    0.01810    2.88730   48.30700   -9999.25   -9999.25  293.25700  191.72020  622.73540
 5828.50000   -0.09180    9.87880   33.57900    4.09640    0.03120    0.01510    2.87180   46.50110   -9999.25   -9999.25  277.23310  535.48010  534.43360
 5829.00000   -0.08170    9.84850   36.31640    4.00600    0.03240    0.01050    2.85870   47.26860   -9999.25   -9999.25  163.52160  615.88490  254.46020
 5829.50000   -0.07990    9.84320   38.90200    3.93070    0.03240    0.00740    2.84730   48.21670   -9999.25   -9999.25   69.55780  300.93140   85.59600
 5830.00000   -0.07620    9.81820   39.97010    3.90060    0.03030    0.00300    2.83550   48.53270   -9999.25   -9999.25   48.11690  122.14680   58.84200
 5830.50000   -0.07870    9.80300   40.12640    3.90060    0.02390   -0.00000    2.83000   48.25530   -9999.25   -9999.25   40.14550   50.54630   46.46890
 5831.00000   -0.08410    9.80300   39.22330    3.90060    0.01940    0.00750    2.83530   47.79440   -9999.25   -9999.25   56.59330   44.60660  293.93500
 5831.50000   -0.09530    9.80300   37.56010    3.91570    0.01910    0.01200    2.84370   47.31380   -9999.25   -9999.25  156.24890  258.20610  396.02220
 5832.00000   -0.10040    9.78790   35.74510    3.91570    0.03660    0.01350    2.85630   46.86230   -9999.25   -9999.25  213.38920  452.99510  216.51620
 5832.50000   -0.10130    9.81820   34.52440    3.90060    0.04020    0.01500    2.86740   47.17830   -9999.25   -9999.25  167.25630  217.03070  308.29100
 5833.00000   -0.09350    9.81820   34.39130    3.87050    0.03930    0.01350    2.86980   48.98420   -9999.25   -9999.25  153.81330  307.03370  328.08200
 5833.50000   -0.08050    9.84850   36.82660    3.85540    0.03650    0.01320    2.86000   50.69980   -9999.25   -9999.25   83.43970  329.07610  108.12110
 5834.00000   -0.05480    9.84850   38.19830    3.85540    0.03710   -0.00010    2.83510   52.18960   -9999.25   -9999.25   37.45810  115.36650   40.37240
 5834.50000   -0.05700    9.85010   38.65940    3.94580    0.04170    0.00140    2.81470   54.76300   -9999.25   -9999.25   27.63420   45.19630   32.32830
 5835.00000   -0.06150    9.87880   35.78220    4.29220    0.04260    0.00290    2.79680   56.39050   -9999.25   -9999.25   20.63270   30.21540   23.79000
 5835.50000   -0.07900    9.87880   33.36030    4.65360    0.04170    0.00590    2.81150   55.41830   -9999.25   -9999.25   27.02870   23.20820   18.81100
 5836.00000   -0.09800    9.89390   32.15080    4.71390    0.03950    0.00280    2.84310   48.98420   -9999.25   -9999.25   83.14880   18.45550  107.97020
 5836.50000   -0.10440    9.89390   32.46170    4.56330    0.03350    0.00130    2.86690   48.26190   -9999.25   -9999.25  110.44700   50.48310  156.97810
 5837.00000   -0.10590    9.90910   32.92290    4.12650    0.02340    0.00130    2.87780   48.62300   -9999.25   -9999.25  158.67370  124.44110  179.04120
 5837.50000   -0.10230    9.92420   32.47360    3.94450    0.01980   -0.00020    2.88250   49.57110   -9999.25   -9999.25  152.81890  172.42210  177.75640
 5838.00000   -0.09900    9.93940   30.81030    3.93070    0.01840    0.00130    2.87530   50.56430   -9999.25   -9999.25  114.89500  156.44040  134.64770
 5838.50000   -0.09530    9.93940   29.45060    3.99100    0.02020    0.00130    2.86790   51.01580   -9999.25   -9999.25   84.01710  124.40350  106.33430
 5839.00000   -0.09050    9.93940   29.45680    4.03610    0.02110    0.00290    2.86440   51.15120   -9999.25   -9999.25   64.05020   91.65560   80.55200
 5839.50000   -0.08690    9.93940   29.00870    4.08130    0.01990    0.00750    2.85160   51.10610   -9999.25   -9999.25   51.20000   73.90460   71.57410
 5840.00000   -0.09540    9.93940   27.34550    4.11140    0.01630    0.01020    2.84480   50.69360   -9999.25   -9999.25   63.51210   63.64170   88.71850
 5840.50000   -0.11160    9.96970   25.37870    4.59340    0.00870    0.01170    2.88250   50.42110   -9999.25   -9999.25  107.56110   87.28030  409.10700
 5841.00000   -0.14480    9.96970   23.71550    4.89460   -0.00670    0.01170    2.92590   50.29350   -9999.25   -9999.25  282.06990  173.49630 1130.25390
 5841.50000   -0.14990   10.00000   19.16910    5.06020   -0.00940    0.00570    2.95020   50.42890   -9999.25   -9999.25  458.21570  787.71260 1976.08140
