~Version ---------------------------------------------------
VERS.   2.0 : CWLS log ASCII Standard -VERSION 2.0
WRAP.    NO : One line per depth step
DLM . SPACE : Column Data Section Delimiter
~Well ------------------------------------------------------
STRT .F                  226.0 : START DEPTH
STOP .F                10621.0 : STOP DEPTH
STEP .F                    0.5 : STEP
NULL .                -9999.25 : NULL VALUE
COMP .                         : COMPANY
WELL .                         : WELL
FLD  .                         : FIELD
LOC  .                         : LOCATION
PROV .                         : PROVINCE
CNTY .                         : COUNTY
STAT .                         : STATE
CTRY .                         : COUNTRY
SRVC .                         : SERVICE COMPANY
DATE .                         : DATE
UWI  .                         : UNIQUE WELL ID
API  .                         : API NUMBER
SLAT .WGS84 3.1294088764448986 : SURFACE LATITUDE
SLON .WGS84     8.694246695527 : SURFACE LONGITUDE
DATUM.F                    nan : DEPTH DATUM ELEV
~Curve Information -----------------------------------------
DEPT .F     : 
DPHZ .DEC   : DENSITY POROSITY LIMESTONE
HCALD.IN    : HILT CALIPER
HSGR .GAPI  : STANDARD GAMMA RAY, SPECTROSCOPY GAMMA RAY
PEFZ .B/E   : HILT PHOTOELECTRIC FACTOR
TNPH .DEC   : THERMAL NEUTRON POROSITY LIMESTONE
HDRA .G/C3  : DELTA RHO HIP TOOL
RHOZ .G/C3  : HILT BULK DENSITY
DT   .US/F  : INTERVAL TRANSIT TIME
DTCO .US/F  : COMPRESSIONAL-WAVE INTERVAL TRANSIT TIME ACOUSTIC SLOWNESS
DTSM .US/F  : SHEAR-WAVE INTERVAL TRANSIT TIME DELTA-T
RLA3 .OHMM  : HRLTB RESISTIVITY 3
RLA4 .OHMM  : HTLTB RESISTIVITY 4
RLA5 .OHMM  : HRLTB RESISTIVITY 5
~Params ----------------------------------------------------
~Other -----------------------------------------------------
~ASCII -----------------------------------------------------
# ...
 3710.00000   -0.02430    9.63030   33.86840    5.67160    0.05990   -0.00170    2.76260   47.37660   -9999.25   -9999.25   97.27580   93.95620   90.66670
 3710.50000   -0.03620    9.61380   31.43450    6.15740    0.07050   -0.01230    2.78160   47.55750   -9999.25   -9999.25   92.67530   89.51260   88.81050
 3711.00000   -0.05080    9.59940   30.51810    6.29350    0.07320   -0.01080    2.79940   47.64790   -9999.25   -9999.25   90.77480   87.67990   88.83320
 3711.50000   -0.05960    9.59900   30.51220    6.23220    0.07470   -0.00490    2.80880   47.60230   -9999.25   -9999.25   97.99340   88.30260   97.24770
 3712.00000   -0.06200    9.61400   30.50620    5.82120    0.06740    0.00090    2.79730   47.46620   -9999.25   -9999.25  152.81720  115.36650  144.51530
 3712.50000   -0.05380    9.61360   30.50030    5.00000    0.05980    0.00080    2.75950   47.28490   -9999.25   -9999.25  344.27580  335.40010  332.85070
 3713.00000   -0.04560    9.61330   30.19080    4.23950    0.05840    0.00070    2.73670   47.14880   -9999.25   -9999.25  403.91970  412.42400  363.20690
 3713.50000   -0.02420    9.59780   29.88140    3.90450    0.05780    0.00060    2.74290   47.23920   -9999.25   -9999.25  409.60760  583.60480  576.07850
 3714.00000   -0.01600    9.62780   30.48240    4.05590    0.05660    0.00360    2.78110   47.46540   -9999.25   -9999.25  153.96540  233.50050  183.17020
 3714.50000   -0.04560    9.67300   31.99390    4.42520    0.05360    0.01110    2.81140   47.55570   -9999.25   -9999.25  147.70540  166.19980  160.54840
 3715.00000   -0.06010    9.70310   34.14310    4.54110    0.04810    0.01530    2.82710   47.31700   -9999.25   -9999.25  217.90000  379.67170  230.45160
 3715.50000   -0.07220    9.70270   36.16730    4.23640    0.04570    0.01220    2.82130   47.01180   -9999.25   -9999.25  475.34600 1046.06250  984.31820
 3716.00000   -0.06550    9.71760   38.95480    3.96220    0.04570    0.01060    2.79490   46.92100   -9999.25   -9999.25  504.78690 1193.68200 1062.63700
 3716.50000   -0.04680    9.70210   40.31460    3.74880    0.04630    0.01050    2.78040   46.96610   -9999.25   -9999.25  584.09400  832.15290  799.49390
 3717.00000   -0.04340    9.68670   39.70170    3.86980    0.04750    0.01190    2.76940   47.19230   -9999.25   -9999.25  604.80240  879.78530  816.49510
 3717.50000   -0.04010    9.65610   39.08870    4.02120    0.04840    0.02230    2.75030   47.55430   -9999.25   -9999.25  680.63770  879.07910  857.35030
 3718.00000   -0.03470    9.65580   40.75200    4.18780    0.05030    0.03860    2.73230   48.00690   -9999.25   -9999.25  729.63150  590.40360  851.59000
 3718.50000   -0.02500    9.65550   42.11320    4.41520    0.05370    0.04600    2.72070   48.55280   -9999.25   -9999.25  317.29210  117.60240  265.80240
 3719.00000   -0.00720    9.62480   41.49880    4.84010    0.05960    0.04140    2.70880   49.34610   -9999.25   -9999.25   60.82900   62.54210   68.23670
 3719.50000    0.00550    9.51840   36.78880    5.35620    0.06990    0.03380    2.70330   50.31570   -9999.25   -9999.25   45.13770   54.82070   62.12140
 3720.00000    0.00640    9.50300   31.01650    5.90270    0.10620    0.02020    2.69980   50.76830   -9999.25   -9999.25   60.84560   66.59160   63.88790
 3720.50000   -0.00080    9.50270   25.54770    6.30110    0.11160   -0.00390    2.70870   50.90400   -9999.25   -9999.25   62.56490   62.13480   63.90090
 3721.00000   -0.00920    9.50240   19.60690    6.50440    0.11470   -0.03280    2.71870   50.54140   -9999.25   -9999.25   47.40590   35.91390   44.84870
 3721.50000   -0.00560    9.44150   17.59690    6.78230    0.11220   -0.05640    2.72610   50.49590   -9999.25   -9999.25   35.42340   33.50920   35.66900
 3722.00000   -0.00610    9.32000   15.81670    6.94880    0.10980   -0.08210    2.73380   50.54100   -9999.25   -9999.25   38.11130   37.97480   40.42760
 3722.50000   -0.01520    9.22880   14.90030    7.02420    0.10800   -0.09120    2.74330   50.54080   -9999.25   -9999.25   51.22940   52.26530   49.11700
 3723.00000   -0.02130    9.16790   14.59080    6.94760    0.11000   -0.09430    2.76360   50.39010   -9999.25   -9999.25   30.42050   22.41430   47.12170
 3723.50000   -0.02060    9.13730   14.58490    6.85590    0.11520   -0.09140    2.77880   49.86100   -9999.25   -9999.25   22.73060   25.50890   23.78100
 3724.00000   -0.02490    9.21270   15.33770    6.77930    0.11680   -0.09460    2.78990   49.31740   -9999.25   -9999.25   63.94660   79.29560   77.73070
 3724.50000   -0.05110    9.28820   16.24220    6.62670    0.11250   -0.05270    2.79490   48.86440   -9999.25   -9999.25   77.13710   46.79720   58.99510
 3725.00000   -0.05620    9.34850   16.99500    5.98780    0.10470   -0.00330    2.79840   48.45660   -9999.25   -9999.25   76.08150   53.77500   54.56620
 3725.50000   -0.05320    9.37850   17.89950    5.36410    0.09650    0.01010    2.80260   48.36580   -9999.25   -9999.25  116.20540  214.03680  220.48000
 3726.00000   -0.05500    9.37820   17.43830    4.80120    0.08750    0.01300    2.80340   48.59200   -9999.25   -9999.25  201.09520  235.90280  184.08850
 3726.50000   -0.05980    9.39300   16.97710    4.06090    0.07840    0.00690    2.79550   48.95610   -9999.25   -9999.25   77.17910   83.30270   78.90250
 3727.00000   -0.05670    9.37750   16.81940    3.69560    0.06150    0.00080    2.76110   49.13500   -9999.25   -9999.25   71.51330   71.51600   81.70770
 3727.50000   -0.04260    9.34690   16.96520    3.46190    0.05180    0.00220    2.73640   48.81770   -9999.25   -9999.25  142.19290   73.03070  163.68580
 3728.00000   -0.02480    9.34660   17.56620    3.32450    0.04880    0.00520    2.72430   48.22890   -9999.25   -9999.25  162.25910  182.58040  190.75000
 3728.50000   -0.01690    9.34630   18.31750    3.24790    0.04700    0.01480    2.72130   48.45500   -9999.25   -9999.25  124.65920  278.86020  211.73940
 3729.00000   -0.01270    9.33090   19.37380    3.24730    0.04770    0.02730    2.72730   48.54540   -9999.25   -9999.25  145.24410  242.72510  202.43560
 3729.50000   -0.02170    9.34580   20.88530    3.27710    0.05030    0.02120    2.74230   48.59050   -9999.25   -9999.25  126.44040  153.55830  161.55930
 3730.00000   -0.02890    9.40610   23.15550    3.27650    0.05370    0.01810    2.75260   48.59020   -9999.25   -9999.25  146.30050  292.87250  186.96880
 3730.50000   -0.02080    9.45130   24.21330    3.27600    0.05430    0.01200    2.75590   48.54470   -9999.25   -9999.25  130.94110  299.06520  283.69600
 3731.00000   -0.01860    9.46610   23.14360    3.27540    0.05060    0.00740    2.74380   48.45380   -9999.25   -9999.25  113.98530  175.28190  174.49400
 3731.50000   -0.01440    9.49610   21.92370    3.33550    0.05000    0.00280    2.73700   48.31780   -9999.25   -9999.25  137.49740  202.80660  210.53140
 3732.00000   -0.02830    9.51090   21.15900    3.54770    0.05610   -0.00030    2.75200   48.09110   -9999.25   -9999.25  156.89560  175.32360  172.16570
 3732.50000   -0.04100    9.51060   21.30480    4.04360    0.06090    0.00110    2.77180   47.77390   -9999.25   -9999.25  117.24210  169.37230  178.28660
 3733.00000   -0.04800    9.52550   22.96810    4.24560    0.06450    0.01450    2.79480   47.50200   -9999.25   -9999.25  113.25470  191.93720  180.81740
 3733.50000   -0.05180    9.51000   25.86200    4.06250    0.06730    0.00840    2.77020   47.32070   -9999.25   -9999.25  148.48700  151.61130  185.94960
 3734.00000   -0.04700    9.50960   28.46680    4.03150    0.06940    0.00530    2.75150   47.41100   -9999.25   -9999.25  169.44150  176.64670  197.98530
 3734.50000   -0.02580    9.49420   29.02000    4.21330    0.07090    0.00520    2.74740   47.64060   -9999.25   -9999.25  163.68440  213.11310  207.88140
 3735.00000   -0.02880    9.49390   28.40560    4.53180    0.07250    0.00810    2.73720   47.95390   -9999.25   -9999.25   91.22570  110.24050  109.49690
 3735.50000   -0.02460    9.47840   27.18570    4.91120    0.07510    0.00800    2.72700   48.22540   -9999.25   -9999.25   91.39540  105.00470  118.48720
