~Version ---------------------------------------------------
VERS.   2.0 : CWLS log ASCII Standard -VERSION 2.0
WRAP.    NO : One line per depth step
DLM . SPACE : Column Data Section Delimiter
~Well ------------------------------------------------------
STRT .F                  226.0 : START DEPTH
STOP .F                10621.0 : STOP DEPTH
STEP .F                    0.5 : STEP
NULL .                -9999.25 : NULL VALUE
COMP .                         : COMPANY
WELL .                         : WELL
FLD  .                         : FIELD
LOC  .                         : LOCATION
PROV .                         : PROVINCE
CNTY .                         : COUNTY
STAT .                         : STATE
CTRY .                         : COUNTRY
SRVC .                         : SERVICE COMPANY
DATE .                         : DATE
UWI  .                         : UNIQUE WELL ID
API  .                         : API NUMBER
SLAT .WGS84 3.1294088764448986 : SURFACE LATITUDE
SLON .WGS84     8.694246695527 : SURFACE LONGITUDE
DATUM.F                    nan : DEPTH DATUM ELEV
~Curve Information -----------------------------------------
DEPT .F     : 
DPHZ .DEC   : DENSITY POROSITY LIMESTONE
HCALD.IN    : HILT CALIPER
HSGR .GAPI  : STANDARD GAMMA RAY, SPECTROSCOPY GAMMA RAY
PEFZ .B/E   : HILT PHOTOELECTRIC FACTOR
TNPH .DEC   : THERMAL NEUTRON POROSITY LIMESTONE
HDRA .G/C3  : DELTA RHO HIP TOOL
RHOZ .G/C3  : HILT BULK DENSITY
DT   .US/F  : INTERVAL TRANSIT TIME
DTCO .US/F  : COMPRESSIONAL-WAVE INTERVAL TRANSIT TIME ACOUSTIC SLOWNESS
DTSM .US/F  : SHEAR-WAVE INTERVAL TRANSIT TIME DELTA-T
RLA3 .OHMM  : HRLTB RESISTIVITY 3
RLA4 .OHMM  : HTLTB RESISTIVITY 4
RLA5 .OHMM  : HRLTB RESISTIVITY 5
~Params ----------------------------------------------------
~Other -----------------------------------------------------
~ASCII -----------------------------------------------------
# ...
 7948.00000    0.64110   17.90730   76.91710   10.00000    0.21450   -0.01870    1.67940   -9999.25   85.28410  190.35290   30.48490   39.04520   53.16250
 7948.50000    0.63960   18.68050   77.52850   10.00000    0.22010   -0.02620    1.67660   -9999.25   82.65030  176.86270   25.26520   41.23950   56.15280
 7949.00000    0.64890   19.87790   77.53290    9.63860    0.25300    0.02050    1.67180   -9999.25   78.04170  163.21570   26.32890   41.77530   59.29140
 7949.50000    0.65520   19.99960   75.56460    9.03610    0.29930    0.02650    1.80860   -9999.25   74.23240  148.31370   36.46950   23.57480   21.24270
 7950.00000    0.64860   19.93940   70.56150    8.34340    0.49280    0.02800    2.07760   -9999.25   69.95300  129.33330   28.79070    9.93350   10.63910
 7950.50000    0.59330   19.24060   55.76210    7.46200    0.52330    0.02680    2.34660   -9999.25   64.96940  101.99900    7.48680    8.11130   17.67750
 7951.00000    0.44230   16.91010   36.42870    6.56630    0.51400    0.02800    2.61050   -9999.25   56.04760   97.01150   20.90460   26.82690   50.59630
 7951.50000    0.28570   14.72770   24.74880    5.63250    0.45290    0.01450    2.67930   -9999.25   50.72240   89.17650  212.25050  231.94980   89.51270
 7952.00000    0.16660   10.24300   21.71720    5.16570    0.26190    0.00690    2.72030   -9999.25   49.87650   88.85020  315.16150  393.30940  392.00540
 7952.50000    0.01650   10.10630   22.17790    4.92470    0.12470    0.00540    2.71880   -9999.25   49.68890   89.80950  276.08410  918.65500 1024.76930
 7953.00000    0.00260   10.06150   22.33400    5.03010   -0.00390    0.00690    2.71560   -9999.25   49.73640   89.96080  276.22060 1451.67810 1800.37990
 7953.50000    0.00230   10.06170   22.33840    5.07530   -0.00860    0.00700    2.71190   -9999.25   49.78390   89.30520  350.74070 3689.10010 3766.49850
 7954.00000    0.00530   10.09210   21.72190    5.09040   -0.00980    0.00840    2.70940   -9999.25   49.50230   89.01960  376.84140 4478.53560 4482.81250
 7954.50000    0.00410   10.10740   20.96850    5.09040   -0.01130    0.00840    2.70810   -9999.25   48.98550   89.01960  346.55080 1583.48140 2384.16240
 7955.00000    0.00230   10.10760   20.06100    5.09040   -0.01370    0.00540    2.71120   -9999.25   48.46870   89.33330  361.14140  819.61020 2170.01510
 7955.50000    0.00100   10.10770   19.15350    5.09040   -0.01610    0.00390    2.71450   -9999.25   48.37500   90.74510  568.54360 3021.03660 4326.39750
 7956.00000   -0.00110   10.10790   18.24600    5.09040   -0.01700    0.00540    2.71930   -9999.25   48.32850   91.68630  676.18240 7213.86670 8932.06740
 7956.50000   -0.00440   10.10800   18.24900    5.07530   -0.01850    0.00840    2.72250   -9999.25   48.42310   91.21570  709.75150 9932.79490 12922.57320
 7957.00000   -0.00690   10.10820   19.31420    5.07530   -0.02000    0.00540    2.72330   -9999.25   48.47060   90.74510  719.60070 11021.69630 14047.55570
 7957.50000   -0.00830   10.10830   21.59340    5.09040   -0.02150    0.00090    2.72410   -9999.25   48.47100   90.74510  729.53800 6621.74710 7389.87110
 7958.00000   -0.00680   10.10850   24.02430    5.09040   -0.02210    0.00540    2.72480   -9999.25   48.51850   91.68630  729.43960 8812.63480 9771.12400
 7958.50000   -0.00410   10.10860   26.00290    5.07530   -0.02170    0.00840    2.72480   -9999.25   48.75410   92.62740  626.04110 2812.47390 4864.70170
 7959.00000   -0.00440   10.13910   26.45830    5.07530   -0.02050    0.00390    2.72480   -9999.25   49.31880   94.03920  744.56550 8386.72850 3480.53660
 7959.50000   -0.00530   10.18470   26.48240    5.06020   -0.01930    0.01450    2.72400   -9999.25   50.08000   92.30440  797.97310 12998.53130 12377.54790
 7960.00000   -0.00440   10.21720   26.92020    5.06020   -0.01720    0.01750    2.72290   -9999.25   50.50150   92.88740  575.78120 15791.35350 15905.80080
 7960.50000   -0.00780   10.24560   27.37840    5.13470   -0.01510    0.02050    2.72090   -9999.25   50.73100   97.49020  480.64830 1287.55510 1950.01230
 7961.00000   -0.00140   10.27610   27.83660    5.16430   -0.01350    0.01140    2.71720   -9999.25   50.63740   92.00000  473.95800  959.97160 1642.97280
 7961.50000    0.00260   10.27620   29.50880    5.16340   -0.01080    0.01750    2.71410   -9999.25   50.44980   92.00000  494.03140  973.72390 1026.27540
 7962.00000    0.00670   10.29150   31.02920    5.14760   -0.00690    0.02050    2.71110   -9999.25   50.16810   92.78430  529.46830 1118.74170 1018.99080
 7962.50000    0.00520   10.29170   31.63920    5.16190   -0.00320    0.02350    2.70790   -9999.25   49.88630   93.25490  583.42160 1330.88670 1187.61910
 7963.00000    0.00520   10.27660   32.40090    5.17620   -0.00260    0.01430    2.70640   -9999.25   50.07500   93.56860  656.39930 1572.27600 1536.83110
 7963.50000    0.00510   10.27680   33.76960    5.17550   -0.00390    0.01140    2.70580   -9999.25   50.31050   94.19610  728.32460 1977.55020 1974.90880
 7964.00000    0.00360   10.20120   35.29010    5.18960   -0.00620    0.01600    2.70660   -9999.25   50.26400   94.82350  770.30440 2722.71260 2099.47170
 7964.50000    0.00420   10.12560   35.74830    5.18220   -0.00560    0.01600    2.70670   -9999.25   50.17040   94.50980  785.87310 2367.87350 2350.06450
 7965.00000    0.00330   10.08030   35.14430    5.02250   -0.00440    0.01600    2.70810   -9999.25   50.07680   93.88240  796.77860 2192.43260 2206.57350
 7965.50000    0.00080   10.03500   32.71940    4.85610   -0.00470    0.01600    2.70960   -9999.25   49.98320   93.09800  717.87800 2382.49900 2316.47170
 7966.00000    0.00360    9.98950   30.59790    4.67460   -0.00590    0.00840    2.71110   -9999.25   50.22030   92.62240  753.51700 2807.26710 4007.23410
 7966.50000    0.00390    9.95950   30.75270    4.56860   -0.00650    0.00840    2.71180   -9999.25   50.56480   91.98640  836.08410 6763.91990 6722.28270
 7967.00000    0.00180    9.95970   33.51730    4.76350   -0.00500    0.01140    2.71220   -9999.25   51.18250   91.66140  871.52140 5563.19140 5975.19580
 7967.50000   -0.00000    9.95990   36.90660    4.85310   -0.00250    0.01140    2.71260   -9999.25   51.86610   91.05880  877.47460 5223.22410 5418.69140
 7968.00000   -0.00100    9.96000   40.50680    4.91280   -0.00190    0.00990    2.71260   -9999.25   52.05460   90.90200  877.32850 5877.09230 6141.71040
 7968.50000    0.00180    9.96020   47.45730    4.92700   -0.00220    0.00990    2.71260   -9999.25   51.82000   90.90200  871.14430 3978.09940 4363.44530
 7969.00000    0.00270    9.96030   52.31620    4.92620   -0.00350    0.00990    2.71260   -9999.25   51.49130   90.90200  877.09500 2095.77880 2249.47510
 7969.50000    0.00480    9.96050   67.79720    4.92550   -0.00580    0.00990    2.71260   -9999.25   51.63280   90.90200  889.23670 2349.02000 2352.37890
 7970.00000    0.00750    9.91520   70.22810    4.92470   -0.00700    0.00840    2.71260   -9999.25   51.82140   90.90200  914.99810 2598.23800 2639.54320
 7970.50000    0.00380    9.85470   71.29330    4.90660   -0.00730    0.00540    2.71260   -9999.25   51.68060   90.90200  901.39670 2078.59200 2513.30520
 7971.00000    0.00080    9.80940   72.81370    4.62180   -0.00700    0.00540    2.71140   -9999.25   51.21100   90.90200  800.96700 1561.77860 2096.18510
 7971.50000    0.00410    9.76410   74.78940    4.45540   -0.00730    0.00390    2.70930   -9999.25   51.00650   91.05880 1057.13290 2980.78860 3897.93900
 7972.00000    0.00950    9.71880   75.39940    4.71070   -0.00820    0.00540    2.70730   -9999.25   51.40000   91.05880 1239.98240 6192.70900 5758.58890
 7972.50000    0.01190    9.70380   75.09890    4.84550   -0.00820    0.00540    2.70410   -9999.25   51.54150   91.05880 1124.97470 6967.93850 6866.44380
 7973.00000    0.00950    9.67360   73.28090    4.86000   -0.00820    0.00540    2.69990   -9999.25   51.44610   91.05880 1054.45120 6633.85210 7502.49220
 7973.50000    0.00350    9.64350   70.40070    4.88940   -0.00790    0.00840    2.69660   -9999.25   51.30740   91.05880  906.91970 5089.80180 4415.37500
