~Version ---------------------------------------------------
VERS.   2.0 : CWLS log ASCII Standard -VERSION 2.0
WRAP.    NO : One line per depth step
DLM . SPACE : Column Data Section Delimiter
~Well ------------------------------------------------------
STRT .F                  226.0 : START DEPTH
STOP .F                10621.0 : STOP DEPTH
STEP .F                    0.5 : STEP
NULL .                -9999.25 : NULL VALUE
COMP .                         : COMPANY
WELL .                         : WELL
FLD  .                         : FIELD
LOC  .                         : LOCATION
PROV .                         : PROVINCE
CNTY .                         : COUNTY
STAT .                         : STATE
CTRY .                         : COUNTRY
SRVC .                         : SERVICE COMPANY
DATE .                         : DATE
UWI  .                         : UNIQUE WELL ID
API  .                         : API NUMBER
SLAT .WGS84 3.1294088764448986 : SURFACE LATITUDE
SLON .WGS84     8.694246695527 : SURFACE LONGITUDE
DATUM.F                    nan : DEPTH DATUM ELEV
~Curve Information -----------------------------------------
DEPT .F     : 
DPHZ .DEC   : DENSITY POROSITY LIMESTONE
HCALD.IN    : HILT CALIPER
HSGR .GAPI  : STANDARD GAMMA RAY, SPECTROSCOPY GAMMA RAY
PEFZ .B/E   : HILT PHOTOELECTRIC FACTOR
TNPH .DEC   : THERMAL NEUTRON POROSITY LIMESTONE
HDRA .G/C3  : DELTA RHO HIP TOOL
RHOZ .G/C3  : HILT BULK DENSITY
DT   .US/F  : INTERVAL TRANSIT TIME
DTCO .US/F  : COMPRESSIONAL-WAVE INTERVAL TRANSIT TIME ACOUSTIC SLOWNESS
DTSM .US/F  : SHEAR-WAVE INTERVAL TRANSIT TIME DELTA-T
RLA3 .OHMM  : HRLTB RESISTIVITY 3
RLA4 .OHMM  : HTLTB RESISTIVITY 4
RLA5 .OHMM  : HRLTB RESISTIVITY 5
~Params ----------------------------------------------------
~Other -----------------------------------------------------
~ASCII -----------------------------------------------------
# ...
 7428.00000    0.00800    9.59940   48.37710    4.88800    0.00490    0.00690    2.71230   50.42300   53.73040   95.11880  624.07070 1047.02660  763.16660
 7428.50000    0.00770    9.62990   50.35720    4.78270    0.00700    0.00540    2.71750   50.64950   53.15600   95.27260  482.59430  685.48190  999.61410
 7429.00000    0.00410    9.64520   56.58620    4.69250    0.00830    0.00540    2.72510   50.87610   52.18850   95.58250  307.32160  996.83200  524.21150
 7429.50000   -0.00220    9.66050   66.30530    4.63240    0.00920    0.00540    2.72800   51.14800   50.76800   95.57940  239.30590  583.98520  839.69270
 7430.00000   -0.00790    9.67580   66.00920    4.60240    0.00950    0.00540    2.72720   51.19340   50.15670   95.73320  380.22210  359.17930 1354.39810
 7430.50000   -0.01150    9.69110   64.94180    4.57240    0.00920    0.00390    2.71980   50.87610   49.73350   96.20080  425.14970  675.25380 1411.55900
 7431.00000   -0.01140    9.70640   63.05030    4.57370    0.00860    0.00390    2.71530   50.55560   50.48590   97.17290  342.69750 1176.23680 1059.09330
 7431.50000   -0.00460    9.70650   57.99080    4.57270    0.00960    0.00390    2.71210   50.42300   51.33230   99.10090  255.97590 1047.67430  419.31260
 7432.00000   -0.00040    9.73700   56.63250    4.54280    0.01310    0.00390    2.70860   51.41990   52.50780  102.15160  191.19970  327.78980  197.94080
 7432.50000    0.00150    9.76750   57.70220    4.54290    0.02030    0.00390    2.70650   52.68880   49.45140  104.18780  144.81030   75.76800  141.82450
 7433.00000    0.00300    9.91910   63.77940    4.34730    0.03210    0.00390    2.70300   54.68280   48.74610  104.96900  180.70870  101.37720  246.89360
 7433.50000    0.00600    9.97990   66.51820    4.18180    0.03850    0.00390    2.68680   56.04230   50.51130  105.90710  169.69330   77.85880  147.71100
 7434.00000    0.00870   10.01030   67.58780    3.99980    0.04540    0.00390    2.67700   56.63140   54.77880  110.13940   69.32740  108.61190   59.10400
 7434.50000    0.01420   10.02560   69.41620    3.75460    0.05540    0.00240    2.66890   60.03020   63.32290  117.82260   28.51260   65.41610   45.38930
 7435.00000    0.02290   10.05610   75.64520    3.54970    0.07830    0.00090    2.66260   62.89300   69.43570  125.50580   25.14370   40.51160   38.94780
 7435.50000    0.03620   10.08650   82.63290    3.44450    0.09310    0.00090    2.65680   68.68580   72.06900  131.46550   25.85380   31.32790   38.92940
 7436.00000    0.03710   10.11700   84.61290    3.38430    0.13000    0.00090    2.65480   70.63440   73.76180  134.49170   28.08430   29.21940   40.59430
 7436.50000    0.03710   10.13230   82.16880    3.36940    0.16890    0.00240    2.65450   71.49550   73.85580  135.69270   29.67250   30.71370   41.68570
 7437.00000    0.03800   10.14760   75.67670    3.39970    0.18580    0.00240    2.65670   71.35950   72.91540  136.00340   31.35050   35.58170   39.68670
 7437.50000    0.04080   10.16290   72.19400    3.43000    0.20120    0.00240    2.66040   70.95170   71.08150  135.05840   31.77710   37.74140   38.31590
 7438.00000    0.04290   10.16300   69.77340    3.46020    0.21600    0.00090    2.66360   70.81570   69.62380  133.80040   30.46380   36.19220   37.25000
 7438.50000    0.03840   10.16320   68.71860    3.46040    0.22080    0.00090    2.66420   70.95990   68.05680  134.11110   29.00640   32.15540   36.71950
 7439.00000    0.03480   10.16340   68.42070    3.44550    0.21480    0.00090    2.66270   71.63140   66.33230  135.67670   27.23830   34.69710   36.70210
 7439.50000    0.03150   10.14840   68.88520    3.44560    0.20910    0.00690    2.64830   72.31120   68.07210  138.18340   26.85040   36.66820   37.71670
 7440.00000    0.02940   10.17880   70.25830    3.43070    0.20970    0.00990    2.39880   73.35350   72.82130  141.78820   27.23660   39.02120   39.57420
 7440.50000    0.05590   10.23960   71.32800    4.04840    0.21630    0.00990    2.49770   74.44110   73.19750  142.88320   28.02660   35.39830   38.16020
 7441.00000    0.10810   10.25490   71.79060    4.56060    0.22870    0.00990    2.57790   74.62240   72.35110  141.53720   25.01270   30.16730   29.47060
 7441.50000    0.19060   10.30050   71.33080    4.99750    0.24410    0.00990    2.60470   72.76440   70.00000  135.97430   21.76530   23.63560   32.31430
 7442.00000    0.17950   10.31580   69.16500    4.63620    0.26890    0.00990    2.59300   70.62990   66.28530  127.03010   34.86000   28.17470   57.83640
 7442.50000    0.08490   10.22500   57.24720    4.09410    0.27700    0.00980    2.54830   68.85490   64.82760  124.83170   43.50180   39.51040   64.14700
 7443.00000    0.06920   10.17860   53.76450    3.97380    0.21340    0.00690    2.57900   65.96680   63.32290  128.74950   42.88220   48.64330   74.16920
 7443.50000    0.10690   10.14950   54.98580    4.00410    0.18950    0.00540    2.61560   68.50450   62.18080  127.96210   37.57010   62.86880   41.40060
 7444.00000    0.08490   10.14970   60.75960    4.34420    0.19460    0.00990    2.65470   69.54680   60.40240  121.05710   24.33510   48.95560   28.65590
 7444.50000    0.05420   10.13470   60.46350    4.66700    0.19250    0.00990    2.68660   69.72810   55.79940  106.77950   42.23140   23.61620   75.62120
 7445.00000    0.02530   10.13490   52.12490    4.80270    0.11910    0.00990    2.70570   67.73410   54.10660  101.28620   92.84070   46.28630  172.53270
 7445.50000    0.00780   10.15020   44.08990    4.87820    0.08290    0.00990    2.70260   64.47130   54.01250   98.57130  160.59270   93.92800  246.94490
 7446.00000    0.00180   10.15030   24.97740    4.92350    0.02280    0.00840    2.69670   53.98260   54.85890   96.67680  232.23620  201.48940  479.12720
 7446.50000    0.01360   10.15050   23.92260    4.96880    0.01530    0.00690    2.68900   51.69180   54.38870   95.78610  228.92860  309.75770  533.60390
 7447.00000    0.01930   10.04460   24.40130    4.78830    0.01470    0.00540    2.69110   51.55590   54.01250   95.46930  214.97390  346.46790  508.01630
 7447.50000    0.01570    9.96890   26.21540    4.69800    0.01770    0.00390    2.69430   51.55590   53.91850   95.15250  231.90620  341.15970  536.74570
 7448.00000    0.01300    9.98420   26.52640    4.68070    0.01920    0.00390    2.69720   51.46530   53.96550   95.46320  259.03040  373.27260  679.16030
 7448.50000    0.01060    9.98340   25.92680    4.87940    0.01700    0.00390    2.69970   50.96680   54.53660   97.34250  244.90460  711.60660  727.67700
 7449.00000    0.00640    9.96940   25.02370    4.95640    0.00860    0.00390    2.70100   50.55890   55.25370   98.90880  253.42610  614.92410  641.89690
 7449.50000    0.00550    9.96960   23.81720    5.01490    0.00750    0.00390    2.70330   50.51360   55.65830   96.08150  254.16550  380.81670  632.75510
 7450.00000    0.00670    9.96970   21.54780    4.78920    0.01170    0.00450    2.70410   50.81560   55.04700   95.60780  225.02710  213.99800  394.63100
 7450.50000    0.00850    9.92440   21.38580    4.66880    0.01470    0.00690    2.70550   51.55590   54.57680   97.22230  206.68350  306.92810  391.79770
 7451.00000    0.00790    9.81850   21.10730    4.60870    0.01410    0.00840    2.70550   51.69180   53.91850   98.73820  221.69070  359.95500  300.94460
 7451.50000    0.00490    9.80350   21.57170    4.57870    0.01320    0.00840    2.70470   51.69180   53.63640   99.83320  282.46410  322.03370  459.30800
 7452.00000    0.00550    9.78850   22.33780    4.66930    0.01200    0.00840    2.70550   51.46530   55.04700  100.45840  315.46440  313.13120  597.64730
 7452.50000    0.00670    9.77350   23.40740    4.71460    0.01210    0.00840    2.70590   50.83080   56.59870  101.39570  300.37240  519.31130  545.97230
 7453.00000    0.00730    9.77360   24.93220    4.72980    0.01600    0.00680    2.70770   51.05740   56.83500  101.70710  308.71220  468.04970  542.05270
 7453.50000    0.00480    9.77380   32.67860    4.74500    0.01900    0.00680    2.71120   52.40240   55.95800  101.38960   97.56550  290.14470  204.50730
