~Version ---------------------------------------------------
VERS.   2.0 : CWLS log ASCII Standard -VERSION 2.0
WRAP.    NO : One line per depth step
DLM . SPACE : Column Data Section Delimiter
~Well ------------------------------------------------------
STRT .F                5230.0 : START DEPTH
STOP .F               17655.0 : STOP DEPTH
STEP .F                   0.5 : STEP
NULL .               -9999.25 : NULL VALUE
COMP .                        : COMPANY
WELL .                        : WELL
FLD  .                        : FIELD
LOC  .                        : LOCATION
PROV .                        : PROVINCE
CNTY .                        : COUNTY
STAT .                        : STATE
CTRY .                        : COUNTRY
SRVC .                        : SERVICE COMPANY
DATE .                        : DATE
UWI  .                        : UNIQUE WELL ID
API  .                        : API NUMBER
SLAT .WGS84 5.725093837660701 : SURFACE LATITUDE
SLON .WGS84 4.195983600331999 : SURFACE LONGITUDE
DATUM.F               2055.07 : DEPTH DATUM ELEV
~Curve Information -----------------------------------------
DEPT   .F     : 
CALD   .IN    : CALIPER FROM DENSITY LOG
TEND   .LB    : TENSION FROM DENSITY LOG
DRHO   .G/C3  : BULK DENSITY CORRECTION
RHOB   .G/C3  : BULK DENSITY
NPHI_LS.DEC   : NEUTRON POROSITY LIMESTONE
GRR    .GAPI  : GAMMA RAY FROM RESISTIVITY LOG
SPR    .MV    : SPONTANEOUS POTENTIAL FROM RESISTIVITY LOG
ILM    .OHMM  : INDUCTION MEDIUM RESISTIVITY
TENR   .LB    : TENSION FROM RESISTIVITY LOG
SFLU   .OHMM  : SHALLOW FOCUSED RESISTIVITY (UNAVERAGED)
ILD    .OHMM  : INDUCTION DEEP RESISTIVITY
DTCO   .US/F  : DELTA-T COMPRESSIONAL
DTSM   .US/F  : DELTA-T SHEAR
~Params ----------------------------------------------------
~Other -----------------------------------------------------
~ASCII -----------------------------------------------------
# ...
 12172.00000   19.31430 4718.45170    0.07290   -9999.25    0.40380  103.23530  -10.49230    8.17570 4501.71480   10.06630    8.95100   -9999.25   -9999.25
 12172.50000   19.25730 4717.30960    0.07440   -9999.25    0.38670  101.47060  -10.48360    7.74800 4501.42920   10.20520    8.95330   -9999.25   -9999.25
 12173.00000   19.14190 4715.98050    0.09920   -9999.25    0.37910   96.61760  -10.47500    7.54330 4501.14310   10.48560    8.95570   -9999.25   -9999.25
 12173.50000   19.05580 4743.84330    0.10950   -9999.25    0.37510   94.11860  -10.46640    7.64720 4500.85740    9.54260    8.95810   -9999.25   -9999.25
 12174.00000   19.20280 4878.84420    0.10660   -9999.25    0.39720   92.20730  -10.45770    7.75260 4500.57180    9.67430    8.96040   -9999.25   -9999.25
 12174.50000   19.34990 4916.83010    0.10720   -9999.25    0.41840   90.88240  -10.44910    8.07420 4500.28610   10.07630    8.96280   -9999.25   -9999.25
 12175.00000   19.44850 4827.65530    0.11120   -9999.25    0.40840   93.52800  -10.44040    8.07580 4500.00000    9.67810    8.96520   -9999.25   -9999.25
 12175.50000   19.51780 4739.05180    0.11560   -9999.25    0.39010   95.88190  -10.43180    8.18710 4502.75340    9.17100    8.92800   -9999.25   -9999.25
 12176.00000   19.58700 4708.75780    0.11420   -9999.25    0.37430   97.94120  -10.42320    8.18870 4505.50630    8.92840    8.73120   -9999.25   -9999.25
 12176.50000   19.47230 4707.61570    0.10850   -9999.25    0.37130   99.70590  -10.41450    8.19030 4508.25980    9.05160    8.89240   -9999.25   -9999.25
 12177.00000   19.38610 4735.63040    0.10410   -9999.25    0.38070   97.94120  -10.40590    8.08220 4511.01320    9.17650    9.09690   -9999.25   -9999.25
 12177.50000   19.59140 4734.48830    0.09690   -9999.25    0.39180   90.88240  -10.39730    7.86870 4513.76610    9.30310    9.09930   -9999.25   -9999.25
 12178.00000   19.98290 4762.50340    0.10140   -9999.25    0.39010   87.35290  -10.38860    7.76480 4516.51950    9.05700    9.10250   -9999.25   -9999.25
 12178.50000   20.15740 4761.36380    0.10290   -9999.25    0.39530   90.44120  -10.38000    7.45850 4519.27290    8.58240    8.62680   -9999.25   -9999.25
 12179.00000   20.23620 4789.37600    0.09710   -9999.25    0.42350   92.20590  -10.37140    7.26140 4522.02590    8.46890    8.17590   -9999.25   -9999.25
 12179.50000   20.15040 4788.23630    0.08260   -9999.25    0.44400   90.44120  -10.36130    7.23080 4524.77930    8.35700    8.17810   -9999.25   -9999.25
 12180.00000   19.97710 4816.25150    0.06370   -9999.25    0.46630   85.58820  -10.35270    7.16700 4526.28760    8.13590    8.18020   -9999.25   -9999.25
 12180.50000   20.09500 4815.10940    0.03900   -9999.25    0.46750   82.05880  -10.34400    7.04120 4526.32570    8.13780    8.18240   -9999.25   -9999.25
 12181.00000   20.24200 4843.12400    0.02740   -9999.25    0.44320   81.61760  -10.33540    6.97910 4526.77830    8.13940    8.18460   -9999.25   -9999.25
 12181.50000   20.38910 4841.98240    0.01290   -9999.25    0.43160   82.94120  -10.32390    7.07590 4527.23100    8.17770    8.18670   -9999.25   -9999.25
 12182.00000   20.68190 4811.68850    0.00950   -9999.25    0.43180   82.05880  -10.31520    7.36950 4527.68310    8.36560    8.18890   -9999.25   -9999.25
 12182.50000   20.72180 4810.54880    0.01350   -9999.25    0.43960   80.29410  -10.30660    7.57250 4528.13570    8.59680    8.30220   -9999.25   -9999.25
 12183.00000   20.62610 4780.25200    0.02330   -9999.25    0.44940   83.38240  -10.29800    7.37240 4528.58840    8.59850    8.41720   -9999.25   -9999.25
 12183.50000   20.51080 4779.11230    0.03210   -9999.25    0.45510   87.35290  -10.28930    7.27510 4529.04100    8.95580    8.64960   -9999.25   -9999.25
 12184.00000   20.39550 4738.94140    0.03990   -9999.25    0.45970   92.64710  -10.28070    7.24390 4529.49320    9.07940    8.65190   -9999.25   -9999.25
 12184.50000   20.07610 4718.33200    0.04540   -9999.25    0.45030   94.41180  -10.27200    7.57850 4529.94580    9.08120    8.65410   -9999.25   -9999.25
 12185.00000   20.19400 4688.03810    0.04690   -9999.25    0.44500   92.64710  -10.26340    7.78720 4530.39840    9.08300    8.65640   -9999.25   -9999.25
 12185.50000   20.28270 4686.89600    0.04840   -9999.25    0.44620   87.35290  -10.84440    8.11030 4530.85110    9.08480    8.65870   -9999.25   -9999.25
 12186.00000   20.10910 4656.22170    0.04850   -9999.25    0.44620   79.85440  -10.83440    8.22200 4531.30320    9.08660    8.66100   -9999.25   -9999.25
 12186.50000   19.67280 4655.08200    0.05290   -9999.25    0.43150   80.88040  -10.82570    8.11350 4531.75590    9.08840    8.54720   -9999.25   -9999.25
 12187.00000   20.02460 4683.09420    0.06030   -9999.25    0.41320   83.97010  -10.81710    7.68900 4532.20850    8.96830    8.28530   -9999.25   -9999.25
 12187.50000   20.28780 4681.95460    0.06910   -9999.25    0.40680   85.14710  -10.80850    7.09270 4532.66110    8.97000    8.17650   -9999.25   -9999.25
 12188.00000   20.43490 4680.81300    0.07060   -9999.25    0.39970   81.47250  -10.79980    6.63160 4533.11330    8.97180    7.92590   -9999.25   -9999.25
 12188.50000   20.58210 4679.67330    0.06920   -9999.25    0.39850   77.64710  -10.79120    6.45640 4533.56590    8.61730    7.75120   -9999.25   -9999.25
 12189.00000   20.48640 4678.53370    0.06200   -9999.25    0.43720   75.44120  -10.78260    6.28580 4534.01860    8.16580    7.51370   -9999.25   -9999.25
 12189.50000   20.21560 4677.39160    0.04450   -9999.25    0.44430   76.32350  -10.77390    6.11980 4534.47120    7.33100    6.99400   -9999.25   -9999.25
 12190.00000   20.14850 4676.25200    0.01690   -9999.25    0.44600   83.82350  -10.76530    5.95810 4534.92330    6.85370    6.62850   -9999.25   -9999.25
 12190.50000   20.41280 4675.11230    0.00530   -9999.25    0.41140   92.20590  -10.75660    6.04020 4535.37600    7.23550    6.81150   -9999.25   -9999.25
 12191.00000   20.53070 4673.77930    0.00390   -9999.25    0.38610   98.38240  -10.74660    6.40690 4535.82860    7.63860    7.28850   -9999.25   -9999.25
 12191.50000   20.61940 4672.83060    0.00980   -9999.25    0.38100   95.73530  -10.73790    6.88450 4536.28130    7.77930    7.69440   -9999.25   -9999.25
 12192.00000   20.44580 4671.68850    0.02300   -9999.25    0.37960   83.82350  -10.72930    7.20210 4536.73340    7.99380    7.80100   -9999.25   -9999.25
 12192.50000   20.00070 4670.54880    0.04200   -9999.25    0.38250   80.29410  -10.72070    6.98060 4537.18600    8.32820    8.23550   -9999.25   -9999.25
 12193.00000   19.81260 4698.56350    0.05520   -9999.25    0.38070   79.26520  -10.70910    6.73560 4537.63870    8.75010    8.23770   -9999.25   -9999.25
 12193.50000   19.61380 4697.42140    0.05960   -9999.25    0.40130   81.17650  -10.70050    6.64600 4538.09130    8.63440    8.23980   -9999.25   -9999.25
 12194.00000   19.72220 4696.28170    0.06120   -9999.25    0.40300   83.38240  -10.69190    7.01650 4538.54390    8.40680    8.24200   -9999.25   -9999.25
 12194.50000   19.86930 4695.14210    0.05690   -9999.25    0.38120   82.94120  -10.68320    7.30760 4538.99610    8.18360    8.13380   -9999.25   -9999.25
 12195.00000   19.89910 4693.81100    0.04580   -9999.25    0.37770   81.61760  -10.67460    7.21110 4539.44870    8.18600    7.81330   -9999.25   -9999.25
 12195.50000   19.28880 4692.67140    0.03510   -9999.25    0.37890   79.85290  -10.66600    7.02060 4539.90140    8.18760    7.81540   -9999.25   -9999.25
 12196.00000   19.37750 4691.53080    0.02540   -9999.25    0.40120   78.52940  -10.06910    7.02200 4540.35400    8.18930    7.40700   -9999.25   -9999.25
 12196.50000   19.49540 4690.38960    0.02800   -9999.25    0.40390   83.82350  -10.06050    7.02340 4540.80620    8.19090    7.40890   -9999.25   -9999.25
 12197.00000   19.58420 4688.86960    0.03970   -9999.25    0.39000   89.11760  -10.05180    7.02480 4541.25880    8.19250    7.41090   -9999.25   -9999.25
 12197.50000   19.84780 4687.72750    0.04850   -9999.25    0.37470   93.97060  -10.04320    6.48010 4541.71140    8.19410    7.41280   -9999.25   -9999.25
