~Version ---------------------------------------------------
VERS.   2.0 : CWLS log ASCII Standard -VERSION 2.0
WRAP.    NO : One line per depth step
DLM . SPACE : Column Data Section Delimiter
~Well ------------------------------------------------------
STRT .F                5230.0 : START DEPTH
STOP .F               17655.0 : STOP DEPTH
STEP .F                   0.5 : STEP
NULL .               -9999.25 : NULL VALUE
COMP .                        : COMPANY
WELL .                        : WELL
FLD  .                        : FIELD
LOC  .                        : LOCATION
PROV .                        : PROVINCE
CNTY .                        : COUNTY
STAT .                        : STATE
CTRY .                        : COUNTRY
SRVC .                        : SERVICE COMPANY
DATE .                        : DATE
UWI  .                        : UNIQUE WELL ID
API  .                        : API NUMBER
SLAT .WGS84 5.725093837660701 : SURFACE LATITUDE
SLON .WGS84 4.195983600331999 : SURFACE LONGITUDE
DATUM.F               2055.07 : DEPTH DATUM ELEV
~Curve Information -----------------------------------------
DEPT   .F     : 
CALD   .IN    : CALIPER FROM DENSITY LOG
TEND   .LB    : TENSION FROM DENSITY LOG
DRHO   .G/C3  : BULK DENSITY CORRECTION
RHOB   .G/C3  : BULK DENSITY
NPHI_LS.DEC   : NEUTRON POROSITY LIMESTONE
GRR    .GAPI  : GAMMA RAY FROM RESISTIVITY LOG
SPR    .MV    : SPONTANEOUS POTENTIAL FROM RESISTIVITY LOG
ILM    .OHMM  : INDUCTION MEDIUM RESISTIVITY
TENR   .LB    : TENSION FROM RESISTIVITY LOG
SFLU   .OHMM  : SHALLOW FOCUSED RESISTIVITY (UNAVERAGED)
ILD    .OHMM  : INDUCTION DEEP RESISTIVITY
DTCO   .US/F  : DELTA-T COMPRESSIONAL
DTSM   .US/F  : DELTA-T SHEAR
~Params ----------------------------------------------------
~Other -----------------------------------------------------
~ASCII -----------------------------------------------------
# ...
 16852.00000   11.63090 8452.82130   -9999.25    2.42400    0.36850   72.83760  -25.11630    2.07200 8498.95410    3.92230    1.99330   -9999.25   -9999.25
 16852.50000   11.63220 8393.27730   -9999.25    2.43480    0.36970   71.53380  -25.11630    1.96470 8470.10060    3.61990    1.69790   -9999.25   -9999.25
 16853.00000   11.63320 8333.73440   -9999.25    2.43340    0.37660   72.41020  -25.11630    1.78930 8412.60450    3.20970    1.48540   -9999.25   -9999.25
 16853.50000   11.63420 8303.60060   -9999.25    2.43190    0.37950   73.72260  -25.11630    1.57990 8354.67970    2.69800    1.33480   -9999.25   -9999.25
 16854.00000   11.63520 8273.46970   -9999.25    2.43200    0.37950   74.59900  -24.53490    1.26970 8268.11620    2.09340    1.21560   -9999.25   -9999.25
 16854.50000   11.63660 8213.92580   -9999.25    2.43490    0.37660   75.47540  -24.53490    1.12590 8239.47460    1.62420    1.10700   -9999.25   -9999.25
 16855.00000   11.63760 8183.79490   -9999.25    2.43500    0.37190   76.35170  -23.95350    1.06730 8181.76460    1.51920    1.06350   -9999.25   -9999.25
 16855.50000   11.63860 8153.66020   -9999.25    2.43500    0.37070   76.35600  -23.37210    1.03910 8124.05520    1.45930    1.03540   -9999.25   -9999.25
 16856.00000   11.63960 8064.70510   -9999.25    2.43650    0.37190   75.48820  -23.95350    1.02520 8095.41550    1.53920    0.99470   -9999.25   -9999.25
 16856.50000   11.61080 8005.16210   -9999.25    2.44090    0.37070   74.62040  -24.53490    1.02520 8066.70260    1.85520    0.98150   -9999.25   -9999.25
 16857.00000   11.61180 7945.61870   -9999.25    2.43650    0.36550   75.93290  -25.11630    1.06700 8009.06450    2.11980    0.99470   -9999.25   -9999.25
 16857.50000   11.61280 7944.89890   -9999.25    2.43070    0.36250   82.04180  -25.11630    1.11050 8009.49410    2.20620    1.02170   -9999.25   -9999.25
 16858.00000   11.61390 7885.35350   -9999.25    2.40580    0.36480   92.07520  -25.89150    1.17130 7951.78470    2.23550    1.13700   -9999.25   -9999.25
 16858.50000   11.58480 7845.29790   -9999.25    2.39990    0.36770  101.96390  -25.69770    1.25210 7894.07370    2.23520    1.35280   -9999.25   -9999.25
 16859.00000   11.58610 7815.16650   -9999.25    2.39990    0.36540  108.36350  -25.50390    1.45000 7865.43410    2.23490    1.58810   -9999.25   -9999.25
 16859.50000   11.58710 7755.62350   -9999.25    2.40000    0.35820  111.85620  -24.92250    1.70180 7778.65430    2.23460    2.02020   -9999.25   -9999.25
 16860.00000   11.58810 7705.88090   -9999.25    2.40150    0.34960  110.98840  -23.95350    2.02420 7750.01460    2.55340    2.37160   -9999.25   -9999.25
 16860.50000   11.58910 7665.94580   -9999.25    2.40590    0.35490  106.05080  -23.37210    2.43990 7692.30470    5.39140    2.71080   -9999.25   -9999.25
 16861.00000   11.59010 7615.96630   -9999.25    2.41030    0.36820   92.53910  -23.37210    3.18630 7663.66360   14.11660    2.89820   -9999.25   -9999.25
 16861.50000   11.59120 7585.83540   -9999.25    2.41770    0.37230   88.18290  -23.37210    3.64110 7605.95410   17.68190    3.08500   -9999.25   -9999.25
 16862.00000   11.59220 7526.29200   -9999.25    2.42510    0.37280   83.82670  -23.95350    3.68980 7577.31450   11.96470    3.18250   -9999.25   -9999.25
 16862.50000   11.59320 7466.74610   -9999.25    2.43000    0.36990   84.70310  -23.95350    3.31580 7548.67430    6.80340    2.83570   -9999.25   -9999.25
 16863.00000   11.59440 7436.61430   -9999.25    2.43250    0.36760   86.88760  -23.95350    2.60750 7490.96290    4.27900    2.44800   -9999.25   -9999.25
 16863.50000   11.59540 7377.07130   -9999.25    2.42670    0.36640   88.63610  -23.95350    2.16290 7462.32320    2.76360    2.09550   -9999.25   -9999.25
 16864.00000   11.59650 7346.93950   -9999.25    2.40320    0.36460   89.94850  -23.95350    1.84260 7433.68360    2.11580    1.62550   -9999.25   -9999.25
 16864.50000   11.59750 7316.80570   -9999.25    2.39390    0.36290   83.84750  -23.95350    1.59090 7375.97410    2.08750    1.33480   -9999.25   -9999.25
 16865.00000   11.59880 7257.26270   -9999.25    2.39290    0.35820   83.85250  -23.95350    1.30210 7318.26460    2.08720    1.21560   -9999.25   -9999.25
 16865.50000   11.56950 7227.13090   -9999.25    2.39450    0.35760   84.29280  -23.95350    1.17020 7280.00490    2.08690    1.12190   -9999.25   -9999.25
 16866.00000   11.57100 7167.58790   -9999.25    2.40040    0.37560   83.86100  -23.95350    1.10930 7231.91360    1.92610    1.09230   -9999.25   -9999.25
 16866.50000   11.57200 7108.04440   -9999.25    2.41650    0.41630   81.68510  -23.95350    1.09450 7203.27340    1.77760    1.06350   -9999.25   -9999.25
 16867.00000   11.57300 7077.91020   -9999.25    2.42830    0.41860   81.68940  -23.95350    1.08960 7165.01560    1.61880    1.04930   -9999.25   -9999.25
 16867.50000   11.57410 7018.36670   -9999.25    2.44010    0.37670   83.00180  -23.37210    1.07980 7107.30470    1.49400    1.04930   -9999.25   -9999.25
 16868.00000   11.57510 6958.82420   -9999.25    2.44250    0.32320   83.87820  -23.37210    1.09430 7059.42920    1.45450    1.03540   -9999.25   -9999.25
 16868.50000   11.54610 6899.28080   -9999.25    2.43130    0.31910   85.19060  -23.37210    1.09420 7030.78760    1.41600    1.03540   -9999.25   -9999.25
 16869.00000   11.54730 6839.73440   -9999.25    2.43140    0.34510   85.19490  -23.37210    1.09900 6973.07760    1.39700    1.04930   -9999.25   -9999.25
 16869.50000   11.54830 6780.19140   -9999.25    2.42850    0.34640   83.45500  -23.37210    1.13870 6944.43800    1.37830    1.07780   -9999.25   -9999.25
 16870.00000   11.54930 6750.06010   -9999.25    2.42560    0.31830   81.71510  -23.37210    1.18520 6886.72900    1.53340    1.12190   -9999.25   -9999.25
 16870.50000   11.55030 6719.80810   -9999.25    2.41820    0.30010   80.41130  -23.37210    1.25010 6858.08740    1.82380    1.21560   -9999.25   -9999.25
 16871.00000   11.55140 6709.28370   -9999.25    2.39920    0.29230   79.10740  -23.37210    1.35420 6829.44730    2.08390    1.28230   -9999.25   -9999.25
 16871.50000   11.55240 6659.54300   -9999.25    2.39770    0.27830   76.49540  -23.37210    1.44760 6771.73780    2.34960    1.35280   -9999.25   -9999.25
 16872.00000   11.55340 6629.41110   -9999.25    2.40220    0.26260   76.49970  -23.37210    1.58930 6743.09770    2.47820    1.40810   -9999.25   -9999.25
 16872.50000   11.55440 6618.88770   -9999.25    2.41690    0.26200   79.99240  -22.79070    1.67630 6714.45800    2.38060    1.50540   -9999.25   -9999.25
 16873.00000   11.55540 6568.90870   -9999.25    2.42280    0.26260   82.61290  -22.79070    1.63210 6656.74710    2.28690    1.60950   -9999.25   -9999.25
 16873.50000   11.55650 6509.36230   -9999.25    2.42280    0.26430   83.48930  -22.79070    1.61030 6599.03760    2.14860    1.60950   -9999.25   -9999.25
 16874.00000   11.58750 6508.64260   -9999.25    2.41840    0.26660   81.60480  -22.79070    1.54700 6541.32760    2.08260    1.54620   -9999.25   -9999.25
 16874.50000   11.55850 6449.10010   -9999.25    2.41310    0.26990   80.30100  -23.37210    1.52640 6512.68800    1.99140    1.50540   -9999.25   -9999.25
 16875.00000   11.56960 6389.55660   -9999.25    2.40970    0.27240   80.01380  -23.37210    1.48610 6425.90720    1.91300    1.46570   -9999.25   -9999.25
 16875.50000   11.59060 6359.42530   -9999.25    2.40770    0.27590   81.61770  -23.37210    1.46630 6397.26760    1.82960    1.46570   -9999.25   -9999.25
 16876.00000   11.59190 6299.87890   -9999.25    2.40040    0.27900   81.33270  -23.37210    1.48590 6339.55760    1.74970    1.46570   -9999.25   -9999.25
 16876.50000   11.59300 6269.74760   -9999.25    2.38680    0.28110   79.59280  -23.37210    1.50570 6281.84810    1.97260    1.48540   -9999.25   -9999.25
 16877.00000   11.59400 6239.61620   -9999.25    2.37310    0.27420   80.03310  -23.37210    1.52590 6282.27830    2.08050    1.52570   -9999.25   -9999.25
 16877.50000   11.59500 6209.48440   -9999.25    2.37610    0.27000   81.78160  -23.37210    1.60950 6224.56690    2.16530    1.61720   -9999.25   -9999.25
