~Version ---------------------------------------------------
VERS.   2.0 : CWLS log ASCII Standard -VERSION 2.0
WRAP.    NO : One line per depth step
DLM . SPACE : Column Data Section Delimiter
~Well ------------------------------------------------------
STRT .F                5230.0 : START DEPTH
STOP .F               17655.0 : STOP DEPTH
STEP .F                   0.5 : STEP
NULL .               -9999.25 : NULL VALUE
COMP .                        : COMPANY
WELL .                        : WELL
FLD  .                        : FIELD
LOC  .                        : LOCATION
PROV .                        : PROVINCE
CNTY .                        : COUNTY
STAT .                        : STATE
CTRY .                        : COUNTRY
SRVC .                        : SERVICE COMPANY
DATE .                        : DATE
UWI  .                        : UNIQUE WELL ID
API  .                        : API NUMBER
SLAT .WGS84 5.725093837660701 : SURFACE LATITUDE
SLON .WGS84 4.195983600331999 : SURFACE LONGITUDE
DATUM.F               2055.07 : DEPTH DATUM ELEV
~Curve Information -----------------------------------------
DEPT   .F     : 
CALD   .IN    : CALIPER FROM DENSITY LOG
TEND   .LB    : TENSION FROM DENSITY LOG
DRHO   .G/C3  : BULK DENSITY CORRECTION
RHOB   .G/C3  : BULK DENSITY
NPHI_LS.DEC   : NEUTRON POROSITY LIMESTONE
GRR    .GAPI  : GAMMA RAY FROM RESISTIVITY LOG
SPR    .MV    : SPONTANEOUS POTENTIAL FROM RESISTIVITY LOG
ILM    .OHMM  : INDUCTION MEDIUM RESISTIVITY
TENR   .LB    : TENSION FROM RESISTIVITY LOG
SFLU   .OHMM  : SHALLOW FOCUSED RESISTIVITY (UNAVERAGED)
ILD    .OHMM  : INDUCTION DEEP RESISTIVITY
DTCO   .US/F  : DELTA-T COMPRESSIONAL
DTSM   .US/F  : DELTA-T SHEAR
~Params ----------------------------------------------------
~Other -----------------------------------------------------
~ASCII -----------------------------------------------------
# ...
 12822.00000   13.28780 4941.53910    0.00120    2.61690    0.01130  102.59300   -0.19980   64.27030 4784.17430  230.82220   91.85410   -9999.25   -9999.25
 12822.50000   13.28890 4940.82520    0.00270    2.62720    0.03770  109.22580   -0.19120   58.48060 4784.41940  140.18480   90.64190   -9999.25   -9999.25
 12823.00000   13.29000 4940.11180    0.00420    2.63460    0.06530  111.00560   -0.18260   58.48830 4784.66410   93.64580   93.15220   -9999.25   -9999.25
 12823.50000   13.29120 4939.39790    0.00570    2.64490    0.07880  108.37370   -0.17110   58.49600 4784.90920   85.16050   91.92690   -9999.25   -9999.25
 12824.00000   13.29230 4938.68460    0.00870    2.65520    0.06520   96.47710   -0.16250   58.50380 4785.15430   96.24130   84.79430   -9999.25   -9999.25
 12824.50000   13.29350 4937.97070    0.00720    2.66110    0.04880   93.40400    0.43440   56.18830 4785.39940  110.10840   78.21510   -9999.25   -9999.25
 12825.00000   13.29460 4937.25880    0.00440    2.66850    0.03640   92.97790    0.44300   52.77030 4785.64450  121.03420   73.12740   -9999.25   -9999.25
 12825.50000   13.26660 4936.54490    0.00150    2.66410    0.03700   98.28720   -0.13810   50.22380 4785.88960  114.70870   70.24240   -9999.25   -9999.25
 12826.00000   13.26770 4935.83150    0.00150    2.65390    0.05110  105.36110   -0.12810   49.10970 4786.13480   94.99910   68.38860   -9999.25   -9999.25
 12826.50000   13.26890 4935.11770    0.00350    2.63780    0.06100  105.37630   -0.11950   49.11720 4786.37990   91.25660   68.40660   -9999.25   -9999.25
 12827.00000   13.27000 4963.55910    0.00450    2.62900    0.06220  101.86200   -0.11090   49.79380 4786.62450   91.28060   70.29800   -9999.25   -9999.25
 12827.50000   13.27110 4962.84520    0.00610    2.62170    0.06160   96.58300   -0.10230   52.56460 4786.86960   93.80070   76.61940   -9999.25   -9999.25
 12828.00000   13.27230 4991.28760    0.00610    2.61590    0.04510   88.51580   -0.09370   57.78380 4787.11470  107.37070   85.78340   -9999.25   -9999.25
 12828.50000   13.24430 4990.57370    0.00470    2.61440    0.02390   81.46920   -0.08510   67.04710 4787.35990  144.49190  102.46740   -9999.25   -9999.25
 12829.00000   13.24540 4960.70610    0.00180    2.63700    0.01690   80.74610   -0.07650   77.79530 4787.60500  176.93170  134.65660   -9999.25   -9999.25
 12829.50000   13.24650 4959.87400    0.00040    2.64630    0.00690   80.02940   -0.06790   86.68250 4787.85010  234.91280  169.35780   -9999.25   -9999.25
 12830.00000   13.24790 4959.16020    0.00040    2.64290    0.01040   77.69570   -0.05930   96.58500 4788.09520  276.24810  207.44180   -9999.25   -9999.25
 12830.50000   13.24900 4958.44680   -0.00240    2.63070    0.00990   75.06380   -0.05060  104.75090 4788.34030  299.60750  237.49910   -9999.25   -9999.25
 12831.00000   13.25020 4957.73290   -0.00380    2.61950    0.00680   72.87310   -0.04200  109.09640 4788.58540  342.95110  240.79180   -9999.25   -9999.25
 12831.50000   13.26100 4956.78170   -0.00380    2.61610    0.00340   73.77050   -0.62170  113.62210 4788.83010  403.29680  237.62450   -9999.25   -9999.25
 12832.00000   13.28200 4956.06790   -0.00380    2.62500    0.00270   80.84450   -0.61170  104.79240 4789.07520  437.39940  207.66100   -9999.25   -9999.25
 12832.50000   13.28310 4955.35450   -0.00520    2.63380    0.00930   90.12440   -0.60310   81.08680 4789.32030  362.24410  169.62620   -9999.25   -9999.25
 12833.00000   13.28420 4954.64210   -0.00510    2.63830    0.04840   97.19830   -0.59160   66.22640 4789.56540  187.13130  142.35120   -9999.25   -9999.25
 12833.50000   13.28540 4953.92870   -0.00360    2.63540    0.07600   99.41930   -0.58300   56.32580 4789.81050   95.94210  119.46200   -9999.25   -9999.25
 12834.00000   13.28650 4982.36910   -0.00360    2.62950    0.08250   98.11100   -0.57440   51.25170 4790.05570   76.62670  102.99780   -9999.25   -9999.25
 12834.50000   13.28770 4981.65580   -0.00350    2.61930    0.05360   95.47900   -0.56580   50.57090 4790.30080   68.73680   95.00620   -9999.25   -9999.25
 12835.00000   13.28880 4980.94190   -0.00350    2.61490    0.03370   90.20000   -0.55720   57.11420 4790.54590   77.80480   90.03390   -9999.25   -9999.25
 12835.50000   13.28990 4980.22850    0.00050    2.61350    0.02190   89.77400   -1.13820   57.12180 4790.79050  113.78480   85.32190   -9999.25   -9999.25
 12836.00000   13.29110 4979.51610    0.00440    2.61350    0.01970   89.78910   -1.12820   55.11570 4791.03560  133.80640   79.77180   -9999.25   -9999.25
 12836.50000   13.29220 4978.80270    0.00680    2.61800    0.03540   89.80430   -1.11960   52.93440 4791.28080  121.78560   77.66650   -9999.25   -9999.25
 12837.00000   13.29330 4978.08890    0.00350    2.63410    0.05000   88.93710   -1.11100   50.37990 4791.52590  102.22930   75.61680   -9999.25   -9999.25
 12837.50000   13.29450 4977.37550    0.00110    2.63710    0.05470   86.74630   -1.10240   48.38590 4791.77100   91.79900   74.62220   -9999.25   -9999.25
 12838.00000   13.29560 4976.66160    0.00110    2.63270    0.05060   91.17320   -1.09380   46.68100 4792.01610   87.00140   74.98240   -9999.25   -9999.25
 12838.50000   13.26760 4975.94820    0.00560    2.62840    0.04880   97.36480   -1.08520   47.96540 4792.26120   84.70860   78.82020   -9999.25   -9999.25
 12839.00000   13.23960 4975.23440    0.01440    2.62250    0.05640   99.58580   -1.07660   55.65470 4792.50630   83.59220   89.44350   -9999.25   -9999.25
 12839.50000   13.24070 4974.52250    0.01730    2.61670    0.05700   88.57160   -1.06800   68.16090 4792.75100  105.16230   95.69180   -9999.25   -9999.25
 12840.00000   13.24190 4973.73680    0.01590    2.60060    0.03990   81.08670   -1.64760   79.08770 4792.99610  166.37810   96.59070   -9999.25   -9999.25
 12840.50000   13.24320 4973.09520    0.01160    2.63590    0.01400   74.63480   -1.63900   86.94050 4793.24120  285.41130   96.61620   -9999.25   -9999.25
 12841.00000   13.24430 4972.26320    0.00870    2.66090    0.00580   73.61700   -1.04080   74.94850 4793.48630  349.48870   96.64170   -9999.25   -9999.25
 12841.50000   13.24550 5000.82280    0.00440    2.65940    0.01050   78.33670   -1.03220   62.04530 4793.73140  242.89670  102.03280   -9999.25   -9999.25
 12842.00000   13.24700 4999.99070    0.00000    2.64490    0.03280   86.73420   -1.21900   55.69880 4793.97660  132.43200  121.64680   -9999.25   -9999.25
 12842.50000   13.24810 4999.27780   -0.00140    2.60610    0.06680   93.96410   -1.60460   69.14240 4794.22170  103.91780  157.27230   -9999.25   -9999.25
 12843.00000   13.27840 4969.17090   -0.00280    2.57580    0.06150   94.85400   -1.59170   82.42300 4794.46680   94.58210  180.06030   -9999.25   -9999.25
 12843.50000   13.27960 4968.45700    0.00020    2.58120    0.03510   89.14140   -1.58310   90.60690 4794.71190  193.33860  172.95660   -9999.25   -9999.25
 12844.00000   13.28070 4967.74510    0.00310    2.60730    0.01290   87.39190   -1.57450   93.09990 4794.95650  416.22670  132.05340   -9999.25   -9999.25
 12844.50000   13.28180 4996.54250    0.00900    2.61850    0.00620   87.40700   -1.56590   82.45570 4795.20170  503.91780  118.56140   -9999.25   -9999.25
 12845.00000   13.31210 4995.47270    0.01630    2.62150    0.02090   91.39270   -1.55870   64.67050 4795.44680  221.79240  110.84920   -9999.25   -9999.25
 12845.50000   13.34240 4994.75880    0.02070    2.62450    0.04320   98.02550   -1.54870   59.64480 4795.69190  132.69380  118.62410   -9999.25   -9999.25
 12846.00000   13.31440 4994.04540    0.01400    2.62450    0.04550  100.68770   -1.54010   67.36220 4795.93700  115.98450  130.41970   -9999.25   -9999.25
 12846.50000   13.25720 4993.33150    0.00870    2.62460    0.02030   98.93810   -1.53150   78.16090 4796.18210  129.23090  126.97770   -9999.25   -9999.25
 12847.00000   13.14180 4992.49950    0.00580    2.62460    0.01850   99.39450   -1.52290   80.31140 4796.42720  140.15860  112.47510   -9999.25   -9999.25
 12847.50000   13.08460 4991.90580    0.00200    2.62460    0.02320  102.93900   -1.51430   68.95060 4796.67240  138.31770  103.74820   -9999.25   -9999.25
