~Version ---------------------------------------------------
VERS.   2.0 : CWLS log ASCII Standard -VERSION 2.0
WRAP.    NO : One line per depth step
DLM . SPACE : Column Data Section Delimiter
~Well ------------------------------------------------------
STRT .F                5230.0 : START DEPTH
STOP .F               17655.0 : STOP DEPTH
STEP .F                   0.5 : STEP
NULL .               -9999.25 : NULL VALUE
COMP .                        : COMPANY
WELL .                        : WELL
FLD  .                        : FIELD
LOC  .                        : LOCATION
PROV .                        : PROVINCE
CNTY .                        : COUNTY
STAT .                        : STATE
CTRY .                        : COUNTRY
SRVC .                        : SERVICE COMPANY
DATE .                        : DATE
UWI  .                        : UNIQUE WELL ID
API  .                        : API NUMBER
SLAT .WGS84 5.725093837660701 : SURFACE LATITUDE
SLON .WGS84 4.195983600331999 : SURFACE LONGITUDE
DATUM.F               2055.07 : DEPTH DATUM ELEV
~Curve Information -----------------------------------------
DEPT   .F     : 
CALD   .IN    : CALIPER FROM DENSITY LOG
TEND   .LB    : TENSION FROM DENSITY LOG
DRHO   .G/C3  : BULK DENSITY CORRECTION
RHOB   .G/C3  : BULK DENSITY
NPHI_LS.DEC   : NEUTRON POROSITY LIMESTONE
GRR    .GAPI  : GAMMA RAY FROM RESISTIVITY LOG
SPR    .MV    : SPONTANEOUS POTENTIAL FROM RESISTIVITY LOG
ILM    .OHMM  : INDUCTION MEDIUM RESISTIVITY
TENR   .LB    : TENSION FROM RESISTIVITY LOG
SFLU   .OHMM  : SHALLOW FOCUSED RESISTIVITY (UNAVERAGED)
ILD    .OHMM  : INDUCTION DEEP RESISTIVITY
DTCO   .US/F  : DELTA-T COMPRESSIONAL
DTSM   .US/F  : DELTA-T SHEAR
~Params ----------------------------------------------------
~Other -----------------------------------------------------
~ASCII -----------------------------------------------------
# ...
 8142.00000   18.41170 3467.03250    0.11420    2.45390    0.26920   99.59710  -27.93010    7.94290 3370.69430    8.25080    9.19120   -9999.25   -9999.25
 8142.50000   18.51460 3466.46240    0.11200    2.44510    0.28790  101.36390  -27.33960    7.94340 3340.86960    8.25180    9.19300   -9999.25   -9999.25
 8143.00000   18.52980 3465.89310    0.11900    2.43780    0.30000  102.39550  -27.33300    8.05160 3340.44210    8.25290    9.44680   -9999.25   -9999.25
 8143.50000   18.44270 3465.32300    0.12490    2.42980    0.29670  100.63290  -27.32730    8.05210 3340.01420    8.25400    9.83820   -9999.25   -9999.25
 8144.00000   18.21910 3464.75320    0.12690    2.43100    0.29140   95.92960  -27.51650    8.16180 3339.58640    8.48080    9.97260   -9999.25   -9999.25
 8144.50000   17.93700 3464.18380    0.12500    2.44770    0.28050   95.49060  -27.90070    8.53730 3339.15890    8.59700    9.97450   -9999.25   -9999.25
 8145.00000   17.65500 3463.61380    0.11580    2.45260    0.26530   97.25740  -27.89460    8.81090 3338.73100    9.11600    9.97650   -9999.25   -9999.25
 8145.50000   17.50940 3462.94870    0.11010    2.44340    0.25880   99.90660  -27.88890    9.01150 3338.30320    9.62240    9.84520   -9999.25   -9999.25
 8146.00000   17.91930 3462.37940    0.11880    2.41600    0.26050  101.67350  -27.88320    8.33230 3337.80400    9.66700    9.45720   -9999.25   -9999.25
 8146.50000   18.50470 3461.80960    0.12760    2.39110    0.28220  101.23440  -27.87750    7.78890 3337.37650    9.20260    9.20780   -9999.25   -9999.25
 8147.00000   18.94390 3461.19190    0.13060    2.33680    0.28980   98.58950  -27.87130    7.73700 3336.94870    8.66140    9.08640   -9999.25   -9999.25
 8147.50000   19.09060 3460.62210    0.12770    2.31190    0.30000   92.70970  -27.86560    7.73750 3336.48540    8.37580    8.96690   -9999.25   -9999.25
 8148.00000   18.74030 3460.05270    0.12920    2.29720    0.29980   89.18240  -27.27520    7.73800 3336.05760    8.09880    8.96870   -9999.25   -9999.25
 8148.50000   18.50700 3459.48270    0.13650    2.30310    0.29950   86.83160  -27.26850    7.73860 3335.62990    7.83110    8.97040   -9999.25   -9999.25
 8149.00000   18.35170 3458.91310    0.14280    2.31340    0.30000   85.14270  -26.67800    7.73910 3335.20190    7.72730    9.03310   -9999.25   -9999.25
 8149.50000   18.30350 3458.29570    0.14190    2.32820    0.30870   85.80660  -26.67240    7.84450 3334.77440    7.72830    9.09570   -9999.25   -9999.25
 8150.00000   18.38210 3457.72580    0.13810    2.37810    0.32520   94.85290  -26.66670    8.05930 3334.51100    7.72950    9.15920   -9999.25   -9999.25
 8150.50000   18.46550 3457.15580    0.13280    2.38990    0.32630  101.69340  -26.66100    8.16910 3334.65450    7.83540    9.22270   -9999.25   -9999.25
 8151.00000   18.46610 3456.58640    0.12730    2.36790    0.32030  105.22490  -26.65530    8.16960 3334.79810    8.16000    9.22460   -9999.25   -9999.25
 8151.50000   18.36430 3455.92140    0.12440    2.32290    0.30900  103.60960  -26.64960    8.17010 3334.94170    8.49800    9.22650   -9999.25   -9999.25
 8152.00000   18.17490 3455.35160    0.12160    2.31320    0.30050   89.05290  -27.22780    8.17070 3335.08540    8.97010    9.22830   -9999.25   -9999.25
 8152.50000   18.00000 3483.93680    0.12080    2.32840    0.30110   80.67270  -27.22210    7.84770 3335.22900    9.09310    9.14780   -9999.25   -9999.25
 8153.00000   17.94700 3483.36670    0.12570    2.31590    0.30840   80.52810  -27.21640    7.23910 3335.37260    8.85230    8.86670   -9999.25   -9999.25
 8153.50000   18.18150 3482.79660    0.12920    2.27410    0.32880   85.82440  -27.21030    7.11090 3335.51640    8.46470    8.63280   -9999.25   -9999.25
 8154.00000   18.55240 3482.22730    0.12880    2.22710    0.34160   86.26770  -27.20450    7.14330 3335.65990    8.24050    8.29270   -9999.25   -9999.25
 8154.50000   18.80650 3481.65750    0.12740    2.21400    0.34610   85.82870  -27.19880    7.14370 3335.80350    8.02230    8.18330   -9999.25   -9999.25
 8155.00000   18.86550 3481.08740    0.12690    2.23560    0.34590   84.94850  -27.48550    7.19260 3335.94730    7.84490    8.07550   -9999.25   -9999.25
 8155.50000   18.63220 3480.51810    0.12260    2.24780    0.34290   84.50950  -27.77180    7.33970 3336.09080    8.06120    7.96900   -9999.25   -9999.25
 8156.00000   17.78480 3479.85300    0.11540    2.19650    0.33120   85.83510  -27.76610    7.74710 3336.23440    8.45290    7.97060   -9999.25   -9999.25
 8156.50000   17.05440 3479.28300    0.10960    2.12550    0.32120   90.54350  -27.76040    7.79940 3336.37820    8.92260    7.86580   -9999.25   -9999.25
 8157.00000   16.47020 3478.71340    0.11830    2.07170    0.32000   95.83980  -28.33950    7.54230 3336.52170    9.52360    7.86740   -9999.25   -9999.25
 8157.50000   16.38300 3507.29830    0.14160    2.04680    0.32410   97.01840  -28.33290    6.59670 3336.66530    9.65360    7.86890   -9999.25   -9999.25
 8158.00000   17.46540 3506.68070    0.15480    2.02780    0.33930   97.90290  -28.32720    6.27490 3336.80910    8.91840    7.87050   -9999.25   -9999.25
 8158.50000   18.32380 3506.11080    0.16350    2.03810    0.34810   99.08170  -28.32150    6.30350 3336.95260    8.06710    7.97880   -9999.25   -9999.25
 8159.00000   18.76300 3505.54150    0.17130    2.07780    0.35460   99.96610  -28.31580    6.50510 3337.09620    7.34140    8.14340   -9999.25   -9999.25
 8159.50000   18.90970 3504.97140    0.17380    2.09830    0.37130   98.86540  -28.89500    6.95860 3337.23970    7.14700    8.25540   -9999.25   -9999.25
 8160.00000   18.88600 3533.55620    0.13850    2.09840    0.38290   90.04400  -28.88930    7.75060 3337.38350    7.96210    8.54030   -9999.25   -9999.25
 8160.50000   18.08250 3532.93900    0.10600    2.05730    0.36820   75.26690  -29.46840    8.51720 3337.52710    9.11280    8.73540   -9999.25   -9999.25
 8161.00000   17.33740 3532.36910    0.07940    2.02650    0.31530   68.50440  -30.04650    9.23450 3337.67070   10.42980    9.05710   -9999.25   -9999.25
 8161.50000   16.78240 3531.79910    0.07010    2.03390    0.19590   75.27120  -30.04090    9.74620 3337.81450   12.09910    9.26370   -9999.25   -9999.25
 8162.00000   16.41750 3531.22950    0.07450    2.14300    0.15060   80.56780  -30.62000   10.28620 3337.95800   13.78690    9.77860   -9999.25   -9999.25
 8162.50000   16.18420 3501.41020    0.09260    2.35750    0.16000   79.24650  -30.90620   11.00550 3338.10160   13.85220   10.04750   -9999.25   -9999.25
 8163.00000   16.13600 3500.84030    0.09120    2.47060    0.18210   75.27800  -31.19290   11.02190 3338.24540   12.95070   10.89510   -9999.25   -9999.25
 8163.50000   16.57520 3471.11650    0.08690    2.50440    0.18820   73.95660  -31.77200    8.72260 3338.38890   11.94470   11.04500   -9999.25   -9999.25
 8164.00000   16.62460 3470.54640    0.08550    2.51640    0.21340   81.01760  -31.76630    7.85990 3338.53250   11.09360   11.19690   -9999.25   -9999.25
 8164.50000   16.36200 3440.82180    0.06960    2.46220    0.27410   96.01970  -31.76020    8.46940 3338.67630   10.09560   11.19910   -9999.25   -9999.25
 8165.00000   16.30410 3440.25200    0.04060    2.33370    0.29700   96.02190  -31.75450    9.49520 3338.81980    9.31220   11.50710   -9999.25   -9999.25
 8165.50000   16.88950 3439.68260    0.02610    2.21550    0.27670   91.17110  -31.74880   11.01190 3338.96340   11.24830   12.14630   -9999.25   -9999.25
 8166.00000   17.53330 3439.11250    0.02030    2.19360    0.24270   72.35010  -31.74220   11.46240 3339.10720   14.32420   12.20460   -9999.25   -9999.25
 8166.50000   16.71520 3438.44750    0.03050    2.29020    0.19530   69.99930  -31.73650   11.30990 3339.25070   17.05790   11.36230   -9999.25   -9999.25
 8167.00000   16.13100 3437.87820    0.04360    2.34270    0.15310   70.44260  -31.14600   10.91520 3339.39430   19.68980   10.62460   -9999.25   -9999.25
 8167.50000   15.95610 3437.30830    0.05090    2.35390    0.13490   83.01840  -30.55550    8.59330 3339.53780   19.95970   10.13610   -9999.25   -9999.25
