~Version ---------------------------------------------------
VERS.   2.0 : CWLS log ASCII Standard -VERSION 2.0
WRAP.    NO : One line per depth step
DLM . SPACE : Column Data Section Delimiter
~Well ------------------------------------------------------
STRT .F                5230.0 : START DEPTH
STOP .F               17655.0 : STOP DEPTH
STEP .F                   0.5 : STEP
NULL .               -9999.25 : NULL VALUE
COMP .                        : COMPANY
WELL .                        : WELL
FLD  .                        : FIELD
LOC  .                        : LOCATION
PROV .                        : PROVINCE
CNTY .                        : COUNTY
STAT .                        : STATE
CTRY .                        : COUNTRY
SRVC .                        : SERVICE COMPANY
DATE .                        : DATE
UWI  .                        : UNIQUE WELL ID
API  .                        : API NUMBER
SLAT .WGS84 5.725093837660701 : SURFACE LATITUDE
SLON .WGS84 4.195983600331999 : SURFACE LONGITUDE
DATUM.F               2055.07 : DEPTH DATUM ELEV
~Curve Information -----------------------------------------
DEPT   .F     : 
CALD   .IN    : CALIPER FROM DENSITY LOG
TEND   .LB    : TENSION FROM DENSITY LOG
DRHO   .G/C3  : BULK DENSITY CORRECTION
RHOB   .G/C3  : BULK DENSITY
NPHI_LS.DEC   : NEUTRON POROSITY LIMESTONE
GRR    .GAPI  : GAMMA RAY FROM RESISTIVITY LOG
SPR    .MV    : SPONTANEOUS POTENTIAL FROM RESISTIVITY LOG
ILM    .OHMM  : INDUCTION MEDIUM RESISTIVITY
TENR   .LB    : TENSION FROM RESISTIVITY LOG
SFLU   .OHMM  : SHALLOW FOCUSED RESISTIVITY (UNAVERAGED)
ILD    .OHMM  : INDUCTION DEEP RESISTIVITY
DTCO   .US/F  : DELTA-T COMPRESSIONAL
DTSM   .US/F  : DELTA-T SHEAR
~Params ----------------------------------------------------
~Other -----------------------------------------------------
~ASCII -----------------------------------------------------
# ...
 8818.00000   13.34390 3748.46900    0.10780    2.11000    0.22540   79.80960  -19.33260   21.31370 3495.55300   24.71690   28.14060   -9999.25   -9999.25
 8818.50000   13.22720 3767.69800    0.10350    2.06890    0.24070   83.79090  -19.32410   21.60830 3495.55300   25.74450   28.14430   -9999.25   -9999.25
 8819.00000   13.13980 3738.11470    0.09040    2.03220    0.24460   87.33110  -19.31560   22.50500 3495.55300   27.17900   28.14800   -9999.25   -9999.25
 8819.50000   13.08160 3737.82860    0.08170    2.01760    0.21580   85.57710  -19.30700   23.43890 3495.55300   29.47780   28.15170   -9999.25   -9999.25
 8820.00000   13.22810 3737.54250    0.08020    2.13890    0.20400   73.67610  -19.88330   24.74250 3495.55300   32.40500   28.15540   -9999.25   -9999.25
 8820.50000   13.52080 3708.10180    0.08020    2.22080    0.21870   66.18690  -19.87480   24.85940 3495.55300   34.67510   28.54150   -9999.25   -9999.25
 8821.00000   13.87190 3707.81620    0.06280    2.22770    0.26980   67.08000  -19.86630   21.63670 3495.55300   34.22020   29.06250   -9999.25   -9999.25
 8821.50000   14.31080 3707.53000    0.03520    2.15480    0.28330   71.35480  -20.05070   21.64240 3495.55300   29.11570   29.72590   -9999.25   -9999.25
 8822.00000   14.83740 3707.24390    0.03810    2.12350    0.27150   72.83680  -20.43410   23.46970 3495.55300   28.34890   30.33300   -9999.25   -9999.25
 8822.50000   15.91960 3706.95780    0.05270    2.30270    0.19330   68.43580  -20.42410   26.14600 3495.55300   29.13340   33.36370   -9999.25   -9999.25
 8823.00000   16.94320 3706.67160    0.05410    2.49800    0.18330   69.62380  -20.41280   31.15600 3495.55300   29.53730   36.39450   -9999.25   -9999.25
 8823.50000   17.55740 3706.38550    0.04830    2.56410    0.17920   76.84500  -20.40430   34.70880 3495.55300   29.67890   37.89970   -9999.25   -9999.25
 8824.00000   17.82100 3706.09940    0.02070    2.57590    0.17160   82.59100  -20.39570   37.13590 3495.55300   35.69820   41.65140   -9999.25   -9999.25
 8824.50000   16.26260 3705.81370    0.00910    2.48930    0.13750   79.07240  -19.80240   40.27130 3495.55300   43.71360   45.16210   -9999.25   -9999.25
 8825.00000   15.32680 3705.52760    0.02220    2.38800    0.13040   72.90670  -19.79390   43.67940 3495.55300   61.25640   45.78030   -9999.25   -9999.25
 8825.50000   14.86890 3705.24150    0.04540    2.26180    0.15030   68.50560  -19.78540   45.48560 3495.55300   82.43600   46.40710   -9999.25   -9999.25
 8826.00000   15.13220 3704.95560    0.07890    2.07530    0.18790   69.39880  -19.77690   39.99990 3495.55300   65.56590   43.97940   -9999.25   -9999.25
 8826.50000   15.42490 3704.66940    0.12680    2.01220    0.24900   75.14480  -19.76840   28.02940 3495.55300   49.40990   41.12130   -9999.25   -9999.25
 8827.00000   15.57140 3704.28780    0.14860    2.00050    0.27890   85.30260  -19.75980   22.30040 3495.55300   40.92080   38.44890   -9999.25   -9999.25
 8827.50000   15.60090 3704.00170    0.15590    2.00000    0.28120   90.16630  -19.75130   20.29980 3495.55300   34.81680   33.92610   -9999.25   -9999.25
 8828.00000   15.36730 3703.71560    0.15880    2.01970    0.25950   90.61820  -19.74280   20.85930 3495.55300   31.26500   29.92920   -9999.25   -9999.25
 8828.50000   14.95830 3732.58450    0.15010    2.15040    0.23850   84.45250  -19.73430   22.62050 3495.55300   29.63160   27.24060   -9999.25   -9999.25
 8829.00000   14.46150 3790.75000    0.13560    2.29580    0.23580   77.84560  -19.72580   22.72740 3495.55300   28.46470   23.69700   -9999.25   -9999.25
 8829.50000   14.05240 3819.61840    0.12830    2.44420    0.23540   78.73870  -19.71730   22.63140 3495.55300   28.09140   24.34270   -9999.25   -9999.25
 8830.00000   13.84800 3848.39140    0.09780    2.50440    0.22710   82.27890  -19.70730   23.89110 3495.55300   27.72290   26.75230   -9999.25   -9999.25
 8830.50000   13.70210 3818.90330    0.05860    2.54700    0.19300   84.05430  -19.69880   26.61550 3495.55300   28.48880   29.79900   -9999.25   -9999.25
 8831.00000   13.79010 3789.46260    0.03680    2.57500    0.13070   81.41800  -19.68740   31.29130 3495.55300   30.48450   32.31070   -9999.25   -9999.25
 8831.50000   13.99510 3789.17650    0.01550    2.60140    0.07780   71.87560  -19.67890   36.78860 3495.55300   39.57450   36.47840   -9999.25   -9999.25
 8832.00000   14.11230 3759.73630    0.00340    2.63080    0.05730   59.09650  -19.67040   41.53920 3495.55300   67.15400   40.63270   -9999.25   -9999.25
 8832.50000   13.99560 3730.29590   -0.00340    2.65440    0.05550   52.92360  -19.66190   43.26300 3495.55300   98.22440   43.46830   -9999.25   -9999.25
 8833.00000   13.55730 3730.00980   -0.00680    2.67200    0.07720   51.90220  -20.23820   38.85500 3495.55300  105.52770   49.07520   -9999.25   -9999.25
 8833.50000   13.32370 3729.72360   -0.00580    2.66470    0.12010   59.85950  -20.81440   34.89610 3495.55300   72.37140   53.93300   -9999.25   -9999.25
 8834.00000   13.32400 3729.43750    0.00100    2.65450    0.14060   68.69380  -21.39210   35.37850 3495.55300   50.29950   56.16370   -9999.25   -9999.25
 8834.50000   13.38280 3729.15140    0.01650    2.64570    0.16520   69.58150  -21.96700   37.18240 3495.55300   46.40310   54.67850   -9999.25   -9999.25
 8835.00000   13.47080 3728.86570    0.02230    2.64720    0.17810   68.27230  -21.95850   37.86230 3495.55300   48.33240   51.81820   -9999.25   -9999.25
 8835.50000   13.52950 3757.73390    0.02380    2.66000    0.18280   70.04960  -21.95000   36.86590 3495.55300   53.13200   47.16320   -9999.25   -9999.25
 8836.00000   13.55910 3728.29350    0.02230    2.67620    0.17280   70.94270  -21.94150   34.94650 3495.55300   54.59980   41.22700   -9999.25   -9999.25
 8836.50000   13.58860 3728.00730    0.01650    2.68600    0.16630   68.74750  -21.93300   32.67970 3495.55300   47.08600   37.52340   -9999.25   -9999.25
 8837.00000   13.58890 3727.72120    0.02090    2.67380    0.16630   68.75830  -21.92440   28.95750 3495.55300   40.60620   35.08490   -9999.25   -9999.25
 8837.50000   13.61840 3727.38770    0.02820    2.64500    0.20270   71.85730  -21.91590   23.66770 3495.55300   35.49350   33.24950   -9999.25   -9999.25
 8838.00000   13.61870 3727.10160    0.03250    2.56670    0.21440   80.69160  -22.10030   20.41470 3495.55300   28.23000   29.99610   -9999.25   -9999.25
 8838.50000   13.61900 3717.12920    0.03110    2.54180    0.21320   87.76110  -22.48370   19.34930 3495.55300   24.34510   27.80360   -9999.25   -9999.25
 8839.00000   13.66800 3697.37500    0.03250    2.53000    0.19090   87.77190  -22.47380   19.61670 3495.55300   23.07320   24.63350   -9999.25   -9999.25
 8839.50000   13.74630 3697.08890    0.03400    2.52270    0.15840   84.25320  -22.46240   22.75450 3495.55300   22.77050   22.81770   -9999.25   -9999.25
 8840.00000   13.67860 3696.70750    0.03550    2.59330    0.12000   73.67580  -24.20820   26.75210 3495.55300   25.03170   26.82460   -9999.25   -9999.25
 8840.50000   13.28890 3667.26680    0.03110    2.63440    0.06990   57.36300  -24.19970   29.80260 3495.55300   27.89100   31.53300   -9999.25   -9999.25
 8841.00000   13.03580 3666.98070    0.02090    2.68290    0.04970   46.93960  -24.19120   32.31890 3495.55300   36.96750   35.12410   -9999.25   -9999.25
 8841.50000   12.91910 3666.69460    0.01220    2.71230    0.04160   40.47500  -24.76890   35.04760 3495.55300   63.16850   38.60100   -9999.25   -9999.25
 8842.00000   12.86090 3666.40840    0.00500    2.73000    0.05570   41.07200  -24.75900   36.99680 3495.55300   77.44930   40.74250   -9999.25   -9999.25
 8842.50000   12.83190 3666.12230    0.00060    2.74470    0.07860   44.61720  -24.75050   38.01670 3495.55300   82.13640   42.42760   -9999.25   -9999.25
 8843.00000   12.86150 3665.83670   -0.00080    2.75650    0.10200   45.51030  -24.15720   38.02670 3495.55300   69.88430   43.59150   -9999.25   -9999.25
 8843.50000   12.86180 3665.55050   -0.00230    2.74180    0.11200   49.49170  -24.14860   36.53070 3495.55300   50.57610   41.87120   -9999.25   -9999.25
