~Version ---------------------------------------------------
VERS.   2.0 : CWLS log ASCII Standard -VERSION 2.0
WRAP.    NO : One line per depth step
DLM . SPACE : Column Data Section Delimiter
~Well ------------------------------------------------------
STRT .F                5230.0 : START DEPTH
STOP .F               17655.0 : STOP DEPTH
STEP .F                   0.5 : STEP
NULL .               -9999.25 : NULL VALUE
COMP .                        : COMPANY
WELL .                        : WELL
FLD  .                        : FIELD
LOC  .                        : LOCATION
PROV .                        : PROVINCE
CNTY .                        : COUNTY
STAT .                        : STATE
CTRY .                        : COUNTRY
SRVC .                        : SERVICE COMPANY
DATE .                        : DATE
UWI  .                        : UNIQUE WELL ID
API  .                        : API NUMBER
SLAT .WGS84 5.725093837660701 : SURFACE LATITUDE
SLON .WGS84 4.195983600331999 : SURFACE LONGITUDE
DATUM.F               2055.07 : DEPTH DATUM ELEV
~Curve Information -----------------------------------------
DEPT   .F     : 
CALD   .IN    : CALIPER FROM DENSITY LOG
TEND   .LB    : TENSION FROM DENSITY LOG
DRHO   .G/C3  : BULK DENSITY CORRECTION
RHOB   .G/C3  : BULK DENSITY
NPHI_LS.DEC   : NEUTRON POROSITY LIMESTONE
GRR    .GAPI  : GAMMA RAY FROM RESISTIVITY LOG
SPR    .MV    : SPONTANEOUS POTENTIAL FROM RESISTIVITY LOG
ILM    .OHMM  : INDUCTION MEDIUM RESISTIVITY
TENR   .LB    : TENSION FROM RESISTIVITY LOG
SFLU   .OHMM  : SHALLOW FOCUSED RESISTIVITY (UNAVERAGED)
ILD    .OHMM  : INDUCTION DEEP RESISTIVITY
DTCO   .US/F  : DELTA-T COMPRESSIONAL
DTSM   .US/F  : DELTA-T SHEAR
~Params ----------------------------------------------------
~Other -----------------------------------------------------
~ASCII -----------------------------------------------------
# ...
 17528.00000   16.82620 5786.79100    0.03150    2.51350   -9999.25   91.50030  -25.69770    2.34120 5866.27930    3.18750    2.26990   -9999.25   -9999.25
 17528.50000   16.82710 5726.80660    0.03300    2.50320   -9999.25   86.12880  -26.27910    2.34080 5633.72070    3.18730    2.30030   -9999.25   -9999.25
 17529.00000   16.81820 5725.65040    0.02860    2.50180   -9999.25   81.33870  -26.27910    2.37190 5401.16260    3.22990    2.33110   -9999.25   -9999.25
 17529.50000   16.79900 5724.49410    0.05050    2.52100   -9999.25   78.58350  -26.27910    2.37150 5343.02340    3.31690    2.33100   -9999.25   -9999.25
 17530.00000   16.77000 5693.92630    0.09850    2.54890   -9999.25   76.69930  -26.86050    2.40300 5372.09330    3.36120    2.36220   -9999.25   -9999.25
 17530.50000   -9999.25 5663.35400   -9999.25   -9999.25   -9999.25   76.70890  -26.86050    2.43490 5372.09330    3.27260    2.36200   -9999.25   -9999.25
 17531.00000   -9999.25 5603.37400   -9999.25   -9999.25   -9999.25   76.71530  -26.86050    2.43440 5372.09330    3.18630    2.39360   -9999.25   -9999.25
 17531.50000   -9999.25 5543.39450   -9999.25   -9999.25   -9999.25   76.72170  -26.86050    2.44490 5372.09330    3.18610    2.40420   -9999.25   -9999.25
 17532.00000   -9999.25 5483.41460   -9999.25   -9999.25   -9999.25   76.72810  -26.86050    2.46640 5401.16260    3.31580    2.43640   -9999.25   -9999.25
 17532.50000   -9999.25 5452.84670   -9999.25   -9999.25   -9999.25   78.04270  -26.86050    2.49910 5410.85250    3.45090    2.45800   -9999.25   -9999.25
 17533.00000   -9999.25 5451.76420   -9999.25   -9999.25   -9999.25   80.22940  -26.86050    2.53230 5439.92240    3.49700    2.49090   -9999.25   -9999.25
 17533.50000   -9999.25   -9999.25   -9999.25   -9999.25   -9999.25   84.59620  -26.86050    2.53160 5478.68210    3.45040    2.49070   -9999.25   -9999.25
 17534.00000   -9999.25   -9999.25   -9999.25   -9999.25   -9999.25   90.70730  -27.44190    2.53120 5556.20170    3.40450    2.49050   -9999.25   -9999.25
 17534.50000   -9999.25   -9999.25   -9999.25   -9999.25   -9999.25   87.66140  -27.44190    2.56480 5662.79050    3.40430    2.49040   -9999.25   -9999.25
 17535.00000   -9999.25   -9999.25   -9999.25   -9999.25   -9999.25   85.05150  -26.86050    2.56440 5779.06980    3.44980    2.52380   -9999.25   -9999.25
 17535.50000   -9999.25   -9999.25   -9999.25   -9999.25   -9999.25   84.62190  -27.44190    2.56400 5924.41850    3.49580    2.52350   -9999.25   -9999.25
 17536.00000   -9999.25   -9999.25   -9999.25   -9999.25   -9999.25   85.06430  -27.44190    2.56360 6040.69780    3.54250    2.52340   -9999.25   -9999.25
 17536.50000   -9999.25   -9999.25   -9999.25   -9999.25   -9999.25   85.50680  -27.44190    2.56320 6156.97660    3.54230    2.52320   -9999.25   -9999.25
 17537.00000   -9999.25   -9999.25   -9999.25   -9999.25   -9999.25   83.76900  -27.44190    2.56270 6273.25590    3.54200    2.52310   -9999.25   -9999.25
 17537.50000   -9999.25   -9999.25   -9999.25   -9999.25   -9999.25   78.54290  -27.44190    2.56230 6360.46530    3.54180    2.52290   -9999.25   -9999.25
 17538.00000   -9999.25   -9999.25   -9999.25   -9999.25   -9999.25   76.36900  -27.44190    2.56190 6389.53470    3.55740    2.52270   -9999.25   -9999.25
 17538.50000   -9999.25   -9999.25   -9999.25   -9999.25   -9999.25   75.06730  -27.44190    2.56150 6360.46530    3.58890    2.52260   -9999.25   -9999.25
 17539.00000   -9999.25   -9999.25   -9999.25   -9999.25   -9999.25   77.25400  -27.44190    2.56110 6302.32570    3.58860    2.52240   -9999.25   -9999.25
 17539.50000   -9999.25   -9999.25   -9999.25   -9999.25   -9999.25   81.18480  -27.44190    2.56070 6244.18600    3.58830    2.52220   -9999.25   -9999.25
 17540.00000   -9999.25   -9999.25   -9999.25   -9999.25   -9999.25   85.11560  -27.44190    2.56020 6186.04640    3.54050    2.52210   -9999.25   -9999.25
 17540.50000   -9999.25   -9999.25   -9999.25   -9999.25   -9999.25   87.01260  -27.44190    2.55980 6156.97660    3.54040    2.52190   -9999.25   -9999.25
 17541.00000   -9999.25   -9999.25   -9999.25   -9999.25   -9999.25   87.89120  -27.44190    2.59380 6127.90670    3.54010    2.52170   -9999.25   -9999.25
 17541.50000   -9999.25   -9999.25   -9999.25   -9999.25   -9999.25   88.76970  -27.44190    2.59330 6098.83740    3.53980    2.52160   -9999.25   -9999.25
 17542.00000   -9999.25   -9999.25   -9999.25   -9999.25   -9999.25   90.37490  -27.44190    2.59290 6040.69780    3.53960    2.52140   -9999.25   -9999.25
 17542.50000   -9999.25   -9999.25   -9999.25   -9999.25   -9999.25   93.43260  -27.44190    2.59240 6011.62790    3.53940    2.52120   -9999.25   -9999.25
 17543.00000   -9999.25   -9999.25   -9999.25   -9999.25   -9999.25   89.08170  -27.44190    2.59190 6011.62790    3.53910    2.50990   -9999.25   -9999.25
 17543.50000   -9999.25   -9999.25   -9999.25   -9999.25   -9999.25   89.52420  -27.44190    2.59150 5982.55810    3.53890    2.48740   -9999.25   -9999.25
 17544.00000   -9999.25   -9999.25   -9999.25   -9999.25   -9999.25   90.83870  -27.44190    2.59100 5953.48830    3.53870    2.48730   -9999.25   -9999.25
 17544.50000   -9999.25   -9999.25   -9999.25   -9999.25   -9999.25   92.58930  -27.44190    2.59060 5924.41850    3.53850    2.48710   -9999.25   -9999.25
 17545.00000   -9999.25   -9999.25   -9999.25   -9999.25   -9999.25   93.90390  -27.44190    2.59020 5895.34860    3.53820    2.48690   -9999.25   -9999.25
 17545.50000   -9999.25   -9999.25   -9999.25   -9999.25   -9999.25   92.60220  -27.44190    2.58980 5837.20950    3.53800    2.48670   -9999.25   -9999.25
 17546.00000   -9999.25   -9999.25   -9999.25   -9999.25   -9999.25   88.68420  -27.44190    2.58940 5779.06980    3.53780    2.48650   -9999.25   -9999.25
 17546.50000   -9999.25   -9999.25   -9999.25   -9999.25   -9999.25   83.89410  -27.44190    2.58890 5750.00000    3.53750    2.45340   -9999.25   -9999.25
 17547.00000   -9999.25   -9999.25   -9999.25   -9999.25   -9999.25   81.72020  -27.44190    2.58850 5691.86040    3.53730    2.45320   -9999.25   -9999.25
 17547.50000   -9999.25   -9999.25   -9999.25   -9999.25   -9999.25   80.41850  -27.44190    2.58810 5633.72070    3.53710    2.42050   -9999.25   -9999.25
 17548.00000   -9999.25   -9999.25   -9999.25   -9999.25   -9999.25   89.14590  -27.44190    2.58770 5546.51170    3.53680    2.38820   -9999.25   -9999.25
 17548.50000   -9999.25   -9999.25   -9999.25   -9999.25   -9999.25   93.07670  -27.44190    2.58730 5507.75200    3.53660    2.38800   -9999.25   -9999.25
 17549.00000   -9999.25   -9999.25   -9999.25   -9999.25   -9999.25   96.13540  -27.44190    2.55250 5449.61230    3.53640    2.38790   -9999.25   -9999.25
 17549.50000   -9999.25   -9999.25   -9999.25   -9999.25   -9999.25   96.14180  -27.44190    2.55210 5420.54250    3.53610    2.35600   -9999.25   -9999.25
 17550.00000   -9999.25   -9999.25   -9999.25   -9999.25   -9999.25   84.81100  -27.44190    2.51790 5362.40330    3.53590    2.35580   -9999.25   -9999.25
 17550.50000   -9999.25   -9999.25   -9999.25   -9999.25   -9999.25   79.14890  -27.44190    2.51750 5313.95360    3.53570    2.35570   -9999.25   -9999.25
 17551.00000   -9999.25   -9999.25   -9999.25   -9999.25   -9999.25   77.41110  -27.44190    2.41820 5275.19380    3.48850    2.35550   -9999.25   -9999.25
 17551.50000   -9999.25   -9999.25   -9999.25   -9999.25   -9999.25   76.98150  -26.27910    2.38580 5226.74410    3.35160    2.32410   -9999.25   -9999.25
 17552.00000   -9999.25   -9999.25   -9999.25   -9999.25   -9999.25   79.60410  -24.53490    2.29170 5197.67430    3.26320    2.32390   -9999.25   -9999.25
 17552.50000   -9999.25   -9999.25   -9999.25   -9999.25   -9999.25   83.97100  -22.20930    2.29130 5197.67430    3.26300    2.32380   -9999.25   -9999.25
 17553.00000   -9999.25   -9999.25   -9999.25   -9999.25   -9999.25   87.17620  -21.62790    2.29090 5139.53470    3.30670    2.32360   -9999.25   -9999.25
 17553.50000   -9999.25   -9999.25   -9999.25   -9999.25   -9999.25   88.92680  -21.04650    2.29060 5110.46530    3.35070    2.29260   -9999.25   -9999.25
