~Version ---------------------------------------------------
VERS.   2.0 : CWLS log ASCII Standard -VERSION 2.0
WRAP.    NO : One line per depth step
DLM . SPACE : Column Data Section Delimiter
~Well ------------------------------------------------------
STRT .F                5230.0 : START DEPTH
STOP .F               17655.0 : STOP DEPTH
STEP .F                   0.5 : STEP
NULL .               -9999.25 : NULL VALUE
COMP .                        : COMPANY
WELL .                        : WELL
FLD  .                        : FIELD
LOC  .                        : LOCATION
PROV .                        : PROVINCE
CNTY .                        : COUNTY
STAT .                        : STATE
CTRY .                        : COUNTRY
SRVC .                        : SERVICE COMPANY
DATE .                        : DATE
UWI  .                        : UNIQUE WELL ID
API  .                        : API NUMBER
SLAT .WGS84 5.725093837660701 : SURFACE LATITUDE
SLON .WGS84 4.195983600331999 : SURFACE LONGITUDE
DATUM.F               2055.07 : DEPTH DATUM ELEV
~Curve Information -----------------------------------------
DEPT   .F     : 
CALD   .IN    : CALIPER FROM DENSITY LOG
TEND   .LB    : TENSION FROM DENSITY LOG
DRHO   .G/C3  : BULK DENSITY CORRECTION
RHOB   .G/C3  : BULK DENSITY
NPHI_LS.DEC   : NEUTRON POROSITY LIMESTONE
GRR    .GAPI  : GAMMA RAY FROM RESISTIVITY LOG
SPR    .MV    : SPONTANEOUS POTENTIAL FROM RESISTIVITY LOG
ILM    .OHMM  : INDUCTION MEDIUM RESISTIVITY
TENR   .LB    : TENSION FROM RESISTIVITY LOG
SFLU   .OHMM  : SHALLOW FOCUSED RESISTIVITY (UNAVERAGED)
ILD    .OHMM  : INDUCTION DEEP RESISTIVITY
DTCO   .US/F  : DELTA-T COMPRESSIONAL
DTSM   .US/F  : DELTA-T SHEAR
~Params ----------------------------------------------------
~Other -----------------------------------------------------
~ASCII -----------------------------------------------------
# ...
 15526.00000   11.61890 4800.51460   -0.00540    2.66630    0.15670   61.55750   -0.15590    5.51740 5014.18070    9.17990    5.04680   -9999.25   -9999.25
 15526.50000   11.62920 4770.67040   -0.00250    2.66930    0.13260   55.28450   -0.15880    5.74520 5014.61040   12.67010    5.62050   -9999.25   -9999.25
 15527.00000   11.67880 4799.64890   -0.00100    2.66640    0.11440   54.68430   -0.16180    6.39960 5015.03960   15.49680    6.25940   -9999.25   -9999.25
 15527.50000   11.70870 4799.21630   -0.00090    2.67080    0.11030   58.41010   -0.16470    6.93890 5015.46920   16.79690    6.90850   -9999.25   -9999.25
 15528.00000   11.67990 4798.78270   -0.00090    2.68600    0.12320   62.43560    0.42990    7.32350 5015.89840   15.91860    7.16060   -9999.25   -9999.25
 15528.50000   11.68070 4827.76220   -0.00080    2.70810    0.13720   65.11780    0.42650    7.62590 5016.32810   15.08620    7.12830   -9999.25   -9999.25
 15529.00000   11.68130 4856.74070    0.00070    2.71400    0.15130   69.59100    0.42360    7.72940 5016.75780   14.29740    6.84560   -9999.25   -9999.25
 15529.50000   11.68190 4944.54350    0.00070    2.71250    0.15940   70.93000    0.42070    7.62590 5017.18700   11.53350    6.78380   -9999.25   -9999.25
 15530.00000   11.68250 5002.93410    0.00370    2.70620    0.15650   69.58230    0.41780    7.59190 4988.29150   10.35890    6.96830   -9999.25   -9999.25
 15530.50000   11.68300 5120.14790    0.00520    2.70910    0.13830   62.86150    0.41490    7.52370 4988.72070   10.64090    7.25510   -9999.25   -9999.25
 15531.00000   11.68360 5237.36280    0.00520    2.71360    0.12360   61.06610    0.41190    7.55770 4989.15040   11.37970    7.45260   -9999.25   -9999.25
 15531.50000   11.68420 5295.75240    0.00520    2.71650    0.11830   60.46450    0.40900    7.66030 4989.58010   13.19080    7.65560   -9999.25   -9999.25
 15532.00000   11.65530 5265.90820    0.00530    2.71070    0.11830   57.92530    0.40610    7.94070 4990.00930   14.10670    7.75890   -9999.25   -9999.25
 15532.50000   11.62650 5206.65190    0.00530    2.70040    0.12410   50.31040    0.40320    8.26850 4990.43900   14.49070    7.86350   -9999.25   -9999.25
 15533.00000   11.62710 5176.80710    0.00390    2.69020    0.13460   46.27040    0.40030    8.60990 4990.86820   13.73300    8.18710   -9999.25   -9999.25
 15533.50000   11.62770 5088.06690    0.00250    2.68430    0.13810   49.84810    0.39690    8.72680 4991.36910   14.42670    8.63960   -9999.25   -9999.25
 15534.00000   11.65770 5038.67870    0.00250    2.69170    0.13870   49.84370    0.39390    8.84530 4991.79880   15.70840    8.75620   -9999.25   -9999.25
 15534.50000   11.65820 4989.19430    0.00250    2.70050    0.13810   49.39160    0.39100    8.84530 4992.22800   16.35180    8.75560   -9999.25   -9999.25
 15535.00000   11.65880 4969.12110    0.00110    2.70640    0.13800   49.83500    0.38810    8.72680 4992.65770   15.22760    8.63790   -9999.25   -9999.25
 15535.50000   11.63000 4939.13280    0.00110    2.71080    0.13920   52.51720    0.38420    8.49460 4993.23050   13.01490    8.40780   -9999.25   -9999.25
 15536.00000   11.63060 4909.28810   -0.00030    2.70350    0.14030   55.64720    0.38130    7.83430 4993.66020   11.68940    7.65100   -9999.25   -9999.25
 15536.50000   11.66050 4908.85400   -0.00320    2.68740    0.14320   58.77710    0.37840    6.84600 4994.08940   11.37970    6.68670   -9999.25   -9999.25
 15537.00000   11.70040 4908.42140   -0.00610    2.65210    0.16260   62.35480    0.37550    5.29860 4994.51900   11.07820    5.68860   -9999.25   -9999.25
 15537.50000   11.83820 4907.98880   -0.00900    2.58460    0.18540   65.93260    0.37260    4.27030 4994.94870   10.22080    4.97160   -9999.25   -9999.25
 15538.00000   11.95640 4937.18510   -0.00890    2.55380    0.19600   65.92820    0.36970    4.21310 4995.37790    5.51140    4.77440   -9999.25   -9999.25
 15538.50000   11.84930 4936.53520   -0.00890    2.54210    0.20000   65.92380    0.36680    4.63020 4995.80760    5.58590    4.77410   -9999.25   -9999.25
 15539.00000   11.69300 4965.51420   -0.00590    2.55240    0.19370   62.33740    0.36380    4.88680 4996.23780    5.81550    4.77380   -9999.25   -9999.25
 15539.50000   11.60520 4965.08150   -0.00300    2.58760    0.18180   56.95990    0.36090    5.02040 5025.99170    6.65110    4.86000   -9999.25   -9999.25
 15540.00000   11.60600 4964.64790    0.00000    2.63020    0.16240   55.16450    0.35800    5.22770 5026.42140    8.58390    5.17470   -9999.25   -9999.25
 15540.50000   11.60660 4964.21480    0.00000    2.65280    0.14540   52.92130    0.35510    5.64310 5026.85060    9.68640    5.38770   -9999.25   -9999.25
 15541.00000   11.60720 4904.95850   -0.00140    2.66700    0.14120   54.55700    0.35220    5.84940 5027.28030   10.64090    5.76250   -9999.25   -9999.25
 15541.50000   11.60780 4875.11430   -0.00280    2.68220    0.14000   56.34370    0.34930    6.17360 5027.71040    9.81730    6.24700   -9999.25   -9999.25
 15542.00000   11.60830 4874.68160   -0.00280    2.68320    0.14180   57.98170    0.94340    6.75430 5028.13920    9.81730    6.86400   -9999.25   -9999.25
 15542.50000   11.57940 4874.24850   -0.00420    2.67150    0.14760   58.72470    0.94050    6.93890 5028.56930   10.08450    6.86360   -9999.25   -9999.25
 15543.00000   11.55070 4873.81590   -0.00470    2.67000    0.15400   57.82270    0.93750    6.84600 4999.67290   10.49900    6.86310   -9999.25   -9999.25
 15543.50000   11.52170 4873.38230   -0.00560    2.67150    0.15690   56.02730    0.93460    6.14590 5000.10250   10.49900    6.50280   -9999.25   -9999.25
 15544.00000   11.49300 4843.53810   -0.00410    2.67300    0.15930   53.78410    0.93120    5.74520 5000.60400   10.49900    5.91750   -9999.25   -9999.25
 15544.50000   11.46420 4843.10500   -0.00260    2.66860    0.16160   53.33200    0.92830    5.51740 5001.03270    9.82520    5.31280   -9999.25   -9999.25
 15545.00000   11.46470 4842.67240    0.00040    2.64810    0.15570   56.46190    0.92540    4.95310 5001.46290    8.36320    4.76990   -9999.25   -9999.25
 15545.50000   11.43590 4842.23970   -0.00250    2.62760    0.15330   59.14410    0.92150    4.50700 5002.03520    6.65110    4.34060   -9999.25   -9999.25
 15546.00000   11.46590 4841.80710   -0.01120    2.61140    0.15740   62.27410    0.91860    4.10100 5002.46530    6.13640    4.28230   -9999.25   -9999.25
 15546.50000   11.46650 4841.30180   -0.01120    2.60410    0.18020   64.95630    0.91570    4.21310 5002.89400    6.30340    4.28200   -9999.25   -9999.25
 15547.00000   11.46700 4840.86870   -0.01120    2.62030    0.20600   67.19070    0.91280    4.32830 5003.32370    6.65110    4.28170   -9999.25   -9999.25
 15547.50000   11.40880 4840.43600   -0.00970    2.63790    0.21190   68.08190    0.90990    4.50700 5003.75390    7.01810    4.33950   -9999.25   -9999.25
 15548.00000   11.38000 4869.48680   -0.00530    2.65850    0.20910   68.52530    1.50450    4.75680 5004.18260    7.20910    4.45760   -9999.25   -9999.25
 15548.50000   11.29230 4898.46530   -0.00080    2.66730    0.19740   67.17760    1.50100    5.02040 5004.61280    7.50540    4.64110   -9999.25   -9999.25
 15549.00000   11.26350 4927.44480   -0.00030    2.67470    0.18460   64.48670    1.49810    5.22770 5005.04150    8.13500    4.94200   -9999.25   -9999.25
 15549.50000   11.26410 4956.42380   -0.00220    2.68350    0.18090   61.34800    2.09270    5.82320 5005.47170    9.55720    5.33460   -9999.25   -9999.25
 15550.00000   11.26470 4955.77390   -0.00220    2.69530    0.16830   60.44810    2.08930    6.31390 5005.90140   11.22800    5.88880   -9999.25   -9999.25
 15550.50000   11.26530 4955.34130   -0.00220    2.70710    0.14720   59.54750    1.48940    7.00190 5006.33010   12.67010    6.52770   -9999.25   -9999.25
 15551.00000   11.26600 4954.90870   -0.00210    2.70710    0.12840   58.64910    1.48650    7.39000 5006.76030   13.19080    7.53330   -9999.25   -9999.25
 15551.50000   11.26660 4954.47610   -0.00060    2.70560    0.12660   53.42330    1.48360    7.72940 5007.18900   13.54980    7.84340   -9999.25   -9999.25
