~Version ---------------------------------------------------
VERS.   2.0 : CWLS log ASCII Standard -VERSION 2.0
WRAP.    NO : One line per depth step
DLM . SPACE : Column Data Section Delimiter
~Well ------------------------------------------------------
STRT .F                5230.0 : START DEPTH
STOP .F               17655.0 : STOP DEPTH
STEP .F                   0.5 : STEP
NULL .               -9999.25 : NULL VALUE
COMP .                        : COMPANY
WELL .                        : WELL
FLD  .                        : FIELD
LOC  .                        : LOCATION
PROV .                        : PROVINCE
CNTY .                        : COUNTY
STAT .                        : STATE
CTRY .                        : COUNTRY
SRVC .                        : SERVICE COMPANY
DATE .                        : DATE
UWI  .                        : UNIQUE WELL ID
API  .                        : API NUMBER
SLAT .WGS84 5.725093837660701 : SURFACE LATITUDE
SLON .WGS84 4.195983600331999 : SURFACE LONGITUDE
DATUM.F               2055.07 : DEPTH DATUM ELEV
~Curve Information -----------------------------------------
DEPT   .F     : 
CALD   .IN    : CALIPER FROM DENSITY LOG
TEND   .LB    : TENSION FROM DENSITY LOG
DRHO   .G/C3  : BULK DENSITY CORRECTION
RHOB   .G/C3  : BULK DENSITY
NPHI_LS.DEC   : NEUTRON POROSITY LIMESTONE
GRR    .GAPI  : GAMMA RAY FROM RESISTIVITY LOG
SPR    .MV    : SPONTANEOUS POTENTIAL FROM RESISTIVITY LOG
ILM    .OHMM  : INDUCTION MEDIUM RESISTIVITY
TENR   .LB    : TENSION FROM RESISTIVITY LOG
SFLU   .OHMM  : SHALLOW FOCUSED RESISTIVITY (UNAVERAGED)
ILD    .OHMM  : INDUCTION DEEP RESISTIVITY
DTCO   .US/F  : DELTA-T COMPRESSIONAL
DTSM   .US/F  : DELTA-T SHEAR
~Params ----------------------------------------------------
~Other -----------------------------------------------------
~ASCII -----------------------------------------------------
# ...
 16176.00000   10.99430 5035.11670   -0.00180    2.67480    0.28480   55.97010    3.61660    5.42590 5318.11720    7.49100    5.78340   -9999.25   -9999.25
 16176.50000   10.99500 5064.16850   -0.00320    2.67240    0.27560   57.76120    3.61370    5.65030 5317.83110    7.80220    5.94230   -9999.25   -9999.25
 16177.00000   10.96630 5063.09080   -0.00460    2.66660    0.26870   61.34330    3.61080    5.88390 5317.54490    8.23690    5.70640   -9999.25   -9999.25
 16177.50000   10.96710 5062.37060   -0.00460    2.65590    0.26500   67.16420    3.60790    5.65100 5317.25880    8.57920    5.19130   -9999.25   -9999.25
 16178.00000   10.96780 5032.23970   -0.00600    2.62360    0.26200   72.83340    3.60490    4.96360 5316.97270    8.24020    4.72270   -9999.25   -9999.25
 16178.50000   10.96850 5031.52050   -0.02200    2.51650    0.26640   78.05630    3.60200    4.26140 5316.68650    7.00880    4.01540   -9999.25   -9999.25
 16179.00000   10.96920 5060.21390   -0.03520    2.43280    0.28110   83.57960    3.59910    3.52850 5316.39990    4.61220    3.46060   -9999.25   -9999.25
 16179.50000   10.96990 5088.90670   -0.04680    2.45340    0.28810   87.60950    3.59560    2.93410 5316.06690    3.24720    2.82540   -9999.25   -9999.25
 16180.00000   10.97070 5088.18750   -0.03710    2.53130    0.29270   91.34330    3.59270    2.38490 5315.78030    2.47910    2.46810   -9999.25   -9999.25
 16180.50000   11.00080 5058.05710   -0.02090    2.60180    0.30030   92.68660    3.58980    2.11240 5286.25440    2.34920    2.33830   -9999.25   -9999.25
 16181.00000   11.00150 5057.33690   -0.00920    2.60920    0.29990   93.13430    3.58680    1.97480 5285.96830    2.28700    2.27600   -9999.25   -9999.25
 16181.50000   11.00220 5086.02930   -0.00280    2.59900    0.30820   90.89550    3.58290    2.02900 5285.58640    2.65380    2.27620   -9999.25   -9999.25
 16182.00000   11.00290 5114.72220    0.00020    2.57550    0.32820   84.17910    3.58000    2.32200 5285.30030    3.43080    2.43560   -9999.25   -9999.25
 16182.50000   10.97430 5202.23880    0.00170    2.57850    0.32360   79.25370    3.57710    2.73010 5285.01370    4.20200    2.72710   -9999.25   -9999.25
 16183.00000   10.88670 5260.34330    0.00170    2.58150    0.26020   75.22390    3.57420    3.12440 5284.72800    5.14660    3.03900   -9999.25   -9999.25
 16183.50000   10.85800 5318.44780    0.00170    2.57860    0.23380   77.01490    3.57120    3.29780 5284.44140    6.27810    3.32550   -9999.25   -9999.25
 16184.00000   10.82930 5386.20510    0.00180    2.57420    0.17770   79.70150    3.56830    3.34280 5284.15530    7.11960    3.41640   -9999.25   -9999.25
 16184.50000   10.82040 5473.72020    0.00180    2.57130    0.15920   77.46270    3.56540    3.48100 5283.86910    6.09160    3.32540   -9999.25   -9999.25
 16185.00000   10.79170 5522.17190    0.00180    2.57140    0.15860   72.98510    3.56240    3.52850 5283.58300    5.19940    3.28110   -9999.25   -9999.25
 16185.50000   10.77270 5511.56200    0.00330    2.57480    0.16270   69.85070    3.55950    3.67440 5283.29690    4.50140    3.37130   -9999.25   -9999.25
 16186.00000   10.76370 5461.55080    0.00630    2.58080    0.18610   68.05970    3.55660    3.67470 5283.01070    4.50220    3.51110   -9999.25   -9999.25
 16186.50000   10.71570 5402.00830    0.00920    2.58570    0.21250   69.40300    3.55360    3.48190 5282.72410    4.75310    3.51130   -9999.25   -9999.25
 16187.00000   10.59870 5371.87740    0.00780    2.58920    0.25880   76.11940    3.55070    3.29930 5282.43850    4.88420    3.37190   -9999.25   -9999.25
 16187.50000   10.42300 5341.74710    0.00050    2.56720    0.26280   82.38810    3.54780    3.16870 5282.15190    5.01890    3.28220   -9999.25   -9999.25
 16188.00000   10.27660 5341.02830   -0.01550    2.54810    0.26400   78.80600    3.54490    3.21190 5282.24710    5.08810    3.23830   -9999.25   -9999.25
 16188.50000   10.18880 5252.07370   -0.03010    2.46600    0.25810   71.64180    3.54190    3.27050 5282.34230    5.08920    3.23850   -9999.25   -9999.25
 16189.00000   10.16030 5163.11960   -0.04610    2.41170    0.25630   67.16420    4.13780    3.31510 5282.43750    5.02190    3.32750   -9999.25   -9999.25
 16189.50000   10.13160 5103.57710   -0.06170    2.38820    0.25920   62.68660    4.13490    3.39060 5282.53320    4.75870    3.37300   -9999.25   -9999.25
 16190.00000   10.10290 5102.85640   -0.07970    2.38090    0.26030   62.68660    4.13190    3.39090 5282.62840    4.82440    3.37330   -9999.25   -9999.25
 16190.50000   10.13320 5219.78520   -0.08650    2.38100    0.25730   65.22290    4.12900    3.34580 5282.72360    5.37590    3.28350   -9999.25   -9999.25
 16191.00000   10.13390 5572.00730   -0.09130    2.38100    0.25020   64.92680    4.12560    3.25690 5282.81880    5.83080    3.15310   -9999.25   -9999.25
 16191.50000   10.16400 5855.44190   -0.09560    2.38250    0.24080   61.04720    4.72190    3.12800 5282.91410    5.91120    3.02790   -9999.25   -9999.25
 16192.00000   10.19410 6021.51760   -0.09560    2.38550    0.23200   55.97310    4.71850    3.04500 5283.00930    4.96040    2.98750   -9999.25   -9999.25
 16192.50000   10.25370 6011.02690   -0.09560    2.38700    0.23310   52.83580    4.71560    3.08650 5283.10450    4.76440    3.06960   -9999.25   -9999.25
 16193.00000   10.28380 5971.12350   -0.09550    2.38410    0.23720   57.76120    4.71170    3.12860 5283.19970    4.70140    3.19690   -9999.25   -9999.25
 16193.50000   10.28450 5862.28910   -0.09400    2.38710    0.23770   60.89550    4.70880    3.21440 5283.29540    4.76630    3.37480   -9999.25   -9999.25
 16194.00000   10.19700 5773.33500   -0.09400    2.39590    0.22770   64.02990    4.10700    3.30250 5283.39060    5.03180    3.51480   -9999.25   -9999.25
 16194.50000   10.16830 5713.79300   -0.09250    2.40040    0.20070   64.47760    4.10410    3.34750 5283.48580    5.53180    3.71050   -9999.25   -9999.25
 16195.00000   10.11020 5683.66160   -0.09250    2.40630    0.18930   62.68660    4.10120    3.39320 5283.58110    6.22290    3.67780   -9999.25   -9999.25
 16195.50000   10.08150 5653.53130   -0.09240    2.40980    0.18890   60.89550    3.49940    3.43950 5283.67630    6.99390    3.51550   -9999.25   -9999.25
 16196.00000   10.11180 5623.40090   -0.09090    2.41330    0.19240   60.59800    3.49650    3.39360 5283.77150    6.87200    3.51580   -9999.25   -9999.25
 16196.50000   10.17230 5593.26810   -0.08940    2.42460    0.19920   68.05970    3.49360    3.30350 5283.86670    6.36620    3.53190   -9999.25   -9999.25
 16197.00000   10.17310 5563.13770   -0.08500    2.43590    0.20050   73.88060    3.49060    3.17280 5283.96190    5.92470    3.61270   -9999.25   -9999.25
 16197.50000   10.17370 5533.00730   -0.07910    2.44620    0.19750   80.59700    3.48770    3.17300 5284.05760    5.76740    3.61300   -9999.25   -9999.25
 16198.00000   10.17430 5473.46440   -0.06890    2.45360    0.18930   80.14930    3.48480    3.25990 5284.15280    6.34110    3.56470   -9999.25   -9999.25
 16198.50000   10.14510 5443.33400   -0.05570    2.47420    0.18400   76.56720    3.48180    3.30440 5284.24800    7.35810    3.51690   -9999.25   -9999.25
 16199.00000   10.11630 5383.79150   -0.04240    2.49190    0.18220   73.88060    3.47890    3.28990 5284.34330    7.76810    3.42340   -9999.25   -9999.25
 16199.50000   10.08770 5353.66060   -0.03510    2.55650    0.18270   72.53730    3.47600    3.20260 5284.45750    7.80450    3.33230   -9999.25   -9999.25
 16200.00000   10.08830 5294.11670   -0.01120    2.59770    0.18580   74.32840    3.47310    3.13150 5286.63180    6.97540    3.24350   -9999.25   -9999.25
 16200.50000   10.08890 5263.98630   -0.00190    2.59970    0.19060   77.01490    3.47010    3.16020 5289.34670    6.09540    3.22930   -9999.25   -9999.25
 16201.00000   10.08950 5204.44380    0.00300    2.59190    0.19540   73.43280    4.08360    3.35050 5292.06200    5.54670    3.33290   -9999.25   -9999.25
 16201.50000   10.09010 5174.31300    0.00450    2.58010    0.20020   68.05970    4.08950    3.53640 5294.77730    5.62320    3.51840   -9999.25   -9999.25
