~Version ---------------------------------------------------
VERS.   2.0 : CWLS log ASCII Standard -VERSION 2.0
WRAP.    NO : One line per depth step
DLM . SPACE : Column Data Section Delimiter
~Well ------------------------------------------------------
STRT .F                5230.0 : START DEPTH
STOP .F               17655.0 : STOP DEPTH
STEP .F                   0.5 : STEP
NULL .               -9999.25 : NULL VALUE
COMP .                        : COMPANY
WELL .                        : WELL
FLD  .                        : FIELD
LOC  .                        : LOCATION
PROV .                        : PROVINCE
CNTY .                        : COUNTY
STAT .                        : STATE
CTRY .                        : COUNTRY
SRVC .                        : SERVICE COMPANY
DATE .                        : DATE
UWI  .                        : UNIQUE WELL ID
API  .                        : API NUMBER
SLAT .WGS84 5.725093837660701 : SURFACE LATITUDE
SLON .WGS84 4.195983600331999 : SURFACE LONGITUDE
DATUM.F               2055.07 : DEPTH DATUM ELEV
~Curve Information -----------------------------------------
DEPT   .F     : 
CALD   .IN    : CALIPER FROM DENSITY LOG
TEND   .LB    : TENSION FROM DENSITY LOG
DRHO   .G/C3  : BULK DENSITY CORRECTION
RHOB   .G/C3  : BULK DENSITY
NPHI_LS.DEC   : NEUTRON POROSITY LIMESTONE
GRR    .GAPI  : GAMMA RAY FROM RESISTIVITY LOG
SPR    .MV    : SPONTANEOUS POTENTIAL FROM RESISTIVITY LOG
ILM    .OHMM  : INDUCTION MEDIUM RESISTIVITY
TENR   .LB    : TENSION FROM RESISTIVITY LOG
SFLU   .OHMM  : SHALLOW FOCUSED RESISTIVITY (UNAVERAGED)
ILD    .OHMM  : INDUCTION DEEP RESISTIVITY
DTCO   .US/F  : DELTA-T COMPRESSIONAL
DTSM   .US/F  : DELTA-T SHEAR
~Params ----------------------------------------------------
~Other -----------------------------------------------------
~ASCII -----------------------------------------------------
# ...
 14174.00000    9.29650 4564.91700    0.02590    2.58730    0.22490   78.34060   -9.72310    9.16810 4406.85110    9.91910    7.10860   -9999.25   -9999.25
 14174.50000    9.29660 4681.58690    0.02450    2.58590    0.22930   76.10840  -10.31020    9.25130 4405.99610    9.52480    7.30650   -9999.25   -9999.25
 14175.00000    9.29680 4856.73730    0.02160    2.58300    0.23280   73.87610  -10.29840    8.61410 4405.14060    9.78800    7.61130   -9999.25   -9999.25
 14175.50000    9.26770 4944.16800    0.01860    2.58010    0.23340   72.99120  -10.28670    7.76850 4404.28560   10.47210    7.92870   -9999.25   -9999.25
 14176.00000    9.18010 5002.35840    0.01570    2.57570    0.22870   75.10010  -10.27490    7.06870 4403.43020   11.20300    8.14890   -9999.25   -9999.25
 14176.50000    9.06330 5031.30960    0.01140    2.56840    0.21580   78.25850  -10.26310    6.88140 4402.57520   11.35660    8.37520   -9999.25   -9999.25
 14177.00000    8.91720 5031.02100    0.01430    2.56550    0.21280   80.36810  -10.25140    6.97510 4401.72020   11.05580    8.49270   -9999.25   -9999.25
 14177.50000    8.88810 5059.97120    0.01580    2.56110    0.21340   82.02630  -10.23960    7.16600 4371.71000   10.47670    8.72850   -9999.25   -9999.25
 14178.00000    8.92720 4981.72560    0.01720    2.55380    0.21810   77.70290  -10.22790    7.56300 4370.85500   10.62030    8.97090   -9999.25   -9999.25
 14178.50000    9.01510 4893.71780    0.01720    2.52440    0.21860   74.12200  -10.21610    7.87530 4369.99800   11.21040    9.22010   -9999.25   -9999.25
 14179.00000    9.04450 4805.70950    0.01430    2.48530    0.20040   71.73680  -10.20430    8.20050 4369.14260   11.67470    9.34940   -9999.25   -9999.25
 14179.50000    9.07390 4698.17630   -0.02220    2.42800    0.18460   73.10400  -10.19260    8.09140 4368.28760   11.72870    9.10520   -9999.25   -9999.25
 14180.00000    9.15210 4639.40820   -0.04710    2.35770    0.15640   74.01550  -10.18080    7.87690 4367.43210   10.91640    7.85530   -9999.25   -9999.25
 14180.50000    9.18150 4609.87940   -0.06750    2.29060    0.15390   74.02880  -10.16710    7.66810 4366.43460    9.93440    5.76750   -9999.25   -9999.25
 14181.00000    9.24010 4590.06590   -0.07340    2.28960    0.15560   73.59300  -10.15530    7.46480 4365.57960    9.16340    5.69130   -9999.25   -9999.25
 14181.50000    9.24020 4589.68070   -0.07190    2.29940    0.17380   72.25890  -10.14350    7.56650 4364.72410    8.56710    6.23190   -9999.25   -9999.25
 14182.00000    9.15270 4618.63130   -0.06610    2.38960    0.17940   70.47580  -10.13180    7.87900 4363.86910    8.22850    7.39770   -9999.25   -9999.25
 14182.50000    9.06510 4676.82230   -0.03970    2.46590    0.17980   67.79450   -9.92110    8.31550 4362.72750    9.54550    8.46260   -9999.25   -9999.25
 14183.00000    8.91900 4735.01320   -0.01490    2.50710    0.17450   64.21490   -9.50560    9.01590 4391.45410   13.73990    9.51350   -9999.25   -9999.25
 14183.50000    8.83150 4676.24460    0.01290    2.53940    0.17160   60.18630   -9.49380    9.64440 4390.17240   20.04570   10.74420   -9999.25   -9999.25
 14184.00000    8.77310 4617.47660    0.02320    2.54830    0.18030   58.40310   -8.88320   10.31680 4389.31690   24.87620   12.29850   -9999.25   -9999.25
 14184.50000    8.71480 4558.70800    0.02950    2.55560    0.18320   61.11100   -8.87150   11.18560 4388.46190   26.97670   13.52040   -9999.25   -9999.25
 14185.00000    8.71490 4529.17920    0.03050    2.54830    0.18620   65.16620   -8.85970   12.12760 4387.60500   26.38350   14.46870   -9999.25   -9999.25
 14185.50000    8.71510 4470.41110    0.02560    2.53810    0.18790   69.67050   -9.45270   12.79960 4386.74950   23.59870   16.12180   -9999.25   -9999.25
 14186.00000    8.71520 4470.12260    0.02460    2.53520    0.19320   72.82750   -9.43500   12.13210 4385.89450   18.60950   17.72360   -9999.25   -9999.25
 14186.50000    8.71540 4440.59380    0.03340    2.54250    0.21190   76.43360   -9.42330   11.59820 4385.03910   16.16920   17.49460   -9999.25   -9999.25
 14187.00000    8.71550 4440.30520    0.03780    2.55140    0.26700   67.46480  -10.01030   11.80860 4384.18410   16.17140   16.14420   -9999.25   -9999.25
 14187.50000    8.71560 4440.01660    0.04220    2.56170    0.27700   63.43620   -9.99850   12.02350 4383.32860   16.61560   13.92810   -9999.25   -9999.25
 14188.00000    8.74500 4439.72750    0.04510    2.54850    0.28280   65.69500   -9.98680   12.29690 4382.47360   17.30390   12.34410   -9999.25   -9999.25
 14188.50000    8.80360 4439.43900    0.02910    2.50590    0.27810   73.79210   -9.97500   11.34360 4381.61820   16.17780   11.54570   -9999.25   -9999.25
 14189.00000    8.83300 4439.14990    0.02180    2.49130    0.26810   78.29630   -9.96330    9.91520 4380.76320   14.33070   10.51210   -9999.25   -9999.25
 14189.50000    8.92090 4438.86080    0.01740    2.48400    0.26220   79.65690   -9.95150    8.21220 4379.90770   12.35670    9.57090   -9999.25   -9999.25
 14190.00000    8.95030 4438.57230    0.01450    2.48110    0.25810   75.62830   -9.93970    7.08210 4379.05080   10.37110    8.83210   -9999.25   -9999.25
 14190.50000    8.95040 4438.28370    0.01450    2.49430    0.25340   72.49790   -9.92800    6.98780 4378.19580    8.94250    8.04140   -9999.25   -9999.25
 14191.00000    8.94090 4437.99460    0.01600    2.52370    0.25160   74.30750   -9.91620    6.80260 4377.34080    8.24860    7.62330   -9999.25   -9999.25
 14191.50000    8.91180 4437.70610    0.01740    2.52520    0.25240   76.11720  -10.50320    6.71190 4376.34280    8.03010    7.13020   -9999.25   -9999.25
 14192.00000    8.89240 4495.89700    0.01890    2.52670    0.25410   77.47780  -10.49150    6.44670 4375.48780    8.36280    6.75940   -9999.25   -9999.25
 14192.50000    8.86330 4583.32710    0.02040    2.52820    0.25190   76.14750   -9.88090    6.19190 4374.63280    8.70920    6.40800   -9999.25   -9999.25
 14193.00000    8.83430 4699.99760    0.02620    2.53260    0.24330   73.76450   -9.86920    6.02780 4373.77730    8.94840    6.15710   -9999.25   -9999.25
 14193.50000    8.83440 4816.66850    0.03060    2.54100    0.23570   76.61870   -9.85740    6.02820 4372.63620    8.59480    6.07760   -9999.25   -9999.25
 14194.00000    8.83450 4933.33790    0.03500    2.54490    0.23390   80.97520   -9.84370    6.36220 4371.78080    7.61350    6.41820   -9999.25   -9999.25
 14194.50000    8.83470 4962.28910    0.03790    2.54200    0.23860   82.48430   -9.83190    7.27970 4370.92580    6.83580    6.89840   -9999.25   -9999.25
 14195.00000    8.83480 4932.76070    0.03210    2.51050    0.24150   76.06610   -9.82010    6.71510 4370.07030    8.59820    6.68960   -9999.25   -9999.25
 14195.50000    8.83500 4873.99220    0.00290    2.47090    0.24030   72.18810   -9.80840    6.36340 4369.21530    8.71610    6.22770   -9999.25   -9999.25
 14196.00000    8.80590 4815.22410   -0.00440    2.43880    0.22150   70.84750   -9.79660    6.71600 4368.35990    8.33450    6.78940   -9999.25   -9999.25
 14196.50000    8.74750 4727.21580   -0.00590    2.41830    0.21160   77.15480   -9.78100    7.38030 4367.50290    8.48770    7.76780   -9999.25   -9999.25
 14197.00000    8.71840 4668.44730   -0.00590    2.42710    0.20680   78.96450   -9.76920    8.22030 4366.64790    9.71930    8.09180   -9999.25   -9999.25
 14197.50000    8.71860 4599.91650   -0.00730    2.42420    0.22270   77.18140   -9.75740    8.11090 4365.79300   11.57620    8.09550   -9999.25   -9999.25
 14198.00000    8.74800 4550.86330   -0.01030    2.40660    0.23440   72.25450   -9.74570    7.18570 4364.93750   12.05490    7.67460   -9999.25   -9999.25
 14198.50000    8.80660 4511.61910   -0.01320    2.42030    0.23440   69.12410   -9.73390    7.51810 4364.08250   10.11840    7.17820   -9999.25   -9999.25
 14199.00000    8.86520 4482.09080   -0.00050    2.47420    0.22790   68.68820   -9.72220    8.22370 4363.22710    7.83240    6.98910   -9999.25   -9999.25
 14199.50000    8.95310 4462.27730    0.01560    2.50070    0.21670   64.65960   -9.71040    8.79570 4362.37210    8.15690    7.89500   -9999.25   -9999.25
