~Version ---------------------------------------------------
VERS.   2.0 : CWLS log ASCII Standard -VERSION 2.0
WRAP.    NO : One line per depth step
DLM . SPACE : Column Data Section Delimiter
~Well ------------------------------------------------------
STRT .F                5230.0 : START DEPTH
STOP .F               17655.0 : STOP DEPTH
STEP .F                   0.5 : STEP
NULL .               -9999.25 : NULL VALUE
COMP .                        : COMPANY
WELL .                        : WELL
FLD  .                        : FIELD
LOC  .                        : LOCATION
PROV .                        : PROVINCE
CNTY .                        : COUNTY
STAT .                        : STATE
CTRY .                        : COUNTRY
SRVC .                        : SERVICE COMPANY
DATE .                        : DATE
UWI  .                        : UNIQUE WELL ID
API  .                        : API NUMBER
SLAT .WGS84 5.725093837660701 : SURFACE LATITUDE
SLON .WGS84 4.195983600331999 : SURFACE LONGITUDE
DATUM.F               2055.07 : DEPTH DATUM ELEV
~Curve Information -----------------------------------------
DEPT   .F     : 
CALD   .IN    : CALIPER FROM DENSITY LOG
TEND   .LB    : TENSION FROM DENSITY LOG
DRHO   .G/C3  : BULK DENSITY CORRECTION
RHOB   .G/C3  : BULK DENSITY
NPHI_LS.DEC   : NEUTRON POROSITY LIMESTONE
GRR    .GAPI  : GAMMA RAY FROM RESISTIVITY LOG
SPR    .MV    : SPONTANEOUS POTENTIAL FROM RESISTIVITY LOG
ILM    .OHMM  : INDUCTION MEDIUM RESISTIVITY
TENR   .LB    : TENSION FROM RESISTIVITY LOG
SFLU   .OHMM  : SHALLOW FOCUSED RESISTIVITY (UNAVERAGED)
ILD    .OHMM  : INDUCTION DEEP RESISTIVITY
DTCO   .US/F  : DELTA-T COMPRESSIONAL
DTSM   .US/F  : DELTA-T SHEAR
~Params ----------------------------------------------------
~Other -----------------------------------------------------
~ASCII -----------------------------------------------------
# ...
 9468.00000   20.51800 3904.34810    0.05150    2.60710    0.26000   93.42610  -34.25220    5.16260 3513.19240    5.75160    5.67790   -9999.25   -9999.25
 9468.50000   20.54810 3904.20530    0.04570    2.60560    0.26940   90.79410  -34.23540    5.16400 3512.47170    5.83140    5.67980   -9999.25   -9999.25
 9469.00000   20.49080 3904.06230    0.04570    2.58950    0.27350   89.04450  -34.22350    5.09610 3511.75270    5.75470    5.60530   -9999.25   -9999.25
 9469.50000   20.43350 3903.91890    0.04870    2.56020    0.27350   90.38320  -34.20910    5.07490 3540.35740    5.75650    5.60720   -9999.25   -9999.25
 9470.00000   20.37620 3903.77590    0.05310    2.54990    0.27210   95.69240  -34.19470    5.03040 3539.63820    5.75800    5.60900   -9999.25   -9999.25
 9470.50000   20.37720 3903.63260    0.05310    2.54410    0.27070   98.35460  -34.17800    5.03190 3538.91750    5.68200    5.61120   -9999.25   -9999.25
 9471.00000   20.37820 3903.48930    0.04880    2.53530    0.26770   97.92860  -34.16360    5.03370 3538.19680    5.68420    5.63850   -9999.25   -9999.25
 9471.50000   20.40830 3903.34620    0.04300    2.51190    0.25580   94.41430  -33.95440    5.10350 3537.35820    5.68570    5.69140   -9999.25   -9999.25
 9472.00000   20.49680 3874.04880    0.04010    2.49720    0.24200   90.01770  -33.54840    5.10480 3536.63790    5.68720    5.69330   -9999.25   -9999.25
 9472.50000   20.38120 3873.90550    0.03870    2.51930    0.23110   77.23870  -33.53400    5.17560 3535.91820    5.68870    5.69510   -9999.25   -9999.25
 9473.00000   20.03230 3873.76250    0.04020    2.56040    0.23340   77.25380  -34.10140    5.17700 3535.19800    5.76760    5.77430   -9999.25   -9999.25
 9473.50000   20.03330 3902.77370    0.04750    2.59670    0.24690   81.23950  -34.08700    5.17830 3534.47830    5.92710    5.69860   -9999.25   -9999.25
 9474.00000   20.03430 3902.63060    0.05240    2.60900    0.26160   85.66640  -34.07270    5.17970 3533.51860    6.09100    5.70140   -9999.25   -9999.25
 9474.50000   20.35610 3902.48730    0.05090    2.60510    0.27040   88.91740  -34.05830    5.18110 3532.79790    6.17540    5.85970   -9999.25   -9999.25
 9475.00000   20.53200 3902.34450    0.04320    2.59770    0.27620   91.72760  -34.04390    5.18240 3532.07860    6.17700    5.94150   -9999.25   -9999.25
 9475.50000   20.59130 3902.20120    0.03500    2.59290    0.28030   92.91970  -33.44310    5.11430 3531.35790    6.01400    5.94340   -9999.25   -9999.25
 9476.00000   20.49530 3902.03420    0.02880    2.58120    0.28620   93.66810  -33.42870    5.11560 3501.31320    5.85530    5.86520   -9999.25   -9999.25
 9476.50000   20.44750 3901.89110    0.03320    2.56800    0.28790   90.45090  -33.41430    5.04830 3500.59280    5.77830    5.78840   -9999.25   -9999.25
 9477.00000   20.50730 3901.74800    0.04190    2.55190    0.28490   89.72770  -33.40000    5.04970 3499.87350    5.70230    5.63600   -9999.25   -9999.25
 9477.50000   20.62490 3901.60470    0.05220    2.54020    0.26970   89.30170  -33.97450    5.05100 3499.15280    5.70380    5.63790   -9999.25   -9999.25
 9478.00000   20.59680 3901.46170    0.06240    2.53580    0.26140   86.23610  -33.95770    5.05230 3498.43360    5.70530    5.56400   -9999.25   -9999.25
 9478.50000   20.51030 3930.49680    0.06970    2.56820    0.23850   81.83950  -33.94340    5.05370 3497.71310    5.70680    5.64160   -9999.25   -9999.25
 9479.00000   20.36550 3930.28200    0.07410    2.59020    0.23080   79.64870  -33.92900    5.12370 3496.99390    5.70830    5.64350   -9999.25   -9999.25
 9479.50000   20.27880 3930.13870    0.07560    2.60940    0.22910   80.98740  -33.91470    5.12510 3525.59860    5.70980    5.72230   -9999.25   -9999.25
 9480.00000   20.39670 3929.99580    0.07410    2.60650    0.23200   87.17900  -33.90030    5.12640 3524.87940    5.78900    5.72420   -9999.25   -9999.25
 9480.50000   20.45600 3929.85280    0.07270    2.58150    0.25310   92.92940  -33.88590    5.19770 3524.15870    5.81690    5.80400   -9999.25   -9999.25
 9481.00000   20.39870 3929.70950    0.06980    2.55660    0.26190   94.11750  -33.87160    5.26980 3523.43820    5.89760    5.80590   -9999.25   -9999.25
 9481.50000   20.04980 3929.56640    0.06840    2.54780    0.25950   91.63610  -33.85720    5.36700 3522.71900    5.97930    5.80790   -9999.25   -9999.25
 9482.00000   20.10910 3929.42310    0.06700    2.56550    0.25480   89.88650  -33.84280    5.49060 3521.99830    6.03500    5.80980   -9999.25   -9999.25
 9482.50000   20.28500 3958.43460    0.06560    2.58020    0.25300   89.01930  -34.41500    5.56720 3521.27910    6.03710    5.89110   -9999.25   -9999.25
 9483.00000   20.25690 3958.29150    0.06420    2.58760    0.25300   88.15210  -34.39820    5.56870 3520.55830    5.95690    5.97330   -9999.25   -9999.25
 9483.50000   20.17040 3958.14840    0.06570    2.56270    0.26010   86.40250  -34.38380    5.42170 3519.83940    5.87930    5.97530   -9999.25   -9999.25
 9484.00000   20.31720 3958.00510    0.07010    2.52010    0.27020   86.85880  -34.36950    5.20780 3519.11870    5.80200    5.97730   -9999.25   -9999.25
 9484.50000   20.37650 3957.86210    0.08170    2.49810    0.27690   86.43280  -34.35510    5.07040 3518.39940    5.80350    5.79380   -9999.25   -9999.25
 9485.00000   20.26090 3957.71880    0.09190    2.49230    0.28060   85.12440  -34.33600    5.07170 3517.55960    5.65040    5.66600   -9999.25   -9999.25
 9485.50000   20.05780 3957.57570    0.09920    2.52170    0.27310   83.81600  -34.32160    5.00500 3516.83980    5.65190    5.59270   -9999.25   -9999.25
 9486.00000   19.94220 3957.43240    0.10750    2.55790    0.26270   82.50760  -34.30730    5.07440 3516.11990    5.57730    5.67070   -9999.25   -9999.25
 9486.50000   20.04050 3957.28960    0.10120    2.58490    0.25310   83.25960  -34.29290    5.21470 3515.40010    5.57900    5.67260   -9999.25   -9999.25
 9487.00000   20.11930 3957.14620    0.06740    2.59620    0.24110   85.18600  -34.27850    5.43180 3514.67990    5.65630    5.75170   -9999.25   -9999.25
 9487.50000   20.14950 3957.00320    0.05140    2.60410    0.23930   88.58240  -34.26420    5.43320 3513.71950    5.73480    5.83200   -9999.25   -9999.25
 9488.00000   20.15050 3956.85990    0.04710    2.61140    0.24050   91.68730  -34.24980    5.43460 3513.00020    5.81430    5.99380   -9999.25   -9999.25
 9488.50000   20.15150 3956.71680    0.05300    2.59830    0.24230   94.49610  -34.23550    5.36310 3512.27980    5.97500    6.07750   -9999.25   -9999.25
 9489.00000   20.18190 3956.57350    0.06030    2.57920    0.24400   98.04710  -34.22110    5.29260 3511.56050    6.05790    6.16230   -9999.25   -9999.25
 9489.50000   20.24120 3956.40670    0.06610    2.56460    0.24930   98.50330  -34.20670    5.29400 3510.83980    5.97820    6.16430   -9999.25   -9999.25
 9490.00000   20.53380 3956.26340    0.06900    2.56020    0.25810   88.37140  -34.19240    5.36740 3510.12060    5.97980    6.16640   -9999.25   -9999.25
 9490.50000   20.73890 3956.12040    0.06760    2.56910    0.25450   87.06300  -34.17800    5.51580 3509.39990    5.98130    6.08550   -9999.25   -9999.25
 9491.00000   20.65240 3955.97730    0.06190    2.57350    0.24860   90.60760  -34.16360    5.51730 3508.67940    5.98290    6.00580   -9999.25   -9999.25
 9491.50000   20.42020 3955.83420    0.06770    2.56030    0.25390   94.59330  -34.14920    5.39670 3507.96020    5.85220    5.76890   -9999.25   -9999.25
 9492.00000   20.42120 3955.64330    0.07790    2.51780    0.26680   98.13780  -34.13490    5.13690 3536.68460    5.67130    5.69330   -9999.25   -9999.25
 9492.50000   20.53880 3955.50000    0.09390    2.50460    0.27850   97.71180  -34.12050    5.02360 3535.84570    5.69870    5.77270   -9999.25   -9999.25
 9493.00000   20.56890 3955.35690    0.10710    2.49580    0.28730   92.87390  -34.10620    4.95750 3535.12520    5.75170    5.77460   -9999.25   -9999.25
 9493.50000   20.56990 3955.21360    0.11730    2.50320    0.28910   88.03610  -34.09180    5.02690 3534.40600    5.83200    5.85520   -9999.25   -9999.25
