~Version ---------------------------------------------------
VERS.   2.0 : CWLS log ASCII Standard -VERSION 2.0
WRAP.    NO : One line per depth step
DLM . SPACE : Column Data Section Delimiter
~Well ------------------------------------------------------
STRT .F                5230.0 : START DEPTH
STOP .F               17655.0 : STOP DEPTH
STEP .F                   0.5 : STEP
NULL .               -9999.25 : NULL VALUE
COMP .                        : COMPANY
WELL .                        : WELL
FLD  .                        : FIELD
LOC  .                        : LOCATION
PROV .                        : PROVINCE
CNTY .                        : COUNTY
STAT .                        : STATE
CTRY .                        : COUNTRY
SRVC .                        : SERVICE COMPANY
DATE .                        : DATE
UWI  .                        : UNIQUE WELL ID
API  .                        : API NUMBER
SLAT .WGS84 5.725093837660701 : SURFACE LATITUDE
SLON .WGS84 4.195983600331999 : SURFACE LONGITUDE
DATUM.F               2055.07 : DEPTH DATUM ELEV
~Curve Information -----------------------------------------
DEPT   .F     : 
CALD   .IN    : CALIPER FROM DENSITY LOG
TEND   .LB    : TENSION FROM DENSITY LOG
DRHO   .G/C3  : BULK DENSITY CORRECTION
RHOB   .G/C3  : BULK DENSITY
NPHI_LS.DEC   : NEUTRON POROSITY LIMESTONE
GRR    .GAPI  : GAMMA RAY FROM RESISTIVITY LOG
SPR    .MV    : SPONTANEOUS POTENTIAL FROM RESISTIVITY LOG
ILM    .OHMM  : INDUCTION MEDIUM RESISTIVITY
TENR   .LB    : TENSION FROM RESISTIVITY LOG
SFLU   .OHMM  : SHALLOW FOCUSED RESISTIVITY (UNAVERAGED)
ILD    .OHMM  : INDUCTION DEEP RESISTIVITY
DTCO   .US/F  : DELTA-T COMPRESSIONAL
DTSM   .US/F  : DELTA-T SHEAR
~Params ----------------------------------------------------
~Other -----------------------------------------------------
~ASCII -----------------------------------------------------
# ...
 11496.00000   13.39470 4492.10600    0.00510    2.62640    0.19740   99.21200  -15.36440   12.91950 4339.18120   16.90500   13.12320   -9999.25   -9999.25
 11496.50000   13.39670 4490.39310    0.00810    2.63530    0.18850  100.54200  -15.35580   13.21840 4339.18120   17.68590   13.06910   -9999.25   -9999.25
 11497.00000   13.39870 4488.68360    0.00970    2.63980    0.18210  100.98960  -15.34720   13.04560 4339.18120   16.76030   12.95510   -9999.25   -9999.25
 11497.50000   13.40070 4486.97410    0.01120    2.63690    0.18260   99.23140  -15.33860   13.23050 4339.18120   15.88210   12.96150   -9999.25   -9999.25
 11498.00000   13.43190 4485.26120    0.00980    2.60910    0.19200   90.85550  -15.33000   13.41540 4339.18120   15.88520   13.14200   -9999.25   -9999.25
 11498.50000   13.42450 4483.55180    0.00990    2.52550    0.20430   80.27370  -15.32140   13.60300 4339.18120   15.88840   13.68990   -9999.25   -9999.25
 11499.00000   13.40670 4481.55710    0.00560    2.50350    0.20960   77.63310  -15.31140   14.17010 4339.18120   16.54860   14.06940   -9999.25   -9999.25
 11499.50000   13.43820 4479.84520    0.00430    2.50070    0.21130   77.64060  -15.30280   14.36820 4339.18120   17.47060   14.65590   -9999.25   -9999.25
 11500.00000   13.44000 4478.41990    0.00150    2.54190    0.19900   77.64710  -15.26410   14.76680 4339.00780   18.44390   15.06210   -9999.25   -9999.25
 11500.50000   13.44040 4479.23730   -0.00140    2.61880    0.19540   79.12360  -15.10610   15.17650 4338.57520   19.47150   15.47960   -9999.25   -9999.25
 11501.00000   13.44080 4479.91850   -0.00270    2.61540    0.20190   82.51510  -14.94810   15.38860 4338.14260   20.55640   15.48470   -9999.25   -9999.25
 11501.50000   13.44130 4480.60010   -0.00410    2.59500    0.21710   89.58030  -14.79010   15.81560 4337.70950   21.41050   15.70040   -9999.25   -9999.25
 11502.00000   13.44170 4481.28170   -0.00400    2.58030    0.23060   95.76230  -14.69390   16.03660 4337.27690   20.56450   15.70560   -9999.25   -9999.25
 11502.50000   13.44210 4481.96290   -0.00250    2.57310    0.23240   97.53350  -14.69100   16.26070 4336.84420   19.48700   15.92440   -9999.25   -9999.25
 11503.00000   13.44260 4482.64450   -0.00090    2.57460    0.21590   89.15770  -14.68810   16.48800 4336.41110   19.49080   16.36580   -9999.25   -9999.25
 11503.50000   13.44300 4483.32620   -0.00090    2.58940    0.20770   79.45830  -14.68520   16.71850 4335.97850   20.30070   16.81940   -9999.25   -9999.25
 11504.00000   13.44340 4484.00730    0.00070    2.60270    0.20590   75.93540  -14.68230   16.95210 4335.54590   24.20160   17.05370   -9999.25   -9999.25
 11504.50000   13.44390 4484.68900    0.00080    2.61300    0.21640   78.14780  -14.67940   16.95880 4335.11280   25.54990   17.05930   -9999.25   -9999.25
 11505.00000   13.44430 4485.37060    0.00090    2.60870    0.23110   83.00720  -14.67650   17.19590 4334.68020   24.87400   17.06500   -9999.25   -9999.25
 11505.50000   13.44470 4486.05180    0.00240    2.58970    0.24220   88.74900  -14.67370   16.74490 4334.24760   22.33110   17.07060   -9999.25   -9999.25
 11506.00000   13.44520 4486.73340    0.00250    2.57950    0.23930   92.28490  -14.67080   14.63820 4333.81450   18.73920   17.07720   -9999.25   -9999.25
 11506.50000   13.44560 4487.41500    0.00210    2.58540    0.22870   94.05610  -14.66790   15.11320 4333.38180   18.49150   16.62670   -9999.25   -9999.25
 11507.00000   13.44600 4488.09620    0.00120    2.59280    0.21750   94.06260  -14.66500   15.74340 4332.94920   18.74980   16.40900   -9999.25   -9999.25
 11507.50000   13.44650 4488.77780    0.00130    2.59730    0.20990   93.62790  -14.66160   15.89380 4332.51660   21.17730   16.41540   -9999.25   -9999.25
 11508.00000   13.44690 4488.61520   -0.00010    2.60320    0.21690   91.43390  -14.65870   15.47700 4332.08350   22.96750   16.64590   -9999.25   -9999.25
 11508.50000   13.44730 4487.47070    0.00150    2.55190    0.25150   87.02320  -14.06760   15.06810 4331.65090   22.66390   17.10720   -9999.25   -9999.25
 11509.00000   13.44770 4486.32810    0.00160    2.52110    0.27500   91.29310  -14.06470   15.28180 4331.21830   22.36210   17.82040   -9999.25   -9999.25
 11509.50000   13.44820 4514.33840    0.00310    2.48450    0.27970   99.83360  -14.06090   16.57620 4330.78520   22.36870   18.31440   -9999.25   -9999.25
 11510.00000   13.44860 4571.50440    0.00760    2.47140    0.28200  109.98710  -14.05800   18.47170 4330.35250   24.92580   18.56950   -9999.25   -9999.25
 11510.50000   13.44900 4599.51660    0.02220    2.52430    0.28490  113.96420  -14.05510   19.24190 4329.91990   25.96150   18.82820   -9999.25   -9999.25
 11511.00000   13.44950 4530.18650    0.02080    2.54350    0.28790  115.29420  -14.05220   19.77580 4329.48680   26.31970   19.35010   -9999.25   -9999.25
 11511.50000   13.44990 4480.42140    0.01800    2.54790    0.29250  110.00660  -14.04930   20.32440 4329.05420   27.04560   20.43080   -9999.25   -9999.25
 11512.00000   13.45030 4450.12400    0.00940    2.53140    0.29960  103.39550  -14.04650   21.75070 4328.62160   27.79160   22.16260   -9999.25   -9999.25
 11512.50000   13.45080 4448.98000    0.00360    2.53930    0.30720  102.95970  -14.04360   23.91330 4328.18850   32.68740   24.04110   -9999.25   -9999.25
 11513.00000   13.45120 4486.67820    0.00080    2.55940    0.31250  105.17320  -14.04070   25.93880 4327.71440   38.44570   26.07880   -9999.25   -9999.25
 11513.50000   13.45160 4592.08350   -0.00050    2.57570    0.30890  111.35610  -14.03780   28.51790 4327.28420   44.01340   28.67390   -9999.25   -9999.25
 11514.00000   13.45210 4620.66700   -0.00050    2.58400    0.30600  112.24500  -14.03490   30.51910 4326.85400   50.38730   31.10430   -9999.25   -9999.25
 11514.50000   13.45250 4648.67920   -0.00040    2.55130    0.30830  113.57500  -14.03200   33.10410 4326.42430   57.68440   33.28810   -9999.25   -9999.25
 11515.00000   13.45290 4617.80810   -0.00170    2.51620    0.31180  116.22850  -14.02910   35.42720 4325.99510   66.93610   35.62530   -9999.25   -9999.25
 11515.50000   13.45340 4558.35690   -0.00310    2.48250    0.31410  118.88210  -14.02630   37.91320 4325.56490   70.66540   38.64490   -9999.25   -9999.25
 11516.00000   13.45380 4528.05760   -0.00300    2.46200    0.31240  120.21210  -14.02340   40.03280 4325.13480   72.61450   40.25600   -9999.25   -9999.25
 11516.50000   13.45430 4497.76070   -0.00290    2.45320    0.30590  120.65980  -14.02050   40.59240 4324.70510   75.29850   41.00350   -9999.25   -9999.25
 11517.00000   13.45650 4467.46390   -0.00280    2.44740    0.29880  120.22510  -14.01760   40.06180 4324.27490   78.42740   40.47100   -9999.25   -9999.25
 11517.50000   13.45860 4466.31880   -0.00420    2.44460    0.29530  118.46690  -14.01470   39.19380 4323.84470   83.17770   39.04940   -9999.25   -9999.25
 11518.00000   13.46080 4465.17630   -0.00270    2.45050    0.29410  122.00280  -14.01180   36.00040 4323.41500   90.20340   37.34560   -9999.25   -9999.25
 11518.50000   13.46290 4464.03420   -0.00260    2.45940    0.31170  132.59750  -14.00890   31.04970 4322.98490   80.98730   32.93380   -9999.25   -9999.25
 11519.00000   13.46500 4462.88920   -0.00100    2.46830    0.31660  155.98850  -14.00610   26.42110 4322.55470   61.00080   28.39680   -9999.25   -9999.25
 11519.50000   13.46720 4461.74660    0.00190    2.47860    0.31830  161.28920  -14.59140   23.72850 4322.05320   44.12240   25.15510   -9999.25   -9999.25
 11520.00000   13.49850 4460.60450    0.00350    2.49190    0.31060  155.11920  -14.58850   20.74320 4321.62300   30.23580   22.28350   -9999.25   -9999.25
 11520.50000   13.52980 4459.45950    0.00650    2.51840    0.30510  141.60760  -14.58510   18.37980 4321.19340   26.06710   20.00810   -9999.25   -9999.25
 11521.00000   13.56110 4458.31690    0.01240    2.54350    0.29340  114.26120  -14.58230   16.28560 4320.76320   25.37740   17.48630   -9999.25   -9999.25
 11521.50000   13.59240 4457.17240    0.02170    2.55530    0.26990  101.17320  -15.36310   14.23670 4320.33300   24.37470   14.87510   -9999.25   -9999.25
