~Version ---------------------------------------------------
VERS.   2.0 : CWLS log ASCII Standard -VERSION 2.0
WRAP.    NO : One line per depth step
DLM . SPACE : Column Data Section Delimiter
~Well ------------------------------------------------------
STRT .F                5230.0 : START DEPTH
STOP .F               17655.0 : STOP DEPTH
STEP .F                   0.5 : STEP
NULL .               -9999.25 : NULL VALUE
COMP .                        : COMPANY
WELL .                        : WELL
FLD  .                        : FIELD
LOC  .                        : LOCATION
PROV .                        : PROVINCE
CNTY .                        : COUNTY
STAT .                        : STATE
CTRY .                        : COUNTRY
SRVC .                        : SERVICE COMPANY
DATE .                        : DATE
UWI  .                        : UNIQUE WELL ID
API  .                        : API NUMBER
SLAT .WGS84 5.725093837660701 : SURFACE LATITUDE
SLON .WGS84 4.195983600331999 : SURFACE LONGITUDE
DATUM.F               2055.07 : DEPTH DATUM ELEV
~Curve Information -----------------------------------------
DEPT   .F     : 
CALD   .IN    : CALIPER FROM DENSITY LOG
TEND   .LB    : TENSION FROM DENSITY LOG
DRHO   .G/C3  : BULK DENSITY CORRECTION
RHOB   .G/C3  : BULK DENSITY
NPHI_LS.DEC   : NEUTRON POROSITY LIMESTONE
GRR    .GAPI  : GAMMA RAY FROM RESISTIVITY LOG
SPR    .MV    : SPONTANEOUS POTENTIAL FROM RESISTIVITY LOG
ILM    .OHMM  : INDUCTION MEDIUM RESISTIVITY
TENR   .LB    : TENSION FROM RESISTIVITY LOG
SFLU   .OHMM  : SHALLOW FOCUSED RESISTIVITY (UNAVERAGED)
ILD    .OHMM  : INDUCTION DEEP RESISTIVITY
DTCO   .US/F  : DELTA-T COMPRESSIONAL
DTSM   .US/F  : DELTA-T SHEAR
~Params ----------------------------------------------------
~Other -----------------------------------------------------
~ASCII -----------------------------------------------------
# ...
 10820.00000   14.01860 4314.67920    0.00740    2.69160    0.22510   78.44060  -22.58940   10.37090 4000.01420   11.70930   10.37170   -9999.25   -9999.25
 10820.50000   14.01920 4313.53520    0.00700    2.69320    0.22330   83.74340  -22.57940   10.37370 3999.58470   11.92500   10.37440   -9999.25   -9999.25
 10821.00000   14.01970 4312.39360    0.00470    2.69180    0.22320   86.84030  -22.57070   10.37640 4028.39530   12.09000   10.37710   -9999.25   -9999.25
 10821.50000   14.02030 4311.25200    0.00320    2.68300    0.22380   84.05960  -22.55920   10.37920 4027.96580   12.25740   10.37990   -9999.25   -9999.25
 10822.00000   14.02080 4310.10840    0.00180    2.67720    0.22380   79.94820  -22.55060   10.38190 4027.46530   12.71060   10.38260   -9999.25   -9999.25
 10822.50000   14.02130 4308.96680    0.00040    2.67190    0.22240   78.92510  -22.54200   10.43190 4027.03590   12.54370   10.38530   -9999.25   -9999.25
 10823.00000   14.02190 4336.97950    0.00050    2.67000    0.21980   79.96410  -22.53340   10.52890 4026.60740   12.21310   10.38810   -9999.25   -9999.25
 10823.50000   14.02240 4335.83590    0.00060    2.67060    0.21900   81.15260  -22.52480   10.57920 4026.17820   11.89130   10.39080   -9999.25   -9999.25
 10824.00000   14.02290 4334.69430    0.00060    2.67360    0.22740   84.24950  -22.51610   10.53400 4025.60550   11.73360   10.39360   -9999.25   -9999.25
 10824.50000   14.02350 4304.39600    0.00070    2.67860    0.23450   89.11120  -22.50750   10.53720 4025.17600   11.58050   10.39630   -9999.25   -9999.25
 10825.00000   14.02400 4332.40870    0.00070    2.68500    0.23830   87.35510  -22.49890   10.54090 4024.74680   11.58400   10.39910   -9999.25   -9999.25
 10825.50000   14.02450 4331.26710   -0.00070    2.68650    0.23120   80.30500  -22.49030   10.40110 4024.31740   11.74440   10.40180   -9999.25   -9999.25
 10826.00000   14.02510 4330.12350   -0.00060    2.67900    0.22590   76.34300  -23.06990   10.40520 4023.88820   11.74750   10.40450   -9999.25   -9999.25
 10826.50000   14.02560 4328.79250   -0.00060    2.67030    0.22180   75.02380  -23.06130   10.26860 4023.45870   11.75060   10.40730   -9999.25   -9999.25
 10827.00000   14.02620 4317.96340   -0.00050    2.66280    0.22240   76.80150  -23.05270    9.99800 4023.02950   11.75370   10.41000   -9999.25   -9999.25
 10827.50000   14.02670 4297.35300   -0.00040    2.66440    0.22350   77.69250  -23.04410    9.86670 4022.60010   11.59940   10.27330   -9999.25   -9999.25
 10828.00000   14.02720 4286.52440   -0.00040    2.67030    0.22530   78.58360  -23.03550    9.86930 4022.17090   11.60240   10.00260   -9999.25   -9999.25
 10828.50000   14.02780 4265.91260    0.00110    2.67670    0.22880   77.70990  -23.02680    9.87190 4021.74150   11.29670    9.87120   -9999.25   -9999.25
 10829.00000   14.02830 4264.38960    0.00270    2.68710    0.23400   74.63030  -23.01820    9.87450 4021.31230   10.99900    9.87420   -9999.25   -9999.25
 10829.50000   14.02880 4263.24850    0.00420    2.69740    0.23930   73.31540  -23.00960    9.87710 4020.88280   11.00190    9.87680   -9999.25   -9999.25
 10830.00000   14.02940 4262.10450    0.00710    2.70490    0.24810   74.64760  -22.99960    9.87970 4020.45360   10.85740    9.87940   -9999.25   -9999.25
 10830.50000   14.03080 4290.68850    0.00870    2.69470    0.25040   78.62690  -22.99100    9.88230 4020.02420   10.86030    9.88290   -9999.25   -9999.25
 10831.00000   14.03310 4288.97410    0.00680    2.68000    0.24800   81.72380  -22.98240    9.75250 4019.59500   10.71760    9.88550   -9999.25   -9999.25
 10831.50000   14.03480 4316.98680    0.00390    2.67130    0.24210   81.29130  -22.97370    9.75510 4019.16550   10.86600    9.75570   -9999.25   -9999.25
 10832.00000   14.03650 4315.84520    0.00150    2.66990    0.23740   79.97640  -22.96220    9.62700 4018.73630   10.86940    9.49860   -9999.25   -9999.25
 10832.50000   14.06730 4314.70120    0.00310    2.68170    0.23330   80.42630  -22.95360    9.37330 4018.30690   10.87230    9.37260   -9999.25   -9999.25
 10833.00000   14.06900 4342.71440    0.00610    2.68910    0.23380   82.19960  -22.94500    9.25020 4017.87740   10.72900    9.37630   -9999.25   -9999.25
 10833.50000   14.07070 4341.57320    0.00760    2.69660    0.23850   83.53180  -22.93640    9.00640 4017.37700   10.54140    9.25280   -9999.25   -9999.25
 10834.00000   14.07240 4311.27440    0.00760    2.70100    0.24200   83.98170  -22.92780    8.88810 4016.94750   10.40300    9.25560   -9999.25   -9999.25
 10834.50000   14.10320 4310.13280    0.00620    2.70400    0.24100   81.78440  -22.91920    8.85130 4016.51830   10.03870    9.01170   -9999.25   -9999.25
 10835.00000   14.10490 4308.98930    0.00630    2.69530    0.23820   83.40840  -22.91050    8.77370 4016.08890    9.90690    8.89330   -9999.25   -9999.25
 10835.50000   14.10670 4307.84770    0.00490    2.68360    0.23960   90.62250  -22.90190    8.89560 4015.51710    9.77670    8.89570   -9999.25   -9999.25
 10836.00000   14.10840 4306.70610    0.00350    2.67050    0.24740   96.66390  -22.89330    8.89790 4015.08790    9.77930    8.89800   -9999.25   -9999.25
 10836.50000   14.11010 4276.40770    0.00060    2.65730    0.25270   94.32590  -22.88470    8.90030 4014.65840    9.78190    8.90040   -9999.25   -9999.25
 10837.00000   14.11180 4275.26660   -0.00080    2.65450    0.24830   89.32780  -23.46430    8.90340 4014.22900    9.91730    8.90270   -9999.25   -9999.25
 10837.50000   14.14260 4274.12500   -0.00360    2.65900    0.23950   89.34080  -23.45570    8.90570 4013.79980    9.92000    8.90510   -9999.25   -9999.25
 10838.00000   14.14430 4243.82620   -0.00500    2.66050    0.22950   91.11410  -23.44710    8.90810 4013.37040   10.05730    8.90740   -9999.25   -9999.25
 10838.50000   14.11690 4242.49510   -0.00790    2.65910    0.22420   85.38750  -23.43850    9.15400 4012.94120   10.33500    9.03070   -9999.25   -9999.25
 10839.00000   14.14770 4251.03810   -0.01220    2.66310    0.22300   80.54320  -23.42990    9.40680 4012.51170   10.76450    9.40600   -9999.25   -9999.25
 10839.50000   14.14940 4269.55420   -0.01360    2.66760    0.22410   80.55190  -23.42120    9.53700 4012.08250   11.06170    9.49440   -9999.25   -9999.25
 10840.00000   14.12210 4297.56690   -0.01060    2.67250    0.22940   80.11940  -22.82440    9.93340 4011.65310   11.36710    9.84420   -9999.25   -9999.25
 10840.50000   14.12380 4325.57810   -0.00910    2.67460    0.23050   77.03980  -22.81440    9.93600 4011.22390   11.68090   10.07050   -9999.25   -9999.25
 10841.00000   14.12550 4353.59080   -0.00620    2.67560    0.22580   76.60590  -22.80580    9.93860 4010.79440   11.68400   10.20990   -9999.25   -9999.25
 10841.50000   14.12720 4381.03080   -0.00460    2.67570    0.21930   80.58660  -22.79710    9.94120 4010.36520   11.53060   10.07670   -9999.25   -9999.25
 10842.00000   14.09990 4379.88920   -0.00460    2.67580    0.21810   85.88930  -23.37820    9.81070 4009.93580   11.07630    9.94310   -9999.25   -9999.25
 10842.50000   14.10160 4408.47270   -0.00260    2.67590    0.21810   86.78030  -23.36520    9.42420 4009.50660   10.78440    9.81380   -9999.25   -9999.25
 10843.00000   14.10330 4406.75830   -0.00160    2.67590    0.22980   86.34780  -23.35660    9.30040 4009.07710   10.35960    9.55510   -9999.25   -9999.25
 10843.50000   14.10530 4434.96090   -0.00200    2.67450    0.23450   85.91530  -22.75980    9.17830 4008.64790   10.08660    9.42840   -9999.25   -9999.25
 10844.00000   14.10700 4462.78420   -0.00290    2.67460    0.23510   87.68870  -22.75120    9.18070 4008.21850   10.36510    9.43210   -9999.25   -9999.25
 10844.50000   14.10880 4461.64060   -0.00090    2.67470    0.23560   93.43270  -22.74260    9.18310 4007.78930   10.69970    9.30780   -9999.25   -9999.25
 10845.00000   14.08110 4460.49900    0.00160    2.67480    0.23620   94.76480  -22.73390    9.18550 4007.28860   10.79870    9.18560   -9999.25   -9999.25
 10845.50000   14.08310 4430.20070    0.00610    2.67630    0.23740   96.53820  -22.72530    9.18800 4006.85910   10.51410    9.06490   -9999.25   -9999.25
