~Version ---------------------------------------------------
VERS.   2.0 : CWLS log ASCII Standard -VERSION 2.0
WRAP.    NO : One line per depth step
DLM . SPACE : Column Data Section Delimiter
~Well ------------------------------------------------------
STRT .F                5230.0 : START DEPTH
STOP .F               17655.0 : STOP DEPTH
STEP .F                   0.5 : STEP
NULL .               -9999.25 : NULL VALUE
COMP .                        : COMPANY
WELL .                        : WELL
FLD  .                        : FIELD
LOC  .                        : LOCATION
PROV .                        : PROVINCE
CNTY .                        : COUNTY
STAT .                        : STATE
CTRY .                        : COUNTRY
SRVC .                        : SERVICE COMPANY
DATE .                        : DATE
UWI  .                        : UNIQUE WELL ID
API  .                        : API NUMBER
SLAT .WGS84 5.725093837660701 : SURFACE LATITUDE
SLON .WGS84 4.195983600331999 : SURFACE LONGITUDE
DATUM.F               2055.07 : DEPTH DATUM ELEV
~Curve Information -----------------------------------------
DEPT   .F     : 
CALD   .IN    : CALIPER FROM DENSITY LOG
TEND   .LB    : TENSION FROM DENSITY LOG
DRHO   .G/C3  : BULK DENSITY CORRECTION
RHOB   .G/C3  : BULK DENSITY
NPHI_LS.DEC   : NEUTRON POROSITY LIMESTONE
GRR    .GAPI  : GAMMA RAY FROM RESISTIVITY LOG
SPR    .MV    : SPONTANEOUS POTENTIAL FROM RESISTIVITY LOG
ILM    .OHMM  : INDUCTION MEDIUM RESISTIVITY
TENR   .LB    : TENSION FROM RESISTIVITY LOG
SFLU   .OHMM  : SHALLOW FOCUSED RESISTIVITY (UNAVERAGED)
ILD    .OHMM  : INDUCTION DEEP RESISTIVITY
DTCO   .US/F  : DELTA-T COMPRESSIONAL
DTSM   .US/F  : DELTA-T SHEAR
~Params ----------------------------------------------------
~Other -----------------------------------------------------
~ASCII -----------------------------------------------------
# ...
 10144.00000   20.01420 4113.51120    0.15600    2.42680    0.27470   91.76470  -30.70960    7.04730 3867.47170    7.58430    7.47770   -9999.25   -9999.25
 10144.50000   19.62660 4112.51860    0.15460    2.47820    0.29640   95.29410  -30.70670    7.04920 3867.04150    8.11680    7.71980   -9999.25   -9999.25
 10145.00000   19.86250 4111.52780    0.14450    2.49290    0.30230   98.82350  -30.70390    6.86310 3866.61210    8.57020    7.89790   -9999.25   -9999.25
 10145.50000   20.15690 4110.53710    0.13580    2.45530    0.30220  101.02940  -30.70100    6.86490 3866.11060    8.92750    7.90000   -9999.25   -9999.25
 10146.00000   20.15890 4109.54440    0.13000    2.44310    0.26990  101.47060  -30.11160    6.86670 3865.68090    9.05180    7.79560   -9999.25   -9999.25
 10146.50000   19.89780 4108.55370    0.14760    2.51460    0.25870  100.58820  -30.10880    6.96190 3865.25100    8.69770    7.65890   -9999.25   -9999.25
 10147.00000   19.69510 4107.56350    0.20010    2.54600    0.25640  101.02940  -30.10540    6.96380 3864.82130    8.02340    7.29070   -9999.25   -9999.25
 10147.50000   19.91160 4106.57080    0.22640    2.55780    0.28160   98.38240  -30.10250    6.96560 3864.24830    7.70520    7.09800   -9999.25   -9999.25
 10148.00000   20.48890 4134.56590    0.23660    2.52550    0.29980   89.11760  -30.09970    6.33900 3863.81790    7.70820    7.19650   -9999.25   -9999.25
 10148.50000   20.72480 4162.56050    0.22940    2.35960    0.32680   87.35290  -30.09680    5.84710 3863.38840    7.60690    7.29650   -9999.25   -9999.25
 10149.00000   20.66830 4219.53910    0.19890    2.30090    0.29920   87.79410  -30.09300    5.84890 3862.95830    7.50860    7.49850   -9999.25   -9999.25
 10149.50000   19.98840 4247.53370    0.16730    2.35830    0.27090   92.20590  -30.09010    6.23380 3862.52880    7.31090    7.70610   -9999.25   -9999.25
 10150.00000   19.21100 4275.52690    0.14700    2.40240    0.24450   97.50000  -30.08730    7.00850 3862.09860    7.41280    7.91950   -9999.25   -9999.25
 10150.50000   18.94990 4274.37160    0.13390    2.44500    0.23740   98.38240  -30.08440    7.66980 3891.06520    8.15040    8.13880   -9999.25   -9999.25
 10151.00000   18.86320 4273.04830    0.14370    2.47000    0.23560   98.38240  -30.08150    8.20730 3861.23880    8.84130    8.25180   -9999.25   -9999.25
 10151.50000   19.01240 4243.07230    0.15250    2.49650    0.24970   97.94120  -30.07870    8.32000 3860.80860    9.72110    8.25400   -9999.25   -9999.25
 10152.00000   19.18980 4184.11040    0.15550    2.50820    0.26730   97.05880  -30.07580    7.57250 3860.37920   10.40360    8.48260   -9999.25   -9999.25
 10152.50000   19.48420 4096.16110    0.14100    2.47110    0.27900   95.29560  -30.07290    7.17620 3859.94900    9.85980    8.71750   -9999.25   -9999.25
 10153.00000   19.83710 4066.18530    0.11190    2.44720    0.27730   92.64850  -30.07010    7.17810 3859.51950    8.97330    8.83850   -9999.25   -9999.25
 10153.50000   19.75140 4065.19460    0.10320    2.43350    0.26200   87.79840  -30.06720    7.27760 3859.08910    8.73660    8.60490   -9999.25   -9999.25
 10154.00000   19.40250 4093.18730    0.09600    2.43940    0.25080   84.70590  -30.06430    7.78800 3858.65990    8.62280    8.15400   -9999.25   -9999.25
 10154.50000   19.11210 4092.19680    0.08730    2.37780    0.26840   87.79410  -30.06140    8.33430 3858.22950    8.62560    7.83180   -9999.25   -9999.25
 10155.00000   18.96790 4091.20610    0.08730    2.30150    0.32360   90.44120  -30.05860    7.79210 3857.80000    8.62850    7.72870   -9999.25   -9999.25
 10155.50000   18.88220 4090.21340    0.09030    2.26770    0.33590   95.73530  -30.05570    7.09110 3857.36990    8.63130    7.62690   -9999.25   -9999.25
 10156.00000   18.88420 4118.20850    0.12680    2.35440    0.31300  101.91180  -30.05280    6.54090 3886.26590    8.51830    7.52640   -9999.25   -9999.25
 10156.50000   19.03240 4117.21630    0.16230    2.43960    0.26830  106.32350  -30.05000    6.54270 3885.76440    7.96480    7.63090   -9999.25   -9999.25
 10157.00000   19.32680 4116.22560    0.17060    2.47350    0.24420  111.17650  -30.04710    7.09680 3885.33470    7.65110    7.87800   -9999.25   -9999.25
 10157.50000   19.73810 4115.23490    0.14590    2.46470    0.24300  111.76420  -30.04420    7.29300 3884.90480    7.86310    8.09620   -9999.25   -9999.25
 10158.00000   19.53610 4114.24220    0.12560    2.39130    0.25410  105.44120  -30.04090    7.00530 3884.33130    8.30230    8.28290   -9999.25   -9999.25
 10158.50000   19.06050 4113.25150    0.14310    2.44270    0.26530   97.50000  -30.03800    6.91310 3883.90190    8.30550    8.28510   -9999.25   -9999.25
 10159.00000   18.55560 4112.26070    0.15490    2.51620    0.26700   94.41180  -30.03510    6.91490 3883.47170    8.16030    8.25030   -9999.25   -9999.25
 10159.50000   18.22570 4111.10400    0.16070    2.54710    0.26170   93.52940  -29.83740    7.13850 3883.04220    8.05350    8.06900   -9999.25   -9999.25
 10160.00000   18.25790 4110.11330    0.15930    2.59850    0.25110   94.85290  -29.44200    7.46950 3882.61210    7.87620    7.96270   -9999.25   -9999.25
 10160.50000   18.28920 4109.12060    0.15070    2.62500    0.22530  100.58820  -29.43910    7.88620 3882.18160    8.02240    7.96480   -9999.25   -9999.25
 10161.00000   18.32040 4108.12990    0.11860    2.64410    0.22980  104.11760  -29.43620    8.17720 3881.75220    8.43330    8.07540   -9999.25   -9999.25
 10161.50000   18.35160 4106.80660    0.09390    2.66330    0.23230  105.88240  -29.43330    8.25400 3881.32200    8.90440    8.18750   -9999.25   -9999.25
 10162.00000   18.44140 4134.80130    0.06770    2.66040    0.22890  108.97060  -29.43050    7.92840 3880.89260    9.52950    8.30120   -9999.25   -9999.25
 10162.50000   18.56030 4133.81050    0.06050    2.64570    0.22640  110.88190  -29.42760    7.82310 3880.46240   10.06180    8.30340   -9999.25   -9999.25
 10163.00000   18.79620 4132.81790    0.06350    2.64580    0.23420  111.17650  -29.42470    7.61760 3880.03300   10.34070    8.53340   -9999.25   -9999.25
 10163.50000   19.06140 4131.82760    0.07370    2.64730    0.24630  111.17650  -29.42190    7.61960 3879.60280   10.20540    8.53520   -9999.25   -9999.25
 10164.00000   19.00490 4130.83690    0.08110    2.64730    0.25330  108.97060  -29.41900    7.51910 3879.17330    9.67190    8.53750   -9999.25   -9999.25
 10164.50000   18.80220 4129.84420    0.09130    2.64000    0.25860  105.44120  -29.41610    7.52140 3849.41750    9.16630    8.31190   -9999.25   -9999.25
 10165.00000   18.80420 4128.85350    0.10160    2.62830    0.26500  101.91180  -29.41330    7.42240 3848.98800    8.92450    8.09220   -9999.25   -9999.25
 10165.50000   19.01090 4127.86280    0.11040    2.62100    0.26560   99.26470  -29.41040    7.12960 3848.55790    8.80820    7.95030   -9999.25   -9999.25
 10166.00000   19.07140 4126.87010    0.11780    2.59860    0.25210   97.94120  -29.40750    6.94150 3848.12840    8.93090    7.88040   -9999.25   -9999.25
 10166.50000   18.98570 4125.87990    0.10860    2.56780    0.23440   97.79460  -29.40470    7.32870 3877.02370    9.05530    7.91850   -9999.25   -9999.25
 10167.00000   18.87070 4124.88720    0.10180    2.57560    0.21680  102.35290  -29.40180    7.94930 3876.52270    9.05830    8.02850   -9999.25   -9999.25
 10167.50000   18.63880 4123.89650    0.10820    2.62420    0.21320  107.64710  -29.39890    8.05950 3876.09280    9.06130    8.21440   -9999.25   -9999.25
 10168.00000   18.72850 4122.90580    0.10920    2.64180    0.21030  109.85290  -29.39610    8.06170 3875.66310    9.31250    8.32840   -9999.25   -9999.25
 10168.50000   18.84750 4121.91310    0.09470    2.63750    0.23840  108.08820  -29.39320    8.06380 3875.09010    9.83260    8.44410   -9999.25   -9999.25
 10169.00000   18.67460 4120.92290    0.07150    2.63160    0.24840  103.67650  -29.38980    8.17560 3874.65970   10.38180    8.67790   -9999.25   -9999.25
 10169.50000   18.42300 4119.93210    0.05840    2.64640    0.24130  101.47060  -29.38700    8.40160 3874.23020   10.10850    8.91820   -9999.25   -9999.25
