~Version ---------------------------------------------------
VERS.   2.0 : CWLS log ASCII Standard -VERSION 2.0
WRAP.    NO : One line per depth step
DLM . SPACE : Column Data Section Delimiter
~Well ------------------------------------------------------
STRT .F                5230.0 : START DEPTH
STOP .F               17655.0 : STOP DEPTH
STEP .F                   0.5 : STEP
NULL .               -9999.25 : NULL VALUE
COMP .                        : COMPANY
WELL .                        : WELL
FLD  .                        : FIELD
LOC  .                        : LOCATION
PROV .                        : PROVINCE
CNTY .                        : COUNTY
STAT .                        : STATE
CTRY .                        : COUNTRY
SRVC .                        : SERVICE COMPANY
DATE .                        : DATE
UWI  .                        : UNIQUE WELL ID
API  .                        : API NUMBER
SLAT .WGS84 5.725093837660701 : SURFACE LATITUDE
SLON .WGS84 4.195983600331999 : SURFACE LONGITUDE
DATUM.F               2055.07 : DEPTH DATUM ELEV
~Curve Information -----------------------------------------
DEPT   .F     : 
CALD   .IN    : CALIPER FROM DENSITY LOG
TEND   .LB    : TENSION FROM DENSITY LOG
DRHO   .G/C3  : BULK DENSITY CORRECTION
RHOB   .G/C3  : BULK DENSITY
NPHI_LS.DEC   : NEUTRON POROSITY LIMESTONE
GRR    .GAPI  : GAMMA RAY FROM RESISTIVITY LOG
SPR    .MV    : SPONTANEOUS POTENTIAL FROM RESISTIVITY LOG
ILM    .OHMM  : INDUCTION MEDIUM RESISTIVITY
TENR   .LB    : TENSION FROM RESISTIVITY LOG
SFLU   .OHMM  : SHALLOW FOCUSED RESISTIVITY (UNAVERAGED)
ILD    .OHMM  : INDUCTION DEEP RESISTIVITY
DTCO   .US/F  : DELTA-T COMPRESSIONAL
DTSM   .US/F  : DELTA-T SHEAR
~Params ----------------------------------------------------
~Other -----------------------------------------------------
~ASCII -----------------------------------------------------
# ...
 13498.00000   12.47350 5063.52390    0.00200    2.66220    0.17790  108.47740    1.73170   17.70660 5068.21290   23.02390   19.19530   -9999.25   -9999.25
 13498.50000   12.44550 5062.95020    0.00210    2.65880    0.18080  108.04920    1.74030   17.70770 5068.06450   23.02850   18.94040   -9999.25   -9999.25
 13499.00000   12.44670 5062.37500    0.00210    2.65440    0.18020  108.06220    1.74890   17.70890 5067.91600   22.72450   18.60580   -9999.25   -9999.25
 13499.50000   12.44780 5061.79980    0.00220    2.65150    0.17490  109.39880    1.75750   17.71010 5067.76760   22.42460   18.44050   -9999.25   -9999.25
 13500.00000   12.44900 5061.22460    0.00210    2.64760    0.17080  106.50840    1.76750   17.71120 5067.61910   22.12840   18.45730   -9999.25   -9999.25
 13500.50000   12.45000 5060.92870    0.00190    2.65420    0.17840   97.06960    1.78170   17.71240 5067.56010   22.13370   18.52950   -9999.25   -9999.25
 13501.00000   12.45100 5060.63280    0.00160    2.65940    0.18420   94.43330    1.79590   17.24120 5067.56050   22.13810   18.60160   -9999.25   -9999.25
 13501.50000   12.45210 5060.33690    0.00140    2.66970    0.18660   93.56170    1.81010   17.24290 5067.56150   22.14240   18.67380   -9999.25   -9999.25
 13502.00000   12.45310 5059.98190    0.00110    2.67560    0.18710   94.45480    1.82420   17.01210 5067.56200   22.14680   18.70400   -9999.25   -9999.25
 13502.50000   12.45410 5147.15820    0.00090    2.68150    0.18870   97.70070    1.83840   16.78500 5067.56300   22.15120   18.70680   -9999.25   -9999.25
 13503.00000   12.45510 5176.16990    0.00100    2.68050    0.19000  100.79970    1.85260   16.56150 5067.56350   22.15550   18.70930   -9999.25   -9999.25
 13503.50000   12.42700 5234.04830    0.00100    2.67470    0.18590  103.16430    1.86680   16.56260 5067.56450   21.86310   18.71180   -9999.25   -9999.25
 13504.00000   12.45710 5263.05960   -0.00040    2.66930    0.18470  104.64480    1.88210   16.34130 5067.56490   21.86740   18.46280   -9999.25   -9999.25
 13504.50000   12.45810 5233.47460   -0.00180    2.66840    0.18760  101.57270    2.48950   16.34260 5067.56590   21.57880   18.21880   -9999.25   -9999.25
 13505.00000   12.45920 5233.18800   -0.00320    2.67040    0.19750  100.25990    2.50380   16.34370 5067.56640   21.29390   17.97560   -9999.25   -9999.25
 13505.50000   12.46020 5378.67430   -0.00320    2.67340    0.20220   98.94180    2.51820   16.34470 5067.56740   20.92000   17.50000   -9999.25   -9999.25
 13506.00000   12.46120 5757.39650   -0.00160    2.67580    0.20340   98.51500    2.53260   16.34580 5067.56790   20.45770   17.26750   -9999.25   -9999.25
 13506.50000   12.46220 6136.11870   -0.00160    2.67880    0.20270   99.85100    2.54690   16.12760 5067.56840   20.09850   16.58410   -9999.25   -9999.25
 13507.00000   12.46340 6194.14010   -0.00300    2.68030    0.19920  102.50880    2.56130   15.91230 5067.56930   19.56760   16.36380   -9999.25   -9999.25
 13507.50000   12.46440 6193.85350   -0.00300    2.67300    0.19860  103.84310    2.57570   15.69990 5067.56980   18.88070   16.14610   -9999.25   -9999.25
 13508.00000   12.46540 6164.41210   -0.00150    2.66860    0.20150  103.85390    2.59000   15.49030 5067.57080   18.38190   15.71820   -9999.25   -9999.25
 13508.50000   12.46640 6105.81640    0.00000    2.66570    0.20790  102.98230    2.60440   15.28350 5067.57130   17.65660   15.50940   -9999.25   -9999.25
 13509.00000   12.46740 6076.37500    0.00150    2.66870    0.20970  102.55190    2.61880   14.81110 5067.57230   17.19020   15.30340   -9999.25   -9999.25
 13509.50000   12.46870 6046.93410    0.00160    2.67160    0.20850  102.12140    2.04490   14.22400 5067.57280   16.96270   15.10010   -9999.25   -9999.25
 13510.00000   12.46970 6017.49320    0.00020    2.67310    0.20020  102.57330    2.05930   13.90770 5067.57370   16.73880   14.89950   -9999.25   -9999.25
 13510.50000   12.47070 5958.89700    0.00020    2.66880    0.19550  104.79000    2.07370   14.09780 5067.57420   16.96990   14.90150   -9999.25   -9999.25
 13511.00000   12.47170 5900.30130    0.00020    2.66580    0.20040  107.88900    2.08800   14.68200 5067.57520   17.91400   14.70360   -9999.25   -9999.25
 13511.50000   12.47270 5841.70510   -0.00120    2.66590    0.20270  110.10560    2.10240   14.88260 5067.57570   18.65720   14.50820   -9999.25   -9999.25
 13512.00000   12.44450 5812.26420   -0.00260    2.67030    0.20010  111.14710    2.11680   14.68400 5067.57670   18.91430   14.31550   -9999.25   -9999.25
 13512.50000   12.44550 5753.66850   -0.00250    2.66590    0.18600  111.89360    2.13110   14.29360 5067.57710   18.41460   14.12530   -9999.25   -9999.25
 13513.00000   12.41710 5695.07280   -0.00250    2.66160    0.17420  111.75780    2.14790   14.68590 5067.57810   16.75920   14.77810   -9999.25   -9999.25
 13513.50000   12.38900 5626.74220   -0.00390    2.65570    0.15420  106.18340    1.96680   15.71280 5067.57860   15.45960   15.53240   -9999.25   -9999.25
 13514.00000   12.36100 5597.30130   -0.00240    2.65130    0.14300   96.14730    1.58600   17.04020 5067.57910   15.05120   16.76850   -9999.25   -9999.25
 13514.50000   12.36200 5567.85940   -0.00240    2.64990    0.14180   76.64610    1.60280   18.23170 5067.58010   19.98220   17.70160   -9999.25   -9999.25
 13515.00000   12.33390 5509.26420   -0.00090    2.65140    0.14710   72.68620    1.62200   19.24500 5067.58060   29.15500   19.02590   -9999.25   -9999.25
 13515.50000   12.30570 5479.82280   -0.00080    2.65290    0.15410   71.80930    1.63630   20.16990 5067.58150   37.37420   20.35770   -9999.25   -9999.25
 13516.00000   12.27760 5401.66310   -0.00080    2.65290    0.15880   77.56070    1.65070   21.09470 5067.58200   43.13180   21.78270   -9999.25   -9999.25
 13516.50000   12.27860 5313.91260    0.00070    2.65150    0.16340   83.74790    1.66510   22.01960 5067.58300   39.52660   22.99480   -9999.25   -9999.25
 13517.00000   12.27960 5255.31690    0.00080    2.63830    0.16810   87.28810    1.67940   22.94440 5067.58350   28.33540   23.94870   -9999.25   -9999.25
 13517.50000   12.28060 5167.56740    0.00230    2.63390    0.17100   90.38710    1.69380   23.25790 5067.58450   23.52230   24.27750   -9999.25   -9999.25
 13518.00000   12.28160 5138.12550    0.00380    2.64230    0.17220   90.83900    1.70820   22.94750 5067.58500   23.20950   23.95500   -9999.25   -9999.25
 13518.50000   12.31170 5137.83890    0.00580    2.65510    0.16280   90.84970    1.72260   22.64110 5067.58590   29.59450   23.00690   -9999.25   -9999.25
 13519.00000   12.31270 5137.55180    0.00730    2.66040    0.14510   90.86050    2.32520   21.84430 5067.58640   34.33360   21.80000   -9999.25   -9999.25
 13519.50000   12.34310 5224.72850    0.00830    2.66050    0.12800   91.75360    2.33950   21.07150 5067.58740   37.23440   20.65630   -9999.25   -9999.25
 13520.00000   12.34410 5311.90530    0.00980    2.65610    0.10690   95.73490    1.76570   20.23610 5067.58790   37.91630   20.38190   -9999.25   -9999.25
 13520.50000   12.34510 5369.92820    0.00930    2.64290    0.10270   99.27510    1.78000   19.43400 5067.58840   24.85540   20.11120   -9999.25   -9999.25
 13521.00000   12.34610 5340.48680    0.00550    2.63850    0.11970  100.16820    1.79440   18.49610 5067.58940   20.58330   20.11380   -9999.25   -9999.25
 13521.50000   12.34710 5311.04540    0.00260    2.64880    0.15080  102.97290    1.80880   18.24850 5067.58980   20.03950   20.11650   -9999.25   -9999.25
 13522.00000   12.31870 5281.60400   -0.00170    2.65030    0.16980  105.92530    1.82320   18.00490 5067.59080   21.15430   19.84920   -9999.25   -9999.25
 13522.50000   12.32020 5252.16260   -0.00310    2.64300    0.17290  107.25930    1.83750   18.25160 5067.59130   22.94160   20.12180   -9999.25   -9999.25
 13523.00000   12.32120 5193.56690   -0.00160    2.63420    0.17390  102.42170    1.26360   18.75250 5067.59230   24.21780   20.12440   -9999.25   -9999.25
 13523.50000   12.32220 5164.12550    0.00130    2.63870    0.17420   96.25670    0.68980   19.52910 5067.59280   26.26400   20.12710   -9999.25   -9999.25
