~Version ---------------------------------------------------
VERS.   2.0 : CWLS log ASCII Standard -VERSION 2.0
WRAP.    NO : One line per depth step
DLM . SPACE : Column Data Section Delimiter
~Well ------------------------------------------------------
STRT .F                5230.0 : START DEPTH
STOP .F               17655.0 : STOP DEPTH
STEP .F                   0.5 : STEP
NULL .               -9999.25 : NULL VALUE
COMP .                        : COMPANY
WELL .                        : WELL
FLD  .                        : FIELD
LOC  .                        : LOCATION
PROV .                        : PROVINCE
CNTY .                        : COUNTY
STAT .                        : STATE
CTRY .                        : COUNTRY
SRVC .                        : SERVICE COMPANY
DATE .                        : DATE
UWI  .                        : UNIQUE WELL ID
API  .                        : API NUMBER
SLAT .WGS84 5.725093837660701 : SURFACE LATITUDE
SLON .WGS84 4.195983600331999 : SURFACE LONGITUDE
DATUM.F               2055.07 : DEPTH DATUM ELEV
~Curve Information -----------------------------------------
DEPT   .F     : 
CALD   .IN    : CALIPER FROM DENSITY LOG
TEND   .LB    : TENSION FROM DENSITY LOG
DRHO   .G/C3  : BULK DENSITY CORRECTION
RHOB   .G/C3  : BULK DENSITY
NPHI_LS.DEC   : NEUTRON POROSITY LIMESTONE
GRR    .GAPI  : GAMMA RAY FROM RESISTIVITY LOG
SPR    .MV    : SPONTANEOUS POTENTIAL FROM RESISTIVITY LOG
ILM    .OHMM  : INDUCTION MEDIUM RESISTIVITY
TENR   .LB    : TENSION FROM RESISTIVITY LOG
SFLU   .OHMM  : SHALLOW FOCUSED RESISTIVITY (UNAVERAGED)
ILD    .OHMM  : INDUCTION DEEP RESISTIVITY
DTCO   .US/F  : DELTA-T COMPRESSIONAL
DTSM   .US/F  : DELTA-T SHEAR
~Params ----------------------------------------------------
~Other -----------------------------------------------------
~ASCII -----------------------------------------------------
# ...
 7466.00000   -9999.25   -9999.25   -9999.25   -9999.25   -9999.25   60.43260  -52.39770   10.54730 3016.26050   11.49640   10.98720   -9999.25   -9999.25
 7466.50000   -9999.25   -9999.25   -9999.25   -9999.25   -9999.25   50.29200  -54.73680   10.01940 3016.40940   12.63620   10.41100   -9999.25   -9999.25
 7467.00000   -9999.25   -9999.25   -9999.25   -9999.25   -9999.25   39.71020  -57.07600    9.49590 3016.55830   13.82780    9.60300   -9999.25   -9999.25
 7467.50000   -9999.25   -9999.25   -9999.25   -9999.25   -9999.25   37.95190  -58.24560    8.72350 3016.70750   14.26930    8.72060   -9999.25   -9999.25
 7468.00000   -9999.25   -9999.25   -9999.25   -9999.25   -9999.25   42.81130  -58.83040    7.38790 3016.85640   13.00320    8.07800   -9999.25   -9999.25
 7468.50000   -9999.25   -9999.25   -9999.25   -9999.25   -9999.25   50.31780  -59.41520    6.72470 3017.00540    9.58190    7.82760   -9999.25   -9999.25
 7469.00000   -9999.25   -9999.25   -9999.25   -9999.25   -9999.25   52.09010  -59.41520    6.45970 3017.15450    7.98440    7.79240   -9999.25   -9999.25
 7469.50000   -9999.25   -9999.25   -9999.25   -9999.25   -9999.25   52.83180  -58.44050    6.72730 3017.30350    7.87660    7.89810   -9999.25   -9999.25
 7470.00000   -9999.25   -9999.25   -9999.25   -9999.25   -9999.25   54.16180  -56.10130    7.19730 3017.45240    8.03800    8.11370   -9999.25   -9999.25
 7470.50000   -9999.25   -9999.25   -9999.25   -9999.25   -9999.25   56.52120  -54.15200    7.59710 3017.60160    8.42760    8.22370   -9999.25   -9999.25
 7471.00000   -9999.25   -9999.25   -9999.25   -9999.25   -9999.25   61.16050  -52.59260    8.12780 3017.75050    8.89530    8.56270   -9999.25   -9999.25
 7471.50000   -9999.25   -9999.25   -9999.25   -9999.25   -9999.25   67.78460  -50.64330    8.57920 3017.89940    9.43140    8.79640   -9999.25   -9999.25
 7472.00000   -9999.25   -9999.25   -9999.25   -9999.25   -9999.25   74.84990  -49.47370    9.13850 3018.04860    9.95490    9.15900   -9999.25   -9999.25
 7472.50000   -9999.25   -9999.25   -9999.25   -9999.25   -9999.25   70.44460  -49.47370    9.47380 3018.19750   10.41260    9.79870   -9999.25   -9999.25
 7473.00000   -9999.25   -9999.25   -9999.25   -9999.25   -9999.25   67.28980  -49.47370   10.00010 3018.34640   10.45940   10.38570   -9999.25   -9999.25
 7473.50000   -9999.25   -9999.25   -9999.25   -9999.25   -9999.25   67.44340  -49.86360   10.16060 3018.49560   10.31910   10.52720   -9999.25   -9999.25
 7474.00000   -9999.25   -9999.25   -9999.25   -9999.25   -9999.25   68.92040  -50.05850    9.76210 3018.64450   10.18060    9.86510   -9999.25   -9999.25
 7474.50000   -9999.25   -9999.25   -9999.25   -9999.25   -9999.25   71.13270  -50.05850    9.31340 3018.79350   10.04410    9.47280   -9999.25   -9999.25
 7475.00000   -9999.25   -9999.25   -9999.25   -9999.25   -9999.25   73.78730  -50.64330    9.12840 3018.94260   10.04410    9.22110   -9999.25   -9999.25
 7475.50000   -9999.25   -9999.25   -9999.25   -9999.25   -9999.25   73.35260  -51.22810    9.40060 3019.09160   10.04410    9.15900   -9999.25   -9999.25
 7476.00000   -9999.25   -9999.25   -9999.25   -9999.25   -9999.25   72.47670  -51.81290    9.74680 3019.24050   10.16060    9.22110   -9999.25   -9999.25
 7476.50000   -9999.25   -9999.25   -9999.25   -9999.25   -9999.25   74.24780  -51.81290   10.05920 3019.38960   10.30050    9.62280   -9999.25   -9999.25
 7477.00000   -9999.25   -9999.25   -9999.25   -9999.25   -9999.25   75.57780  -51.81290   10.52320 3019.53860   10.58420   10.15530   -9999.25   -9999.25
 7477.50000   -9999.25   -9999.25   -9999.25   -9999.25   -9999.25   75.58430  -52.39770   10.81260 3019.68770   10.92580   10.66990   -9999.25   -9999.25
 7478.00000   -9999.25   -9999.25   -9999.25   -9999.25   -9999.25   65.00250  -52.39770   11.10990 3019.83670   11.17530   11.20900   -9999.25   -9999.25
 7478.50000   -9999.25   -9999.25   -9999.25   -9999.25   -9999.25   53.97960  -53.17740   11.57020 3019.98560   11.53580   11.51500   -9999.25   -9999.25
 7479.00000   -9999.25   -9999.25   -9999.25   -9999.25   -9999.25   43.54590  -54.15200   11.72940 3020.13480   13.68660   11.98970   -9999.25   -9999.25
 7479.50000   -9999.25   -9999.25   -9999.25   -9999.25   -9999.25   43.40530  -55.12670   12.21530 3020.28370   16.53370   12.15220   -9999.25   -9999.25
 7480.00000   -9999.25   -9999.25   -9999.25   -9999.25   -9999.25   48.11770  -56.78360   12.55120 3020.43260   16.98900   12.48390   -9999.25   -9999.25
 7480.50000   -9999.25   -9999.25   -9999.25   -9999.25   -9999.25   51.80060  -58.53800   12.89630 3020.58180   16.31870   12.65320   -9999.25   -9999.25
 7481.00000   -9999.25   -9999.25   -9999.25   -9999.25   -9999.25   54.01350  -59.12280   13.37200 3020.73070   15.25760   12.99860   -9999.25   -9999.25
 7481.50000   -9999.25   -9999.25   -9999.25   -9999.25   -9999.25   52.03460  -60.00000   13.80040 3020.87960   15.26060   13.35340   -9999.25   -9999.25
 7482.00000   -9999.25   -9999.25   -9999.25   -9999.25   -9999.25   44.09990  -60.58480   13.74150 3021.02880   17.94470   13.35340   -9999.25   -9999.25
 7482.50000   -9999.25   -9999.25   -9999.25   -9999.25   -9999.25   40.35630  -60.19490   13.26060 3021.17770   20.63930   13.35340   -9999.25   -9999.25
 7483.00000   -9999.25   -9999.25   -9999.25   -9999.25   -9999.25   44.03980  -59.02530   12.99720 3021.32670   21.78210   13.35340   -9999.25   -9999.25
 7483.50000   -9999.25   -9999.25   -9999.25   -9999.25   -9999.25   52.57570  -56.49120   12.48510 3021.47580   19.14090   13.35340   -9999.25   -9999.25
 7484.00000   -9999.25   -9999.25   -9999.25   -9999.25   -9999.25   61.99390  -56.49120   12.40340 3021.62480   15.80340   13.35340   -9999.25   -9999.25
 7484.50000   -9999.25   -9999.25   -9999.25   -9999.25   -9999.25   67.29450  -56.49120   12.40610 3021.77370   15.27940   13.35340   -9999.25   -9999.25
 7485.00000   -9999.25   -9999.25   -9999.25   -9999.25   -9999.25   67.30200  -57.07600   12.40850 3021.92290   14.77610   13.47410   -9999.25   -9999.25
 7485.50000   -9999.25   -9999.25   -9999.25   -9999.25   -9999.25   65.10260  -57.07600   12.41090 3022.07180   14.29000   13.84190   -9999.25   -9999.25
 7486.00000   14.62860 3211.88570    0.00780    2.53940    0.09440   59.37370  -56.49120   12.41340 3022.22070   14.03740   13.65760   -9999.25   -9999.25
 7486.50000   14.60020 3211.02440    0.01660    2.54090    0.08210   47.90960  -55.90640   12.41620 3022.36990   14.75270   12.65320   -9999.25   -9999.25
 7487.00000   14.61070 3210.45070    0.02390    2.54480    0.07910   49.23960  -54.73680   12.25260 3022.51880   15.43310   11.82930   -9999.25   -9999.25
 7487.50000   14.64060 3209.87670    0.03260    2.53800    0.09260   56.30490  -53.95710   11.76980 3022.66770   15.50580   11.36100   -9999.25   -9999.25
 7488.00000   14.67060 3209.30250    0.05890    2.51450    0.14840   63.37020  -52.78760   10.85840 3022.81690   14.49770   11.36100   -9999.25   -9999.25
 7488.50000   14.73950 3208.72880    0.08950    2.47340    0.21530   73.96490  -51.81290    9.36540 3022.96580   12.50150   11.51500   -9999.25   -9999.25
 7489.00000   14.82790 3208.15450    0.12010    2.42310    0.26460   86.91360  -51.81290    8.64020 3023.11470    9.80910   11.51500   -9999.25   -9999.25
 7489.50000   14.94080 3207.58060    0.13180    2.36240    0.31630   93.24360  -51.81290    9.36900 3023.26390    9.67960   11.82930   -9999.25   -9999.25
 7490.00000   14.94160 3207.00630    0.11870    2.33920    0.31690   96.19120  -52.10530   10.62960 3023.41280   10.21810   11.98970   -9999.25   -9999.25
 7490.50000   14.91300 3206.43260    0.10120    2.38260    0.25450   78.99180  -53.27490   11.67900 3023.56180   12.01530   12.54030   -9999.25   -9999.25
 7491.00000   14.84070 3235.01320    0.08120    2.46340    0.18070   58.33700  -54.93170   11.37160 3023.71090   14.45750   12.65320   -9999.25   -9999.25
 7491.50000   14.78290 3234.43900    0.06280    2.52870    0.10400   49.74050  -57.27090   10.80120 3023.85990   16.54800   12.59680   -9999.25   -9999.25
