~Version ---------------------------------------------------
VERS.   2.0 : CWLS log ASCII Standard -VERSION 2.0
WRAP.    NO : One line per depth step
DLM . SPACE : Column Data Section Delimiter
~Well ------------------------------------------------------
STRT .F                5230.0 : START DEPTH
STOP .F               17655.0 : STOP DEPTH
STEP .F                   0.5 : STEP
NULL .               -9999.25 : NULL VALUE
COMP .                        : COMPANY
WELL .                        : WELL
FLD  .                        : FIELD
LOC  .                        : LOCATION
PROV .                        : PROVINCE
CNTY .                        : COUNTY
STAT .                        : STATE
CTRY .                        : COUNTRY
SRVC .                        : SERVICE COMPANY
DATE .                        : DATE
UWI  .                        : UNIQUE WELL ID
API  .                        : API NUMBER
SLAT .WGS84 5.725093837660701 : SURFACE LATITUDE
SLON .WGS84 4.195983600331999 : SURFACE LONGITUDE
DATUM.F               2055.07 : DEPTH DATUM ELEV
~Curve Information -----------------------------------------
DEPT   .F     : 
CALD   .IN    : CALIPER FROM DENSITY LOG
TEND   .LB    : TENSION FROM DENSITY LOG
DRHO   .G/C3  : BULK DENSITY CORRECTION
RHOB   .G/C3  : BULK DENSITY
NPHI_LS.DEC   : NEUTRON POROSITY LIMESTONE
GRR    .GAPI  : GAMMA RAY FROM RESISTIVITY LOG
SPR    .MV    : SPONTANEOUS POTENTIAL FROM RESISTIVITY LOG
ILM    .OHMM  : INDUCTION MEDIUM RESISTIVITY
TENR   .LB    : TENSION FROM RESISTIVITY LOG
SFLU   .OHMM  : SHALLOW FOCUSED RESISTIVITY (UNAVERAGED)
ILD    .OHMM  : INDUCTION DEEP RESISTIVITY
DTCO   .US/F  : DELTA-T COMPRESSIONAL
DTSM   .US/F  : DELTA-T SHEAR
~Params ----------------------------------------------------
~Other -----------------------------------------------------
~ASCII -----------------------------------------------------
# ...
 14850.00000    9.22600 4705.50340   -0.03070    2.35430    0.25400   65.14910   -4.47740    2.73650 4733.90670    6.17780    2.78170   80.41360  186.44610
 14850.50000    9.28550 4705.07520   -0.02770    2.32510    0.27800   74.84920   -4.48080    2.66410 4734.07230    5.70000    2.93540   81.63720  186.27570
 14851.00000    9.31570 4704.64700   -0.04380    2.32510    0.28200   79.18170   -4.48370    2.66440 4734.21440    4.66060    3.01530   81.41700  186.02730
 14851.50000    9.31660 4675.06450   -0.06130    2.32510    0.27970   80.37950   -3.88910    2.66480 4734.35600    4.41720    3.09740   80.04180  182.81220
 14852.00000    9.31740 4674.63620   -0.07440    2.31930    0.26970   73.82170   -3.89340    2.66510 4734.54590    4.41740    2.93480   79.00560  178.16140
 14852.50000    9.31830 4674.20700   -0.07730    2.30910    0.28020   65.60880   -3.89630    2.66550 4734.68750    4.53800    2.89530   78.85890  176.18590
 14853.00000    9.34850 4673.77880   -0.07870    2.31350    0.28600   65.61100   -3.89920    2.70200 4734.82960    4.72480    2.89510   79.51080  177.30650
 14853.50000    9.34930 4673.35010   -0.07720    2.32960    0.29150   66.50870   -3.90210    2.77620 4734.97170    4.78900    2.93420   82.02600  182.23090
 14854.00000    9.23290 4672.92190   -0.07570    2.35460    0.28130   62.48110   -3.90500    2.99730 4705.85010    4.78930    3.09640   85.05310  188.15630
 14854.50000    8.94050 4672.42240   -0.06690    2.38390    0.27420   60.24440   -3.90800    3.23650 4706.01610    4.72570    3.44830   85.81970  190.38280
 14855.00000    8.82410 4671.99410   -0.04630    2.44100    0.28000   60.69440   -4.50790    3.55730 4706.15820    4.72600    3.78890   86.20090  190.18830
 14855.50000    8.76630 4671.56590   -0.01800    2.48350    0.26400   61.59210   -4.51080    4.45340 4677.06050    4.87690    4.33480   90.88150  190.45060
 14856.00000    8.76710 4641.98290    0.00540    2.53230    0.20610   62.04200   -4.51370    6.23960 4677.20260    6.56900    5.44950   98.00030  192.14830
 14856.50000    8.76800 4641.55420    0.02400    2.55430    0.14210   54.88000   -4.51660    9.35220 4706.58450   13.51750    5.90760  102.10590  192.49670
 14857.00000    8.76880 4640.98290    0.03180    2.56410    0.07340   46.82250   -5.11650   11.45030 4706.72660   21.26600    7.40220  100.35700  192.19540
 14857.50000    8.76980 4640.55470    0.04010    2.56560    0.04820   41.00380   -5.11940   13.64610 4736.10790   36.38730    8.93720   98.43480  191.80140
 14858.00000    8.77070 4669.49460    0.04310    2.56860    0.03640   35.18510   -5.71930   16.04520 4765.49020   66.58390   14.46500   97.10050  191.00030
 14858.50000    8.77150 4668.85250    0.04460    2.57300    0.03050   30.26190   -6.31930   20.18190 4794.87210   93.14730   23.04600   92.98870  191.47360
 14859.00000    8.77240 4668.42330    0.04610    2.57740    0.02640   29.81630   -7.51620   24.70970 4785.32280  125.16370   30.12020   89.84950  192.50090
 14859.50000    8.77360 4667.99510    0.04760    2.58180    0.02520   34.74390   -8.11660   25.73320 4756.22510  143.15810   34.92670   89.50770  192.45700
 14860.00000    8.77440 4725.87600    0.04910    2.58620    0.02630   49.96990   -8.71650   25.05170 4707.57860  120.23820   34.92440   94.24480  191.33150
 14860.50000    8.74550 4754.60210    0.05060    2.59360    0.05390   59.67300   -9.31640   22.79810 4707.79200   72.19330   30.52250  100.68940  191.37800
 14861.00000    8.74680 4783.39990    0.05210    2.60830    0.07080   59.08150   -9.31940   20.19520 4707.93360   42.19770   23.31490  104.53740  192.02050
 14861.50000    8.74770 4812.12600    0.05510    2.61560    0.07260   50.42900   -8.72620   18.62800 4708.07620   28.20920   19.04960  106.59760  190.60870
 14862.00000    8.74850 4811.62600    0.05810    2.60980    0.05960   41.02450   -8.72910   17.65210 4708.21830   32.26470   15.35640  106.69180  189.61400
 14862.50000    8.74940 4752.88870    0.05810    2.59960    0.05310   49.53420   -8.73200   16.50330 4708.35990   37.90760   14.35560  106.00440  188.51070
 14863.00000    8.75030 4664.99710    0.05080    2.58490    0.07130   57.14830   -8.73490   14.42320 4737.74170   40.00170   14.35470  105.59780  187.23210
 14863.50000    8.75110 4635.41410    0.04360    2.55420    0.09120   65.65790   -8.73780   12.38140 4737.88430   32.70720   14.35370  106.31640  189.57050
 14864.00000    8.75200 4634.98490    0.03920    2.57180    0.09820   66.10680   -8.14320   12.10720 4738.02590   24.67310   14.54730  107.34670  191.40250
 14864.50000    8.78220 4634.55660    0.03930    2.58800    0.09700   63.42350   -8.14660   12.32880 4738.16800   22.16180   14.74360  107.35830  191.14920
 14865.00000    8.81230 4634.12840    0.03930    2.59680    0.08640   54.91820   -8.14950   12.78240 4738.31010   24.35080   15.55850  107.00600  190.18980
 14865.50000    8.81320 4633.70020    0.04330    2.60420    0.07290   47.75620   -7.55540   13.49260 4738.45210   27.36550   16.19880  106.71310  189.33190
 14866.00000    8.81410 4633.27150    0.04580    2.61150    0.06290   44.17630   -7.55830   15.03150 4738.59420   32.45560   18.28460  106.58410  189.07900
 14866.50000    8.81490 4661.99800    0.04730    2.62030    0.05230   44.17850   -7.56120   16.97340 4738.73630   42.80030   20.27260  106.47910  189.07120
 14867.00000    8.81580 4661.49850    0.04970    2.62030    0.04700   43.28520   -7.56410   18.15970 4738.87840   51.65440   22.07770  106.48240  189.11590
 14867.50000    8.81660 4661.07030    0.05130    2.61450    0.04400   43.28730   -7.56700   19.16870 4729.32910   59.87920   23.29500  106.73040  189.81740
 14868.00000    8.81760 4660.64210    0.05280    2.60720    0.03760   43.73730   -7.56990   19.43150 4709.92290   64.90670   23.29320  106.93540  190.71540
 14868.50000    8.81850 4660.21290    0.05430    2.59850    0.03690   48.66480   -7.57280   18.91690 4710.08840   69.41810   22.36900  106.52110  190.16850
 14869.00000    8.81940 4659.64210    0.05430    2.58530    0.04510   60.75660   -7.57620   15.87710 4710.27780   64.04950   21.19470  100.85280  190.22350
 14869.50000    8.82020 4659.21390    0.05440    2.56920    0.06330   72.84830   -7.38080   14.06440 4710.41990   47.03630   19.28690   91.54710  191.50360
 14870.00000    8.82140 4658.78560    0.05150    2.56340    0.08020   75.23840   -6.98450   13.87780 4710.56200   25.36530   18.27440   86.45430  191.95850
 14870.50000    8.82220 4658.35640    0.05000    2.57220    0.08570   74.19920   -6.98890   15.04930 4710.70410   22.17990   18.02880   85.93350  192.67420
 14871.00000    8.82310 4657.92820    0.04570    2.58400    0.07610   66.44510   -6.39480   15.46280 4710.84570   25.03030   16.85380   85.90650  198.21320
 14871.50000    8.82390 4686.65380    0.04140    2.58110    0.06490   54.05220   -6.39770   15.67480 4710.98830   35.96900   15.54470   85.85600  203.69310
 14872.00000    8.82480 4686.22560    0.03850    2.57380    0.05610   59.87520   -6.40060   14.65470 4711.13040   48.98550   14.53160   85.77650  203.77240
 14872.50000    8.82570 4685.86910    0.03710    2.55770    0.06070   63.45950   -6.40350   12.80760 4711.27200   47.05470   13.76870   85.62830  198.15600
 14873.00000    8.82650 4685.36910    0.03710    2.55630    0.08470   63.90840   -6.40640   11.09980 4711.41460   35.49630   12.69920   85.61320  197.55510
 14873.50000    8.82740 4684.94090    0.03710    2.55630    0.10350   62.56840   -5.81180   10.00890 4711.55620   24.37510   11.87160   88.16030  203.64960
 14874.00000    8.82820 4684.51270    0.03720    2.55090    0.11340   64.80930   -5.81520    9.10860 4711.69820   17.19780    9.69980   89.68540  205.26630
 14874.50000    8.82910 4684.08400    0.03720    2.54120    0.12390   69.73690   -5.81810    8.10830 4711.84030   15.52200    9.06760   87.65080  202.11550
 14875.00000    8.82990 4683.65580    0.03730    2.54560    0.13090   71.08240   -5.82100    7.47300 4711.98240   13.64040    8.82610   85.53370  196.76150
 14875.50000    8.86010 4683.22660    0.03880    2.56810    0.15080   72.42780   -5.22690    7.78300 4712.12450   11.80880    8.82550   84.37910  194.45860
