~Version ---------------------------------------------------
VERS.   2.0 : CWLS log ASCII Standard -VERSION 2.0
WRAP.    NO : One line per depth step
DLM . SPACE : Column Data Section Delimiter
~Well ------------------------------------------------------
STRT .F                4885.0 : START DEPTH
STOP .F                6137.0 : STOP DEPTH
STEP .F                   0.5 : STEP
NULL .               -9999.25 : NULL VALUE
COMP .                        : COMPANY
WELL .                        : WELL
FLD  .                        : FIELD
LOC  .                        : LOCATION
PROV .                        : PROVINCE
CNTY .                        : COUNTY
STAT .                        : STATE
CTRY .                        : COUNTRY
SRVC .                        : SERVICE COMPANY
DATE .                        : DATE
UWI  .                        : UNIQUE WELL ID
API  .                        : API NUMBER
SLAT .WGS84 6.694019909894401 : SURFACE LATITUDE
SLON .WGS84 3.609310065387305 : SURFACE LONGITUDE
DATUM.F               1659.62 : DEPTH DATUM ELEV
~Curve Information -----------------------------------------
DEPT.F     : 
GRN .GAPI  : GAMMA RAY
NPHI.DEC   : NEUTRON POROSITY LIMESTONE
DTOT.US/F  : DELTA-T STONELEY
DT4S.US/F  : SHEAR-WAVE INTERVAL TRANSIT TIME ACOUSTIC SLOWNESS, P&S MODE
DT4P.US/F  : COMPRESSIONAL-WAVE INTERVAL TRANSIT TIME ACOUSTIC SLOWNESS, P&S MODE
DTSM.US/F  : SHEAR-WAVE INTERVAL TRANSIT TIME DELTA-T
DTCO.US/F  : COMPRESSIONAL-WAVE INTERVAL TRANSIT TIME ACOUSTIC SLOWNESS
~Params ----------------------------------------------------
~Other -----------------------------------------------------
~ASCII -----------------------------------------------------
# ...
 6010.00000   86.87440    0.12340   -9999.25   -9999.25   -9999.25   -9999.25   -9999.25
 6010.50000   86.36500    0.12210   -9999.25   -9999.25   -9999.25   -9999.25   -9999.25
 6011.00000   83.35630    0.12080   -9999.25   -9999.25   -9999.25   -9999.25   -9999.25
 6011.50000   80.72370    0.11920   -9999.25   -9999.25   -9999.25   -9999.25   -9999.25
 6012.00000   80.81960    0.11860   -9999.25   -9999.25   -9999.25   -9999.25   -9999.25
 6012.50000   81.61980    0.11590   -9999.25   -9999.25   -9999.25   -9999.25   -9999.25
 6013.00000   80.18690    0.10980   -9999.25   -9999.25   -9999.25   -9999.25   -9999.25
 6013.50000   75.79300    0.09200   -9999.25   -9999.25   -9999.25   -9999.25   -9999.25
 6014.00000   71.18740    0.07180   -9999.25   -9999.25   -9999.25   -9999.25   -9999.25
 6014.50000   70.40210    0.05820   -9999.25   -9999.25   -9999.25   -9999.25   -9999.25
 6015.00000   70.45710    0.05820   -9999.25   -9999.25   -9999.25   -9999.25   -9999.25
 6015.50000   69.39310    0.06480   -9999.25   -9999.25   -9999.25   -9999.25   -9999.25
 6016.00000   67.84640    0.07360   -9999.25   -9999.25   -9999.25   -9999.25   -9999.25
 6016.50000   68.76200    0.08220   -9999.25   -9999.25   -9999.25   -9999.25   -9999.25
 6017.00000   71.96180    0.09300   -9999.25   -9999.25   -9999.25   -9999.25   -9999.25
 6017.50000   74.73080    0.10200   -9999.25   -9999.25   -9999.25   -9999.25   -9999.25
 6018.00000   74.50540    0.09950   -9999.25   -9999.25   -9999.25   -9999.25   -9999.25
 6018.50000   70.91600    0.08560   -9999.25   -9999.25   -9999.25   -9999.25   -9999.25
 6019.00000   65.77830    0.07450   -9999.25   -9999.25   -9999.25   -9999.25   -9999.25
 6019.50000   62.43760    0.07050   -9999.25   -9999.25   -9999.25   -9999.25   -9999.25
 6020.00000   62.15210    0.07410   -9999.25   -9999.25   -9999.25   -9999.25   -9999.25
 6020.50000   64.49470    0.08240   -9999.25   -9999.25   -9999.25   -9999.25   -9999.25
 6021.00000   66.88660    0.08750   -9999.25   -9999.25   -9999.25   -9999.25   -9999.25
 6021.50000   70.01930    0.08960   -9999.25   -9999.25   -9999.25   -9999.25   -9999.25
 6022.00000   73.91370    0.09230   -9999.25   -9999.25   -9999.25   -9999.25   -9999.25
 6022.50000   78.57010    0.09830   -9999.25   -9999.25   -9999.25   -9999.25   -9999.25
 6023.00000   77.42200    0.09440   -9999.25   -9999.25   -9999.25   -9999.25   -9999.25
 6023.50000   70.69870    0.09080   -9999.25   -9999.25   -9999.25   -9999.25   -9999.25
 6024.00000   62.60320    0.07380   -9999.25   -9999.25   -9999.25   -9999.25   -9999.25
 6024.50000   57.88210    0.06440   -9999.25   -9999.25   -9999.25   -9999.25   -9999.25
 6025.00000   59.30780    0.06550   -9999.25   -9999.25   -9999.25   -9999.25   -9999.25
 6025.50000   62.64570    0.07990   -9999.25   -9999.25   -9999.25   -9999.25   -9999.25
 6026.00000   65.79220    0.09330   -9999.25   -9999.25   -9999.25   -9999.25   -9999.25
 6026.50000   68.38810    0.09850   -9999.25   -9999.25   -9999.25   -9999.25   -9999.25
 6027.00000   68.69030    0.09310   -9999.25   -9999.25   -9999.25   -9999.25   -9999.25
 6027.50000   67.33510    0.08540   -9999.25   -9999.25   -9999.25   -9999.25   -9999.25
 6028.00000   66.43290    0.08500   -9999.25   -9999.25   -9999.25   -9999.25   -9999.25
 6028.50000   68.75330    0.09680   -9999.25   -9999.25   -9999.25   -9999.25   -9999.25
 6029.00000   75.29810    0.12870   -9999.25   -9999.25   -9999.25   -9999.25   -9999.25
 6029.50000   83.25100    0.15620   -9999.25  130.28720   73.85820  129.93420   -9999.25
 6030.00000   88.82610    0.17630   -9999.25  130.28720   73.85820  129.93420   -9999.25
 6030.50000   90.01170    0.19640   -9999.25  132.76950   76.16220  132.66900   -9999.25
 6031.00000   78.55960    0.21660   -9999.25  132.23770   78.80780  132.08270   -9999.25
 6031.50000   61.80210    0.21560   -9999.25  130.08470   82.91380  129.91250   -9999.25
 6032.00000   52.67350    0.18000   -9999.25  126.13790   86.16300  125.81580   -9999.25
 6032.50000   54.34690    0.15120   -9999.25  120.74440   86.88520  120.37850   -9999.25
 6033.00000   61.31550    0.11390   -9999.25  113.89570   84.30980  113.38690   -9999.25
 6033.50000   67.25760    0.10450   -9999.25  108.65690   78.68290  108.40210   -9999.25
 6034.00000   66.85560    0.10590   -9999.25  108.14220   73.14880  108.06140   -9999.25
 6034.50000   62.77390    0.10330   -9999.25  110.35520   69.99510  110.16590   -9999.25
 6035.00000   59.75800    0.09840   -9999.25  112.08810   68.99480  111.96660   -9999.25
 6035.50000   61.63880    0.09570   -9999.25  112.66510   68.43010  112.57820   -9999.25
 6036.00000   64.27810    0.09750   -9999.25  112.98770   68.28110  112.90510   -9999.25
 6036.50000   65.47470    0.09570   -9999.25  113.68550   69.59390  113.57580   -9999.25
 6037.00000   64.39630    0.09260   -9999.25  114.05330   71.50340  113.94190   -9999.25
 6037.50000   63.01900    0.09040   -9999.25  112.85230   71.57330  112.68290   -9999.25
 6038.00000   63.26330    0.09370   -9999.25  110.61530   69.55600  110.43020   -9999.25
 6038.50000   64.09660    0.09760   -9999.25  108.88480   67.28290  108.75970   -9999.25
 6039.00000   63.25520    0.09780   -9999.25  108.12370   65.58740  108.03560   -9999.25
 6039.50000   59.04510    0.09620   -9999.25  108.19640   64.64980  108.11070   -9999.25
 6040.00000   56.25270    0.09460   -9999.25  110.04820   64.21020  109.80860   -9999.25
 6040.50000   56.48340    0.09510   -9999.25  113.84420   65.27450  113.48620   -9999.25
 6041.00000   63.14200    0.10260   -9999.25  116.87470   67.17640  116.76030   -9999.25
 6041.50000   67.10140    0.11080   -9999.25  116.83690   68.99820  116.69950   -9999.25
 6042.00000   66.61250    0.11190   -9999.25  115.36550   70.65320  115.23410   -9999.25
 6042.50000   61.00820    0.10820   -9999.25  114.29760   72.48970  114.19100   -9999.25
 6043.00000   56.85880    0.10430   -9999.25  113.68670   74.18870  113.59750   -9999.25
 6043.50000   57.22250    0.10210   -9999.25  113.58600   74.96450  113.50340   -9999.25
 6044.00000   59.02650    0.10670   -9999.25  113.94630   75.03520  113.85820   -9999.25
 6044.50000   60.95570    0.11280   -9999.25  114.49350   75.05570  114.39800   -9999.25
 6045.00000   62.80980    0.11490   -9999.25  115.22580   75.34580  115.11990   -9999.25
 6045.50000   64.18610    0.11450   -9999.25  115.96660   75.59580  115.86640   -9999.25
 6046.00000   65.08050    0.11630  439.07600  116.67590   75.95660  116.57760   -9999.25
 6046.50000   65.39230    0.12020  395.16420  117.24840   76.53480  117.16390   -9999.25
 6047.00000   66.85910    0.12600  347.93190  117.15980   77.29660  117.07910   -9999.25
 6047.50000   68.62200    0.12780  302.63610  117.11470   77.33050  117.03400   -9999.25
 6048.00000   69.16500    0.12680  239.55230  117.06960   75.45500  116.98890   -9999.25
 6048.50000   66.42870    0.12590  217.64980  116.09690   73.25570  115.96770   -9999.25
 6049.00000   61.93460    0.12080  199.02400  114.83230   71.65720  114.68960   -9999.25
 6049.50000   57.65250    0.11320  195.12810  113.55760   70.53450  113.44130   -9999.25
 6050.00000   55.75440    0.10960  196.52500  113.23480   70.65920  113.12510   -9999.25
 6050.50000   54.12360    0.11200  198.34970  114.14740   71.95680  114.04770   -9999.25
 6051.00000   53.13770    0.11860  200.31400  114.12370   73.11370  114.01820   -9999.25
 6051.50000   55.35020    0.12290  202.40250  112.57680   72.47480  112.40780   -9999.25
 6052.00000   61.39260    0.12430  204.32690  111.08040   71.72220  110.97650   -9999.25
 6052.50000   68.29160    0.12390  205.83200  110.51190   71.76220  110.43140   -9999.25
 6053.00000   69.72170    0.12340  206.89100  110.59700   71.11890  110.50960   -9999.25
 6053.50000   66.87160    0.11920  204.04750  111.60780   70.51640  111.44470   -9999.25
 6054.00000   63.39570    0.11420  201.24080  112.88830   71.23660  112.76950   -9999.25
 6054.50000   63.90620    0.11020  198.46350  113.62590   72.78210  113.54130   -9999.25
