~Version ---------------------------------------------------
VERS.   2.0 : CWLS log ASCII Standard -VERSION 2.0
WRAP.    NO : One line per depth step
DLM . SPACE : Column Data Section Delimiter
~Well ------------------------------------------------------
STRT .F                4885.0 : START DEPTH
STOP .F                6137.0 : STOP DEPTH
STEP .F                   0.5 : STEP
NULL .               -9999.25 : NULL VALUE
COMP .                        : COMPANY
WELL .                        : WELL
FLD  .                        : FIELD
LOC  .                        : LOCATION
PROV .                        : PROVINCE
CNTY .                        : COUNTY
STAT .                        : STATE
CTRY .                        : COUNTRY
SRVC .                        : SERVICE COMPANY
DATE .                        : DATE
UWI  .                        : UNIQUE WELL ID
API  .                        : API NUMBER
SLAT .WGS84 6.694019909894401 : SURFACE LATITUDE
SLON .WGS84 3.609310065387305 : SURFACE LONGITUDE
DATUM.F               1659.62 : DEPTH DATUM ELEV
~Curve Information -----------------------------------------
DEPT.F     : 
GRN .GAPI  : GAMMA RAY
NPHI.DEC   : NEUTRON POROSITY LIMESTONE
DTOT.US/F  : DELTA-T STONELEY
DT4S.US/F  : SHEAR-WAVE INTERVAL TRANSIT TIME ACOUSTIC SLOWNESS, P&S MODE
DT4P.US/F  : COMPRESSIONAL-WAVE INTERVAL TRANSIT TIME ACOUSTIC SLOWNESS, P&S MODE
DTSM.US/F  : SHEAR-WAVE INTERVAL TRANSIT TIME DELTA-T
DTCO.US/F  : COMPRESSIONAL-WAVE INTERVAL TRANSIT TIME ACOUSTIC SLOWNESS
~Params ----------------------------------------------------
~Other -----------------------------------------------------
~ASCII -----------------------------------------------------
# ...
 6100.00000  100.28430    0.16770  187.92680  139.45610   73.43780  139.27280   76.99410
 6100.50000  100.21920    0.16950  187.97190  137.76230   73.80790  137.68100   77.40510
 6101.00000  101.02510    0.17090  188.02650  137.64130   74.08840  137.56010   77.80140
 6101.50000  101.72210    0.17280  188.46480  138.61520   74.19260  138.44870   77.50920
 6102.00000  104.01630    0.17470  188.66000  141.71270   74.44960  141.45120   77.46420
 6102.50000  105.49560    0.17950  188.72720  144.81020   74.89010  144.54800   77.45560
 6103.00000  106.97490    0.18790  188.71660  146.26220   75.54210  146.14240   77.64420
 6103.50000  108.50610    0.19290  188.67090  146.39700   76.29680  146.28780   77.47310
 6104.00000  110.42620    0.19450  188.62520  145.68280   76.96070  145.59520   77.30210
 6104.50000  113.67380    0.19590  188.64660  145.78930   77.44410  145.68550   77.13110
 6105.00000  115.29180    0.19620  188.75870  146.37900   78.23490  146.28680   76.96010
 6105.50000  116.77180    0.19470  188.79350  145.77110   78.73110  145.66860   76.78900
 6106.00000  119.45920    0.19380  188.84020  144.49100   78.50630  144.36310   76.71140
 6106.50000  123.46670    0.19480  188.95200  143.41770   78.30690  143.32500   76.75960
 6107.00000  124.88380    0.19970  189.06370  143.08210   78.39710  143.00150   76.80780
 6107.50000  123.78340    0.20430  189.17550  143.21340   77.91570  143.12990   76.85610
 6108.00000  120.84890    0.20530  188.98960  143.54060   77.84230  143.45430   76.90430
 6108.50000  118.31580    0.20400  188.95570  144.01060   77.62040  143.91920   76.95250
 6109.00000  117.78350    0.20270  188.96970  144.55960   77.43550  144.46770   77.00080
 6109.50000  119.73160    0.20220  188.90990  145.11710   77.41210  145.02530   77.04900
 6110.00000  125.01450    0.20490  188.85020  145.81420   77.62300  145.71170   77.09730
 6110.50000  134.74280    0.21220  188.79530  146.59950   77.99470  146.49660   77.68560
 6111.00000  146.20480    0.22010  188.87660  147.62260   79.22790  147.50580   78.29650
 6111.50000  150.71680    0.22340  189.32580  147.96990   79.67340  147.88930   78.90730
 6112.00000  148.51840    0.22530  189.42370  147.98350   80.19470  147.90280   79.51820
 6112.50000  142.78060    0.22060  189.39540  148.25660   80.58220  148.15980   79.56190
 6113.00000  140.48040    0.22100  189.36710  148.91250   80.71050  148.81550   79.13290
 6113.50000  141.74140    0.22620  189.33890  149.59820   80.83880  149.49770   78.67950
 6114.00000  143.96610    0.23120  189.31060  150.99420   81.10110  150.84130   78.67040
 6114.50000  146.72880    0.23350  189.28230  153.02930   82.13710  152.83440   78.57100
 6115.00000  149.37750    0.23260  189.25410  156.00750   83.39790  155.76470   78.42110
 6115.50000  149.49920    0.23300  189.22580  157.97170   84.20940  157.83490   77.88460
 6116.00000  150.12860    0.23610  189.19760  158.44270   84.58410  158.36170   77.44810
 6116.50000  151.08580    0.24080  189.12110  158.47250   84.56140  158.39180   77.01170
 6117.00000  152.19430    0.24360  189.05730  158.17450   84.22620  158.08850   76.94250
 6117.50000  153.15420    0.24270  189.23050  157.90270   83.98870  157.82110   76.88750
 6118.00000  154.12110    0.23840  189.29770  157.66020   83.74060  157.57360   77.12640
 6118.50000  156.87590    0.23440  189.18620  157.22660   83.45580  157.13580   77.44530
 6119.00000  158.52660    0.23690  188.98950  156.92420   83.18800  156.83880   77.34230
 6119.50000  156.29770    0.23990  188.77790  156.57850   83.03920  156.49310   77.08830
 6120.00000  151.46080    0.24190  188.56630  156.21970   82.98880  156.13350   77.23270
 6120.50000  149.79950    0.24270  188.64000  155.94010   83.13120  155.85930   78.47380
 6121.00000  148.31870    0.24310  189.08720  156.01330   83.80040  155.93010   82.11920
 6121.50000  148.84970    0.24480  189.40380  156.78390   84.86660  156.66170   87.02120
 6122.00000  150.31560    0.24470  189.39630  157.83220   85.94120  157.75140   91.52600
 6122.50000  153.84320    0.24270  189.38880  157.45140   85.81970  157.31920   93.12970
 6123.00000  155.32410    0.23990  189.38130  156.06040   84.88830  155.91230   93.80790
 6123.50000  155.68850    0.23530  189.54800  155.54230   84.81510  155.46030   94.06540
 6124.00000  155.40840    0.23440  190.09960  155.30700   85.35180  155.22090   94.08570
 6124.50000  154.20060    0.23490  190.65140  154.92560   85.91200  154.83180   93.77570
 6125.00000  151.78200    0.23630  191.74680  154.32710   85.96550  154.23280   93.46560
 6125.50000  150.00800    0.23850  191.37780  153.80720   85.85110  153.72080   94.19610
 6126.00000  150.12130    0.24060  190.93770  153.44750   85.61670  153.36290   95.23130
 6126.50000  158.05820    0.24250  190.58650  153.18160   84.92620  153.10020   94.76840
 6127.00000  170.81110    0.24350  190.50240  153.12250   83.99500  153.04190   94.58750
 6127.50000  180.31570    0.24240  190.41830  153.11730   -9999.25  153.03670   94.44340
 6128.00000  182.44920    0.23540  190.40010  153.16330   -9999.25  153.08030   94.40170
 6128.50000  177.44150    0.22790  190.40100  153.31330   -9999.25  153.23270   94.36000
 6129.00000  169.33570    0.22110   -9999.25  153.31330   -9999.25  153.23270   94.02750
 6129.50000  164.89280    0.21640   -9999.25  153.31330   -9999.25  153.23270   -9999.25
 6130.00000  170.39720    0.23450   -9999.25  153.31330   -9999.25  153.23270   -9999.25
 6130.50000  185.33070    0.25730   -9999.25  153.27380   -9999.25  153.19300   -9999.25
 6131.00000  200.93320    0.27770   -9999.25  153.29100   -9999.25  153.21040   -9999.25
 6131.50000  209.50690    0.28250   -9999.25  153.30840   -9999.25  153.22790   -9999.25
 6132.00000  213.67650    0.27400   -9999.25   -9999.25   -9999.25  153.23290   -9999.25
 6132.50000  216.16020    0.26540   -9999.25   -9999.25   -9999.25   -9999.25   -9999.25
 6133.00000  217.06950    0.28190   -9999.25   -9999.25   -9999.25   -9999.25   -9999.25
 6133.50000   -9999.25    0.33220   -9999.25   -9999.25   -9999.25   -9999.25   -9999.25
 6134.00000   -9999.25    0.36560   -9999.25   -9999.25   -9999.25   -9999.25   -9999.25
 6134.50000   -9999.25    0.39730   -9999.25   -9999.25   -9999.25   -9999.25   -9999.25
 6135.00000   -9999.25    0.42020   -9999.25   -9999.25   -9999.25   -9999.25   -9999.25
 6135.50000   -9999.25    0.41990   -9999.25   -9999.25   -9999.25   -9999.25   -9999.25
 6136.00000   -9999.25    0.35790   -9999.25   -9999.25   -9999.25   -9999.25   -9999.25
 6136.50000   -9999.25    0.29370   -9999.25   -9999.25   -9999.25   -9999.25   -9999.25
 6137.00000   -9999.25    0.21670   -9999.25   -9999.25   -9999.25   -9999.25   -9999.25
