~Version ---------------------------------------------------
VERS.   2.0 : CWLS log ASCII Standard -VERSION 2.0
WRAP.    NO : One line per depth step
DLM . SPACE : Column Data Section Delimiter
~Well ------------------------------------------------------
STRT .F                4885.0 : START DEPTH
STOP .F                6137.0 : STOP DEPTH
STEP .F                   0.5 : STEP
NULL .               -9999.25 : NULL VALUE
COMP .                        : COMPANY
WELL .                        : WELL
FLD  .                        : FIELD
LOC  .                        : LOCATION
PROV .                        : PROVINCE
CNTY .                        : COUNTY
STAT .                        : STATE
CTRY .                        : COUNTRY
SRVC .                        : SERVICE COMPANY
DATE .                        : DATE
UWI  .                        : UNIQUE WELL ID
API  .                        : API NUMBER
SLAT .WGS84 6.694019909894401 : SURFACE LATITUDE
SLON .WGS84 3.609310065387305 : SURFACE LONGITUDE
DATUM.F               1659.62 : DEPTH DATUM ELEV
~Curve Information -----------------------------------------
DEPT.F     : 
GRN .GAPI  : GAMMA RAY
NPHI.DEC   : NEUTRON POROSITY LIMESTONE
DTOT.US/F  : DELTA-T STONELEY
DT4S.US/F  : SHEAR-WAVE INTERVAL TRANSIT TIME ACOUSTIC SLOWNESS, P&S MODE
DT4P.US/F  : COMPRESSIONAL-WAVE INTERVAL TRANSIT TIME ACOUSTIC SLOWNESS, P&S MODE
DTSM.US/F  : SHEAR-WAVE INTERVAL TRANSIT TIME DELTA-T
DTCO.US/F  : COMPRESSIONAL-WAVE INTERVAL TRANSIT TIME ACOUSTIC SLOWNESS
~Params ----------------------------------------------------
~Other -----------------------------------------------------
~ASCII -----------------------------------------------------
# ...
 6055.00000   71.64540    0.11280  197.48320  113.96540   74.31240  113.87440   -9999.25
 6055.50000   94.07230    0.11760  201.27600  114.73100   75.24150  114.61930   -9999.25
 6056.00000  114.94130    0.12480  207.38430  116.08720   75.64440  115.93460   -9999.25
 6056.50000  133.21500    0.12880  214.10970  117.46090   75.74470  117.33380   -9999.25
 6057.00000  128.50130    0.12900  214.83310  119.10200   75.86520  118.92440   -9999.25
 6057.50000  115.22510    0.12880  214.91080  121.75340   75.66580  121.45950   -9999.25
 6058.00000   92.52290    0.12650  216.71750  125.13280   75.47950  124.89300   -9999.25
 6058.50000   75.10430    0.12480  219.23550  125.57680   75.42070  125.42740   -9999.25
 6059.00000   68.60910    0.12450  220.94840  124.04560   75.36700  123.93470   -9999.25
 6059.50000   66.11310    0.12430  221.86940  123.65760   75.42560  123.56250   -9999.25
 6060.00000   62.91640    0.12380  221.12690  124.58550   75.52880  124.46300   -9999.25
 6060.50000   57.51460    0.11140  215.81900  124.62140   75.28260  124.48440   -9999.25
 6061.00000   48.75990    0.08900  209.88400  121.91280   73.22030  121.45800   -9999.25
 6061.50000   42.02750    0.06220  205.37940  116.27470   68.74250  115.44570   -9999.25
 6062.00000   38.69150    0.04700  203.14760  110.41810   64.87950  109.98950   -9999.25
 6062.50000   41.29250    0.04810  201.81480  106.63650   62.90650  106.47960   -9999.25
 6063.00000   47.88510    0.05880  201.56730  106.81050   63.38550  106.65310   -9999.25
 6063.50000   53.73960    0.07590  203.22460  110.25740   65.99470  109.91330   -9999.25
 6064.00000   58.09120    0.09030  205.91520  114.35470   67.56200  114.17170   -9999.25
 6064.50000   60.72350    0.09740  206.82870  115.91270   67.30410  115.80610   -9999.25
 6065.00000   65.32500    0.10080  202.54090  117.23230   65.97280  117.07800   -9999.25
 6065.50000   71.77810    0.10600  198.78760  118.08810   65.17610  118.00300  240.13070
 6066.00000   88.13930    0.11720  198.11320  117.55830   65.70190  117.43910  239.32880
 6066.50000  110.61170    0.14670  197.43880  116.63200   67.91170  116.53800  163.83220
 6067.00000  136.59450    0.18760  197.12260  117.78970   71.55680  117.57560  135.67030
 6067.50000  156.70590    0.23160  197.40600  124.78870   75.02120  124.17100  120.01150
 6068.00000  171.76030    0.27170  197.12890  129.85480   76.91050  129.19530  109.24240
 6068.50000  175.33140    0.28580  196.81860  138.99190   78.13170  137.92260   99.35460
 6069.00000  176.11870    0.28450  196.33000  149.86470   79.71920  148.83080   89.46690
 6069.50000  174.36470    0.27350  195.84130  155.89690   80.62750  155.78570   81.97170
 6070.00000  169.32780    0.26810  195.59880  155.62320   80.81200  155.52000   79.78860
 6070.50000  164.19090    0.26690  195.53180  154.49980   80.53270  154.41000   77.60540
 6071.00000  162.14050    0.26400  194.83240  154.43960   80.37550  154.35860   76.22860
 6071.50000  160.69520    0.25480  193.84800  153.59470   80.29560  153.37960   75.16880
 6072.00000  158.07600    0.24260  192.75600  149.34680   79.88160  149.06690   75.07560
 6072.50000  153.28550    0.23150  191.52640  144.32760   79.32400  143.97090   75.13430
 6073.00000  146.87010    0.22210  190.19960  140.35190   77.97140  140.11210   75.45830
 6073.50000  143.00590    0.21260  188.77810  137.59760   75.95840  137.42670   75.78650
 6074.00000  140.88630    0.20320  188.05180  136.06140   74.49840  135.95210   76.11470
 6074.50000  139.16310    0.19370  187.77720  135.72950   73.92500  135.64880   76.44290
 6075.00000  137.91980    0.18710  187.88930  136.14210   73.72520  136.05020   76.70720
 6075.50000  137.83530    0.19020  188.00140  136.11050   73.41910  136.02020   76.42350
 6076.00000  137.74730    0.18880  187.94340  135.12880   72.90070  135.00040   76.13980
 6076.50000  136.64670    0.17490  187.76860  133.39330   72.33440  133.18840   75.98340
 6077.00000  134.38490    0.15790  187.62340  132.58220   71.43570  132.48440   76.01690
 6077.50000  131.36990    0.14100  187.74710  131.90070   70.28120  131.80290   76.05320
 6078.00000  126.39810    0.13000  187.81180  131.21930   68.84550  131.12130   76.09330
 6078.50000  121.84550    0.13170  187.87650  131.86860   68.64390  131.69260   76.13330
 6079.00000  122.31970    0.14070  187.91680  129.78470   68.85350  129.59100   76.12670
 6079.50000  127.15030    0.15470  187.99770  130.25830   69.42840  130.03900   76.12010
 6080.00000  129.91950    0.17080  188.19770  132.95380   71.34650  132.75510   76.04510
 6080.50000  131.49830    0.18780  188.51570  136.48320   73.22960  136.26470   75.98790
 6081.00000  132.98760    0.19860  188.43280  138.89010   74.24550  138.73810   76.09130
 6081.50000  134.29520    0.20440  188.34990  139.51630   74.75110  139.39310   76.19470
 6082.00000  133.36450    0.20300  188.26700  140.41700   74.69100  140.33600   76.29810
 6082.50000  130.70510    0.20030  188.15220  140.04170   74.63090  139.93030   76.38160
 6083.00000  128.87110    0.19750  187.92150  139.09390   74.51960  138.98260   76.29770
 6083.50000  128.83670    0.19330  187.65400  138.14600   73.81010  138.03020   76.21380
 6084.00000  129.61100    0.19040  187.51950  137.01530   72.29640  136.89810   76.04590
 6084.50000  130.48320    0.19230  187.46880  135.83460   71.06170  135.69380   75.81710
 6085.00000  131.30460    0.19420  187.41800  134.36030   70.27860  134.21090   75.42270
 6085.50000  131.31990    0.19340  187.48560  133.19100   69.59840  133.10630   75.02840
 6086.00000  130.62400    0.18850  187.53300  133.78230   69.97520  133.66270   75.18390
 6086.50000  129.97370    0.18290  187.72110  135.19110   71.95000  135.02740   75.35480
 6087.00000  130.53430    0.18160  187.86900  136.23780   72.57310  136.13140   75.45150
 6087.50000  132.08880    0.18290  187.71710  136.62660   72.83580  136.54600   75.48940
 6088.00000  133.55240    0.18420  187.56520  136.64870   73.04390  136.56810   75.52730
 6088.50000  134.47500    0.18540  187.48420  136.67220   73.16060  136.59170   75.56520
 6089.00000  134.13670    0.18670  187.43540  136.97160   73.62640  136.88620   75.60310
 6089.50000  132.38100    0.18560  187.33130  137.39760   73.53860  137.31650   75.85890
 6090.00000  129.82530    0.18260  187.23830  137.22070   73.03180  137.13400   76.18240
 6090.50000  127.24860    0.18050  187.17350  136.88520   73.04300  136.80440   75.78040
 6091.00000  125.66330    0.18320  187.10870  136.94260   73.54110  136.86190   75.81850
 6091.50000  126.24170    0.18580  187.12960  136.87930   73.85300  136.79860   75.88200
 6092.00000  126.90850    0.18840  187.58000  136.65660   73.89260  136.57130   76.04980
 6092.50000  123.83250    0.18930  188.01610  135.83600   73.61800  135.66320   76.21750
 6093.00000  115.73270    0.18040  188.23270  133.96930   72.63340  133.81190   76.25170
 6093.50000  102.99600    0.15130  188.23440  130.84920   70.61220  130.46450   76.23200
 6094.00000   85.81760    0.10840  188.01200  125.79080   66.83310  125.28330   76.70370
 6094.50000   63.17110    0.06550  187.78970  120.16860   62.24560  119.78080   77.90240
 6095.00000   46.18850    0.03190  187.12100  114.06080   58.23900  113.69240   79.46500
 6095.50000   41.59010    0.02790  186.53870  110.83440   56.94600  110.65770   80.99770
 6096.00000   52.49350    0.03640  186.50360  114.36060   57.99930  113.81070   80.34410
 6096.50000   69.89150    0.07270  187.10440  121.70110   61.51770  120.40900   78.71360
 6097.00000   86.71530    0.10910  187.81630  129.53090   65.51110  128.72710   76.76160
 6097.50000   96.79610    0.14300  188.47670  136.56510   69.32530  135.90730   75.84120
 6098.00000  103.02510    0.15600  188.82340  140.06150   71.80500  139.84010   75.89010
 6098.50000  107.17490    0.16270  188.70510  141.92790   72.77770  141.80590   75.97230
 6099.00000  106.18420    0.16590  188.50020  142.35860   73.02700  142.25420   76.17200
 6099.50000  102.14420    0.16730  188.10370  141.35830   73.15750  141.21650   76.58310
