~Version ---------------------------------------------------
VERS.   2.0 : CWLS log ASCII Standard -VERSION 2.0
WRAP.    NO : One line per depth step
DLM . SPACE : Column Data Section Delimiter
~Well ------------------------------------------------------
STRT .FT                   0.0 : START DEPTH
STOP .FT                7027.0 : STOP DEPTH
STEP .FT                   0.5 : STEP
NULL .                -9999.25 : NULL VALUE
COMP .                         : COMPANY
WELL .                         : WELL
FLD  .                         : FIELD
LOC  .                         : LOCATION
PROV .                         : PROVINCE
CNTY .                         : COUNTY
STAT .                         : STATE
CTRY .                         : COUNTRY
SRVC .                         : SERVICE COMPANY
DATE .                         : DATE
UWI  .                         : UNIQUE WELL ID
API  .                         : API NUMBER
SLAT .WGS84  6.725493119999996 : SURFACE LATITUDE
SLON .WGS84 3.9080370799999997 : SURFACE LONGITUDE
DATUM.F                    nan : DEPTH DATUM ELEV
~Curve Information -----------------------------------------
DEPT    .FT    : 
AT10    .OHMM  : ARRAY INDUCTION TWO FOOT RESISTIVITY A10
AT20    .OHMM  : ARRAY INDUCTION TWO FOOT RESISTIVITY A20
AT30    .OHMM  : ARRAY INDUCTION TWO FOOT RESISTIVITY A30
AT60    .OHMM  : ARRAY INDUCTION TWO FOOT RESISTIVITY A60
AT90    .OHMM  : ARRAY INDUCTION TWO FOOT RESISTIVITY A90
DPHZ_LS .DEC   : HGRD STANDARD RESOLUTION DENSITY POROSITY
DTCO    .US/F  : DELTA-T COMPRESSIONAL
DTSM    .US/F  : DELTA-T SHEAR
ECGREDTC.GAPI  : ENVIRONMENTALLY CORRECTED GAMMA RAY
ECGRR   .GAPI  : ENVIRONMENTALLY CORRECTED GAMMA RAY FROM RESISTIVITY LOG
HCALR   .IN    : HRCC CALIPER CALIBRATED FROM RESISTIVITY LOG
PEFZ    .B/E   : HRDD STANDARD RESOLUTION FORMATION PHOTOELECTRIC FACTOR
SPHI_LS .DEC   : SONIC POROSITY [LIMESTONE]
SPR     .MV    : SPONTANEOUS POTENTIAL FROM RESISTIVITY LOG
TENR    .LBF   : TENSION FROM RESISTIVITY LOG
TENS    .LBF   : TENSION FROM SONIC LOG
TNPH_LS .DEC   : THERMAL NEUTRON POROSITY [LIMESTONE]
~Params ----------------------------------------------------
~Other -----------------------------------------------------
~ASCII -----------------------------------------------------
# ...
 1886.00000   -9999.25    0.81140    0.89570    0.95550    1.05720    0.29880  107.39030   -9999.25   81.64890   83.24220   11.01730    3.14750   -9999.25 -114.02410 1930.12730 2305.06670    0.39500
 1886.50000   -9999.25    0.94410    1.07640    1.19880    1.34380    0.29860  106.17670   -9999.25   84.88750   90.76560   11.78790    2.95720   -9999.25 -113.72830 1840.96370 2274.79740    0.41220
 1887.00000   -9999.25    1.11000    1.30300    1.69700    2.27960    0.26210  109.50260   -9999.25   83.97340   86.29270   10.91530    3.03160   -9999.25 -113.27580 1789.52320 2244.52820    0.40220
 1887.50000   -9999.25    1.33240    1.60400    2.31980    2.62150    0.23260  115.98200   -9999.25   79.39800   80.43810   10.59370    3.21820   -9999.25 -112.82320 1789.52320 2222.07360    0.39140
 1888.00000   -9999.25    1.65080    1.92130    2.50090    3.34620    0.19260  120.55360  156.21120   73.69000   74.20320   10.62440    3.58140   -9999.25 -112.37060 1815.24350 2285.10210    0.38940
 1888.50000   -9999.25    2.01320    2.30380    3.49870    4.03840    0.12120  114.40590  157.90300   59.81690   63.78550   10.65500    3.94470   -9999.25 -111.47270 1840.96370 2348.13060    0.33060
 1889.00000   -9999.25    2.50270    5.87330    6.25590    6.24400    0.01110  107.02190  167.26450   40.99270   49.50300   10.58860    4.31410   -9999.25 -109.65010 1799.81130 2346.00960    0.14650
 1889.50000   -9999.25    3.67590    9.44280   25.71200    6.56660   -0.05250  110.79150  173.74700   25.86110   32.37200   10.27220    4.68510   -9999.25 -107.66390 1882.11610 2227.39750    0.07160
 1890.00000   -9999.25    5.58870   20.36020   25.32840   14.33810   -0.09300  106.72490  174.04070   25.21400   24.58480    9.87670    4.84750   -9999.25 -106.16170 1758.68070 2231.39410    0.05170
 1890.50000   -9999.25    6.13230   11.31730   15.54460   10.86800   -0.03490   97.09110  178.70520   32.46670   31.77460    9.79760    4.80530    0.29980 -104.22280 1942.39630 2189.75220    0.07000
 1891.00000   -9999.25    3.43040    5.25380    8.22810    8.31330    0.04700   87.48860  183.86770   46.00010   43.88520    9.81900    4.46060    0.28170 -102.28400 1981.58900 2180.04470    0.15010
 1891.50000   -9999.25    1.74820    2.51870    3.50590    3.16280    0.13220   96.53560  182.34610   57.65390   55.99570    9.95580    3.95640    0.30010 -100.34520 1913.00180 2218.23870    0.24250
 1892.00000   -9999.25    1.56910    1.59890    2.25850    2.50030    0.16370   90.36720  183.82530   66.84880   65.89490   10.70090    3.52490   -9999.25  -99.09100 1727.81650 2256.43270    0.29790
 1892.50000   -9999.25    1.75560    1.84990    2.20750    2.43000    0.13220   92.44720  193.28460   69.05380   66.06060    9.84350    3.53450   -9999.25  -98.00800 1913.00180 2243.70430    0.32750
 1893.00000   -9999.25    1.62090    1.76840    2.12050    2.25100    0.10380   93.89130  211.00850   66.94190   63.74200    9.91090    3.66030   -9999.25  -96.94050 1847.84400 2173.68910    0.30240
 1893.50000   -9999.25    1.79630    1.94800    2.14070    2.56680    0.07860   95.78600  206.27950   65.72910   60.95680   10.00280    3.84380   -9999.25  -95.93480 1856.41740 2231.49880    0.29360
 1894.00000   -9999.25    1.95420    2.14260    2.65450    2.55130    0.05260  100.28980  206.74840   66.50960   60.79210   10.03390    3.96510   -9999.25  -94.92920 1748.39260 2288.88390    0.29140
 1894.50000   -9999.25    2.05950    2.37510    2.88520    3.04550    0.06760  106.48780  201.13910   71.76480   63.68070    9.98970    4.04380   -9999.25  -94.31690 2077.61110 2257.55190    0.24890
 1895.00000   -9999.25    1.70920    1.83940    1.95580    2.17360    0.11040  111.52260  203.12700   72.67290   65.40190   10.12790    4.05960   -9999.25  -94.29460 1851.27340 2205.33180    0.28050
 1895.50000   -9999.25    1.24210    1.46390    1.64310    1.72780    0.12850  118.31200  201.92620   72.61000   63.78730   10.39340    3.83200   -9999.25  -94.27230 1851.27340 2165.65210    0.30070
 1896.00000   -9999.25    1.66460    1.69350    1.85760    2.20220    0.09300  122.69880  202.47400   69.57110   59.15040   10.19570    3.70870   -9999.25  -94.25000 1892.42570 2176.13350    0.27850
 1896.50000   -9999.25    1.32220    1.63850    1.76950    2.04510    0.11590  128.52300  208.93610   67.96250   59.36120   10.09620    3.57160   -9999.25  -94.22770 1861.56150 2155.23980    0.23640
 1897.00000   -9999.25    1.15380    1.44560    1.72260    1.87430    0.18720  133.40890  216.13170   66.51140   70.06170   10.38250    3.20900   -9999.25  -94.20540 1913.00180 2106.34940    0.26740
 1897.50000   -9999.25    1.09910    1.40400    1.69040    2.00980    0.29990  129.41090  224.27060   66.29700   75.43990   10.63970    2.84630   -9999.25  -94.18310 1923.28990 2361.50530    0.29850
 1898.00000   -9999.25    1.04480    1.33470    1.66680    2.00980    0.30020  126.71540  228.05040   66.73160   78.60730   10.59370    2.48370   -9999.25  -94.16080 1902.71380 2426.27610    0.41780
 1898.50000   -9999.25    0.68250    1.09020    1.62770    1.81340    0.30050  123.98790  228.14990   69.91570   81.97110   10.98410    2.19900   -9999.25  -94.10260 1779.25680 2268.27570    0.48930
 1899.00000   -9999.25    0.71980    0.87340    1.37320    1.74970    0.30070  119.76530  230.15990   75.38220   85.96250   12.30850    2.13110    0.29980  -94.54030 1813.55040 2110.27540    0.47220
 1899.50000   -9999.25    1.24210    1.70810    3.09420    3.53780    0.30100  114.41370  226.19520   77.82450   86.33930   11.40130    2.22220    0.29990  -94.74360 1810.12540 2302.62350    0.46020
 1900.00000   -9999.25    1.75840    3.29830    5.03750   10.20470    0.28180  104.42770  220.36240   76.25490   83.57290   10.56310    2.47900    0.30010  -95.05490 1784.41070 2302.61940    0.42720
 1900.50000   -9999.25    1.92700    4.90520    7.59110   12.48300    0.17740   87.49030  218.54160   76.79340   82.40670   10.36660    2.77210    0.28130  -95.22420 1779.26990 2130.87930    0.39420
 1901.00000   -9999.25    2.75990    4.41300    5.74830    7.82420    0.12430   90.27060  214.92570   82.37780   84.41350   10.47530    3.00430    0.29940  -95.39360 1789.55800 1945.40090    0.37100
 1901.50000   -9999.25    2.26950    3.44930    4.51820    3.93340    0.11550   91.42810  200.09230   87.22150   86.03190   10.36270    2.99720    0.29970  -95.56290 1779.26990 2178.96670    0.34610
 1902.00000   -9999.25    1.66360    2.48560    3.28820    2.08680    0.14140   92.53970  193.98450   89.02990   87.68120   10.47120    2.89170    0.30020  -96.09060 1786.98590 2632.35990    0.32200
 1902.50000   -9999.25    1.08590    1.52190    2.05820    1.38560    0.18200   93.61500  183.36010   91.49980   87.91010   10.31480    2.81550   -9999.25  -96.29640 1806.70470 2371.31490    0.29970
 1903.00000   -9999.25    0.73930    0.75090    0.91480    0.88630    0.19830   94.43310  184.80070   89.98250   83.24890   10.40310    2.73930   -9999.25  -96.62560 1974.74300 2241.77420    0.31660
 1903.50000   -9999.25    0.92360    1.35450    1.77430    1.32630    0.16440   95.36940  207.03960   84.34140   75.90700   10.35190    2.69070   -9999.25  -96.99570 1748.40570 2165.22710    0.27780
 1904.00000   -9999.25    1.11640    1.88330    2.02270    1.88710    0.25710   97.19620  218.28640   66.70030   72.56260   10.32110    2.61460   -9999.25  -97.18590 2077.62360 2223.04670    0.30070
 1904.50000   -9999.25    1.09800    1.61910    1.98490    1.34310    0.29960   98.95060  227.42700   62.70220   73.84370   10.53200    2.35450   -9999.25  -97.55770 1900.66900 2169.37550    0.36830
 1905.00000   -9999.25    0.85920    2.58030    3.53180    2.96980    0.30040   99.76430  236.33840   64.50540   84.08090   14.81420    2.07700   -9999.25  -97.92950 1799.84600 2111.73660    0.49440
 1905.50000   -9999.25    0.93420    1.30700    1.78900    2.30840   -9999.25  107.67880  239.95820   69.40200   92.02980   15.99820    1.96530   -9999.25  -98.30130 1871.86240 2257.69420    0.58030
 1906.00000   -9999.25    1.21380    1.60270    2.14070    3.29580   -9999.25  115.59840  240.10120   75.06740   91.35540   15.97010    2.05660   -9999.25  -98.67310 1821.56530 2288.83010    0.54950
