~Version ---------------------------------------------------
VERS.   2.0 : CWLS log ASCII Standard -VERSION 2.0
WRAP.    NO : One line per depth step
DLM . SPACE : Column Data Section Delimiter
~Well ------------------------------------------------------
STRT .FT                   0.0 : START DEPTH
STOP .FT                7027.0 : STOP DEPTH
STEP .FT                   0.5 : STEP
NULL .                -9999.25 : NULL VALUE
COMP .                         : COMPANY
WELL .                         : WELL
FLD  .                         : FIELD
LOC  .                         : LOCATION
PROV .                         : PROVINCE
CNTY .                         : COUNTY
STAT .                         : STATE
CTRY .                         : COUNTRY
SRVC .                         : SERVICE COMPANY
DATE .                         : DATE
UWI  .                         : UNIQUE WELL ID
API  .                         : API NUMBER
SLAT .WGS84  6.725493119999996 : SURFACE LATITUDE
SLON .WGS84 3.9080370799999997 : SURFACE LONGITUDE
DATUM.F                    nan : DEPTH DATUM ELEV
~Curve Information -----------------------------------------
DEPT    .FT    : 
AT10    .OHMM  : ARRAY INDUCTION TWO FOOT RESISTIVITY A10
AT20    .OHMM  : ARRAY INDUCTION TWO FOOT RESISTIVITY A20
AT30    .OHMM  : ARRAY INDUCTION TWO FOOT RESISTIVITY A30
AT60    .OHMM  : ARRAY INDUCTION TWO FOOT RESISTIVITY A60
AT90    .OHMM  : ARRAY INDUCTION TWO FOOT RESISTIVITY A90
DPHZ_LS .DEC   : HGRD STANDARD RESOLUTION DENSITY POROSITY
DTCO    .US/F  : DELTA-T COMPRESSIONAL
DTSM    .US/F  : DELTA-T SHEAR
ECGREDTC.GAPI  : ENVIRONMENTALLY CORRECTED GAMMA RAY
ECGRR   .GAPI  : ENVIRONMENTALLY CORRECTED GAMMA RAY FROM RESISTIVITY LOG
HCALR   .IN    : HRCC CALIPER CALIBRATED FROM RESISTIVITY LOG
PEFZ    .B/E   : HRDD STANDARD RESOLUTION FORMATION PHOTOELECTRIC FACTOR
SPHI_LS .DEC   : SONIC POROSITY [LIMESTONE]
SPR     .MV    : SPONTANEOUS POTENTIAL FROM RESISTIVITY LOG
TENR    .LBF   : TENSION FROM RESISTIVITY LOG
TENS    .LBF   : TENSION FROM SONIC LOG
TNPH_LS .DEC   : THERMAL NEUTRON POROSITY [LIMESTONE]
~Params ----------------------------------------------------
~Other -----------------------------------------------------
~ASCII -----------------------------------------------------
# ...
 4428.00000   -9999.25    6.02520    7.20740    9.32840    8.30080    0.07310   59.14450  108.51110   27.90570   26.16350    9.10160    4.64680    0.08070 -102.44390 3048.26560 3378.13340    0.11300
 4428.50000   -9999.25    6.25740    6.27270    6.76570    7.43310    0.07400   58.73530  108.51110   27.31780   24.69670    9.10030    4.68270    0.07920 -102.61800 3076.78980 3401.20950    0.10030
 4429.00000   -9999.25    6.10310    7.02650    7.46990    7.73250    0.07250   60.08830  108.64960   25.40150   22.59180    9.08000    4.68070    0.08810 -102.79210 3199.04230 3387.67520    0.09100
 4429.50000   -9999.25    5.72890    7.29730    8.65950    9.42820    0.06960   61.33280  109.06540   25.27610   22.22370    9.05960    4.65410    0.09720 -102.96610 3062.69780 3400.38290    0.08970
 4430.00000   -9999.25    5.44710    7.87080    9.50660   10.10650    0.07410   60.71420  109.47630   25.05380   23.64910    9.02780    4.61360    0.09190 -103.14020 3042.79410 3413.09050    0.09690
 4430.50000   -9999.25    5.58710    8.02110    8.27790    9.12910    0.07710   59.66870  110.00170   28.13090   28.61880    9.01800    4.48900    0.08400 -103.23040 3127.99980 3425.79810    0.10530
 4431.00000   -9999.25    7.00940    9.50940   13.36430    8.38300    0.08140   60.90120  110.05310   31.62230   35.69280    9.06630    4.31900    0.09620 -103.26470 3152.21370 3412.91760    0.11760
 4431.50000   -9999.25    5.65710    6.43290    8.36450    9.50940    0.08700   60.98830  110.10170   33.66440   40.14510    9.10390    4.13540    0.09440 -103.91900 2950.43170 3396.81700    0.12220
 4432.00000   -9999.25    6.25740    7.85630   10.92420    8.17910    0.08620   60.56940  110.34470   33.64890   38.51310    9.07190    4.04540    0.09200 -104.70080 3192.56980 3380.71640    0.12230
 4432.50000   -9999.25    4.70700    9.21890    9.63010    6.00250    0.08380   60.76000  110.58770   33.03740   36.10790    9.03990    4.00670    0.09300 -105.02280 3257.14000 3374.88230    0.11630
 4433.00000   -9999.25    7.50680   14.23570   22.01980   13.39800    0.06890   59.71920  109.56990   32.07080   30.85010    9.01440    4.14350    0.08640 -105.29620 3134.85640 3377.91300    0.10150
 4433.50000   -9999.25   11.55460   25.42500   34.40940   21.39930    0.05620   59.42420  109.11010   30.65320   29.17680    8.95820    4.33450    0.08260 -105.56960 3037.02950 3380.94370    0.08000
 4434.00000   -9999.25   14.93560   23.57250   30.12570   33.97840    0.04280   59.18090  108.61380   30.04280   29.36130    8.92960    4.49650    0.08310 -105.70220 3257.14000 3383.97440    0.06690
 4434.50000   -9999.25   15.70820   16.77110   27.77100   20.00890    0.03580   57.69880  107.69420   29.19680   30.25770    8.92750    4.60310    0.07260 -106.08360 3127.99980 3382.51960    0.05750
 4435.00000   -9999.25   12.70860   18.24730   23.27720   22.98560    0.03340   56.55500  106.99960   28.76070   28.70370    8.94310    4.64620    0.06280 -106.20640 3084.95280 3379.08480    0.05300
 4435.50000   -9999.25   10.20500   18.10050   27.07950   20.24360    0.02940   57.11770  106.35860   27.50810   27.42300    8.93760    4.65570    0.06970 -106.32930 3208.71230 3375.65000    0.04990
 4436.00000   -9999.25    9.30880   15.75260   21.58130   19.70440    0.02150   56.85550  105.77550   31.18170   27.57150    8.93320    4.65180    0.06430 -106.45210 3192.56980 3374.27610    0.04900
 4436.50000   -9999.25   10.76100   13.70730   16.36600   14.80910    0.01790   57.23700  105.58560   33.26250   28.65740    8.92920    4.53710    0.06880 -106.50130 3095.71420 3381.42330    0.04810
 4437.00000   -9999.25    8.32520   11.48920   12.90200   15.51520    0.01940   57.63630  106.07090   32.23260   27.70930    8.91280    4.39750    0.07030 -106.82410 3208.71240 3390.35730    0.04740
 4437.50000   -9999.25    6.98010    8.79790   10.70890    8.85570    0.03010   59.04390  106.55620   30.89500   27.09870    8.86860    4.28330    0.07990 -106.35780 3240.99760 3399.29120    0.04850
 4438.00000   -9999.25    6.92160    8.07310   10.00130    9.32970    0.03770   60.35650  106.52860   30.68710   30.05630    8.88470    4.26080    0.08970 -105.99900 2998.85920 3392.94780    0.05320
 4438.50000   -9999.25    9.89070   11.04110   13.88120   20.51980    0.04420   61.05240  107.23560   32.03220   35.59670    8.91700    4.26440    0.09450 -105.64030 3153.82790 3376.41960    0.06410
 4439.00000   -9999.25   14.23170   15.33810   17.69250   27.07950    0.03870   61.09630  108.09340   34.47560   40.75490    8.91810    4.29430    0.09570 -105.28150 3224.85470 3359.89130    0.07430
 4439.50000   -9999.25   18.57270   20.26270   28.52610   24.19190    0.03260   61.14770  108.48820   37.35850   42.78760    8.92070    4.31120    0.09600 -104.92270 3044.05830 3343.36300    0.07830
 4440.00000   -9999.25   22.91370   19.02480   24.91460   19.06060    0.02860   61.61280  108.68160   38.21790   42.54540    8.91300    4.35170    0.10000 -104.56400 3060.14090 3362.14930    0.07260
 4440.50000   -9999.25   26.11610   18.78640   10.65210   10.10650    0.02580   61.91660  109.69890   39.83160   40.38180    8.90050    4.38140    0.10150 -104.31020 3305.21170 3385.63210    0.06690
 4441.00000   -9999.25   24.33660   25.71480   16.26660   15.33350    0.02810   61.59990  111.21670   40.49500   40.17200    8.89800    4.44060    0.10100 -103.67930 3062.73670 3409.11500    0.06600
 4441.50000   -9999.25   20.63960   27.65500   17.19940   16.61040    0.03160   61.96090  112.74050   44.09940   41.40490    8.89730    4.49230    0.10200 -103.04850 3229.18710 3424.72250    0.06730
 4442.00000   -9999.25   16.73030   25.74760   17.86250   15.94630    0.03280   62.15450  114.13430   46.44700   44.94880    8.89660    4.47570    0.10270 -102.41760 3218.47910 3428.51700    0.06990
 4442.50000   -9999.25   13.74070    9.27260   14.41630   12.05860    0.03550   61.97000  115.32770   48.68820   47.15870    8.89590    4.39540    0.10000 -101.96620 3112.57470 3432.31150    0.07050
 4443.00000   -9999.25   10.52430    9.27260   11.57470    8.17090    0.03600   62.04850  115.42960   50.58670   49.33440    8.89520    4.31830    0.10290 -101.31720 3186.37540 3436.10600    0.07530
 4443.50000   -9999.25    7.75330   13.03840    9.63010    7.05870    0.03900   62.22650  115.86190   53.48850   51.10710    8.89460    4.25720    0.10370 -100.34610 3214.99770 3404.65810    0.07240
 4444.00000   -9999.25    7.75330   14.97200   12.54930    8.30080    0.03430   62.63830  116.03110   57.81370   52.25640    8.89390    4.23040    0.10630 -100.01990 3115.38730 3373.21020    0.06870
 4444.50000   -9999.25    7.91810   11.01110   11.34470    7.51020    0.02970   63.71410  116.83810   56.00930   51.30150    8.89320    4.17130    0.11430  -99.31810 3105.42100 3341.76230    0.06810
 4445.00000   -9999.25    8.46870    7.02650    9.87600    6.50920    0.02600   63.74060  117.86620   53.14020   48.57100    8.89250    4.10760    0.11560  -98.71200 3276.22570 3330.23440    0.07090
 4445.50000   -9999.25   13.52030    9.68610   15.91900    6.21460    0.03860   63.82310  118.05090   51.19210   49.24800    8.89860    4.01690    0.11460  -98.14540 3071.78020 3348.58660    0.07670
 4446.00000   -9999.25   16.52070   12.63570   12.37040    6.97940    0.05590   62.93830  118.21020   55.18340   52.09730    8.86890    4.00300    0.10840  -97.73880 3114.60940 3366.93880    0.08490
 4446.50000   -9999.25   13.63470   15.54920   15.94630   12.54930    0.07480   62.16020  118.29840   61.19560   56.55590    8.88000    3.99090    0.10320  -97.32320 3171.74520 3358.82310    0.09300
 4447.00000   -9999.25   12.05410   17.63860   24.17460    9.44990    0.07900   62.11690  118.38670   66.54270   59.55280    8.88000    3.94820    0.10280  -96.64820 3045.04440 3356.24700    0.10050
 4447.50000   -9999.25   14.38120   23.87160   35.73590   14.08480    0.07150   62.37200  118.61940   66.98630   59.55590    8.87990    3.90550    0.10620  -95.68510 2993.50390 3359.46710    0.10300
 4448.00000   -9999.25   12.38710   10.82020   25.06740   16.82050    0.05930   63.83770  120.24440   63.79120   58.61610    8.86550    3.86280    0.11670  -94.72200 3194.89210 3362.68720    0.09290
