~Version ---------------------------------------------------
VERS.   2.0 : CWLS log ASCII Standard -VERSION 2.0
WRAP.    NO : One line per depth step
DLM . SPACE : Column Data Section Delimiter
~Well ------------------------------------------------------
STRT .FT                   0.0 : START DEPTH
STOP .FT                7027.0 : STOP DEPTH
STEP .FT                   0.5 : STEP
NULL .                -9999.25 : NULL VALUE
COMP .                         : COMPANY
WELL .                         : WELL
FLD  .                         : FIELD
LOC  .                         : LOCATION
PROV .                         : PROVINCE
CNTY .                         : COUNTY
STAT .                         : STATE
CTRY .                         : COUNTRY
SRVC .                         : SERVICE COMPANY
DATE .                         : DATE
UWI  .                         : UNIQUE WELL ID
API  .                         : API NUMBER
SLAT .WGS84  6.725493119999996 : SURFACE LATITUDE
SLON .WGS84 3.9080370799999997 : SURFACE LONGITUDE
DATUM.F                    nan : DEPTH DATUM ELEV
~Curve Information -----------------------------------------
DEPT    .FT    : 
AT10    .OHMM  : ARRAY INDUCTION TWO FOOT RESISTIVITY A10
AT20    .OHMM  : ARRAY INDUCTION TWO FOOT RESISTIVITY A20
AT30    .OHMM  : ARRAY INDUCTION TWO FOOT RESISTIVITY A30
AT60    .OHMM  : ARRAY INDUCTION TWO FOOT RESISTIVITY A60
AT90    .OHMM  : ARRAY INDUCTION TWO FOOT RESISTIVITY A90
DPHZ_LS .DEC   : HGRD STANDARD RESOLUTION DENSITY POROSITY
DTCO    .US/F  : DELTA-T COMPRESSIONAL
DTSM    .US/F  : DELTA-T SHEAR
ECGREDTC.GAPI  : ENVIRONMENTALLY CORRECTED GAMMA RAY
ECGRR   .GAPI  : ENVIRONMENTALLY CORRECTED GAMMA RAY FROM RESISTIVITY LOG
HCALR   .IN    : HRCC CALIPER CALIBRATED FROM RESISTIVITY LOG
PEFZ    .B/E   : HRDD STANDARD RESOLUTION FORMATION PHOTOELECTRIC FACTOR
SPHI_LS .DEC   : SONIC POROSITY [LIMESTONE]
SPR     .MV    : SPONTANEOUS POTENTIAL FROM RESISTIVITY LOG
TENR    .LBF   : TENSION FROM RESISTIVITY LOG
TENS    .LBF   : TENSION FROM SONIC LOG
TNPH_LS .DEC   : THERMAL NEUTRON POROSITY [LIMESTONE]
~Params ----------------------------------------------------
~Other -----------------------------------------------------
~ASCII -----------------------------------------------------
# ...
 1517.00000   -9999.25   -9999.25   -9999.25   -9999.25   -9999.25   -9999.25  112.49050  204.13220   61.77670   70.81250   -9999.25   -9999.25   -9999.25   -9999.25   -9999.25   -9999.25    0.70070
 1517.50000   -9999.25   -9999.25   -9999.25   -9999.25   -9999.25   -9999.25  111.76250  192.09500   58.67100   71.60500   -9999.25   -9999.25   -9999.25   -9999.25   -9999.25   -9999.25    0.70060
 1518.00000   -9999.25   -9999.25   -9999.25   -9999.25   -9999.25   -9999.25  111.42420  176.20500   55.95180   71.92400   -9999.25   -9999.25   -9999.25   -9999.25   -9999.25   -9999.25    0.70050
 1518.50000   -9999.25   -9999.25   -9999.25   -9999.25   -9999.25   -9999.25  111.40720  199.45280   54.60700   72.37080   -9999.25   -9999.25   -9999.25   -9999.25   -9999.25   -9999.25    0.67540
 1519.00000   -9999.25   -9999.25   -9999.25   -9999.25   -9999.25   -9999.25  109.75560  209.82010   51.47040   71.07780   -9999.25   -9999.25   -9999.25   -9999.25   -9999.25   -9999.25    0.69940
 1519.50000   -9999.25   -9999.25   -9999.25   -9999.25   -9999.25   -9999.25  108.61600  215.33470   47.42520   66.75050   -9999.25   -9999.25   -9999.25   -9999.25   -9999.25   -9999.25    0.69950
 1520.00000   -9999.25   -9999.25   -9999.25   -9999.25   -9999.25   -9999.25  105.18080  209.67060   45.93670   60.83210   -9999.25   -9999.25   -9999.25   -9999.25   -9999.25   -9999.25    0.69960
 1520.50000   -9999.25   -9999.25   -9999.25   -9999.25   -9999.25   -9999.25  104.60970  217.73830   49.20460   56.32750   -9999.25   -9999.25   -9999.25   -9999.25   -9999.25   -9999.25    0.69970
 1521.00000   -9999.25   -9999.25   -9999.25   -9999.25   -9999.25   -9999.25  105.81350  223.26830   54.71620   63.01850   -9999.25   -9999.25   -9999.25   -9999.25   -9999.25   -9999.25    0.69970
 1521.50000   -9999.25   -9999.25   -9999.25   -9999.25   -9999.25   -9999.25  108.25170  222.85570   59.66230   75.67150   -9999.25   -9999.25   -9999.25   -9999.25   -9999.25   -9999.25    0.69980
 1522.00000   -9999.25   -9999.25   -9999.25   -9999.25   -9999.25   -9999.25  110.69190  222.00730   64.60850   89.09990   -9999.25   -9999.25   -9999.25   -9999.25   -9999.25   -9999.25    0.69990
 1522.50000   -9999.25   -9999.25   -9999.25   -9999.25   -9999.25   -9999.25  114.76110  228.44980   66.12280  103.30610   -9999.25   -9999.25   -9999.25   -9999.25   -9999.25   -9999.25    0.62800
 1523.00000   -9999.25    0.71990    0.80850    0.94120    1.01970   -9999.25  118.41350  240.10120   66.78390  137.19230   16.01600    2.49780   -9999.25 -128.70650 1652.67940 1980.29380   -9999.25
 1523.50000   -9999.25    0.70100    0.75940    0.86180    1.01010   -9999.25  120.51680  240.10120   66.54730  150.07980   16.62840    2.13190   -9999.25 -128.84730 1645.98860 2032.03520   -9999.25
 1524.00000   -9999.25    0.64880    0.69810    0.76260    0.94990   -9999.25  123.79940  240.10120   69.09090  150.43540   16.01600    1.93490   -9999.25 -128.44380 1639.29780 2058.46220   -9999.25
 1524.50000   -9999.25    0.59660    0.63670    0.67700    0.76030   -9999.25  129.24390   -9999.25   68.21760  121.41590   15.14410    2.05740   -9999.25 -125.86260 1632.60700 2057.60790   -9999.25
 1525.00000   -9999.25    0.54440    0.57540    0.60860    0.67290   -9999.25  133.87280   -9999.25   64.60850  134.97530   15.99820    2.05860   -9999.25 -123.32830 1625.91610 2055.31820   -9999.25
 1525.50000   -9999.25    0.60410    0.61450    0.68160    0.73310   -9999.25  136.69860   -9999.25   59.69990  149.44800   18.84840    1.92980   -9999.25 -125.82430 1636.62160 2055.31820   -9999.25
 1526.00000   -9999.25    0.61370    0.68630    0.84120    0.93050   -9999.25  137.45830   -9999.25   59.37440  150.85690   17.76140    1.81580   -9999.25 -129.70980 1651.67620 2047.07480   -9999.25
 1526.50000   -9999.25    0.53600    0.70060    0.86900    1.09760   -9999.25  135.74830   -9999.25   64.16840  163.67160   19.34850    1.86380    0.30080 -130.26670 1666.73080 2033.33590   -9999.25
 1527.00000   -9999.25    0.48940    0.62180    0.83460    1.19900   -9999.25  133.31330   -9999.25   68.83660  188.37350   20.66110    2.02710    0.28180 -130.52220 1659.70530 2055.31780   -9999.25
 1527.50000   -9999.25    0.55270    0.83610    1.24250    1.97570   -9999.25  130.87830   -9999.25   71.97350  150.64610   17.75370    2.19030    0.28340 -130.77770 1652.67990 2082.79620   -9999.25
 1528.00000   -9999.25    0.87070    1.33440    1.70430    2.56180   -9999.25  128.48570   -9999.25   72.94630  127.41140   14.11510    2.36660    0.28610 -131.01230 1645.65440 1999.78900   -9999.25
 1528.50000   -9999.25    0.93230    1.69400    2.91470    6.49520   -9999.25  122.43300   -9999.25   76.37980  124.58050   13.70170    2.52650    0.29480 -130.78170 1638.62890 1975.82720   -9999.25
 1529.00000   -9999.25    0.86740    1.06370    1.39140    2.01310   -9999.25  113.08670   -9999.25   79.91050  126.59260   13.83190    2.61870    0.29980 -130.78170 1631.60350 1966.62690   -9999.25
 1529.50000   -9999.25    0.95620    1.55830    1.74340    3.61830   -9999.25  112.96020   -9999.25   82.22900  128.23420   14.40600    2.66390    0.29940 -130.57600 1624.57800 1957.42660   -9999.25
 1530.00000   -9999.25    0.98860    1.24870    1.30350    2.80200   -9999.25  112.51670   -9999.25   86.38990  135.67470   14.82440    2.70900    0.29910 -130.62500 1633.96280 1948.22620   -9999.25
 1530.50000   -9999.25    0.70650    0.80910    0.86350    1.33090   -9999.25  110.20090   -9999.25   91.53670  147.82260   14.00020    2.75410    0.29070 -130.67400 1643.34760 1939.02590   -9999.25
 1531.00000   -9999.25    0.53730    0.55190    0.58180    0.57610   -9999.25  108.56960   -9999.25   96.08480  163.29210   15.56950    2.70350    0.30120 -130.72310 1652.73250 1933.64720   -9999.25
 1531.50000   -9999.25    0.75830    0.92760    1.29100    1.52800   -9999.25  112.44720   -9999.25   98.61290  150.22460   13.64400    2.60200    0.30120 -130.77210 1652.73250 1943.55530   -9999.25
 1532.00000   -9999.25    0.78000    1.00850    1.13500    1.97500   -9999.25  113.56390   -9999.25   92.86100  136.21350   13.68130    2.47680    0.30120 -130.69960 1652.73250 1953.46330   -9999.25
 1532.50000   -9999.25    0.46420    0.66150    0.63900    0.97230   -9999.25  115.13830   -9999.25   84.68000  126.38900   13.88930    2.34190   -9999.25 -131.11280 1652.73250 1963.37140   -9999.25
 1533.00000   -9999.25    0.42770    0.46160    0.70260    0.74270   -9999.25  116.88590   -9999.25   73.08150  124.15510   14.54370    2.13690   -9999.25 -131.05570 1652.73250 1973.27950   -9999.25
 1533.50000   -9999.25    0.61390    0.76930    0.90380    1.36460   -9999.25  117.05950   -9999.25   71.22390  122.34250   15.33980    1.98450   -9999.25 -130.99860 1652.73250 1983.18750   -9999.25
 1534.00000   -9999.25    0.86780    0.99090    1.10500    1.34210   -9999.25  117.91400   -9999.25   71.91850  116.77830   14.48250    1.95230   -9999.25 -130.94150 1652.73250 2110.27540   -9999.25
 1534.50000   -9999.25    0.66500    0.72700    0.98220    1.34250   -9999.25  117.63320   -9999.25   72.90860  128.58120   15.98290    2.01020   -9999.25 -130.88440 1652.73250 2055.31820    0.70140
 1535.00000   -9999.25    0.73070    0.94030    1.25490    1.59130   -9999.25  114.22780   -9999.25   74.28680  100.77170   19.44040    2.22800   -9999.25 -130.82730 1652.73250 2000.36110    0.70060
 1535.50000   -9999.25    0.89490    1.16640    1.54260    2.10770   -9999.25  115.85300   -9999.25   81.14700  107.87040   21.65010    2.44570   -9999.25 -130.77030 1652.73250 2055.31820    0.54610
 1536.00000   -9999.25    0.90340    1.05250    1.78560    1.92590   -9999.25  118.44750   -9999.25   87.43270  105.27050   17.34800    2.63030   -9999.25 -130.71320 1644.70350 1979.75290    0.51840
 1536.50000   -9999.25    0.70150    0.82230    2.34710    1.37560   -9999.25  120.82660   -9999.25   85.57790  103.78090   16.80070    2.65340   -9999.25 -130.65610 1624.63110 1904.18760    0.59850
 1537.00000   -9999.25    0.60350    0.72680    2.70120    1.72610   -9999.25  122.88280   -9999.25   75.83930  100.77170   18.05230    2.42350   -9999.25 -130.59900 1624.63110 1966.63810    0.69860
