~Version ---------------------------------------------------
VERS.   2.0 : CWLS log ASCII Standard -VERSION 2.0
WRAP.    NO : One line per depth step
DLM . SPACE : Column Data Section Delimiter
~Well ------------------------------------------------------
STRT .FT                   0.0 : START DEPTH
STOP .FT                7027.0 : STOP DEPTH
STEP .FT                   0.5 : STEP
NULL .                -9999.25 : NULL VALUE
COMP .                         : COMPANY
WELL .                         : WELL
FLD  .                         : FIELD
LOC  .                         : LOCATION
PROV .                         : PROVINCE
CNTY .                         : COUNTY
STAT .                         : STATE
CTRY .                         : COUNTRY
SRVC .                         : SERVICE COMPANY
DATE .                         : DATE
UWI  .                         : UNIQUE WELL ID
API  .                         : API NUMBER
SLAT .WGS84  6.725493119999996 : SURFACE LATITUDE
SLON .WGS84 3.9080370799999997 : SURFACE LONGITUDE
DATUM.F                    nan : DEPTH DATUM ELEV
~Curve Information -----------------------------------------
DEPT    .FT    : 
AT10    .OHMM  : ARRAY INDUCTION TWO FOOT RESISTIVITY A10
AT20    .OHMM  : ARRAY INDUCTION TWO FOOT RESISTIVITY A20
AT30    .OHMM  : ARRAY INDUCTION TWO FOOT RESISTIVITY A30
AT60    .OHMM  : ARRAY INDUCTION TWO FOOT RESISTIVITY A60
AT90    .OHMM  : ARRAY INDUCTION TWO FOOT RESISTIVITY A90
DPHZ_LS .DEC   : HGRD STANDARD RESOLUTION DENSITY POROSITY
DTCO    .US/F  : DELTA-T COMPRESSIONAL
DTSM    .US/F  : DELTA-T SHEAR
ECGREDTC.GAPI  : ENVIRONMENTALLY CORRECTED GAMMA RAY
ECGRR   .GAPI  : ENVIRONMENTALLY CORRECTED GAMMA RAY FROM RESISTIVITY LOG
HCALR   .IN    : HRCC CALIPER CALIBRATED FROM RESISTIVITY LOG
PEFZ    .B/E   : HRDD STANDARD RESOLUTION FORMATION PHOTOELECTRIC FACTOR
SPHI_LS .DEC   : SONIC POROSITY [LIMESTONE]
SPR     .MV    : SPONTANEOUS POTENTIAL FROM RESISTIVITY LOG
TENR    .LBF   : TENSION FROM RESISTIVITY LOG
TENS    .LBF   : TENSION FROM SONIC LOG
TNPH_LS .DEC   : THERMAL NEUTRON POROSITY [LIMESTONE]
~Params ----------------------------------------------------
~Other -----------------------------------------------------
~ASCII -----------------------------------------------------
# ...
 4797.00000   -9999.25    5.27830    6.03990    5.06250    4.34960    0.06980   82.54690  156.52620  121.98330  123.76990    9.00470    3.40960    0.24880  -77.92410 3497.06130 3736.60130    0.24090
 4797.50000   -9999.25    4.20370    5.36680    3.55670    3.87160    0.06980   82.53800  156.27710  128.03700  122.88470    8.99700    3.41350    0.24760  -78.15270 3182.28170 3803.08540    0.25380
 4798.00000   -9999.25    3.60010    4.29050    3.31170    4.71370    0.06950   82.42760  156.69640  131.76730  118.40860    8.98930    3.38450    0.24610  -78.38130 3182.28200 3726.12720    0.26950
 4798.50000   -9999.25    3.43580    3.71660    3.29810    3.90180    0.06820   82.32590  156.98100  130.66130  119.26140    8.98150    3.38360    0.24500  -78.43620 3424.41970 3680.92110    0.27630
 4799.00000   -9999.25    3.41420    3.38180    3.63380    3.76860    0.06790   82.18800  156.50020  123.96170  119.33390    8.98480    3.41040    0.24400  -78.31270 3440.56260 3735.44860    0.27160
 4799.50000   -9999.25    3.36720    3.42470    4.02250    5.03010    0.06920   81.77530  156.46450  126.42570  120.93910    9.00800    3.35600    0.24180  -78.31270 3307.38630 3789.97600    0.27210
 4800.00000   -9999.25    3.39270    4.24330    5.46040    5.97660    0.07190   81.92190  156.42880  125.32720  123.45020    8.95960    3.27670    0.24280  -78.31270 3359.84980 3762.29170    0.27940
 4800.50000   -9999.25    3.63200    3.78810    5.13490    4.88880    0.07230   82.25280  155.06400  122.76830  124.96820    8.95920    3.24850    0.24530  -78.36930 3440.71680 3697.97530    0.29700
 4801.00000   -9999.25    3.70580    4.57680    4.81350    4.65950    0.07170   82.48740  154.48650  118.78060  120.98830    9.00740    3.23780    0.24640  -78.63230 3327.88980 3633.65890    0.29040
 4801.50000   -9999.25    3.84860    4.68770    5.40740    6.44360    0.07160   82.51920  154.45200  121.32390  117.00140    9.08780    3.23350    0.24640  -78.89540 3170.64020 3657.49300    0.28530
 4802.00000   -9999.25    4.00520    4.46280    5.81570    5.89670    0.07440   82.53570  154.25920  130.83670  118.77020    9.70090    3.21810    0.24740  -79.15840 3317.43620 3675.48110    0.29440
 4802.50000   -9999.25    4.09910    4.55540    5.38340    6.36940    0.07790   83.13300  153.95140  133.71270  123.78130    9.33340    3.26270    0.25110  -79.42140 3409.06460 3638.48490    0.29970
 4803.00000   -9999.25    4.20580    4.57680    5.06250    6.36940    0.09160   83.35320  153.68470  136.54300  126.19890    9.38350    3.31840    0.25320  -79.54090 3257.47640 3601.48870    0.30310
 4803.50000   -9999.25    4.82910    5.55820    6.20880    6.22360    0.10370   83.36050  153.29080  132.13020  122.33000    9.38520    3.37410    0.25330  -79.56470 3320.58500 3747.62430    0.30040
 4804.00000   -9999.25    7.81580    7.14130    8.38300    7.23450    0.10810   83.36780  153.32090  130.37910  118.27910    8.98380    3.45220    0.25310  -79.58850 3409.52740 3765.54820    0.29710
 4804.50000   -9999.25   10.55270    8.70610    8.48930    6.44360    0.09230   83.49740  153.27920  127.35220  119.57330    8.72580    3.51690    0.25390  -79.55790 3276.50960 3655.32510    0.28700
 4805.00000   -9999.25    9.27320    8.54320    7.47390    7.19290    0.07380   83.55260  152.88980  128.05580  118.79320    8.74090    3.53300    0.25430  -79.51830 3264.53700 3630.59750    0.27540
 4805.50000   -9999.25    6.09890    6.59720    7.38990    4.44860    0.05330   83.59270  152.50050  124.36460  118.86540    8.76890    3.50680    0.25410  -79.47870 3474.53490 3752.26020    0.26680
 4806.00000   -9999.25    3.84860    5.73160   10.06640    7.23450    0.04770   83.41560  152.36050  123.19160  118.91200    8.78830    3.45490    0.25380  -79.43920 3426.27750 3764.08220    0.26870
 4806.50000   -9999.25    3.47940    4.40690    7.11560    4.65950    0.05760   83.11110  151.81240  122.19530  124.37250    8.76850    3.36930    0.25050  -79.46320 3216.57160 3635.61630    0.26360
 4807.00000   -9999.25    3.22590    3.51730    4.28140    3.36720    0.06690   82.44820  151.78520  119.60990  126.59140    8.74880    3.29620    0.24550  -79.74160 3297.45450 3683.99260    0.25490
 4807.50000   -9999.25    3.10610    3.55670    4.04180    2.64210    0.06550   82.52420  151.39130  116.94400  125.87820    8.75760    3.30240    0.24670  -80.02000 3475.16780 3764.83240    0.26000
 4808.00000   -9999.25    4.36720    5.10870    5.79790    5.97620    0.05970   82.40310  151.16060  117.02280  120.81060    8.80280    3.33330    0.24610  -80.29830 3362.31620 3756.24400    0.26860
 4808.50000   -9999.25    5.61800    6.51450    6.59720    6.82760    0.05580   82.27100  150.82580  123.89390  120.35710    8.80280    3.36410    0.24460  -80.57670 3233.34660 3680.32640    0.27940
 4809.00000   -9999.25    6.13630    7.20590    4.08580    6.52210    0.05680   82.07770  150.64300  122.95790  121.70460    8.81650    3.37920    0.24320  -80.85510 3378.79020 3604.40880    0.28210
 4809.50000   -9999.25    6.13630    6.70400    6.43290    6.98750    0.05900   82.20910  150.99800  121.15390  125.18580    8.83410    3.37080    0.24500  -81.13350 3443.51620 3678.52890    0.27680
 4810.00000   -9999.25    5.48470    5.53150    5.87870    6.41240    0.06280   82.06260  151.08610  119.80480  124.56710    8.84130    3.33870    0.24400  -81.81100 3402.43870 3750.14510    0.26480
 4810.50000   -9999.25    4.81860    4.86990    4.87740    5.14240    0.06450   82.03870  151.17410  124.05590  121.82880    8.84130    3.33140    0.24340  -81.86650 3305.95730 3668.11980    0.25250
 4811.00000   -9999.25    4.15250    4.22380    4.09140    4.24730    0.06460   82.12020  151.26220  124.21110  117.11660    8.84140    3.29490    0.24450  -82.18930 3322.46260 3586.09500    0.24970
 4811.50000   -9999.25    3.75280    3.86050    4.12930    4.15010    0.06200   82.41620  151.55110  122.65540  116.53980    8.84150    3.30040    0.24640  -81.84130 3419.65660 3659.71000    0.24400
 4812.00000   -9999.25    4.32790    4.80970    5.61100    5.23140    0.05290   82.52880  152.40060  123.25470  117.96540    8.84160    3.36420    0.24750  -82.00310 3274.71450 3714.95330    0.25610
 4812.50000   -9999.25    4.76860    5.25770    7.29730    8.02900    0.05180   82.64410  152.99300  122.38440  122.39800    8.84170    3.39720    0.24790  -82.16490 3323.53820 3633.19310    0.26550
 4813.00000   -9999.25    5.07890    4.90840    5.75150    5.48440    0.05730   82.70170  153.33450  122.01930  122.26490    8.83650    3.40800    0.24830  -82.32670 3409.97080 3530.91180    0.26670
 4813.50000   -9999.25    5.20860    4.47180    4.27030    4.19840    0.06360   82.81690  153.70800  123.75870  122.32840    8.80790    3.38840    0.24880  -82.51850 3291.98830 3500.44230    0.26800
 4814.00000   -9999.25    5.27470    4.29720    4.87180    4.99050    0.06310   83.11370  154.03340  131.93150  119.00460    8.81220    3.36360    0.25100  -83.16400 3114.76170 3824.23180    0.27010
 4814.50000   -9999.25    5.14340    4.69370    5.46040    5.41630    0.06240   83.17390  154.13640  133.14860  119.95320    8.80580    3.33880    0.25130  -83.69980 3341.09550 3840.75920    0.27330
 4815.00000   -9999.25    4.59160    5.06250    5.12680    5.29300    0.06380   83.14830  154.44460  129.21030  122.40530    8.82510    3.35910    0.25110  -83.46880 3567.42940 3818.94770    0.27010
 4815.50000   -9999.25    4.98150    5.06250    5.14980    5.35400    0.06760   83.15550  154.41100  121.72130  125.29650    8.84440    3.39700    0.25130  -82.87800 3444.07670 3777.02430    0.26140
 4816.00000   -9999.25    5.07890    5.25770    5.62380    5.80590    0.06680   83.15720  154.13880  124.12210  125.64480    8.83390    3.43170    0.25140  -81.83600 3309.88630 3786.21660    0.24930
 4816.50000   -9999.25    5.07890    5.25770    5.67090    5.88290    0.06610   83.01030  153.86670  123.51560  124.09260    8.82300    3.49580    0.25000  -80.79400 3342.51060 3795.40900    0.25330
 4817.00000   -9999.25    5.17620    5.52970    5.92780    6.01110    0.06430   82.59280  153.59460  122.52200  121.62710    8.79860    3.55820    0.24760  -80.23660 3455.90400 3774.79790    0.25240
