~Version ---------------------------------------------------
VERS.   2.0 : CWLS log ASCII Standard -VERSION 2.0
WRAP.    NO : One line per depth step
DLM . SPACE : Column Data Section Delimiter
~Well ------------------------------------------------------
STRT .FT                   0.0 : START DEPTH
STOP .FT                7027.0 : STOP DEPTH
STEP .FT                   0.5 : STEP
NULL .                -9999.25 : NULL VALUE
COMP .                         : COMPANY
WELL .                         : WELL
FLD  .                         : FIELD
LOC  .                         : LOCATION
PROV .                         : PROVINCE
CNTY .                         : COUNTY
STAT .                         : STATE
CTRY .                         : COUNTRY
SRVC .                         : SERVICE COMPANY
DATE .                         : DATE
UWI  .                         : UNIQUE WELL ID
API  .                         : API NUMBER
SLAT .WGS84  6.725493119999996 : SURFACE LATITUDE
SLON .WGS84 3.9080370799999997 : SURFACE LONGITUDE
DATUM.F                    nan : DEPTH DATUM ELEV
~Curve Information -----------------------------------------
DEPT    .FT    : 
AT10    .OHMM  : ARRAY INDUCTION TWO FOOT RESISTIVITY A10
AT20    .OHMM  : ARRAY INDUCTION TWO FOOT RESISTIVITY A20
AT30    .OHMM  : ARRAY INDUCTION TWO FOOT RESISTIVITY A30
AT60    .OHMM  : ARRAY INDUCTION TWO FOOT RESISTIVITY A60
AT90    .OHMM  : ARRAY INDUCTION TWO FOOT RESISTIVITY A90
DPHZ_LS .DEC   : HGRD STANDARD RESOLUTION DENSITY POROSITY
DTCO    .US/F  : DELTA-T COMPRESSIONAL
DTSM    .US/F  : DELTA-T SHEAR
ECGREDTC.GAPI  : ENVIRONMENTALLY CORRECTED GAMMA RAY
ECGRR   .GAPI  : ENVIRONMENTALLY CORRECTED GAMMA RAY FROM RESISTIVITY LOG
HCALR   .IN    : HRCC CALIPER CALIBRATED FROM RESISTIVITY LOG
PEFZ    .B/E   : HRDD STANDARD RESOLUTION FORMATION PHOTOELECTRIC FACTOR
SPHI_LS .DEC   : SONIC POROSITY [LIMESTONE]
SPR     .MV    : SPONTANEOUS POTENTIAL FROM RESISTIVITY LOG
TENR    .LBF   : TENSION FROM RESISTIVITY LOG
TENS    .LBF   : TENSION FROM SONIC LOG
TNPH_LS .DEC   : THERMAL NEUTRON POROSITY [LIMESTONE]
~Params ----------------------------------------------------
~Other -----------------------------------------------------
~ASCII -----------------------------------------------------
# ...
 5514.50000   -9999.25    1.71230    2.57610    4.11990   10.22970   -0.09760   87.52490  148.49730   75.37410   76.69550    8.93620    3.88510    0.28230  -79.17170 3819.85620 4001.57350    0.30030
 5515.00000   -9999.25    1.80910    3.72550   10.10140    3.51220   -0.03820   87.67170  159.16960   78.53930   68.88720    8.92200    3.95020    0.28350  -78.38640 3795.88500 3911.40990    0.07030
 5515.50000   -9999.25    1.90600    2.99680   10.93790    1.61250   -0.04630   87.85210  159.71800   87.70050   73.99340    9.02020    3.42650    0.28470  -77.60100 3672.02250 4117.49800    0.06150
 5516.00000   -9999.25    1.94430    2.00020    3.75820    1.20530   -0.08260   88.10440  159.71800   99.62170   90.86260    9.13860    2.82330    0.28610  -76.76960 3679.03030 4302.97740    0.12530
 5516.50000   -9999.25    1.94370    4.04980    5.25000    1.30150   -0.08010   87.38390  158.34790  109.89650  111.16210    9.35740    2.62960    0.28450  -76.40290 3978.52920 4333.89050    0.19560
 5517.00000   -9999.25    1.92750    3.95070    5.62170    0.95550    0.00050   85.66700  167.00960  115.78320  119.99030   10.33380    2.70820    0.27040  -76.11280 3906.48690 4261.75960    0.25390
 5517.50000   -9999.25    1.93790    4.45630    9.14100    1.37620    0.04670   83.58300  168.85860  115.94060  126.58490   10.12190    2.99610    0.25250  -76.13080 3785.46180 4241.15090    0.30060
 5518.00000   -9999.25    1.96620    4.58350   28.20690    1.89100    0.06580   83.56050  169.69100  113.66910  127.63390   10.40910    3.24440    0.25590  -76.10580 3714.47590 4086.58480    0.35510
 5518.50000   -9999.25    2.04140   11.96040   15.21600    3.78540    0.04160   83.14320  171.96110  111.29430  125.09310   10.35350    3.41140    0.25990  -75.91560 3983.22560 4055.67160    0.37380
 5519.00000   -9999.25    2.15510    7.28940   15.47790    3.26360    0.01750   80.24640  174.24770  111.19120  121.79170    9.47760    3.40900    0.22840  -75.76830 3878.37100 4179.32430    0.29970
 5519.50000   -9999.25    2.28500    4.11160    7.50180    2.75770    0.03100   95.77010  164.78960  111.39730  118.76810    9.35810    3.29680    0.29890  -75.78460 3800.21700 4232.54380    0.25900
 5520.00000   -9999.25    1.94100    4.35840    7.65920    3.82650    0.05940   84.53520  167.66820  112.13620  115.24020    9.48560    3.18450    0.25330  -75.79770 3747.80610 4137.98670    0.23050
 5520.50000   -9999.25    2.07000    3.86380    6.52800    5.09270    0.09370   79.60420  161.77740  113.40570  115.97980    9.18810    3.08990    0.22950  -75.25890 3726.21130 4043.42970    0.23710
 5521.00000   -9999.25    2.37220    3.22040    6.20690    4.81960    0.12230   78.57510  165.20700  117.16380  120.83540    9.10640    3.12100    0.21710  -74.73310 4044.22800 3993.55980    0.23980
 5521.50000   -9999.25    2.83010    3.69950    6.66860    8.69640    0.12270   79.78050  160.00110  124.59550  124.48550    9.35860    3.20490    0.22670  -74.75520 3902.31620 4032.85450    0.27630
 5522.00000   -9999.25    4.00230    5.91300    7.13030    3.31310    0.09750   80.35380  159.87340  127.37140  125.90840    9.46050    3.29220    0.23180  -74.91440 3794.83450 4333.07000    0.29690
 5522.50000   -9999.25   16.12360    6.44280    7.59430    6.17650    0.01410   80.29300  159.74520  125.52880  124.95410    9.49260    3.39740    0.23140  -75.07360 3655.74840 4339.73740    0.31320
 5523.00000   -9999.25   28.11860    5.33260   13.74860    4.56110   -0.02320   80.36340  160.02240  121.08780  129.26200    9.97330    3.49460    0.23180  -75.23270 3734.23210 4253.67180    0.30300
 5523.50000   -9999.25   45.33890    5.89850   38.15350    5.30380   -0.03040   80.76990  158.00190  123.64910  131.00690    9.30720    3.52490    0.23520  -74.91560 3801.72740 4195.93620    0.28880
 5524.00000   -9999.25   41.50880    7.49520   56.34230    5.29780   -0.00440   80.49300  156.94310  124.41060  128.97660    9.12410    3.46930    0.23370  -74.65520 3726.51980 4071.20430    0.26990
 5524.50000   -9999.25   13.03950    7.49520   41.07960    7.57370    0.03720   79.75150  158.36690  122.46930  126.47790    9.08360    3.41380    0.22860  -73.99400 3675.89060 4033.22770    0.26010
 5525.00000   -9999.25    8.85220    6.77600   23.61930    5.51560    0.05330   78.83830  156.13560  117.33080  122.59410    9.15280    3.35630    0.22240  -73.27310 3716.02560 4146.34820    0.25170
 5525.50000   -9999.25    6.72420    3.90370    6.15890    3.24080    0.06130   78.32500  154.26340  114.86020  122.66220    9.29060    3.27080    0.21790  -73.27310 3874.82140 4228.57640    0.24310
 5526.00000   -9999.25    3.01110    2.26250    2.66690    3.00010    0.07550   77.14350  147.49420  111.82780  119.38120    9.17240    3.14970    0.21050  -73.27310 3707.93350 4226.31230    0.23490
 5526.50000   -9999.25    2.86040    3.97540    3.47340    3.99600    0.08470   75.88560  145.35880  113.07340  116.35390    9.20960    3.06390    0.20040  -73.27310 3572.35510 4166.35700    0.22100
 5527.00000   -9999.25    3.84700    6.11660    6.25060   15.85190    0.09170   74.60820  144.56170  116.92790  113.03040    9.16910    2.99180    0.18760  -73.73700 3679.99120 4124.93190    0.21100
 5527.50000   -9999.25    4.75150    7.30850    7.88710    9.43910    0.08430   76.51290  144.54140  121.33760  112.51220    9.06000    2.91110    0.20520  -73.79960 3824.05020 4176.22590    0.20150
 5528.00000   -9999.25    5.32760    6.63330    7.13030    4.69650    0.08350   75.14190  140.39410  117.43940  112.37050    9.00420    2.85540    0.19680  -73.45250 3846.87660 4206.93180    0.19110
 5528.50000   -9999.25    5.90360    5.40020    6.12920    4.84760    0.08800   73.85760  134.91600  111.00300  103.37400    9.01840    2.83980    0.18680  -73.29300 3823.80270 4193.86530    0.17490
 5529.00000   -9999.25    7.03480    5.61010    5.97650    4.46690    0.09350   72.26490  129.72470  104.46920   93.02690    8.99830    2.83980    0.17640  -73.25840 3743.85820 4155.03690    0.16060
 5529.50000   -9999.25    8.99290    6.30400    7.08380    5.81300    0.09310   70.68760  128.63800   96.18390   81.98590    8.95080    2.82970    0.16350  -73.22390 3695.55180 4144.50480    0.15790
 5530.00000   -9999.25   11.66030    6.89100    8.19110    5.68630    0.08870   70.76600  128.48080   87.03780   79.55710    8.89640    2.81700    0.16420  -73.18940 3893.21970 4169.02870    0.16200
 5530.50000   -9999.25   18.24120    7.21700    8.83480    5.09270    0.08860   70.26370  128.46280   84.30330   79.83890    8.88670    2.80690    0.16030  -73.24250 3857.25360 4212.61860    0.16910
 5531.00000   -9999.25   23.22200   10.48560   17.23500    8.09160    0.08850   69.62700  128.53620   85.62570   80.77710    8.89670    2.81200    0.15490  -73.34310 3710.89900 4202.97680    0.16840
 5531.50000   -9999.25   16.34890    9.94870   10.90080    6.45490    0.08380   69.94920  127.84830   84.76950   80.88230    8.92160    2.85520    0.15980  -74.57390 3497.05010 4116.88100    0.16090
 5532.00000   -9999.25    9.47580    6.86200    7.78830    3.86600    0.06630   69.71540  126.99130   79.44870   76.39190    8.94160    2.93120    0.15490  -76.04180 3677.56000 4065.16090    0.14680
 5532.50000   -9999.25    6.01880    6.48360    6.86570    5.32230    0.05110   69.69900  126.31890   76.94440   75.00670    8.96900    2.96100    0.15700  -76.11850 4107.90230 4013.44090    0.14000
 5533.00000   -9999.25    5.43450    5.82460    6.44620    4.46170    0.05730   68.94500  128.70260   79.22730   74.66870    8.99640    2.92930    0.15100  -76.23380 3977.58680 4126.57970    0.13790
 5533.50000   -9999.25    5.31260    5.46880    5.74100    5.20630    0.07550   70.32090  132.96440   83.03000   81.00800    8.95530    2.84430    0.15960  -76.34900 3788.97200 4167.58940    0.14420
 5534.00000   -9999.25    4.60050    4.89180    5.09400    3.65860    0.09350   70.34430  129.80370   86.83280   87.47310    8.91410    2.79520    0.15880  -76.14190 3799.26000 4147.91660    0.15450
 5534.50000   -9999.25    3.29870    3.89080    4.44690    5.68630    0.10590   70.48180  130.43110   89.32180   95.06180    8.88670    2.75400    0.16160  -76.54460 3741.63870 4073.28750    0.16320
