~Version ---------------------------------------------------
VERS.   2.0 : CWLS log ASCII Standard -VERSION 2.0
WRAP.    NO : One line per depth step
DLM . SPACE : Column Data Section Delimiter
~Well ------------------------------------------------------
STRT .FT                   0.0 : START DEPTH
STOP .FT                7027.0 : STOP DEPTH
STEP .FT                   0.5 : STEP
NULL .                -9999.25 : NULL VALUE
COMP .                         : COMPANY
WELL .                         : WELL
FLD  .                         : FIELD
LOC  .                         : LOCATION
PROV .                         : PROVINCE
CNTY .                         : COUNTY
STAT .                         : STATE
CTRY .                         : COUNTRY
SRVC .                         : SERVICE COMPANY
DATE .                         : DATE
UWI  .                         : UNIQUE WELL ID
API  .                         : API NUMBER
SLAT .WGS84  6.725493119999996 : SURFACE LATITUDE
SLON .WGS84 3.9080370799999997 : SURFACE LONGITUDE
DATUM.F                    nan : DEPTH DATUM ELEV
~Curve Information -----------------------------------------
DEPT    .FT    : 
AT10    .OHMM  : ARRAY INDUCTION TWO FOOT RESISTIVITY A10
AT20    .OHMM  : ARRAY INDUCTION TWO FOOT RESISTIVITY A20
AT30    .OHMM  : ARRAY INDUCTION TWO FOOT RESISTIVITY A30
AT60    .OHMM  : ARRAY INDUCTION TWO FOOT RESISTIVITY A60
AT90    .OHMM  : ARRAY INDUCTION TWO FOOT RESISTIVITY A90
DPHZ_LS .DEC   : HGRD STANDARD RESOLUTION DENSITY POROSITY
DTCO    .US/F  : DELTA-T COMPRESSIONAL
DTSM    .US/F  : DELTA-T SHEAR
ECGREDTC.GAPI  : ENVIRONMENTALLY CORRECTED GAMMA RAY
ECGRR   .GAPI  : ENVIRONMENTALLY CORRECTED GAMMA RAY FROM RESISTIVITY LOG
HCALR   .IN    : HRCC CALIPER CALIBRATED FROM RESISTIVITY LOG
PEFZ    .B/E   : HRDD STANDARD RESOLUTION FORMATION PHOTOELECTRIC FACTOR
SPHI_LS .DEC   : SONIC POROSITY [LIMESTONE]
SPR     .MV    : SPONTANEOUS POTENTIAL FROM RESISTIVITY LOG
TENR    .LBF   : TENSION FROM RESISTIVITY LOG
TENS    .LBF   : TENSION FROM SONIC LOG
TNPH_LS .DEC   : THERMAL NEUTRON POROSITY [LIMESTONE]
~Params ----------------------------------------------------
~Other -----------------------------------------------------
~ASCII -----------------------------------------------------
# ...
 2234.50000   -9999.25    1.08440    1.02310    0.99690    0.83220   -9999.25   81.04070   -9999.25   36.12670   43.10200   24.16100    2.53830    0.23620 -182.67110 2113.69760 2399.11370    0.44820
 2235.00000   -9999.25    1.48440    1.51710    1.55190    1.11180   -9999.25   81.28430   -9999.25   35.55010   43.93530   24.14570    3.16260   -9999.25 -183.55910 1938.11310 2409.64750    0.30220
 2235.50000   -9999.25    1.75730    2.42280    6.12060    3.87290   -9999.25   -9999.25   -9999.25   29.83120   41.84990   22.98210    3.54130   -9999.25 -182.93270 2086.26120 2411.02160    0.21070
 2236.00000   -9999.25    1.18760    1.72920    7.55250    3.28460   -9999.25   -9999.25   -9999.25   24.83060   37.60220   24.17630    3.42190   -9999.25 -182.06220 1960.51820 2398.65640    0.19380
 2236.50000   -9999.25    0.54970    0.69090    2.29300    1.80150   -9999.25   -9999.25   -9999.25   22.07200   35.64820   21.34390    2.61030   -9999.25 -182.54120 1962.80450 2386.29120    0.29990
 2237.00000   -9999.25    0.30550    0.39070    0.56980    0.55890   -9999.25   -9999.25   -9999.25   23.95320   40.80160   22.98590    2.02270   -9999.25 -184.13930 1997.09810 2451.34240    0.41940
 2237.50000   -9999.25    0.20710    0.25020    0.52320    0.56300   -9999.25   -9999.25  143.60120   24.99330   43.41520   24.15180    1.49330   -9999.25 -185.73740 2045.10910 2724.61960    0.51240
 2238.00000   -9999.25    0.20600    0.21990    0.41400    0.68890   -9999.25   -9999.25  144.14950   24.99330   44.25860   24.17600    1.30880   -9999.25 -187.29030 2086.26120 2597.37660    0.62340
 2238.50000   -9999.25    0.20500    0.20130    0.27750    0.44890   -9999.25   -9999.25  144.83490   22.72110   41.85200   24.17430    1.29120   -9999.25 -188.92950 2026.81940 2464.28900    0.69980
 2239.00000   -9999.25    0.20390    0.26220    0.41900    1.39760   -9999.25   -9999.25  146.00000   20.37740   40.30750   24.17260    1.28880   -9999.25 -190.47680 2039.96490 2476.10100    0.69950
 2239.50000   -9999.25    0.31490    0.36190    0.65950    2.06100   -9999.25   -9999.25  148.26180   20.44780   38.80170   24.17100    1.32630   -9999.25 -191.58750 2099.97910 2502.30220    0.69910
 2240.00000   -9999.25    0.31910    0.39000    0.52960    3.33430   -9999.25   -9999.25  150.12770   23.58080   37.87760   24.16930    1.44040   -9999.25 -192.72850 2127.41360 2485.75330    0.69880
 2240.50000   -9999.25    0.37660    0.41540    0.57500    1.62240   -9999.25   -9999.25  151.48720   26.43070   38.96700   24.16760    1.68100   -9999.25 -192.95680 2098.03400 2501.84970    0.69850
 2241.00000   -9999.25    0.72520    0.66200    1.21930    4.51620   -9999.25   -9999.25  135.34340   28.17430   43.17770   24.16600    2.04800   -9999.25 -192.95680 1942.24950 2401.66610    0.59900
 2241.50000   -9999.25    2.09720    1.90750    2.28180    4.61240   -9999.25   -9999.25  120.12810   28.59460   47.70120   24.16430    2.41260   -9999.25 -191.73380 2223.45700 2280.74520    0.30010
 2242.00000   -9999.25    3.46920    2.92670    4.47030    2.95480   -9999.25  114.79910  112.02980   28.67350   49.30110   24.16260    2.77730   -9999.25 -191.10600 2262.65050 2373.40280    0.16340
 2242.50000   -9999.25    3.03940    1.98690    2.56290    1.09790   -9999.25  114.79910  112.41760   28.64870   45.77970   24.14570    2.77730   -9999.25 -190.38440 1978.50250 2446.88090    0.16660
 2243.00000   -9999.25    3.30420    2.54960    3.56430    1.54180   -9999.25  114.18220  111.88300   28.28550   41.96120   22.49470    2.61710   -9999.25 -189.83780 2086.28220 2453.19200    0.19380
 2243.50000   -9999.25    3.74150    4.16430    5.04980    1.64500   -9999.25  113.10450  112.21400   24.26680   39.45100   22.50750    2.31940   -9999.25 -189.29300 2053.36040 2510.08050    0.20700
 2244.00000   -9999.25    3.35120    2.90580    4.05500    1.38940   -9999.25  112.56660  112.14180   20.98960   38.04040   24.14570    2.02530   -9999.25 -188.97230 2013.57990 2481.65800    0.22010
 2244.50000   -9999.25    2.37530    1.25080    2.61360    1.05440   -9999.25  117.73780  110.14080   17.88860   35.05180   24.13040    1.79310   -9999.25 -188.65150 2061.59110 2426.27210    0.25640
 2245.00000   -9999.25    1.39950    0.99070    1.72750    0.92040   -9999.25  120.24780  109.60810   16.28270   34.31200   24.16100    1.56090    0.30010 -188.37420 2100.00010 2574.65530    0.29260
 2245.50000   -9999.25    1.04720    1.72930    4.52510    1.23290   -9999.25   90.84530  113.75410   17.24320   35.97480   24.16820    1.48050    0.30010 -187.98340 2031.41260 2585.99020    0.52960
 2246.00000   -9999.25    0.85830    2.71370    5.63530    2.75360   -9999.25   81.28430  127.97510   20.53880   37.40350   24.17720    1.50540    0.21780 -187.76550 2013.77600 2418.54380    0.67650
 2246.50000   -9999.25    0.79470    1.84010    3.86200    2.23160   -9999.25   89.09760  141.27100   24.45670   36.83660   24.18620    1.56850    0.29800 -188.14600 2062.76780 2426.35590    0.70070
 2247.00000   -9999.25    0.88040    1.21190    2.95360    2.78210   -9999.25   85.48790  118.44800   26.39360   35.22710   24.18870    1.67530    0.25360 -190.53420 2196.02310 2338.81060    0.59170
 2247.50000   -9999.25    1.15590    2.00680    4.29400    6.44680   -9999.25   76.97790  123.58830   23.59910   35.61600   24.18140    1.85460    0.18160 -191.83050 2072.56620 2352.13230    0.48030
 2248.00000   -9999.25    1.37900    3.40420    7.64280   24.57690   -9999.25   78.40570  130.01370   20.41360   35.90930   24.17410    1.99960    0.21780 -191.01830 1982.03030 2375.38190    0.55510
 2248.50000   -9999.25    1.33800    2.54920    4.28850    5.00480   -9999.25   76.34960  139.07780   17.55860   36.28130   24.16680    1.94720    0.19180 -190.47210 1949.10930 2373.45150    0.67580
 2249.00000   -9999.25    1.21500    1.32360    2.56260    3.39340   -9999.25   69.20480  149.49540   20.07930   36.07360   24.16100    1.87210    0.15180 -190.04100 1949.10930 2434.93140    0.70000
 2249.50000   -9999.25    1.13790    1.15230    1.81720    1.64290   -9999.25   69.55850  128.11180   24.84200   39.29590   24.17120    1.79700    0.15910 -190.52950 1949.10930 2496.41130    0.70020
 2250.00000   -9999.25    1.61180    2.09740    5.07530    4.09650   -9999.25   72.28980  121.94370   28.90780   44.19440   24.18820    1.94590    0.15080 -190.10150 1960.86710 2340.89460    0.70040
 2250.50000   -9999.25    2.36540    5.60630   14.58890    7.34010   -9999.25   79.53840  164.26730   29.39980   47.76900   23.88540    2.10300    0.23300 -189.47040 1980.46350 2117.14450    0.70060
 2251.00000   -9999.25    2.24650    8.01660   46.42010   14.08260   -9999.25   79.95070  172.73370   26.95660   43.37630   24.14750    2.16210    0.27010 -188.83920 2000.05980 2560.23310    0.68100
 2251.50000   -9999.25    1.48700    3.21840    5.22300   15.64830   -9999.25   -9999.25  139.84110   25.50640   38.89270   24.15650    2.03830    0.30000 -188.20800 2019.65610 2938.08850    0.59690
 2252.00000   -9999.25    1.05330    0.90710    1.21930    1.40010   -9999.25   -9999.25  144.03720   23.90350   35.33380   24.16550    1.82380    0.29990 -187.63880 2000.54970 2691.67820    0.52470
 2252.50000   -9999.25    0.61960    0.66920    1.12760    1.78300   -9999.25   -9999.25  151.28430   24.40590   35.25650   24.17450    1.70980    0.29970 -188.13880 1923.38910 2577.86350    0.53540
 2253.00000   -9999.25    0.35940    0.43140    0.48040    0.82120   -9999.25   -9999.25  152.83180   24.26680   34.47160   24.15760    1.75200   -9999.25 -189.43200 2100.00010 2427.13660    0.47220
 2253.50000   -9999.25    0.45890    0.53480    0.55390    0.71550   -9999.25   -9999.25  155.51160   23.07440   36.23300   24.14910    2.11500   -9999.25 -189.98920 2045.13090 2309.25280    0.48740
 2254.00000   -9999.25    0.58330    0.70710    0.80170    1.32630    0.29770   -9999.25  153.99990   22.16510   35.05530   24.03470    2.44150   -9999.25 -188.04870 1953.68130 2199.57960    0.37190
 2254.50000   -9999.25    1.23150    1.34930    1.30520    1.43250    0.29860   -9999.25  150.45690   22.16340   32.54790   22.87490    2.97410   -9999.25 -186.10810 1892.71410 2514.90540    0.30100
