~Version ---------------------------------------------------
VERS.   2.0 : CWLS log ASCII Standard -VERSION 2.0
WRAP.    NO : One line per depth step
DLM . SPACE : Column Data Section Delimiter
~Well ------------------------------------------------------
STRT .FT                   0.0 : START DEPTH
STOP .FT                7027.0 : STOP DEPTH
STEP .FT                   0.5 : STEP
NULL .                -9999.25 : NULL VALUE
COMP .                         : COMPANY
WELL .                         : WELL
FLD  .                         : FIELD
LOC  .                         : LOCATION
PROV .                         : PROVINCE
CNTY .                         : COUNTY
STAT .                         : STATE
CTRY .                         : COUNTRY
SRVC .                         : SERVICE COMPANY
DATE .                         : DATE
UWI  .                         : UNIQUE WELL ID
API  .                         : API NUMBER
SLAT .WGS84  6.725493119999996 : SURFACE LATITUDE
SLON .WGS84 3.9080370799999997 : SURFACE LONGITUDE
DATUM.F                    nan : DEPTH DATUM ELEV
~Curve Information -----------------------------------------
DEPT    .FT    : 
AT10    .OHMM  : ARRAY INDUCTION TWO FOOT RESISTIVITY A10
AT20    .OHMM  : ARRAY INDUCTION TWO FOOT RESISTIVITY A20
AT30    .OHMM  : ARRAY INDUCTION TWO FOOT RESISTIVITY A30
AT60    .OHMM  : ARRAY INDUCTION TWO FOOT RESISTIVITY A60
AT90    .OHMM  : ARRAY INDUCTION TWO FOOT RESISTIVITY A90
DPHZ_LS .DEC   : HGRD STANDARD RESOLUTION DENSITY POROSITY
DTCO    .US/F  : DELTA-T COMPRESSIONAL
DTSM    .US/F  : DELTA-T SHEAR
ECGREDTC.GAPI  : ENVIRONMENTALLY CORRECTED GAMMA RAY
ECGRR   .GAPI  : ENVIRONMENTALLY CORRECTED GAMMA RAY FROM RESISTIVITY LOG
HCALR   .IN    : HRCC CALIPER CALIBRATED FROM RESISTIVITY LOG
PEFZ    .B/E   : HRDD STANDARD RESOLUTION FORMATION PHOTOELECTRIC FACTOR
SPHI_LS .DEC   : SONIC POROSITY [LIMESTONE]
SPR     .MV    : SPONTANEOUS POTENTIAL FROM RESISTIVITY LOG
TENR    .LBF   : TENSION FROM RESISTIVITY LOG
TENS    .LBF   : TENSION FROM SONIC LOG
TNPH_LS .DEC   : THERMAL NEUTRON POROSITY [LIMESTONE]
~Params ----------------------------------------------------
~Other -----------------------------------------------------
~ASCII -----------------------------------------------------
# ...
 2972.50000   -9999.25    3.04270    2.91200    3.99250    4.61130    0.09620   67.34300  124.27440   20.01250   18.42580    8.76100    4.91900    0.13960  -91.23250 2384.18350 2686.19310    0.14130
 2973.00000   -9999.25    2.52890    2.61110    2.79840    2.90690    0.09950   68.60120  125.96710   23.80310   25.11350    8.76620    4.60240    0.14730  -91.01590 2379.61100 2694.55180    0.14370
 2973.50000   -9999.25    2.20140    2.41020    2.61740    2.76400    0.08850   70.00680  128.63670   28.42470   34.44360    8.76070    4.28990    0.15730  -90.79930 2480.20550 2702.91050    0.15380
 2974.00000   -9999.25    1.96800    2.17780    2.43650    2.53050    0.07900   70.97350  130.16140   38.48270   41.98220    8.78350    3.96930    0.16550  -90.58270 2343.03160 2682.99150    0.17280
 2974.50000   -9999.25    1.74470    1.89390    2.08500    2.11490    0.08030   71.70730  131.43690   43.90330   47.35430    8.81310    3.65980    0.16940  -90.44330 2507.64050 2678.70710    0.20820
 2975.00000   -9999.25    1.56620    1.66680    1.73350    1.82700    0.09050   72.08870  132.01330   46.70800   49.20940    8.84280    3.48980    0.17290  -90.41980 2384.18380 2674.42260    0.23690
 2975.50000   -9999.25    1.62860    1.69110    1.72150    1.75660    0.10060   72.11750  132.83960   45.40490   47.45810    8.86050    3.39780    0.17280  -90.39620 2379.61120 2665.03590    0.27320
 2976.00000   -9999.25    1.73240    1.78090    1.84630    1.86970    0.09960   71.80750  133.37330   43.67150   44.62590    8.87030    3.30580    0.17040  -90.37260 2452.77050 2658.45260    0.25260
 2976.50000   -9999.25    1.72140    1.68260    1.77780    1.86970    0.09770   70.94910  132.21410   42.04190   42.70810    8.85890    3.35670    0.16450  -90.24700 2452.77050 2651.86930    0.23970
 2977.00000   -9999.25    1.98800    2.01270    2.14200    2.29930    0.09930   69.73210  131.20550   40.33520   40.67030    8.85690    3.58320    0.15740  -90.24700 2411.61820 2645.28600    0.18900
 2977.50000   -9999.25    2.28620    2.36510    2.62800    2.76400    0.10060   68.67830  129.59920   38.51040   38.09180    8.83080    3.93190    0.15000  -90.24700 2315.59650 2642.65270    0.16270
 2978.00000   -9999.25    2.64930    3.43470    3.52500    4.41420    0.09900   67.72740  128.29030   38.55600   36.92780    8.80460    4.24860    0.14260  -90.32460 2387.61280 2642.65270    0.14100
 2978.50000   -9999.25    3.85640    4.94510    5.59980    6.35230    0.08750   67.16750  126.19380   40.55220   40.27830    8.81000    4.40790    0.13780  -89.83550 2411.61820 2642.65270    0.13440
 2979.00000   -9999.25    4.02780    4.53290    5.12550    5.34080    0.08210   65.64750  124.10170   42.13050   45.02130    8.84970    4.40100    0.12560  -89.62970 2404.75950 2642.65270    0.13220
 2979.50000   -9999.25    3.19480    3.68860    4.03460    4.21680    0.08320   63.83790  122.95110   38.96790   45.35260    8.85710    4.31190    0.11470  -89.56660 2370.46600 2655.53610    0.13550
 2980.00000   -9999.25    3.07860    3.86180    4.08580    4.51950    0.08500   63.39090  121.36410   33.70790   38.50700    8.85080    4.35310    0.11050  -89.50350 2411.59710 2671.64030    0.13390
 2980.50000   -9999.25    3.05920    4.45650    4.99140    5.88950    0.09160   63.18430  121.02520   25.94940   31.10540    8.84450    4.45800    0.11030  -89.44050 2493.89100 2687.74450    0.11670
 2981.00000   -9999.25    3.03980    4.31080    5.06410    5.96420    0.09240   64.60160  121.85080   23.95280   25.86330    8.83830    4.59480    0.12130  -89.37740 2274.41160 2688.54790    0.09950
 2981.50000   -9999.25    3.02430    3.35580    3.42470    3.55670    0.08320   66.45890  125.14000   25.88530   25.41010    8.83870    4.61280    0.13520  -89.31430 2356.71650 2674.45200    0.09060
 2982.00000   -9999.25    3.17400    3.23120    3.42470    3.55670    0.06630   68.05450  128.40770   35.02860   30.38050    8.86620    4.59880    0.14480  -88.80640 2370.43390 2660.35610    0.09000
 2982.50000   -9999.25    3.61950    4.24330    4.18510    5.38510    0.05050   68.86830  130.59450   44.08390   39.77040    8.92030    4.40670    0.15190  -88.41540 2274.41160 2646.26020    0.11420
 2983.00000   -9999.25    3.34300    3.78610    4.57980    6.27320    0.05710   70.54970  132.72220   53.63430   52.17940    8.97670    3.95430    0.16550  -87.81630 2507.60890 2655.96680    0.14880
 2983.50000   -9999.25    2.56570    2.93430    3.41120    4.08420    0.06450   73.75520  143.44950   59.41140   63.65260    9.03320    3.58740    0.18500  -87.43490 2260.69440 2678.13750    0.20790
 2984.00000   -9999.25    2.06690    2.36680    2.60140    2.67540    0.07360   75.62860  149.54030   64.90310   67.93670    9.06500    3.39980    0.20010  -87.18700 2348.48600 2700.30810    0.21960
 2984.50000   -9999.25    2.09310    2.17210    2.23070    2.43650    0.07950   77.45850  154.20680   67.81730   70.30880    9.08760    3.34480    0.21210  -86.97230 2425.30410 2691.35820    0.23970
 2985.00000   -9999.25    2.29120    2.58360    2.62480    2.93540    0.08880   79.27500  158.45490   65.27850   68.49810    9.14500    3.28990    0.22420  -86.75760 2288.12890 2705.41710    0.23910
 2985.50000   -9999.25    2.48920    2.88470    3.01900    3.55670    0.10010   80.89670  163.63770   63.78410   69.08900    9.13780    3.24480    0.23670  -86.54300 2308.70510 2719.47590    0.23910
 2986.00000   -9999.25    2.52890    2.76820    2.89150    3.17300    0.10620   81.75860  162.31940   74.64730   71.08320    9.17210    3.20830    0.24150  -86.54300 2406.09940 2724.79040    0.25270
 2986.50000   -9999.25    2.43500    2.62430    2.72930    2.94380    0.10710   82.51790  164.50170   81.84700   76.17430    9.20640    3.20880    0.24680  -86.21580 2439.02130 2724.27520    0.27490
 2987.00000   -9999.25    2.61380    2.75210    2.88140    2.99950    0.10260   83.30680  161.17660   88.42740   81.17750    9.20070    3.21320    0.25150  -85.98740 2397.86900 2723.76000    0.28200
 2987.50000   -9999.25    2.82620    3.01370    3.11570    3.27810    0.09530   83.32540  166.44230   86.88250   85.44780    9.17900    3.24850    0.25210  -86.22650 2342.99930 2723.24480    0.28220
 2988.00000   -9999.25    2.90510    3.17070    3.31850    3.55670    0.09260   83.20870  162.59430   87.57700   86.52410    9.18750    3.28540    0.25220  -86.17750 2315.56400 2714.38150    0.27960
 2988.50000   -9999.25    2.79720    2.97220    3.16150    3.34560    0.09330   83.42770  160.82320   85.47490   87.96320    9.15440    3.29360    0.25350  -86.12860 2315.56400 2718.74110    0.29240
 2989.00000   -9999.25    2.61730    2.77380    2.93920    3.08160    0.09100   82.96960  159.20160   83.91600   83.99180    9.16070    3.29680    0.24980  -86.07960 2349.85770 2723.10070    0.26170
 2989.50000   -9999.25    2.43740    2.57530    2.71690    2.87050    0.08730   82.63940  157.49560   82.18510   78.31910    9.16700    3.28800    0.24790  -85.71990 2393.29650 2699.72190    0.26600
 2990.00000   -9999.25    2.25760    2.45620    2.56260    2.69510    0.08440   82.22940  155.13880   82.21870   73.35670    9.17790    3.28150    0.24540  -85.71990 2411.58620 2740.35200    0.25600
 2990.50000   -9999.25    2.30980    2.45620    2.56260    2.68050    0.08320   81.96180  152.91190   78.64690   72.68020    9.19060    3.25810    0.24450  -85.71990 2315.56400 2780.98200    0.24930
 2991.00000   -9999.25    2.40450    2.55220    2.64440    2.77600    0.07900   83.11270  151.57110   76.20090   76.06280    9.19810    3.23480    0.25180  -85.71990 2301.84680 2786.86080    0.24740
 2991.50000   -9999.25    2.42740    2.64300    2.74670    2.87150    0.07300   82.70110  149.80400   77.47290   75.13690    9.20560    3.21150    0.24820  -85.88210 2324.70890 2778.96080    0.26190
 2992.00000   -9999.25    2.49720    2.73380    2.84900    2.96710    0.07310   82.57800  146.06870   80.64660   78.22330    9.21310    3.20230    0.24880  -86.28760 2365.86160 2771.06090    0.26740
 2992.50000   -9999.25    2.58370    2.82450    2.95130    3.06260    0.07630   83.09190  155.75640   82.10530   77.45170    9.22070    3.24350    0.25070  -86.69310 2411.58620 2751.89470    0.26640
