~Version ---------------------------------------------------
VERS.   2.0 : CWLS log ASCII Standard -VERSION 2.0
WRAP.    NO : One line per depth step
DLM . SPACE : Column Data Section Delimiter
~Well ------------------------------------------------------
STRT .FT                   0.0 : START DEPTH
STOP .FT                7027.0 : STOP DEPTH
STEP .FT                   0.5 : STEP
NULL .                -9999.25 : NULL VALUE
COMP .                         : COMPANY
WELL .                         : WELL
FLD  .                         : FIELD
LOC  .                         : LOCATION
PROV .                         : PROVINCE
CNTY .                         : COUNTY
STAT .                         : STATE
CTRY .                         : COUNTRY
SRVC .                         : SERVICE COMPANY
DATE .                         : DATE
UWI  .                         : UNIQUE WELL ID
API  .                         : API NUMBER
SLAT .WGS84  6.725493119999996 : SURFACE LATITUDE
SLON .WGS84 3.9080370799999997 : SURFACE LONGITUDE
DATUM.F                    nan : DEPTH DATUM ELEV
~Curve Information -----------------------------------------
DEPT    .FT    : 
AT10    .OHMM  : ARRAY INDUCTION TWO FOOT RESISTIVITY A10
AT20    .OHMM  : ARRAY INDUCTION TWO FOOT RESISTIVITY A20
AT30    .OHMM  : ARRAY INDUCTION TWO FOOT RESISTIVITY A30
AT60    .OHMM  : ARRAY INDUCTION TWO FOOT RESISTIVITY A60
AT90    .OHMM  : ARRAY INDUCTION TWO FOOT RESISTIVITY A90
DPHZ_LS .DEC   : HGRD STANDARD RESOLUTION DENSITY POROSITY
DTCO    .US/F  : DELTA-T COMPRESSIONAL
DTSM    .US/F  : DELTA-T SHEAR
ECGREDTC.GAPI  : ENVIRONMENTALLY CORRECTED GAMMA RAY
ECGRR   .GAPI  : ENVIRONMENTALLY CORRECTED GAMMA RAY FROM RESISTIVITY LOG
HCALR   .IN    : HRCC CALIPER CALIBRATED FROM RESISTIVITY LOG
PEFZ    .B/E   : HRDD STANDARD RESOLUTION FORMATION PHOTOELECTRIC FACTOR
SPHI_LS .DEC   : SONIC POROSITY [LIMESTONE]
SPR     .MV    : SPONTANEOUS POTENTIAL FROM RESISTIVITY LOG
TENR    .LBF   : TENSION FROM RESISTIVITY LOG
TENS    .LBF   : TENSION FROM SONIC LOG
TNPH_LS .DEC   : THERMAL NEUTRON POROSITY [LIMESTONE]
~Params ----------------------------------------------------
~Other -----------------------------------------------------
~ASCII -----------------------------------------------------
# ...
 6601.00000   -9999.25    9.42240    5.30710   16.58100    4.61090    0.02690   59.79530  128.29980   44.49930   45.93720    8.83930    4.80020    0.08590  -70.02050 4243.36210 4931.55440    0.06440
 6601.50000   -9999.25    8.75230    6.56710   11.30350    3.04150    0.03170   59.61910  126.29660   40.25940   39.66050    8.81740    4.81390    0.08470  -72.45110 4138.76660 4941.85880    0.05630
 6602.00000   -9999.25    6.97540    6.62950    8.82360    3.39380    0.02910   59.20220  120.84780   32.90510   31.48150    8.80860    4.82760    0.08030  -74.79640 4503.99330 4885.65300    0.04490
 6602.50000   -9999.25    6.66590    8.07380    9.01760    4.35620    0.02670   57.76160  110.56730   28.39070   30.19670    8.80860    4.79470    0.07060  -75.49050 4838.35580 4829.44720    0.03670
 6603.00000   -9999.25    7.77690    9.72100   14.23910    6.17500    0.02610   57.08210  107.82230   26.72100   28.80720    8.80860    4.75220    0.06640  -75.76990 4848.64380 4788.76500    0.03810
 6603.50000   -9999.25   10.57680   15.15010   16.91260   11.40700    0.02520   57.31910  107.80050   27.00260   31.11830    8.80860    4.72250    0.06920  -76.04930 4570.86580 4776.98860    0.04330
 6604.00000   -9999.25   13.37660   19.73100   26.07610   18.91450    0.02260   57.50340  107.77870   26.66870   27.87290    8.80860    4.69570    0.06980  -76.58770 4501.78870 4849.11920    0.04950
 6604.50000   -9999.25   22.49650   30.67490   45.53470   26.42190    0.02120   57.43130  107.75680   26.89440   27.46910    8.80860    4.65290    0.06990  -76.87240 4437.12090 4910.94550    0.05110
 6605.00000   -9999.25   33.19650   47.29950   65.99310   52.06740    0.02430   57.51870  107.55180   25.84100   26.05450    8.80860    4.67020    0.07000  -77.55140 4365.10430 4869.72800    0.04950
 6605.50000   -9999.25   51.98670   60.59910  348.49520  197.49060    0.02520   57.74710  107.11240   25.18070   24.28010    8.80860    4.72960    0.07290  -79.13580 4303.37580 4828.51050    0.04550
 6606.00000   -9999.25   73.53330   72.88860  938.75370  125.76040    0.02750   58.67020  106.43650   24.62820   21.18470    8.80860    4.78620    0.08160  -80.09110 4350.70100 4867.66710    0.04110
 6606.50000   -9999.25   91.65130   97.23130  704.68230  144.09680    0.03090   60.47950  107.73890   24.45580   17.48930    8.80860    4.82130    0.09200  -81.04640 4498.84920 4962.46760    0.03660
 6607.00000   -9999.25   75.48690   91.00360  319.45420   98.94690    0.03590   60.89080  108.45670   23.29300   16.50990    8.79460    4.84480    0.09470  -81.90410 4622.30610 4962.46760    0.03760
 6607.50000   -9999.25   51.97120   73.27760  104.20450   70.73470    0.04350   61.25140  108.80250   20.39360   15.51410    8.77120    4.86830    0.09700  -82.22220 4548.57490 4908.00150    0.04280
 6608.00000   -9999.25   45.35550   56.71770   84.74190   65.22110    0.05830   61.79800  108.41350   16.58630   16.50460    8.76130    4.88240    0.10180  -82.98920 4385.68040 4849.11920    0.04790
 6608.50000   -9999.25   36.85610   51.08190   56.77860   58.86800    0.07560   63.50770  110.62890   14.36190   18.23350    8.76470    4.90640    0.11310  -83.45430 4395.96860 4831.02980    0.05300
 6609.00000   -9999.25   20.96780   33.42880   40.76600   30.55920    0.09830   64.60950  113.78690   13.26270   20.29320    8.73070    4.86420    0.12210  -83.72420 4423.58710 4808.41810    0.05670
 6609.50000   -9999.25   21.10850   26.36750   31.49920   34.57070    0.11700   65.68170  114.59890   14.39760   21.09560    8.74070    4.85270    0.12890  -84.28370 4434.15080 4816.31660    0.05490
 6610.00000   -9999.25   24.16440   29.50120   61.59780   59.88620    0.12940   65.75020  114.27940   15.74750   20.46610    8.74620    4.84130    0.12860  -84.84320 4415.78240 4814.88050    0.05360
 6610.50000   -9999.25   26.60920   33.08510   92.55460   82.48370    0.12950   66.31850  114.26810   18.12770   20.98760    8.75170    4.82990    0.13100  -85.40260 4397.41390 4813.44450    0.06080
 6611.00000   -9999.25   31.76320   32.77370  126.94400  111.53190    0.12310   67.67590  115.89350   18.81990   20.26230    8.75720    4.81850    0.14130  -85.51450 4382.71920 4818.20880    0.07620
 6611.50000   -9999.25   42.46940   50.63350  180.04700  144.88050    0.12070   68.40700  117.16300   16.07480   18.85010    8.74970    4.80700    0.14730  -85.65170 4382.71920 4766.68690    0.09880
 6612.00000   -9999.25   53.16390   52.58530  405.81330  688.99470    0.13120   67.80750  118.21820   14.31290   18.08230    8.74220    4.79560    0.14190  -85.69340 4336.42290 4766.68690    0.10560
 6612.50000   -9999.25   69.80390   38.85510  116.17730  995.22430    0.14160   66.50410  119.02010   14.58040   19.00160    8.74580    4.80300    0.13630  -85.64860 4316.87550 4828.51320    0.10560
 6613.00000   -9999.25   60.55000   36.02410   85.09080  274.43000    0.15340   67.94330  118.44600   16.39250   21.08790    8.74920    4.81730    0.14480  -85.23280 4344.97940 4869.73070    0.10560
 6613.50000   -9999.25   47.03990   25.63000   60.49370   94.46960    0.15720   66.36700  116.52980   18.01690   21.29620    8.75040    4.83160    0.13300  -84.52850 4386.52070 4900.64390    0.11040
 6614.00000   -9999.25   36.95530   23.53900   44.09480   49.71770    0.16010   65.75850  115.91300   19.81530   20.67180    8.75170    4.84590    0.12900  -83.82420 4426.84160 4828.51320    0.11540
 6614.50000   -9999.25   26.30900   20.23390   30.15820   22.01780    0.14680   64.86050  114.36080   20.17890   19.63550    8.75300    4.86010    0.12120  -83.11990 4334.24900 4807.90440    0.11430
 6615.00000   -9999.25   29.63920   29.10950   31.15840   32.86910    0.11060   64.21860  113.67920   20.40260   20.90320    8.76740    4.86870    0.11700  -81.59600 4272.52070 4845.25780    0.09400
 6615.50000   -9999.25   44.78930   40.44210   71.44590   47.11850    0.06630   63.76010  113.44570   20.48470   22.35630    8.73710    4.88240    0.11420  -79.71740 4334.24910 4890.33950    0.07070
 6616.00000   -9999.25   56.90930   58.90420   80.97050   42.49040    0.05070   61.84800  113.35870   20.72360   23.08890    8.79860    4.86510    0.10580  -77.96310 4560.58630 4863.00450    0.05290
 6616.50000   -9999.25   45.16710   46.75150   78.20470   26.90630    0.04090   58.62230  109.53900   20.92970   23.46210    8.86000    4.84690    0.07630  -77.17430 4501.43000 4828.83580    0.04630
 6617.00000   -9999.25   32.87010   33.62010   82.02930   16.81910    0.03830   58.57770  108.75630   21.36730   24.32950    8.86720    4.79680    0.07630  -76.00830 4354.82510 4794.66710    0.05370
 6617.50000   -9999.25   20.57310   20.48870   56.96160    9.54870    0.04750   59.08220  107.81810   22.36300   26.85180    8.85200    4.71320    0.08120  -74.84230 4323.96100 4780.64830    0.06030
 6618.00000   -9999.25   10.37620   15.52710   34.38280    8.23510    0.05810   59.12750  107.79870   23.87740   27.80950    8.85060    4.70450    0.08180  -72.71600 4426.84160 4771.66700    0.05950
 6618.50000   -9999.25   11.56560   20.54590   20.61020    9.03000    0.05410   58.51410  107.78060   24.86950   29.10660    8.86710    4.69580    0.07460  -70.88520 4457.70580 4762.68570    0.05320
 6619.00000   -9999.25   14.09560   21.41510   21.29380   10.14100    0.04560   56.82980  107.24940   26.90320   29.29680    8.91040    4.68710    0.06370  -69.55850 4365.11320 4759.13750    0.04750
 6619.50000   -9999.25   13.62390   28.43960   28.02630   11.72160    0.03330   58.60930  104.48810   27.47560   30.73750    8.95370    4.64940    0.08190  -67.24040 4344.53710 4763.73880    0.04520
 6620.00000   -9999.25   11.98340   21.03900   36.47610   11.72160    0.02420   57.70830   97.22430   25.11560   30.12910    8.95690    4.69210    0.09430  -64.92220 4354.80120 4768.34010    0.04600
 6620.50000   -9999.25    6.80320    8.99010   33.46080    9.10580    0.01880   55.67510   97.46170   25.29020   29.52070    8.96010    4.74800    0.05460  -62.60410 4385.66570 4772.94150    0.04800
 6621.00000   -9999.25    2.51720    4.63080   29.13470    5.47130    0.00830   61.24430  113.17640   38.91920   30.57770    8.96320    4.84990    0.10350  -60.28600 4375.37750 4776.56090    0.06190
