~Version ---------------------------------------------------
VERS.   2.0 : CWLS log ASCII Standard -VERSION 2.0
WRAP.    NO : One line per depth step
DLM . SPACE : Column Data Section Delimiter
~Well ------------------------------------------------------
STRT .FT                   0.0 : START DEPTH
STOP .FT                7027.0 : STOP DEPTH
STEP .FT                   0.5 : STEP
NULL .                -9999.25 : NULL VALUE
COMP .                         : COMPANY
WELL .                         : WELL
FLD  .                         : FIELD
LOC  .                         : LOCATION
PROV .                         : PROVINCE
CNTY .                         : COUNTY
STAT .                         : STATE
CTRY .                         : COUNTRY
SRVC .                         : SERVICE COMPANY
DATE .                         : DATE
UWI  .                         : UNIQUE WELL ID
API  .                         : API NUMBER
SLAT .WGS84  6.725493119999996 : SURFACE LATITUDE
SLON .WGS84 3.9080370799999997 : SURFACE LONGITUDE
DATUM.F                    nan : DEPTH DATUM ELEV
~Curve Information -----------------------------------------
DEPT    .FT    : 
AT10    .OHMM  : ARRAY INDUCTION TWO FOOT RESISTIVITY A10
AT20    .OHMM  : ARRAY INDUCTION TWO FOOT RESISTIVITY A20
AT30    .OHMM  : ARRAY INDUCTION TWO FOOT RESISTIVITY A30
AT60    .OHMM  : ARRAY INDUCTION TWO FOOT RESISTIVITY A60
AT90    .OHMM  : ARRAY INDUCTION TWO FOOT RESISTIVITY A90
DPHZ_LS .DEC   : HGRD STANDARD RESOLUTION DENSITY POROSITY
DTCO    .US/F  : DELTA-T COMPRESSIONAL
DTSM    .US/F  : DELTA-T SHEAR
ECGREDTC.GAPI  : ENVIRONMENTALLY CORRECTED GAMMA RAY
ECGRR   .GAPI  : ENVIRONMENTALLY CORRECTED GAMMA RAY FROM RESISTIVITY LOG
HCALR   .IN    : HRCC CALIPER CALIBRATED FROM RESISTIVITY LOG
PEFZ    .B/E   : HRDD STANDARD RESOLUTION FORMATION PHOTOELECTRIC FACTOR
SPHI_LS .DEC   : SONIC POROSITY [LIMESTONE]
SPR     .MV    : SPONTANEOUS POTENTIAL FROM RESISTIVITY LOG
TENR    .LBF   : TENSION FROM RESISTIVITY LOG
TENS    .LBF   : TENSION FROM SONIC LOG
TNPH_LS .DEC   : THERMAL NEUTRON POROSITY [LIMESTONE]
~Params ----------------------------------------------------
~Other -----------------------------------------------------
~ASCII -----------------------------------------------------
# ...
 6252.50000   -9999.25   11.04070    5.81160    6.38490    4.95680    0.02870   68.51950  129.60150   81.31960   73.89770    9.08040    3.60530    0.14720  -69.87650 4190.20690 4846.53480    0.18170
 6253.00000   -9999.25   10.31480    7.00300    8.70550    4.68270    0.04080   68.17950  126.21200   76.99980   76.72570    8.94320    3.54360    0.14450  -69.79420 4323.95200 4807.89320    0.18110
 6253.50000   -9999.25   10.31480    9.44560   14.62590    6.30610    0.03720   66.49350  122.37710   72.60480   71.60500    8.88700    3.58550    0.13250  -69.45350 4293.08780 4776.96970    0.13960
 6254.00000   -9999.25   15.34440   13.40500   14.78560    9.27990    0.03040   66.15780  118.89400   74.49390   68.23350    8.85810    3.64350    0.13070  -69.39640 4169.63090 4746.04620    0.10030
 6254.50000   -9999.25   23.95500   23.31960   32.00470   15.85730    0.02170   65.45700  116.69810   76.72650   66.91940    8.85350    3.72200    0.12390  -69.33920 4005.02170 4715.12270    0.07840
 6255.00000   -9999.25   29.93520   25.46820   36.92950   14.58420    0.01970   63.77840  115.59490   74.56260   67.86420    8.84990    3.78170    0.11130  -69.28210 4365.10430 4684.19930    0.07340
 6255.50000   -9999.25   21.06600   10.98680   16.28760    9.97220    0.01760   62.09990  113.93570   70.83700   66.62370    8.85090    3.82480    0.10100  -69.22490 4596.58610 4647.12190    0.07740
 6256.00000   -9999.25   12.64690    8.65980    9.33010    6.77040    0.02010   60.57850  112.24050   63.45030   68.07390    8.85190    3.85420    0.09330  -69.16780 4562.63540 4622.41400    0.08120
 6256.50000   -9999.25    9.81390    6.11660    6.76230    5.82020    0.02550   59.90980  112.68470   56.64560   63.86220    8.85290    3.89830    0.08640  -69.11060 4387.73810 4644.97430    0.08360
 6257.00000   -9999.25   19.59310   12.90070   18.28840   10.91490    0.03200   59.88160  112.82850   53.78900   58.17900    8.84970    3.94250    0.08660  -69.05350 4258.79420 4667.53450    0.08200
 6257.50000   -9999.25   26.72730   16.80680   23.59090   18.90020    0.03540   59.90100  112.89720   52.66620   53.62370    8.84200    3.98670    0.08840  -69.49170 4210.78320 4681.18660    0.07850
 6258.00000   -9999.25   24.51680   17.28990   19.49660   14.87540    0.03510   59.79560  113.07900   52.19690   54.01150    8.84830    4.05030    0.08660  -69.67070 4210.78320 4714.75020    0.07490
 6258.50000   -9999.25   16.45910   12.49670   11.76920   11.83770    0.03430   59.18110  112.89800   48.15280   55.51850    8.84560    4.12020    0.08270  -69.73930 4235.10040 4748.31370    0.07160
 6259.00000   -9999.25   12.93930   10.18710   11.39180    9.44840    0.03150   58.10790  112.52110   46.26300   54.34740    8.84280    4.11680    0.07510  -69.80790 4258.48250 4781.00690    0.06680
 6259.50000   -9999.25   24.17830   17.24880   20.57500   19.87360    0.02630   57.27090  111.53620   49.20420   51.28570    8.84000    4.04980    0.06890  -69.87650 4282.79970 4769.00540    0.06140
 6260.00000   -9999.25   29.26420   20.88550   28.37670   15.84220    0.02310   56.66690  110.55130   51.54770   49.69140    8.83120    4.00610    0.06300  -70.52010 4293.08780 4677.61020    0.05550
 6260.50000   -9999.25   37.64900   26.44900   29.63890   19.87360    0.02250   55.61750  109.79050   50.73650   48.76540    8.82090    4.13360    0.05670  -70.71380 4293.08780 4618.33440    0.04390
 6261.00000   -9999.25   56.08030   56.31380   57.94930   51.11340    0.01900   55.44680  109.21440   48.25540   47.69670    8.83530    4.26600    0.05500  -70.75910 4293.08780 4652.17970    0.03180
 6261.50000   -9999.25   59.76660   55.78440   72.68430   36.03620    0.01420   55.60020  109.18140   43.56750   43.98360    8.84200    4.36480    0.05600  -70.80430 4293.08780 4686.02510    0.01970
 6262.00000   -9999.25   53.89450   46.18080   71.45770   29.05600    0.00560   55.87140  109.19510   40.19580   41.24130    8.84520    4.46350    0.05870  -70.88100 4293.08780 4735.72750    0.01950
 6262.50000   -9999.25   41.45920   51.72400   64.10060   40.17190    0.00720   56.76660  109.61780   39.69590   39.08200    8.84850    4.43960    0.06380  -70.95770 4293.08780 4753.38000    0.02420
 6263.00000   -9999.25   25.83380   27.20930   44.70330   39.60490    0.01600   57.42700  110.97680   41.57330   42.04920    8.85560    4.30830    0.06870  -71.03440 4313.66400 4745.16440    0.03540
 6263.50000   -9999.25   21.84220   21.43150   29.20300   17.91220    0.01920   57.08650  113.15320   44.02520   45.05660    8.86530    4.16810    0.06680  -71.11110 4313.66400 4703.17650    0.05070
 6264.00000   -9999.25   17.85070   16.03150   13.70280   13.25960    0.02120   58.58360  118.55290   47.03490   47.52700    8.86670    4.06950    0.07690  -71.28250 4219.35660 4661.18860    0.06180
 6264.50000   -9999.25   14.49230   11.65620    9.39450    9.42270    0.02450   60.76790  123.35390   51.70970   50.41670    8.86810    4.04740    0.08970  -71.15220 4231.35920 4619.20060    0.06740
 6265.00000   -9999.25   12.58080    9.90240    7.06270    9.27580    0.02720   62.51070  123.19920   54.50120   51.54320    8.86250    4.04540    0.10380  -70.49380 4293.08780 4613.51910    0.07090
 6265.50000   -9999.25   10.79710    9.62570    7.14020    9.33410    0.02580   62.60770  123.00470   56.98320   57.39570    8.85700    3.98620    0.10540  -70.13980 4293.08780 4616.91420    0.08460
 6266.00000   -9999.25    9.31440    8.41790    7.29670    7.63570    0.03010   62.62980  122.81030   57.94730   60.98360    8.86060    3.84530    0.10590  -69.89280 4282.79970 4620.30930    0.09960
 6266.50000   -9999.25    7.42510    6.98140    7.29670    6.45760    0.04450   62.99620  122.99640   61.01510   64.99240    8.86360    3.70450    0.10820  -69.64580 4272.51170 4623.70440    0.11280
 6267.00000   -9999.25    7.92380    7.11460    7.41670    5.82020    0.05320   62.92250  122.98090   62.14160   64.51850    8.84700    3.65000    0.10830  -69.39880 4272.51170 4619.90990    0.12310
 6267.50000   -9999.25    9.56600    7.83320    8.24680    6.86840    0.04610   61.10620  121.26380   59.18230   61.08530    8.88770    3.68430    0.09300  -68.96110 4303.37580 4616.11540    0.12860
 6268.00000   -9999.25   11.62190    9.97490   12.00020    9.11380    0.03770   58.91650  119.06890   54.32780   55.85360    8.94690    3.74260    0.07400  -68.34700 4344.52810 4612.32090    0.11140
 6268.50000   -9999.25   13.69380   14.22340   19.81880   12.76220    0.03270   57.21340  118.73940   47.25930   50.45430    8.94320    3.87740    0.06740  -67.96980 4293.08780 4615.18730    0.08860
 6269.00000   -9999.25   13.77190   18.47190   27.63740   18.29970    0.03390   57.01020  118.64880   44.58970   49.92390    8.79670    4.04700    0.06650  -67.26330 4231.35920 4637.10870    0.06700
 6269.50000   -9999.25   19.23990   29.21050   46.69080   27.09940    0.02550   57.22860  118.79890   46.94280   50.38890    8.82050    4.17650    0.06850  -66.39780 4354.81630 4659.03010    0.05360
 6270.00000   -9999.25   20.36170   32.86760   52.14430   26.45860    0.01540   57.31360  118.25440   48.58000   54.83020    8.83950    4.21550    0.06780  -65.53240 4303.37580 4650.93610    0.05040
 6270.50000   -9999.25   33.56830   16.80680   24.63870   16.14440    0.00930   56.08260  114.68020   47.12580   53.11880    8.81100    4.09980    0.05690  -64.66690 4282.78470 4648.22440    0.05400
 6271.00000   -9999.25   33.08360   20.11110   41.50640   18.95680    0.00990   54.73010  108.95330   42.76970   54.21330    8.84670    3.98420    0.04950  -63.80150 4282.78470 4645.51270    0.05320
 6271.50000   -9999.25   20.59380   15.18920  104.52070   13.20660    0.01770   54.51720  107.24090   38.17770   54.06870    8.84670    3.90930    0.04980  -62.41630 4293.07270 4642.80100    0.05000
 6272.00000   -9999.25   20.36170    8.75810   25.73320    6.89900    0.02430   54.96630  107.40030   33.65510   52.93220    8.84670    3.96220    0.05270  -60.96970 4282.78470 4644.29430    0.04940
 6272.50000   -9999.25   13.28490   11.51810   12.26720    8.90340    0.02650   54.96730  107.55980   30.14030   49.48220    8.82860    4.05900    0.05210  -59.52320 4241.63230 4657.18380    0.04620
