~Version ---------------------------------------------------
VERS.   2.0 : CWLS log ASCII Standard -VERSION 2.0
WRAP.    NO : One line per depth step
DLM . SPACE : Column Data Section Delimiter
~Well ------------------------------------------------------
STRT .FT                   0.0 : START DEPTH
STOP .FT                7027.0 : STOP DEPTH
STEP .FT                   0.5 : STEP
NULL .                -9999.25 : NULL VALUE
COMP .                         : COMPANY
WELL .                         : WELL
FLD  .                         : FIELD
LOC  .                         : LOCATION
PROV .                         : PROVINCE
CNTY .                         : COUNTY
STAT .                         : STATE
CTRY .                         : COUNTRY
SRVC .                         : SERVICE COMPANY
DATE .                         : DATE
UWI  .                         : UNIQUE WELL ID
API  .                         : API NUMBER
SLAT .WGS84  6.725493119999996 : SURFACE LATITUDE
SLON .WGS84 3.9080370799999997 : SURFACE LONGITUDE
DATUM.F                    nan : DEPTH DATUM ELEV
~Curve Information -----------------------------------------
DEPT    .FT    : 
AT10    .OHMM  : ARRAY INDUCTION TWO FOOT RESISTIVITY A10
AT20    .OHMM  : ARRAY INDUCTION TWO FOOT RESISTIVITY A20
AT30    .OHMM  : ARRAY INDUCTION TWO FOOT RESISTIVITY A30
AT60    .OHMM  : ARRAY INDUCTION TWO FOOT RESISTIVITY A60
AT90    .OHMM  : ARRAY INDUCTION TWO FOOT RESISTIVITY A90
DPHZ_LS .DEC   : HGRD STANDARD RESOLUTION DENSITY POROSITY
DTCO    .US/F  : DELTA-T COMPRESSIONAL
DTSM    .US/F  : DELTA-T SHEAR
ECGREDTC.GAPI  : ENVIRONMENTALLY CORRECTED GAMMA RAY
ECGRR   .GAPI  : ENVIRONMENTALLY CORRECTED GAMMA RAY FROM RESISTIVITY LOG
HCALR   .IN    : HRCC CALIPER CALIBRATED FROM RESISTIVITY LOG
PEFZ    .B/E   : HRDD STANDARD RESOLUTION FORMATION PHOTOELECTRIC FACTOR
SPHI_LS .DEC   : SONIC POROSITY [LIMESTONE]
SPR     .MV    : SPONTANEOUS POTENTIAL FROM RESISTIVITY LOG
TENR    .LBF   : TENSION FROM RESISTIVITY LOG
TENS    .LBF   : TENSION FROM SONIC LOG
TNPH_LS .DEC   : THERMAL NEUTRON POROSITY [LIMESTONE]
~Params ----------------------------------------------------
~Other -----------------------------------------------------
~ASCII -----------------------------------------------------
# ...
 6970.00000   -9999.25   26.14040   42.95460   30.19090   18.57170    0.02100   -9999.25   -9999.25   -9999.25   -9999.25    8.91430    4.79670   -9999.25 -126.12890 4622.29210 5183.25630    0.01490
 6970.50000   -9999.25   14.95940   11.70610   14.84420    9.34920    0.02110   -9999.25   -9999.25   -9999.25   -9999.25    8.92180    4.88240   -9999.25 -127.01500 4601.71580 5166.24230    0.01200
 6971.00000   -9999.25    5.87970    9.24370    8.60510    3.81580    0.01550   -9999.25   -9999.25   -9999.25   -9999.25    8.89370    4.96810   -9999.25 -127.90120 4838.34220 5132.10010    0.00890
 6971.50000   -9999.25   13.22390   12.72080   15.04840   12.95000    0.00900   -9999.25   -9999.25   -9999.25   -9999.25    8.89140    5.05550   -9999.25 -128.58020 4653.15630 5148.65520    0.00580
 6972.00000   -9999.25   25.46420   17.61740   22.58040   27.03810    0.00730   -9999.25   -9999.25   -9999.25   -9999.25    8.90990    5.10250   -9999.25 -130.54250 4642.86810 5186.85370    0.00520
 6972.50000   -9999.25   37.70440   26.97430   29.03460   45.80970    0.00520   -9999.25   -9999.25   -9999.25   -9999.25    8.92910    5.15940   -9999.25 -132.19830 4684.02060 5209.77290    0.00440
 6973.00000   -9999.25   49.94470   36.37830   35.48870   38.05410    0.00810   -9999.25   -9999.25   -9999.25   -9999.25    8.92960    5.15840   -9999.25 -133.09330 4735.46110 5201.20060    0.00470
 6973.50000   -9999.25  110.25950   41.51030   36.89840   37.41610    0.01740   -9999.25   -9999.25   -9999.25   -9999.25    8.93010    5.10240   -9999.25 -133.98830 4820.33790 5177.60470    0.00910
 6974.00000   -9999.25  202.62400   57.23260   38.49430   47.25360    0.02360   -9999.25   -9999.25   -9999.25   -9999.25    8.93060    5.08810   -9999.25 -134.88320 4678.87660 5154.00880    0.01410
 6974.50000   -9999.25 1210.49240   70.22940   44.24560   48.74460    0.01780   -9999.25   -9999.25   -9999.25   -9999.25    8.93110    5.08810   -9999.25 -135.85960 4622.29210 5154.41730   -9999.25
 6975.00000   -9999.25 1862.18310   91.84230   49.12640   48.74460    0.00400   -9999.25   -9999.25   -9999.25   -9999.25    8.93160    5.14290   -9999.25 -137.58640 4684.02060 5187.09190   -9999.25
 6975.50000   -9999.25 1883.41600  116.23480   56.47280   41.41090    0.00000   -9999.25   -9999.25   -9999.25   -9999.25    8.93210    5.13470   -9999.25 -138.56060 4735.46110 5219.76640   -9999.25
 6976.00000   -9999.25 1799.92220  137.77860   51.34020   33.49290    0.00180   -9999.25   -9999.25   -9999.25   -9999.25    8.92840    5.09370   -9999.25 -139.98370 4735.46110 5231.83560   -9999.25
 6976.50000   -9999.25 1265.66440  133.92890   44.91720   26.54900    0.00560   -9999.25   -9999.25   -9999.25   -9999.25    8.92470    5.05270   -9999.25 -141.40680 4725.17310 5214.76900   -9999.25
 6977.00000   -9999.25  718.66380  116.54920   38.49430   23.12700    0.01170   -9999.25   -9999.25   -9999.25   -9999.25    8.92320    5.01170   -9999.25 -142.75550 4717.45690 5197.70240   -9999.25
 6977.50000   -9999.25 1619.14890   92.65620   31.68600   22.42320    0.02190   -9999.25   -9999.25   -9999.25   -9999.25    8.92550    4.97070   -9999.25 -143.80660 4714.88490 5180.63580   -9999.25
 6978.00000   -9999.25  971.82190   73.44060   25.93640   23.12700    0.03630   -9999.25   -9999.25   -9999.25   -9999.25    8.91100    4.97050   -9999.25 -145.09890 4710.76960 5180.14250   -9999.25
 6978.50000   -9999.25   72.12240   42.26190   27.16970   21.11930    0.04220   -9999.25   -9999.25   -9999.25   -9999.25    8.88570    4.98330   -9999.25 -146.23860 4694.30860 5179.64910   -9999.25
 6979.00000   -9999.25   36.05530   26.62780   26.58220   22.88880    0.04500   -9999.25   -9999.25   -9999.25   -9999.25    8.89430    4.98470   -9999.25 -147.37510 4663.44440 5179.15580   -9999.25
 6979.50000   -9999.25   26.55190   33.72100   32.71780   28.44890    0.04220   -9999.25   -9999.25   -9999.25   -9999.25    8.90290    4.98610   -9999.25 -148.62440 4694.30860 5178.85970   -9999.25
 6980.00000   -9999.25   17.04860   20.99760   18.73630   20.00590    0.03470   -9999.25   -9999.25   -9999.25   -9999.25    8.91140    4.99540   -9999.25 -149.87360 4786.90170 5178.85970   -9999.25
 6980.50000   -9999.25   13.02470   18.78730   28.46740   36.85520    0.01920   -9999.25   -9999.25   -9999.25   -9999.25    8.91830    4.99440   -9999.25 -150.12350 4756.05120 5170.02740   -9999.25
 6981.00000   -9999.25   21.29440   28.34300   40.35750   56.63060    0.01920   -9999.25   -9999.25   -9999.25   -9999.25    8.87710    4.99350   -9999.25 -150.88790 4704.61090 5147.94660   -9999.25
 6981.50000   -9999.25   34.42430   51.37320   87.79380   89.79810    0.02090   -9999.25   -9999.25   -9999.25   -9999.25    8.88480    4.99250   -9999.25 -151.74260 4622.30610 5168.24340   -9999.25
 6982.00000   -9999.25   46.27670  115.14200  196.65150  492.26160    0.03570   -9999.25   -9999.25   -9999.25   -9999.25    8.89770    4.99730   -9999.25 -151.98620 4735.47500 5173.31760   -9999.25
 6982.50000   -9999.25   56.73770  727.96700  290.40500 1925.16730    0.04720   -9999.25   -9999.25   -9999.25   -9999.25    8.91050    5.00580   -9999.25 -152.28620 4714.89890 5176.28360   -9999.25
 6983.00000   -9999.25  146.67380 1434.22710  742.44180 1885.70650    0.04720   -9999.25   -9999.25   -9999.25   -9999.25    8.93200    5.01440   -9999.25 -152.81140 4695.79240 5112.61730   -9999.25
 6983.50000   -9999.25 1234.70650 1732.48390 1066.35290 1735.78340    0.03380   -9999.25   -9999.25   -9999.25   -9999.25    8.93200    5.01950   -9999.25 -153.33660 4703.14110 5039.01440   -9999.25
 6984.00000   -9999.25 1820.44100 1263.20090  870.69910  252.92810    0.02000   -9999.25   -9999.25   -9999.25   -9999.25    8.92690    5.12620   -9999.25 -153.70180 4704.61090 5114.08930   -9999.25
 6984.50000   -9999.25 1402.92790  507.65960  381.56450  176.12560    0.00810   -9999.25   -9999.25   -9999.25   -9999.25    8.89080    5.21150   -9999.25 -153.82720 4704.61090 5312.81690   -9999.25
 6985.00000   -9999.25  359.14510  209.41310  131.18800   99.32310    0.00340   -9999.25   -9999.25   -9999.25   -9999.25    8.89080    5.18400   -9999.25 -154.39270 4704.61090 5375.76160   -9999.25
 6985.50000   -9999.25  117.14490   87.71220   71.23840   65.81850    0.00330   -9999.25   -9999.25   -9999.25   -9999.25    8.89080    5.12920   -9999.25 -154.65020 4714.89890 5416.27910   -9999.25
 6986.00000   -9999.25   75.59040   54.15590   85.78530   42.43300    0.00640   -9999.25   -9999.25   -9999.25   -9999.25    8.89080    5.10180   -9999.25 -155.47330 4735.47500 5336.49770   -9999.25
 6986.50000   -9999.25   47.32720   32.63860   47.20300   30.58770   -9999.25   -9999.25   -9999.25   -9999.25   -9999.25   -9999.25   -9999.25   -9999.25 -155.58800 4766.33930 5245.04060   -9999.25
 6987.00000   -9999.25   39.47750   38.12710   43.51330   29.92120   -9999.25   -9999.25   -9999.25   -9999.25   -9999.25   -9999.25   -9999.25   -9999.25 -155.70270 4786.91550 5217.85710   -9999.25
 6987.50000   -9999.25  219.94320   34.36410   35.90330   33.22970   -9999.25   -9999.25   -9999.25   -9999.25   -9999.25   -9999.25   -9999.25   -9999.25 -155.81740 4776.62740 5256.82000   -9999.25
 6988.00000   -9999.25   68.01940   34.04100   37.71490   33.22970   -9999.25   -9999.25   -9999.25   -9999.25   -9999.25   -9999.25   -9999.25   -9999.25 -155.47330 4745.76320 5295.78280   -9999.25
 6988.50000   -9999.25   59.36920   39.02770   44.30480   35.92040   -9999.25   -9999.25   -9999.25   -9999.25   -9999.25   -9999.25   -9999.25   -9999.25 -155.47330 4714.89890 5312.81690   -9999.25
 6989.00000   -9999.25   54.22260   41.90430   46.05580   41.30180   -9999.25   -9999.25   -9999.25   -9999.25   -9999.25   -9999.25   -9999.25   -9999.25 -155.30870 4714.89890 5264.10520   -9999.25
 6989.50000   -9999.25   48.27330   34.42780   39.37990   25.35290   -9999.25   -9999.25   -9999.25   -9999.25   -9999.25   -9999.25   -9999.25   -9999.25 -155.22640 4756.05120 5203.21560   -9999.25
 6990.00000   -9999.25   40.38300   26.95130   32.70390   19.59610   -9999.25   -9999.25   -9999.25   -9999.25   -9999.25   -9999.25   -9999.25   -9999.25 -155.17500 4786.93620 5147.94660   -9999.25
