~Version ---------------------------------------------------
VERS.   2.0 : CWLS log ASCII Standard -VERSION 2.0
WRAP.    NO : One line per depth step
DLM . SPACE : Column Data Section Delimiter
~Well ------------------------------------------------------
STRT .FT                   0.0 : START DEPTH
STOP .FT                7027.0 : STOP DEPTH
STEP .FT                   0.5 : STEP
NULL .                -9999.25 : NULL VALUE
COMP .                         : COMPANY
WELL .                         : WELL
FLD  .                         : FIELD
LOC  .                         : LOCATION
PROV .                         : PROVINCE
CNTY .                         : COUNTY
STAT .                         : STATE
CTRY .                         : COUNTRY
SRVC .                         : SERVICE COMPANY
DATE .                         : DATE
UWI  .                         : UNIQUE WELL ID
API  .                         : API NUMBER
SLAT .WGS84  6.725493119999996 : SURFACE LATITUDE
SLON .WGS84 3.9080370799999997 : SURFACE LONGITUDE
DATUM.F                    nan : DEPTH DATUM ELEV
~Curve Information -----------------------------------------
DEPT    .FT    : 
AT10    .OHMM  : ARRAY INDUCTION TWO FOOT RESISTIVITY A10
AT20    .OHMM  : ARRAY INDUCTION TWO FOOT RESISTIVITY A20
AT30    .OHMM  : ARRAY INDUCTION TWO FOOT RESISTIVITY A30
AT60    .OHMM  : ARRAY INDUCTION TWO FOOT RESISTIVITY A60
AT90    .OHMM  : ARRAY INDUCTION TWO FOOT RESISTIVITY A90
DPHZ_LS .DEC   : HGRD STANDARD RESOLUTION DENSITY POROSITY
DTCO    .US/F  : DELTA-T COMPRESSIONAL
DTSM    .US/F  : DELTA-T SHEAR
ECGREDTC.GAPI  : ENVIRONMENTALLY CORRECTED GAMMA RAY
ECGRR   .GAPI  : ENVIRONMENTALLY CORRECTED GAMMA RAY FROM RESISTIVITY LOG
HCALR   .IN    : HRCC CALIPER CALIBRATED FROM RESISTIVITY LOG
PEFZ    .B/E   : HRDD STANDARD RESOLUTION FORMATION PHOTOELECTRIC FACTOR
SPHI_LS .DEC   : SONIC POROSITY [LIMESTONE]
SPR     .MV    : SPONTANEOUS POTENTIAL FROM RESISTIVITY LOG
TENR    .LBF   : TENSION FROM RESISTIVITY LOG
TENS    .LBF   : TENSION FROM SONIC LOG
TNPH_LS .DEC   : THERMAL NEUTRON POROSITY [LIMESTONE]
~Params ----------------------------------------------------
~Other -----------------------------------------------------
~ASCII -----------------------------------------------------
# ...
 5145.50000   -9999.25    4.65660    4.30330    3.93960    3.69110    0.04950   76.44290  135.53950  119.44250  112.00650    8.84670    2.98590    0.20400  -73.25900 3359.83230 3871.53530    0.20640
 5146.00000   -9999.25    4.49720    4.58270    4.96630    5.44130    0.07140   76.09660  135.18970  113.19770  119.14160    8.86000    2.84630    0.20100  -73.39280 3392.11780 3892.26700    0.20140
 5146.50000   -9999.25    4.42610    5.39830    6.12400    6.34700    0.08290   75.43000  135.06660  108.67970  120.77620    8.84360    2.77010    0.19710  -73.52650 3573.95540 3912.99880    0.19640
 5147.00000   -9999.25    4.65440    5.19710    5.63420    5.68960    0.08720   75.09530  133.18440  106.12600  117.19990    8.84300    2.76330    0.19350  -73.58000 3520.47730 3959.47490    0.18790
 5147.50000   -9999.25    5.01160    4.89320    4.94050    5.02330    0.08990   74.98190  132.40330  108.64750  113.38330    8.82770    2.77560    0.19400  -74.15610 3386.60640 3876.77980    0.17850
 5148.00000   -9999.25    5.08220    5.13010    4.81660    4.74640    0.08920   74.67230  132.60670  116.65080  113.97760    8.82090    2.81340    0.19220  -74.75350 3472.83030 3771.52880    0.17910
 5148.50000   -9999.25    4.92410    5.54740    5.26030    5.35520    0.08590   74.08610  132.02010  115.04530  118.21000    8.81410    2.85120    0.18840  -74.40300 3666.54140 3768.13420    0.18270
 5149.00000   -9999.25    4.83070    6.31000    5.92430    5.83030    0.08650   73.54290  130.21460  109.04820  117.97820    8.80860    2.87380    0.18350  -74.46370 3549.35920 3982.65660    0.18320
 5149.50000   -9999.25    5.44810    6.59830    6.43420    5.44990    0.08440   73.50160  130.52520  102.15000  112.11460    8.85890    2.89830    0.18360  -74.52430 3454.59570 3951.36060    0.17990
 5150.00000   -9999.25    6.22000    5.73730    5.97390    5.31340    0.08000   73.57670  130.83570  101.43680  106.12250    8.87180    2.95280    0.18330  -74.58490 3359.86040 3920.06450    0.17340
 5150.50000   -9999.25    6.99200    4.87630    5.19370    5.45090    0.07490   73.87540  131.18560  102.26060  101.35100    8.89670    2.99000    0.18560  -74.45480 3546.16400 3886.63840    0.16770
 5151.00000   -9999.25    6.98490    7.14490    5.74650    6.42340    0.06930   74.54710  132.31600  107.08440  101.35790    8.92580    3.00240    0.19050  -73.99190 3523.91110 3859.78500    0.17370
 5151.50000   -9999.25    5.85920    9.76050   14.05600   14.17630    0.06500   74.31250  133.90470  109.41650  102.67670    8.95490    3.12430    0.18840  -74.25940 3404.24650 3890.91470    0.17810
 5152.00000   -9999.25    4.89660    6.28040   19.04350   13.99860    0.05780   73.43320  132.83160  110.67730  110.02080    9.06110    3.32750    0.18390  -76.03080 3232.73700 3960.33670    0.19140
 5152.50000   -9999.25    3.91170    7.54230    6.86160    7.76720    0.04850   73.45810  130.88740  115.53250  115.06450    9.15530    3.53100    0.18320  -76.91930 3369.08460 4019.93400    0.19740
 5153.00000   -9999.25    2.99690    8.61170    7.98440    6.95780    0.03860   73.47300  129.90410  121.42680  120.20540    9.16230    3.69090    0.18330  -77.80780 3795.70830 3919.29560    0.19490
 5153.50000   -9999.25    2.21530    4.19960    5.54160    5.67090    0.03220   73.38540  129.90410  126.43480  117.71830    9.18210    3.76510    0.18250  -78.51860 3746.79880 3799.38440    0.18380
 5154.00000   -9999.25    2.16100    6.95470    9.29330    7.59330    0.02410   73.35900  130.68270  115.72540  113.14080    9.20180    3.87820    0.18200  -78.51860 3757.25690 3802.70090    0.18680
 5154.50000   -9999.25    2.54150    6.20910    7.11130    7.01590    0.03240   73.04990  131.39880  109.22830  106.99650    9.19160    3.82690    0.18000  -78.36430 3662.13240 3930.90340    0.18010
 5155.00000   -9999.25    3.59360    4.64940    5.27380    5.39700    0.04080   72.40510  131.88800  106.49630  104.78130    9.17700    3.70040    0.17610  -78.47750 3524.49360 4021.51450    0.16560
 5155.50000   -9999.25    4.24870    4.94690    6.05960    6.35970    0.06070   72.17700  132.39410  111.44190  108.61570    9.11490    3.56920    0.17340  -79.29020 3530.23490 3942.77220    0.16470
 5156.00000   -9999.25    5.03010    6.44390    5.59190    5.21250    0.06670   72.14810  133.12360  117.43900  110.47470    9.08020    3.58210    0.17360  -79.83550 3440.33290 3864.02990    0.17150
 5156.50000   -9999.25    5.60460    7.14230    4.95620    4.49990    0.06850   71.68900  133.46610  119.17020  111.76940    9.03390    3.61600    0.16910  -80.45280 3346.19720 3850.50780    0.18070
 5157.00000   -9999.25    5.71300    6.34510    6.70830    5.20310    0.06360   70.35050  133.90720  118.50480  112.52970    9.03490    3.39200    0.16620  -81.07010 3610.77060 3853.29080    0.17210
 5157.50000   -9999.25    5.13100    5.01110    5.28930    4.29250    0.06210   73.29580  134.38150  117.93790  114.00120    9.17780    3.16800    0.18290  -81.35810 3634.77720 3856.07390    0.17350
 5158.00000   -9999.25    4.51280    4.05500    3.85570    3.56760    0.06840   74.31700  134.44900  118.57220  114.31110    9.29190    2.95640    0.18930  -81.94800 3447.44900 3845.61920    0.18420
 5158.50000   -9999.25    3.96820    5.43700    5.02540    4.51080    0.07050   74.59560  133.81080  119.17020  115.22720    9.35630    2.77070    0.19170  -82.51210 3460.21720 3854.17260    0.19320
 5159.00000   -9999.25    3.91970    8.23260    6.80120    5.73480    0.07300   75.20570  135.90800  118.25600  116.92620    9.38990    2.80380    0.19550  -82.48980 3586.19830 3862.72600    0.18420
 5159.50000   -9999.25    4.96450   10.30880    8.64220    7.05010    0.06530   75.89910  145.32500  118.35100  120.11910    9.38670    2.90310    0.20140  -82.54720 3651.85510 3823.94080    0.18760
 5160.00000   -9999.25    5.82760    8.34370    6.90820    4.65410    0.05990   76.36800  143.16600  117.00950  121.82950    9.38970    2.98590    0.20350  -82.43890 3526.34100 3785.15560    0.19660
 5160.50000   -9999.25    6.33030    5.42480    5.15820    5.34570    0.05800   75.96350  141.97560  117.91340  125.20510    9.39930    3.03560    0.20010  -82.33060 3427.98710 3739.97770    0.20560
 5161.00000   -9999.25    5.86960    7.13940    5.72210    5.35920    0.05990   76.19300  144.40090  120.60090  129.04190    9.47680    3.07690    0.20560  -82.22230 3487.36230 3669.22880    0.21040
 5161.50000   -9999.25    4.12520    8.43020    6.89150    5.78770    0.06260   77.78410  145.46110  127.45030  132.87870    9.55440    3.18020    0.21630  -81.64620 3559.00940 3598.47990    0.22250
 5162.00000   -9999.25    3.18350    4.96790    3.49080    5.08300    0.06450   76.24580  147.56410  133.28140  136.79440    9.57200    3.25930    0.20280  -81.60500 3618.14060 3898.72380    0.22620
 5162.50000   -9999.25    2.29350    3.19220    2.92650    5.69320    0.06620   77.42340  151.61570  136.62440  140.42110    9.92810    3.23000    0.21130  -82.10480 3569.71320 4036.41260    0.22000
 5163.00000   -9999.25    1.91320    2.74810    2.45820    2.56950    0.07050   79.87540  154.88580  137.51070  140.86240    9.66990    3.20090    0.22710  -82.08180 3424.43020 4016.67300    0.21590
 5163.50000   -9999.25    2.14290    3.86230    2.36240    2.26140    0.07370   80.49960  153.96050  140.44910  140.69980    9.66990    3.20270    0.23450  -81.25160 3531.44270 3938.74080    0.22880
 5164.00000   -9999.25    3.25620    8.72480    9.70280    4.83330    0.07730   82.38090  196.93350  143.40160  140.51690    9.67790    3.26190    0.24580  -79.82190 3511.53960 3860.80860    0.25420
 5164.50000   -9999.25    4.12520   12.77470   16.95220   12.77310    0.08590   83.26350  195.28860  141.54570  138.34940    9.75060    3.32860    0.25250  -80.14470 3393.00780 3782.87650    0.29540
 5165.00000   -9999.25    3.97220   12.38090   19.85200   19.07590    0.08710   83.33840  201.04580  136.81640  136.16420    9.84740    3.36500    0.25350  -80.79040 3490.82890 3774.67140    0.31290
 5165.50000   -9999.25    2.43050    6.94420    9.93000   11.97090    0.08920   84.23060  181.10140  133.66900  134.71200    9.89590    3.39550    0.26020  -80.79040 3568.43960 3803.43330    0.32200
