~Version ---------------------------------------------------
VERS.   2.0 : CWLS log ASCII Standard -VERSION 2.0
WRAP.    NO : One line per depth step
DLM . SPACE : Column Data Section Delimiter
~Well ------------------------------------------------------
STRT .FT                   0.0 : START DEPTH
STOP .FT                7027.0 : STOP DEPTH
STEP .FT                   0.5 : STEP
NULL .                -9999.25 : NULL VALUE
COMP .                         : COMPANY
WELL .                         : WELL
FLD  .                         : FIELD
LOC  .                         : LOCATION
PROV .                         : PROVINCE
CNTY .                         : COUNTY
STAT .                         : STATE
CTRY .                         : COUNTRY
SRVC .                         : SERVICE COMPANY
DATE .                         : DATE
UWI  .                         : UNIQUE WELL ID
API  .                         : API NUMBER
SLAT .WGS84  6.725493119999996 : SURFACE LATITUDE
SLON .WGS84 3.9080370799999997 : SURFACE LONGITUDE
DATUM.F                    nan : DEPTH DATUM ELEV
~Curve Information -----------------------------------------
DEPT    .FT    : 
AT10    .OHMM  : ARRAY INDUCTION TWO FOOT RESISTIVITY A10
AT20    .OHMM  : ARRAY INDUCTION TWO FOOT RESISTIVITY A20
AT30    .OHMM  : ARRAY INDUCTION TWO FOOT RESISTIVITY A30
AT60    .OHMM  : ARRAY INDUCTION TWO FOOT RESISTIVITY A60
AT90    .OHMM  : ARRAY INDUCTION TWO FOOT RESISTIVITY A90
DPHZ_LS .DEC   : HGRD STANDARD RESOLUTION DENSITY POROSITY
DTCO    .US/F  : DELTA-T COMPRESSIONAL
DTSM    .US/F  : DELTA-T SHEAR
ECGREDTC.GAPI  : ENVIRONMENTALLY CORRECTED GAMMA RAY
ECGRR   .GAPI  : ENVIRONMENTALLY CORRECTED GAMMA RAY FROM RESISTIVITY LOG
HCALR   .IN    : HRCC CALIPER CALIBRATED FROM RESISTIVITY LOG
PEFZ    .B/E   : HRDD STANDARD RESOLUTION FORMATION PHOTOELECTRIC FACTOR
SPHI_LS .DEC   : SONIC POROSITY [LIMESTONE]
SPR     .MV    : SPONTANEOUS POTENTIAL FROM RESISTIVITY LOG
TENR    .LBF   : TENSION FROM RESISTIVITY LOG
TENS    .LBF   : TENSION FROM SONIC LOG
TNPH_LS .DEC   : THERMAL NEUTRON POROSITY [LIMESTONE]
~Params ----------------------------------------------------
~Other -----------------------------------------------------
~ASCII -----------------------------------------------------
# ...
 4059.00000   -9999.25    4.41660    4.47270    3.82090    3.58810    0.04200   59.74860  112.00840   45.08820   55.06790    8.88450    4.13610    0.08550  -86.59520 2839.30240 3362.91300    0.15600
 4059.50000   -9999.25    3.04990    2.83450    2.83450    2.69940    0.02810   60.13130  113.13730   38.28050   44.89530    8.84120    4.12480    0.09080  -86.59520 2942.28580 5283.00680    0.17290
 4060.00000   -9999.25    2.82760    2.62800    3.37540    5.33280    0.02190   60.64540  113.66850   33.12530   34.32060    8.81910    4.21050    0.09580  -86.63050 2984.78130 5259.29430    0.17440
 4060.50000   -9999.25    2.97390    2.98120    4.13770    5.31800    0.01420   60.74820  114.32310   27.69740   27.89360    8.79690    4.33950    0.09060  -86.74850 2879.96150 5131.14670    0.15100
 4061.00000   -9999.25    3.31040    4.03860    4.35170    5.00700    0.00700   62.55110  118.11320   23.44180   22.65000    8.78660    4.47580    0.12720  -87.31610 2896.10460 5478.97510    0.12430
 4061.50000   -9999.25    3.16940    5.14620    5.32440    5.89880   -0.00420   73.22720  131.53970   20.37170   21.17110    8.77180    4.62710    0.20390  -87.32690 3138.24410 5442.36190    0.09150
 4062.00000   -9999.25    2.84270    7.11560    4.03800    3.50810   -0.00430   83.90330  153.00140   22.40070   25.37970    8.79070    4.75720    0.26460  -87.33550 3017.17410 5332.52120    0.06450
 4062.50000   -9999.25    2.68880    6.11650    3.09610    2.32030    0.01190   86.60960  159.02620   28.42180   31.32730    8.80070    4.76270    0.27570  -87.33550 2936.46120 5240.98720    0.06830
 4063.00000   -9999.25    5.44750   11.20310   16.23090    8.41500    0.01770   86.37120  158.87420   36.94120   40.65310    8.80480    4.69100    0.27480  -87.01270 3089.81610 5167.75980    0.08860
 4063.50000   -9999.25    8.61630   16.14860   32.14060   13.38700    0.02060   86.50490  158.84470   43.82190   46.29660    8.80880    4.53820    0.27440  -86.90500 3025.24560 5094.53290    0.11270
 4064.00000   -9999.25    9.48630   12.46660   36.88690   12.54060    0.02030   86.55890  158.25540   52.70690   54.06040    8.81280    4.38540    0.27510  -86.68980 2863.81940 4926.11010    0.13690
 4064.50000   -9999.25    6.79560    7.00010   23.09600    9.14740    0.02810   86.67490  157.67300   64.78330   62.88620    8.81890    4.22450    0.27600  -86.04410 3065.60240 4691.78200    0.13070
 4065.00000   -9999.25    4.28670    3.66080    6.75020    6.11650    0.03230   86.74650  157.98140   75.89180   76.08080    8.80860    4.04390    0.27660  -86.04410 3038.15980 5039.61190    0.15010
 4065.50000   -9999.25    3.17210    2.56260    4.87460    5.46040    0.03970   86.86270  158.28980   90.34370   93.12540    8.81660    3.84670    0.27690  -86.04410 2879.96150 5405.74810    0.17150
 4066.00000   -9999.25    3.15080    2.53050    4.03460    5.96420    0.05480   86.56710  158.76780  100.77680  104.90770    8.85660    3.68460    0.27640  -86.12120 2952.60370 5442.36190    0.19920
 4066.50000   -9999.25    3.55730    3.40670    6.43290    5.00700    0.06080   86.24330  160.42980  113.91490  112.55220    8.89670    3.67330    0.27270  -86.19820 3041.38840 5405.74810    0.22620
 4067.00000   -9999.25    3.50360    3.74070    4.08580    3.60750    0.05800   87.23110  161.14780  118.29920  114.74670    8.97830    3.65470    0.27960  -86.27530 2928.38960 5387.44120    0.24930
 4067.50000   -9999.25    2.99460    3.05730    3.01500    2.80340    0.05830   87.64380  160.83940  121.99870  118.56210    9.47170    3.61550    0.28380  -86.26840 3062.91150 5357.04580    0.25000
 4068.00000   -9999.25    2.48570    3.21540    2.28480    2.12430    0.06450   86.87280  160.22610  122.70190  120.11340    8.93900    3.57620    0.27810  -85.92540 3138.24410 5326.65030    0.25000
 4068.50000   -9999.25    2.25370    2.67820    2.23070    2.12430    0.07000   86.90070  159.72870  124.05450  122.09520    8.93900    3.53690    0.27710  -86.37170 2899.33290 5289.71790    0.25330
 4069.00000   -9999.25    2.94600    4.35890    3.75830    3.26900    0.06220   86.70770  159.23130  121.03270  122.00260    9.13280    3.54900    0.27660  -86.54560 2847.67640 5242.98010    0.26760
 4069.50000   -9999.25    3.02750    4.99910    5.32440    4.76070    0.06110   82.48000  144.71350  122.26150  117.09910    8.98750    3.59660    0.25980  -86.71950 3170.52940 5196.24230    0.27700
 4070.00000   -9999.25    3.55450    5.32440    5.52970    5.46900    0.08750   66.97270  128.48490  124.39030  115.63560    9.19730    3.57980    0.12890  -86.89330 3054.28960 5174.68770    0.27800
 4070.50000   -9999.25    4.29720    4.56780    4.95240    5.67980    0.11430   61.86300  113.75420  127.64890  117.87050    9.08460    3.48470    0.09930  -86.76710 2928.32580 5153.85480    0.27780
 4071.00000   -9999.25    3.33940    3.80090    4.02220    5.53840    0.13100   61.28880  112.99290  127.05160  122.00540    9.35130    3.34390    0.09730  -86.74190 2971.26060 5133.02190    0.26990
 4071.50000   -9999.25    3.30270    3.46810    3.74070    4.74310    0.12540   61.88780  113.52450  126.43250  123.42250    9.40810    3.27970    0.10130  -86.73080 2976.56080 5112.18900    0.26090
 4072.00000   -9999.25    3.31610    3.46810    4.08580    4.17950    0.11440   62.02130  113.65270  126.41150  120.02520    8.84360    3.26390    0.10220  -87.35920 2919.94140 5095.56860    0.25310
 4072.50000   -9999.25    3.17350    3.31150    3.78810    4.04100    0.10750   62.12770  113.17590  128.21390  116.71670    9.00530    3.29120    0.10270  -87.63400 3030.04630 5114.10440    0.26160
 4073.00000   -9999.25    3.03090    3.29750    3.63230    4.09290    0.11600   62.17580  113.25500  129.32060  116.62370    9.15070    3.31850    0.10260  -87.90880 3072.93960 5132.68560    0.26160
 4073.50000   -9999.25    2.93660    4.17070    4.36470    4.85950    0.12380   62.09940  113.33420  129.83590  118.62300    8.94150    3.35400    0.10250  -88.18360 2895.41390 5132.77740    0.25720
 4074.00000   -9999.25    3.91070    4.63490    5.39200    6.04940    0.12240   61.95150  113.41330  130.12280  120.62230    8.86480    3.42990    0.10140  -88.22600 3016.05590 5114.88250    0.25700
 4074.50000   -9999.25    4.45200    4.26200    4.96160    3.98940    0.11880   61.81720  113.61500  126.11880  122.62160    8.91470    3.55560    0.10070  -88.33980 2986.36970 5083.77410    0.28840
 4075.00000   -9999.25    4.31420    4.29720    4.93650    3.34470    0.09070   61.84220  114.06270  118.07290  123.09510    8.91470    3.72000    0.10120  -88.88620 2895.10810 5005.59080    0.27530
 4075.50000   -9999.25    3.82870    5.52970    7.71840    3.94380    0.04760   62.03470  114.24980  107.48310  111.81910    8.90960    3.92680    0.10220  -89.15180 3136.56510 5005.81970    0.22680
 4076.00000   -9999.25    3.40940    4.81350    6.59890    3.48070    0.01720   62.10270  114.98390   96.73040   94.42710    8.75520    4.10760    0.10220  -89.77310 3007.59970 4961.64470    0.17790
 4076.50000   -9999.25    3.37350   22.41320    4.75320    9.52440    0.03020   62.13990  115.78980   82.28620   78.99910    8.76890    4.32150    0.10380  -89.98810 2894.80230 4932.42920    0.15070
 4077.00000   -9999.25    7.95280   18.78640    9.86320    8.80350    0.05120   62.63030  114.80700   73.30930   72.83920    8.78250    4.53540    0.10640  -90.20310 3055.39190 4841.11550    0.12570
 4077.50000   -9999.25    9.01970   14.27010   12.39210    8.29100    0.04960   63.06030  115.68420   66.53340   67.81410    8.79620    4.69260    0.10850  -90.41810 3055.24740 4859.64370    0.09930
 4078.00000   -9999.25    7.55150    9.81570    6.13390    5.56450    0.03690   63.13250  115.82110   59.44070   62.94480    8.83530    4.80270    0.10940  -90.63300 2959.05100 5689.01710    0.09090
 4078.50000   -9999.25    6.57080    9.15650    4.56150    3.38710    0.02460   63.04520  115.95800   52.34810   52.68270    8.82760    4.86860    0.10860  -90.88980 2907.30130 5768.54470    0.06780
 4079.00000   -9999.25    5.25090    6.68090    6.68090    5.46900    0.01230   62.73920  116.09490   48.79050   49.52570    8.81400    4.88500    0.10800  -91.20930 2894.30310 5537.60740    0.05590
