~Version ---------------------------------------------------
VERS.   2.0 : CWLS log ASCII Standard -VERSION 2.0
WRAP.    NO : One line per depth step
DLM . SPACE : Column Data Section Delimiter
~Well ------------------------------------------------------
STRT .FT                   0.0 : START DEPTH
STOP .FT                7027.0 : STOP DEPTH
STEP .FT                   0.5 : STEP
NULL .                -9999.25 : NULL VALUE
COMP .                         : COMPANY
WELL .                         : WELL
FLD  .                         : FIELD
LOC  .                         : LOCATION
PROV .                         : PROVINCE
CNTY .                         : COUNTY
STAT .                         : STATE
CTRY .                         : COUNTRY
SRVC .                         : SERVICE COMPANY
DATE .                         : DATE
UWI  .                         : UNIQUE WELL ID
API  .                         : API NUMBER
SLAT .WGS84  6.725493119999996 : SURFACE LATITUDE
SLON .WGS84 3.9080370799999997 : SURFACE LONGITUDE
DATUM.F                    nan : DEPTH DATUM ELEV
~Curve Information -----------------------------------------
DEPT    .FT    : 
AT10    .OHMM  : ARRAY INDUCTION TWO FOOT RESISTIVITY A10
AT20    .OHMM  : ARRAY INDUCTION TWO FOOT RESISTIVITY A20
AT30    .OHMM  : ARRAY INDUCTION TWO FOOT RESISTIVITY A30
AT60    .OHMM  : ARRAY INDUCTION TWO FOOT RESISTIVITY A60
AT90    .OHMM  : ARRAY INDUCTION TWO FOOT RESISTIVITY A90
DPHZ_LS .DEC   : HGRD STANDARD RESOLUTION DENSITY POROSITY
DTCO    .US/F  : DELTA-T COMPRESSIONAL
DTSM    .US/F  : DELTA-T SHEAR
ECGREDTC.GAPI  : ENVIRONMENTALLY CORRECTED GAMMA RAY
ECGRR   .GAPI  : ENVIRONMENTALLY CORRECTED GAMMA RAY FROM RESISTIVITY LOG
HCALR   .IN    : HRCC CALIPER CALIBRATED FROM RESISTIVITY LOG
PEFZ    .B/E   : HRDD STANDARD RESOLUTION FORMATION PHOTOELECTRIC FACTOR
SPHI_LS .DEC   : SONIC POROSITY [LIMESTONE]
SPR     .MV    : SPONTANEOUS POTENTIAL FROM RESISTIVITY LOG
TENR    .LBF   : TENSION FROM RESISTIVITY LOG
TENS    .LBF   : TENSION FROM SONIC LOG
TNPH_LS .DEC   : THERMAL NEUTRON POROSITY [LIMESTONE]
~Params ----------------------------------------------------
~Other -----------------------------------------------------
~ASCII -----------------------------------------------------
# ...
 2603.50000   -9999.25    0.60760    0.71520    1.17360    1.24720   -9999.25  117.73460  104.10720   30.73870   29.74440   15.98620    3.49380   -9999.25 -170.76830 2133.84080 2630.09340    0.24120
 2604.00000   -9999.25    0.49050    0.55050    0.58800    0.76100   -9999.25  110.83990  103.07900   31.64850   28.69170   11.58290    3.20500   -9999.25 -166.31020 2180.47990 2681.80930    0.29890
 2604.50000   -9999.25    0.52900    0.41480    0.33320    0.36740   -9999.25  112.12350  106.23550   30.19610   33.87340   14.53680    2.48840   -9999.25 -164.11540 2202.42790 2733.52520    0.54740
 2605.00000   -9999.25    0.60770    0.44560    0.37000    0.41150   -9999.25  116.49100  114.38830   28.22480   39.39490   24.05210    1.77170   -9999.25 -164.82620 2202.42790 2964.28300    0.66220
 2605.50000   -9999.25    0.73880    0.48250    0.40630    0.43820   -9999.25  119.52390  122.54120   30.77380   44.72980   24.18920    1.62600   -9999.25 -165.57440 2161.27560 2927.09050    0.69890
 2606.00000   -9999.25    0.91840    0.49870    0.40630    0.46090   -9999.25  120.67670  130.69400   42.97670   52.31470   24.18920    1.89770   -9999.25 -166.17300 2147.55850 2765.83640    0.62940
 2606.50000   -9999.25    1.09800    0.58830    0.49750    0.79300   -9999.25  122.41330  138.84690   54.65650   72.53080   24.18920    2.29280   -9999.25 -165.99660 2051.53620 2582.16200    0.49330
 2607.00000   -9999.25    1.17560    1.14020    0.67980    2.04360   -9999.25  123.72790  147.02730   67.33700   82.73310   24.16730    2.59390   -9999.25 -165.11480 2249.06690 2560.71310    0.50890
 2607.50000   -9999.25    1.03800    1.75710    3.04540    3.29430   -9999.25  121.77250  155.48820   73.36900   90.89500   17.76950    2.77010   -9999.25 -164.54650 2312.16740 2571.26690    0.55830
 2608.00000   -9999.25    1.11650    2.01590    8.14320    4.54500   -9999.25  123.08500  162.75250   75.37950   86.57400   15.19750    2.76420   -9999.25 -164.05660 2252.72510 2622.08050    0.52870
 2608.50000   -9999.25    1.18460    1.51330    4.54080    5.79560   -9999.25  122.98010  170.01670   73.50790   90.20400   15.46950    2.72470   -9999.25 -163.56670 2284.73250 2594.02540    0.49820
 2609.00000   -9999.25    1.15130    1.66700    2.55730    4.10300   -9999.25  109.49020  181.51830   68.86710   87.21290   17.13850    2.75530   -9999.25 -163.07680 2367.03690 2531.15570    0.50240
 2609.50000   -9999.25    1.08460    1.69690    2.08940    2.68620    0.30170   99.26270  186.54040   67.46970   86.25850   17.34770    3.04550    0.29910 -162.69090 2174.99290 2535.84440    0.47360
 2610.00000   -9999.25    1.23500    1.98750    3.82460    4.56210    0.29900   92.28480  160.81090   65.49680   80.87370   16.73390    3.53490    0.29910 -161.74130 2360.17110 2540.53300    0.36110
 2610.50000   -9999.25    1.05770    2.41790    3.44500    3.59170    0.19750   84.50190  137.24540   61.31110   71.32270   11.97180    4.01010    0.28430 -160.79160 2388.88970 2535.87330    0.32120
 2611.00000   -9999.25    1.45330    3.27890    3.41570    4.40300    0.16760   76.71890  132.64380   56.18460   63.43320   11.78450    4.27390    0.19220 -160.04880 2311.96490 2568.66000    0.24450
 2611.50000   -9999.25    2.27020    4.88490   24.07410    7.28970    0.12480   61.18050  136.55460   49.93340   57.77660   11.40520    4.53760    0.11740 -159.69780 2147.25870 2601.44670    0.17050
 2612.00000   -9999.25    3.08700    4.64850   10.75200    9.72120    0.06740   59.29940  130.59430   41.99550   47.39590   11.02130    5.01540    0.08490 -157.76850 2009.97310 2594.41850    0.10070
 2612.50000   -9999.25    3.90390    4.61720   56.04200    8.16870    0.03140   59.44800  115.19160   27.67820   35.57150   11.74860    5.15260    0.08380 -157.07330 2616.87900 2596.79070    0.03090
 2613.00000   -9999.25    4.57110    5.17710   35.15750    7.11960    0.02480   58.58090  107.73810   16.38390   23.80200   11.02170    5.12270    0.07810 -157.07330 2777.95460 2599.16290   -0.00310
 2613.50000   -9999.25    4.87460    5.96100   15.28900    5.41640    0.00440   56.95360  106.40700   12.79710   18.69500   10.98120    5.10800    0.06740 -156.95190 2540.07580 2568.10900   -0.00830
 2614.00000   -9999.25    5.17810    5.92080   20.77910    9.24570   -0.00760   56.32020  104.65730   12.42640   16.02290   10.96770    5.15720    0.06030 -156.42840 2242.75410 2555.98620   -0.01160
 2614.50000   -9999.25    4.74290    5.56720   27.12070    6.75220   -0.01250   56.33200  104.00120   12.55090   15.38990   10.81020    5.20630    0.06150 -155.90490 2338.68430 2543.86340   -0.01160
 2615.00000   -9999.25    4.45290    5.42630    7.63270   15.90630   -0.01850   56.32120  104.21710   13.13800   15.34450   10.62540    5.27710    0.06240 -155.17540 2324.86510 2531.74060   -0.01110
 2615.50000   -9999.25    5.19280    8.11530   28.61380   24.12110   -0.04180   55.34510  101.87920   13.50130   15.29910   10.56180    5.31840    0.05710 -154.39430 2132.71070 2519.01160   -0.00760
 2616.00000   -9999.25    6.21530   10.61970   22.27280   27.75250   -0.08120   54.77120   98.04990   12.91710   13.53400   10.49780    5.31850    0.05110 -153.61330 2475.54960 2506.13110   -0.00280
 2616.50000   -9999.25    9.32450   14.37170   36.58020   67.73700   -0.09860   54.35920   98.43240   12.82890   12.21960   10.27950    5.31870    0.04840 -152.67290 2379.43000 2493.25060    0.00200
 2617.00000   -9999.25   12.95540   20.39730   22.10010   76.72640   -0.09890   53.90730   96.96630   12.30070   13.77200   10.01980    5.28790    0.04500 -151.60900 2187.27620 2480.37010    0.00640
 2617.50000   -9999.25   16.67850   19.27700   67.87690   24.14420   -0.09920   53.56190   95.75980   12.31890   15.62320    9.96790    5.24440    0.04140 -150.54510 2187.16510 2467.48960    0.00520
 2618.00000   -9999.25   18.29000   62.48020   54.44920   50.43650   -0.09940   53.73080   96.18710   11.83670   15.44230    9.89790    5.19600    0.04370 -149.48110 2214.49860 2488.09850    0.00060
 2618.50000   -9999.25   18.76110  163.48040   82.31240   65.39720   -0.09970   53.53530   96.62010   11.95960   15.43210    9.85190    5.14600    0.04190 -148.17060 2228.15150 2543.52350   -0.00400
 2619.00000   -9999.25   16.83090  140.40170   54.35420   24.77960   -0.10000   53.17240   96.92770   13.21160   15.47660    9.80600    5.09590    0.03900 -147.17440 2248.59640 2552.68200   -0.00400
 2619.50000   -9999.25   12.89370   72.18610   51.49560   46.87510   -0.10060   53.11770   97.31060   13.44720   16.21240    9.75440    5.04580    0.03750 -145.57290 2282.78610 2529.78390    0.00040
 2620.00000   -9999.25    8.95650   28.70980   30.71820   42.95990   -0.10060   53.22630   98.32720   12.31100   14.38440    9.67540    5.04580    0.03850 -144.10260 2260.72710 2590.23610   -0.00120
 2620.50000   -9999.25    7.11110   31.85750   36.18930   38.06140   -0.07700   53.69980   99.73190   11.65460   13.66580    9.64040    5.05230    0.04390 -143.23880 2288.16170 2735.87560   -0.00380
 2621.00000   -9999.25    5.73920   19.42260   42.65600   21.31720   -0.04800   53.84850  100.80050   12.51980   13.47470    9.64190    5.05230    0.04410 -142.37500 2150.98760 2694.65700   -0.00540
 2621.50000   -9999.25    5.52610   10.05040   11.78260   13.88120   -0.01270   53.99060   99.73730   12.70050   14.03270    9.69340    5.04320    0.04600 -141.51120 2279.01670 2648.85980   -0.00460
 2622.00000   -9999.25    5.66730   10.18060   14.97200   19.75820    0.01570   55.34530  100.14850   14.62190   14.59080    9.74480    4.96920    0.04780 -140.64740 2260.72710 2625.96260   -0.00430
 2622.50000   -9999.25    6.30190    8.55790   10.38690   13.90170    0.03320   63.88910  111.76560   16.77760   16.82090    9.74310    4.89670    0.12410 -139.78360 2296.00050 2735.60840    0.00790
 2623.00000   -9999.25    6.42880    8.55790   14.36610    9.50940    0.03430   64.87820  121.79330   19.62980   19.43430    9.72520    4.82410    0.12860 -138.65230 2507.64050 2807.95060    0.04570
 2623.50000   -9999.25    6.19020    5.69870    8.38300    7.11560    0.03210   65.82060  122.86280   22.95100   25.66770    9.67110    4.75150    0.13020 -137.50340 2396.18620 2783.22010    0.11480
