~Version ---------------------------------------------------
VERS.   2.0 : CWLS log ASCII Standard -VERSION 2.0
WRAP.    NO : One line per depth step
DLM . SPACE : Column Data Section Delimiter
~Well ------------------------------------------------------
STRT .FT                   0.0 : START DEPTH
STOP .FT                7027.0 : STOP DEPTH
STEP .FT                   0.5 : STEP
NULL .                -9999.25 : NULL VALUE
COMP .                         : COMPANY
WELL .                         : WELL
FLD  .                         : FIELD
LOC  .                         : LOCATION
PROV .                         : PROVINCE
CNTY .                         : COUNTY
STAT .                         : STATE
CTRY .                         : COUNTRY
SRVC .                         : SERVICE COMPANY
DATE .                         : DATE
UWI  .                         : UNIQUE WELL ID
API  .                         : API NUMBER
SLAT .WGS84  6.725493119999996 : SURFACE LATITUDE
SLON .WGS84 3.9080370799999997 : SURFACE LONGITUDE
DATUM.F                    nan : DEPTH DATUM ELEV
~Curve Information -----------------------------------------
DEPT    .FT    : 
AT10    .OHMM  : ARRAY INDUCTION TWO FOOT RESISTIVITY A10
AT20    .OHMM  : ARRAY INDUCTION TWO FOOT RESISTIVITY A20
AT30    .OHMM  : ARRAY INDUCTION TWO FOOT RESISTIVITY A30
AT60    .OHMM  : ARRAY INDUCTION TWO FOOT RESISTIVITY A60
AT90    .OHMM  : ARRAY INDUCTION TWO FOOT RESISTIVITY A90
DPHZ_LS .DEC   : HGRD STANDARD RESOLUTION DENSITY POROSITY
DTCO    .US/F  : DELTA-T COMPRESSIONAL
DTSM    .US/F  : DELTA-T SHEAR
ECGREDTC.GAPI  : ENVIRONMENTALLY CORRECTED GAMMA RAY
ECGRR   .GAPI  : ENVIRONMENTALLY CORRECTED GAMMA RAY FROM RESISTIVITY LOG
HCALR   .IN    : HRCC CALIPER CALIBRATED FROM RESISTIVITY LOG
PEFZ    .B/E   : HRDD STANDARD RESOLUTION FORMATION PHOTOELECTRIC FACTOR
SPHI_LS .DEC   : SONIC POROSITY [LIMESTONE]
SPR     .MV    : SPONTANEOUS POTENTIAL FROM RESISTIVITY LOG
TENR    .LBF   : TENSION FROM RESISTIVITY LOG
TENS    .LBF   : TENSION FROM SONIC LOG
TNPH_LS .DEC   : THERMAL NEUTRON POROSITY [LIMESTONE]
~Params ----------------------------------------------------
~Other -----------------------------------------------------
~ASCII -----------------------------------------------------
# ...
 3690.00000   -9999.25    3.71310    5.34500    6.55450   10.52560    0.04570   71.79990  143.44140   76.51000   72.32310    9.04120    4.25830    0.16400  -90.86420 2745.89740 2900.27790    0.13690
 3690.50000   -9999.25    3.13580    3.74070    4.35250    4.76230    0.03990   70.08990  142.91550   77.12830   72.83550    9.09500    4.27400    0.15910  -90.86420 2737.40700 3031.14370    0.13150
 3691.00000   -9999.25    2.52640    3.42470    4.53930    6.92140    0.03200   70.10130  140.61810   79.32840   75.25680    9.14890    4.29350    0.16020  -90.81910 2723.68980 3162.00950    0.12760
 3691.50000   -9999.25    2.25760    3.00410    5.20170    6.35640    0.02760   66.98120  140.52900   81.14700   78.76850    9.17900    4.25630    0.13750  -91.24670 2704.09340 3061.54170    0.13260
 3692.00000   -9999.25    1.68480    2.14860    3.00240    4.09360    0.03560   66.04620  145.37970   81.30160   81.17480    9.16280    4.18290    0.12000  -91.17310 2668.81970 2961.07380    0.14020
 3692.50000   -9999.25    1.09120    1.29320    1.34120    1.69100    0.05010   71.35790  149.06580   78.49780   75.33940    9.14660    4.10940    0.16740  -91.09960 2627.66750 2920.88670    0.13870
 3693.00000   -9999.25    0.70770    0.74150    0.86270    1.05550    0.10040   71.11810  153.05310   75.53230   68.56210    9.13040    4.04380    0.16590  -91.02610 2751.12420 2972.40860    0.13520
 3693.50000   -9999.25    1.62280    3.13540    1.82500    1.62070    0.16050   70.86160  158.09000   73.72780   64.27330    9.16870    3.78260    0.16400  -90.95250 2874.58100 2920.88670    0.16220
 3694.00000   -9999.25    2.59340    4.13770    3.00000    2.44120    0.22210   70.60510  163.02740   74.11420   74.85800    9.56340    3.51860    0.16210  -90.87900 2709.97230 2766.32090    0.22420
 3694.50000   -9999.25    2.06690    4.29720    5.96420    3.14140    0.28530   70.34860  167.58700   76.04630   85.14400   10.16430    3.37360    0.16020  -90.86430 2792.27680 2735.40770    0.28620
 3695.00000   -9999.25    1.57260    2.48600    4.06660    2.14700    0.29910   70.06260  171.22670   77.12830   94.90730   11.73380    3.26320    0.15820  -91.08670 2860.86370 3247.27470    0.43100
 3695.50000   -9999.25    0.98230    0.83430    2.01670    1.20490    0.30010   69.73480  174.86640   77.43740   85.92580   11.16680    3.34840    0.15630  -91.30920 2682.53760 3420.36320    0.40250
 3696.00000   -9999.25    1.37230    2.13480    6.03990    3.86780    0.23370   69.40370  174.66070   70.15500   75.19010   10.97940    3.54600    0.15440  -91.53160 2825.19840 3280.00560    0.38530
 3696.50000   -9999.25    3.00310    4.71860    3.93420    3.89230    0.09530   69.29910  168.53580   63.61920   63.24450   11.04110    3.90520    0.15250  -91.75410 2847.14650 3131.13320    0.29940
 3697.00000   -9999.25    4.18750    7.31130   16.31100    6.20600   -0.02430   69.43620  161.13660   59.70670   54.70540    9.22350    4.26440    0.15280  -91.97650 2682.53760 3052.03340    0.19790
 3697.50000   -9999.25    4.08520    7.83630   19.26620    4.55670   -0.03230   75.00150  153.73740   64.93510   58.00550    9.24410    4.48990    0.20150  -92.19900 2840.28760 2995.82770    0.12780
 3698.00000   -9999.25    3.88240    6.77860    7.38990    4.19820    0.03550   77.38910  150.26500   72.68890   66.01830    9.34700    4.58530    0.21010  -92.42140 2833.42870 2964.06690    0.10720
 3698.50000   -9999.25    3.50040    4.83530    6.04090    4.58550    0.05320   76.97790  147.21860   80.90070   74.03110    9.21440    4.41560    0.20420  -92.15760 2696.25480 2968.97380    0.13470
 3699.00000   -9999.25    2.54520    2.45940    4.08100    3.29060    0.06060   74.37350  144.43750   86.27630   79.13190    9.18920    4.15560    0.18850  -91.68730 2778.55920 2973.88060    0.15320
 3699.50000   -9999.25    1.59010    1.93200    2.09440    2.27760    0.07360   73.82520  143.59510   88.85770   83.44520    9.16870    4.06000    0.18170  -91.68730 2819.71150 2978.78750    0.16810
 3700.00000   -9999.25    1.61030    3.85420    2.20280    2.53530    0.06990   70.39840  136.58640   82.84520   84.64370    9.13730    4.06660    0.15710  -92.22700 2764.84210 2982.71300    0.16730
 3700.50000   -9999.25    2.81490    5.52970    3.81650    4.67610    0.05650   64.50440  129.90400   75.18780   79.10200    9.12750    4.17280    0.11640  -92.02880 2819.71150 2978.13330    0.16640
 3701.00000   -9999.25    4.11280    8.92840    5.19180    5.00870    0.02930   64.60350  128.63060   58.99260   68.82710    9.16870    4.41080    0.12050  -91.83070 2805.99430 2970.50040    0.15310
 3701.50000   -9999.25    4.81050    7.84160    5.46040    5.40230    0.02000   63.78100  127.63300   46.38280   52.93200    9.03150    4.63340    0.11260  -91.63250 2764.84210 2962.86750    0.06830
 3702.00000   -9999.25    4.93330    7.11560    6.03990    4.50280    0.02000   62.50480  127.07670   37.91410   42.27570    8.99030    4.73610    0.10480  -91.43430 2815.13910 2955.23460    0.02440
 3702.50000   -9999.25    4.93330   19.26620   31.22900    7.64710    0.01950   62.67330  126.38130   38.58120   35.10670    8.97660    4.70170    0.10730  -91.26890 2819.71170 2947.60170    0.02110
 3703.00000   -9999.25    5.81200   18.90700   56.97790   19.67150    0.01600   62.25520  125.78250   40.38360   36.76460    9.07350    4.64430    0.10240  -91.23440 2655.10250 2999.55260    0.03870
 3703.50000   -9999.25   10.64530   15.19600   37.49050   19.54800    0.01290   63.49470  124.67960   42.76060   38.74070    9.02110    4.58300    0.11160  -90.50590 2802.07480 3017.85950    0.05670
 3704.00000   -9999.25    8.90750   11.34650   14.87740   12.66610    0.01400   64.27180  125.02400   42.70690   38.27410    9.03630    4.61090    0.11860  -89.76060 2799.13540 3032.40980    0.07270
 3704.50000   -9999.25    6.01100    7.36050    9.53310    7.11550    0.02060   67.00770  126.39940   46.72220   44.20230    9.07690    4.65220    0.13400  -89.41910 2641.38530 3050.59770    0.08440
 3705.00000   -9999.25    3.69380    4.19820    5.47420    4.79240    0.01840   68.75540  129.89480   53.31980   53.45470    9.07300    4.70640    0.14880  -89.07760 2888.29880 3057.44050    0.09870
 3705.50000   -9999.25    4.87150    5.73680    6.55650    5.91600    0.01840   69.21380  131.05580   59.69730   61.54630    9.04670    4.74980    0.15240  -88.79380 2756.61160 3051.54390    0.12170
 3706.00000   -9999.25    4.89210    6.51450    7.29730    6.82150    0.03960   69.26160  131.71940   60.79570   64.63730    9.03150    4.74980    0.15340  -88.21770 2739.69310 3045.64740    0.13460
 3706.50000   -9999.25    4.16130    6.13880    7.04880    6.65160    0.04750   69.32090  132.18940   58.50940   65.80840    9.07260    4.65850    0.15350  -88.05050 2888.29880 3039.75080    0.14010
 3707.00000   -9999.25    4.49100    6.22890    7.29730    7.75090    0.04710   68.96100  131.28310   55.50930   64.47910    9.37440    4.60590    0.15120  -87.94220 2778.55920 3038.58330    0.14120
 3707.50000   -9999.25    5.12350    8.18980   11.34710   11.08300    0.03150   67.31610  134.95660   52.71750   55.59520    9.08910    4.58990    0.14180  -87.68430 2778.55940 3040.56870    0.13220
 3708.00000   -9999.25    4.58030    6.83560   14.41630   11.30400    0.01600   65.22400  192.82140   47.33570   43.79930    9.01780    4.61100    0.12880  -87.87140 2943.16820 3042.55400    0.10080
 3708.50000   -9999.25    4.77550    6.69370    8.59700    7.78700    0.01330   62.79270  197.49900   38.97320   33.41710    8.99720    4.67100    0.10960  -88.05850 2760.26960 3044.53930    0.07230
 3709.00000   -9999.25    6.11260    9.64020   24.22080   12.22470    0.01570   59.65710  196.93360   31.38980   29.25990    8.97660    4.72650    0.08570  -88.24550 2811.48120 3054.57100    0.05360
 3709.50000   -9999.25    8.48390   25.47420   47.30330   31.50930    0.02300   57.81500  199.80280   28.68740   28.93240    8.98780    4.64870    0.06870  -88.44290 2934.02340 3064.60260    0.04660
 3710.00000   -9999.25    9.04650   31.36460   68.97190   45.49600    0.02320   55.76480  203.45500   30.56410   30.16840    9.00640    4.59760    0.05450  -88.44250 2723.68980 3056.35380    0.03950
