~Version ---------------------------------------------------
VERS.   2.0 : CWLS log ASCII Standard -VERSION 2.0
WRAP.    NO : One line per depth step
DLM . SPACE : Column Data Section Delimiter
~Well ------------------------------------------------------
STRT .FT                   0.0 : START DEPTH
STOP .FT                7027.0 : STOP DEPTH
STEP .FT                   0.5 : STEP
NULL .                -9999.25 : NULL VALUE
COMP .                         : COMPANY
WELL .                         : WELL
FLD  .                         : FIELD
LOC  .                         : LOCATION
PROV .                         : PROVINCE
CNTY .                         : COUNTY
STAT .                         : STATE
CTRY .                         : COUNTRY
SRVC .                         : SERVICE COMPANY
DATE .                         : DATE
UWI  .                         : UNIQUE WELL ID
API  .                         : API NUMBER
SLAT .WGS84  6.725493119999996 : SURFACE LATITUDE
SLON .WGS84 3.9080370799999997 : SURFACE LONGITUDE
DATUM.F                    nan : DEPTH DATUM ELEV
~Curve Information -----------------------------------------
DEPT    .FT    : 
AT10    .OHMM  : ARRAY INDUCTION TWO FOOT RESISTIVITY A10
AT20    .OHMM  : ARRAY INDUCTION TWO FOOT RESISTIVITY A20
AT30    .OHMM  : ARRAY INDUCTION TWO FOOT RESISTIVITY A30
AT60    .OHMM  : ARRAY INDUCTION TWO FOOT RESISTIVITY A60
AT90    .OHMM  : ARRAY INDUCTION TWO FOOT RESISTIVITY A90
DPHZ_LS .DEC   : HGRD STANDARD RESOLUTION DENSITY POROSITY
DTCO    .US/F  : DELTA-T COMPRESSIONAL
DTSM    .US/F  : DELTA-T SHEAR
ECGREDTC.GAPI  : ENVIRONMENTALLY CORRECTED GAMMA RAY
ECGRR   .GAPI  : ENVIRONMENTALLY CORRECTED GAMMA RAY FROM RESISTIVITY LOG
HCALR   .IN    : HRCC CALIPER CALIBRATED FROM RESISTIVITY LOG
PEFZ    .B/E   : HRDD STANDARD RESOLUTION FORMATION PHOTOELECTRIC FACTOR
SPHI_LS .DEC   : SONIC POROSITY [LIMESTONE]
SPR     .MV    : SPONTANEOUS POTENTIAL FROM RESISTIVITY LOG
TENR    .LBF   : TENSION FROM RESISTIVITY LOG
TENS    .LBF   : TENSION FROM SONIC LOG
TNPH_LS .DEC   : THERMAL NEUTRON POROSITY [LIMESTONE]
~Params ----------------------------------------------------
~Other -----------------------------------------------------
~ASCII -----------------------------------------------------
# ...
 3341.50000   -9999.25    4.57390    2.17520    4.04800    1.66800    0.05710   65.35230  122.76610   48.62790   53.20560    8.99030    3.95950    0.12590  -96.91580 2740.83620 2942.55130    0.10610
 3342.00000   -9999.25    4.16140    2.93260    4.63850    2.06670    0.06640   65.35390  121.12120   53.63430   59.60310    8.95950    4.01110    0.12630  -97.33790 2631.09730 2934.70050    0.12790
 3342.50000   -9999.25    3.98150    3.29750    4.61320    2.49700    0.07150   64.92450  121.04480   55.28810   61.47400    8.93660    4.17240    0.12280  -97.75990 2562.51000 2926.84980    0.13800
 3343.00000   -9999.25    3.98150    3.51210    4.33350    2.88660    0.06100   64.12920  120.69540   51.67650   56.11390    8.89090    4.33370    0.11650  -98.18200 2795.70620 2918.99900    0.13490
 3343.50000   -9999.25    4.24060    7.88210    7.94210    4.89670    0.04720   62.78190  119.31530   46.08090   52.16040    8.88400    4.47640    0.10610  -98.60410 2650.30150 2911.14830    0.12340
 3344.00000   -9999.25    7.23140    9.87600   15.29960   12.54710    0.03890   60.76490  115.70540   40.75690   47.06780    8.85800    4.55870    0.09370  -99.02610 2567.08240 2903.29750    0.10970
 3344.50000   -9999.25    5.38850    8.59320   14.75060   18.65510    0.03600   60.01060  113.86340   38.03960   41.97520    8.83050    4.58610    0.08660  -99.44820 2740.83620 2895.44680    0.09770
 3345.00000   -9999.25    5.27460    6.45510    9.55500   28.49630    0.02930   59.08510  112.83950   39.06800   37.73140    8.80860    4.63110    0.07980  -99.87030 2459.62940 2921.35460    0.09660
 3345.50000   -9999.25    5.15850    5.52970    7.57860   28.59780    0.01620   57.96290  110.47640   36.46860   34.62050    8.79490    4.64670    0.07170 -100.53510 2781.98840 2933.84430    0.08400
 3346.00000   -9999.25    5.04240    6.03990    7.77220   10.44770    0.01520   57.06470  107.82250   35.14360   34.65940    8.79600    4.69480    0.06620 -100.94660 2672.24950 2946.33400    0.07130
 3346.50000   -9999.25    5.14450    6.32200    7.62670   13.35640    0.01960   57.18980  107.32420   36.63200   40.89500    8.78490    4.76420    0.06820 -100.67220 2589.94500 2875.55760    0.05870
 3347.00000   -9999.25    5.51600    6.66450   11.63500   13.81150    0.02800   57.30920  106.82600   79.13760   66.97520    8.79830    4.87420    0.06940 -100.39790 2720.26050 2931.16790    0.05000
 3347.50000   -9999.25    5.88740    7.02650    8.81660   13.93740    0.03610   57.70390  106.64530  108.82510  102.46900    8.79120    4.99220    0.07190 -100.12350 2548.79280 3017.52930    0.05050
 3348.00000   -9999.25    6.13880    6.72000    7.38990   11.84870    0.05240   57.69940  107.19530  135.56540  130.41980    8.78400    5.11690    0.07120  -99.71200 2706.54280 2935.09420    0.05650
 3348.50000   -9999.25    5.98160    6.20920    8.35990   16.24320    0.06310   57.73980  107.56650  140.50030  134.93810    8.78120    5.21670    0.07170  -99.33220 2644.81450 2852.65910    0.06280
 3349.00000   -9999.25    5.32640    5.69840    8.70610    9.38360    0.07210   58.21790  107.89440  111.81360  125.92580    8.74000    5.19270    0.07510  -98.85730 2589.94500 2921.35460    0.06770
 3349.50000   -9999.25    4.87150    5.39200    5.81570    4.81010    0.08000   59.34880  109.84770   90.35920  104.45450    8.73600    5.13280    0.08390  -98.47750 2672.24950 2935.09140    0.06770
 3350.00000   -9999.25    5.09720    5.96650    8.12030    4.60250    0.09130   59.97430  110.61580   77.49590   82.41220    8.73110    5.06320    0.08710  -98.96740 2589.94500 2948.82820    0.07270
 3350.50000   -9999.25    6.22540    6.92410    8.20380    4.47020    0.09410   60.05000  110.56730   68.16350   65.09760    8.72610    5.01790    0.08800  -99.45730 2368.17980 2942.75890    0.07710
 3351.00000   -9999.25    7.02200    6.02600    5.53170    4.24030    0.09010   60.28600  110.49500   56.85810   47.99370    8.72120    4.98370    0.08880  -99.94720 2329.31380 2912.41260    0.08610
 3351.50000   -9999.25    6.39530    4.87460    4.26370    4.05730    0.08650   62.79270  113.85700   44.36040   37.72400    8.71620    4.95170    0.10710 -100.43710 2836.85850 2869.36090    0.08620
 3352.00000   -9999.25    5.04860    4.25640    3.82370    3.68060    0.08580   63.64890  116.48680   31.46440   29.75100    8.71130    4.83280    0.11310 -100.68630 3111.20630 2838.44770    0.08240
 3352.50000   -9999.25    4.03210    3.70970    3.38380    3.35810    0.09010   63.76600  116.70560   27.13460   29.13590    8.71090    4.63030    0.11460 -101.17220 2905.44510 2856.76670    0.07860
 3353.00000   -9999.25    3.65300    3.29750    2.94380    3.11340    0.09220   63.86540  116.19470   26.88370   29.87140    8.71620    4.50440    0.11510 -101.43190 2727.11900 2879.66530    0.07550
 3353.50000   -9999.25    3.46090    3.33940    2.97180    3.11340    0.09420   63.83620  116.36260   30.53530   30.88190    8.71730    4.44790    0.11540 -100.74620 2685.96670 2902.56400    0.07620
 3354.00000   -9999.25    3.47690    3.33940    3.01900    3.06250    0.09850   63.98410  114.95270   33.25490   33.00610    8.71850    4.32000    0.11570 -100.48760 2740.83640 2920.88290    0.07690
 3354.50000   -9999.25    3.39630    3.16360    3.01900    2.79700    0.11250   63.83470  117.86640   32.12480   34.10490    8.72560    4.06570    0.11490 -100.22910 2754.55400 2941.49170    0.08210
 3355.00000   -9999.25    3.11230    2.83450    2.66140    2.56200    0.12490   63.95560  118.72350   29.83120   33.14920    8.71580    3.82320    0.11640  -99.97060 2631.09730 2941.49170    0.09640
 3355.50000   -9999.25    2.94190    2.76400    2.37590    2.14640    0.12840   63.66860  117.54030   27.11420   30.79560    8.69960    3.90370    0.11350  -99.71200 2631.09730 2935.05970    0.10540
 3356.00000   -9999.25    2.94190    3.04610    2.69870    2.86190    0.12440   63.16200  116.10030   27.17460   28.88930    8.72580    4.23610    0.10990  -99.65960 2672.24920 2925.47110    0.11080
 3356.50000   -9999.25    3.09410    3.24640    3.18660    4.03180    0.11880   62.43290  116.77400   27.36900   28.10800    8.75200    4.51370    0.10470  -99.60710 2603.66220 2915.88260    0.11530
 3357.00000   -9999.25    3.21340    3.38200    3.64750    3.61060    0.11230   61.91880  116.21350   27.32720   28.44130    8.74970    4.68460    0.10100  -99.03280 2565.93910 2868.94900    0.11300
 3357.50000   -9999.25    3.67920    3.86120    4.11870    3.40600    0.10570   61.10140  115.58310   25.97710   27.46000    8.77190    4.79300    0.09300  -98.53510 2809.42340 2885.99540    0.09960
 3358.00000   -9999.25    4.24060    4.40690    4.59110    5.47970    0.08860   58.67620  114.95270   25.21210   27.31470    8.79410    4.90140    0.07800  -98.21410 2655.78820 2903.04180    0.08530
 3358.50000   -9999.25    4.51660    4.87460    5.43900    4.86800    0.07580   60.11550  115.39910   25.96700   26.33330    8.81630    4.94210    0.08930  -97.89310 2576.22720 2920.08820    0.07100
 3359.00000   -9999.25    4.75020    5.86270    8.26110    6.38040    0.06310   58.40200  118.14060   29.42940   27.50290    8.84080    4.95620    0.08490  -97.45720 2576.22720 2937.13460    0.06020
 3359.50000   -9999.25    5.25430    7.02060   10.78730   12.07490    0.05180   65.97970  121.20290   32.25970   32.09350    8.91800    4.92880    0.12660  -96.93840 2749.98120 2942.86630    0.05110
 3360.00000   -9999.25    5.96040    7.57860    8.42760   11.33720    0.04830   67.65810  124.54880   40.82080   38.21280    8.91730    4.86030    0.13970  -96.46100 2795.70710 2956.14850    0.04890
 3360.50000   -9999.25    4.47880    5.79270    6.55710    7.83160    0.05560   69.55570  127.57120   56.89730   45.21590    8.91100    4.64990    0.15640  -96.00840 2748.67860 2969.43070    0.05130
 3361.00000   -9999.25    2.99710    3.67900    4.21010    4.96410    0.07730   71.29250  132.67040   75.87460   60.58630    8.89920    4.37050    0.16700  -95.66540 2562.51390 2982.71300    0.08140
 3361.50000   -9999.25    2.52890    3.69380    4.75320    5.22100    0.09910   72.61440  136.14310   98.37450   80.42310    8.88750    4.09110    0.17930  -95.28330 2740.84000 2930.69140    0.11380
