~Version ---------------------------------------------------
VERS.   2.0 : CWLS log ASCII Standard -VERSION 2.0
WRAP.    NO : One line per depth step
DLM . SPACE : Column Data Section Delimiter
~Well ------------------------------------------------------
STRT .FT                   0.0 : START DEPTH
STOP .FT                7027.0 : STOP DEPTH
STEP .FT                   0.5 : STEP
NULL .                -9999.25 : NULL VALUE
COMP .                         : COMPANY
WELL .                         : WELL
FLD  .                         : FIELD
LOC  .                         : LOCATION
PROV .                         : PROVINCE
CNTY .                         : COUNTY
STAT .                         : STATE
CTRY .                         : COUNTRY
SRVC .                         : SERVICE COMPANY
DATE .                         : DATE
UWI  .                         : UNIQUE WELL ID
API  .                         : API NUMBER
SLAT .WGS84  6.725493119999996 : SURFACE LATITUDE
SLON .WGS84 3.9080370799999997 : SURFACE LONGITUDE
DATUM.F                    nan : DEPTH DATUM ELEV
~Curve Information -----------------------------------------
DEPT    .FT    : 
AT10    .OHMM  : ARRAY INDUCTION TWO FOOT RESISTIVITY A10
AT20    .OHMM  : ARRAY INDUCTION TWO FOOT RESISTIVITY A20
AT30    .OHMM  : ARRAY INDUCTION TWO FOOT RESISTIVITY A30
AT60    .OHMM  : ARRAY INDUCTION TWO FOOT RESISTIVITY A60
AT90    .OHMM  : ARRAY INDUCTION TWO FOOT RESISTIVITY A90
DPHZ_LS .DEC   : HGRD STANDARD RESOLUTION DENSITY POROSITY
DTCO    .US/F  : DELTA-T COMPRESSIONAL
DTSM    .US/F  : DELTA-T SHEAR
ECGREDTC.GAPI  : ENVIRONMENTALLY CORRECTED GAMMA RAY
ECGRR   .GAPI  : ENVIRONMENTALLY CORRECTED GAMMA RAY FROM RESISTIVITY LOG
HCALR   .IN    : HRCC CALIPER CALIBRATED FROM RESISTIVITY LOG
PEFZ    .B/E   : HRDD STANDARD RESOLUTION FORMATION PHOTOELECTRIC FACTOR
SPHI_LS .DEC   : SONIC POROSITY [LIMESTONE]
SPR     .MV    : SPONTANEOUS POTENTIAL FROM RESISTIVITY LOG
TENR    .LBF   : TENSION FROM RESISTIVITY LOG
TENS    .LBF   : TENSION FROM SONIC LOG
TNPH_LS .DEC   : THERMAL NEUTRON POROSITY [LIMESTONE]
~Params ----------------------------------------------------
~Other -----------------------------------------------------
~ASCII -----------------------------------------------------
# ...
 5883.50000   -9999.25    1.46370    9.99240   22.52830    2.75400    0.02110   95.74610  176.40670  135.69250  138.52200    9.10850    4.09940    0.29950  -72.75760 4117.12680 4347.27290    0.31000
 5884.00000   -9999.25    1.32570    2.38620    9.91640    3.42900    0.00840   95.84270  212.29290  137.06730  143.97910    9.12240    4.24850    0.29940  -72.72390 4122.64350 4328.67430    0.31890
 5884.50000   -9999.25    1.12160    4.77080    6.12360    4.81240    0.03780   95.51830  215.33590  145.52970  149.57650    9.13620    4.33580    0.29930  -72.71480 3996.60940 4368.97870    0.32150
 5885.00000   -9999.25    0.96520    2.89590    4.93830    4.66720    0.05740   91.21850  211.90910  149.43260  165.95550    9.09970    4.33660    0.29930  -72.70560 3910.64620 4395.28760    0.32220
 5885.50000   -9999.25    1.08440   10.21860   19.34630    5.58270    0.04010   84.73990  212.32030  162.32400  201.09430    9.05410    4.43350    0.27230  -72.05160 4116.48570 4416.33470    0.34160
 5886.00000   -9999.25    1.34090   26.96320  105.94550    7.35580    0.00220   80.93790  212.32030  149.95870  226.88100    9.02190    4.67100    0.23570  -71.43890 4059.74520 4354.50850    0.36360
 5886.50000   -9999.25    2.82720    8.75830  207.24240    7.28660   -0.00410   80.45980  209.42650  113.57330  218.83900    8.99590    4.88240    0.23440  -71.49350 3957.60650 4382.25100    0.30280
 5887.00000   -9999.25    3.93580    7.17090   18.17590    4.85420    0.00330   79.54870  206.15190   77.25030  184.63040    8.94800    4.92360    0.22740  -72.30980 3889.36120 4409.99360    0.23930
 5887.50000   -9999.25    4.83730    4.05320    7.20470    4.99370    0.00980   76.20930  210.81250   71.84050  159.21540    8.92060    4.61870    0.21880  -71.78580 4033.39740 4420.88150    0.18200
 5888.00000   -9999.25    5.73880    6.96430    4.32920    4.36020    0.02050   72.44040  211.90910   77.40490  100.16230    8.92070    4.25660    0.17540  -71.29370 4146.58440 4406.48760    0.16610
 5888.50000   -9999.25    5.91900    7.90120    3.23040    2.34470    0.03140   77.09870  199.01500   99.24010   95.57030    8.96060    3.87110    0.20280  -71.24650 4032.98460 4392.09360    0.18790
 5889.00000   -9999.25    5.05050    3.85180    2.93990    1.96000    0.04170   82.22290  142.82350  108.96890  107.97050    9.00590    3.62940    0.23710  -71.19940 3888.61580 4392.72100    0.22310
 5889.50000   -9999.25    5.76170    7.17090    4.64320    2.65180    0.06370   83.88610  145.53760  117.33440  120.12220    9.00590    3.47520    0.25750  -70.81660 4057.09090 4393.25000    0.27460
 5890.00000   -9999.25    7.68200   10.77850    8.99530    3.45480    0.11510   83.06370  148.80590  115.89180  127.84740    8.98770    3.39810    0.24940  -70.43380 4269.41580 4393.77900    0.25400
 5890.50000   -9999.25    6.26470    7.70260    9.99930    3.06250    0.15360   83.30250  149.95140  118.19600  128.13220    8.99640    3.40670    0.24940  -70.05100 4176.68250 4394.30810    0.23400
 5891.00000   -9999.25    3.57270    3.40600    6.19990    2.02760    0.17800   84.71230  150.00620  119.78840  128.21730    9.20800    3.43650    0.26050  -70.25400 4004.87300 4380.01470    0.26000
 5891.50000   -9999.25    1.41900    2.43530    2.57110    1.13320    0.14710   85.00490  159.77050  126.51210  129.61930    9.56380    3.44860    0.26440  -70.64070 3908.30150 4365.84620    0.29430
 5892.00000   -9999.25    1.79130    2.99750    3.44340    2.52340    0.08220   85.21370  162.08460  134.02970  132.65150    9.55130    3.45830    0.26580  -70.47990 3987.20510 4354.51140    0.30910
 5892.50000   -9999.25    2.70760    4.03400    5.50100    3.05550    0.04770   85.39170  161.60440  140.80940  131.99270    9.21240    3.47490    0.26600  -70.31900 4087.87760 4447.25090    0.27980
 5893.00000   -9999.25    3.43030    6.78790    9.65830    6.39930    0.04530   84.70860  156.08680  140.21600  131.42650    8.96800    3.49270    0.26200  -70.31690 4021.59470 4422.45710    0.26650
 5893.50000   -9999.25    4.25220    8.16470   14.62590   12.02160    0.05540   84.77710  156.93420  138.89350  131.61660    8.96800    3.45010    0.26220  -70.26810 3925.59720 4360.47260    0.24740
 5894.00000   -9999.25    4.56070    6.48120    9.26690    8.43640    0.06010   84.98270  173.58730  136.75810  134.90240    8.96810    3.45030    0.26410  -70.21920 3783.95420 4330.92290    0.23820
 5894.50000   -9999.25    4.66150    5.17590    7.26640    6.12140    0.06230   85.11080  203.13630  143.24250  140.09050    8.94010    3.42620    0.26550  -70.17040 4014.03580 4322.99640    0.23410
 5895.00000   -9999.25    4.99990    5.28240    5.80810    4.80850    0.06920   89.57360  201.21720  149.77420  149.13360    8.90080    3.39200    0.29130  -69.79990 4138.26650 4315.07000    0.24730
 5895.50000   -9999.25    5.33830    7.47270    9.47050    7.08300    0.07580   92.86470  169.98910  166.77540  150.32190    8.86160    3.35790    0.30040  -69.69440 4144.30120 4340.99730    0.27490
 5896.00000   -9999.25    6.85670    8.35490    9.06770    7.08300    0.08180   94.78350  168.61290  179.55290  158.48250    8.85200    3.31470    0.30040  -69.43460 4012.74850 4361.54220    0.28470
 5896.50000   -9999.25    7.99270    6.42370    8.90400    5.66710    0.08950   94.99880  167.44320  196.78180  168.68330    8.84990    3.31210    0.30030  -69.38260 3915.62160 4382.08700    0.28980
 5897.00000   -9999.25    8.80120    5.95940   11.26870    4.41660    0.09660   95.42930  168.46960  217.12040  174.82160    8.84770    3.33270    0.30030  -69.30230 3885.78140 4390.18680    0.30440
 5897.50000   -9999.25    7.11770   11.99730   12.97820    4.85420    0.11000   95.40040  179.79870  237.95810  183.73700    8.84530    3.37510    0.30020  -68.92150 4153.94870 4380.67420    0.34340
 5898.00000   -9999.25    5.78640   13.48650   41.15880   12.13570    0.14680   91.63080  202.72500  276.47080  222.13730    8.84300    3.41560    0.30020  -68.54060 4205.24860 4356.89260    0.38670
 5898.50000   -9999.25    5.65810    5.02010   13.07390    7.51760    0.19580   87.86130  174.45090  299.68240  299.83550    8.84070    3.41560    0.28370  -68.15980 4074.77390 4333.11090    0.40610
 5899.00000   -9999.25    5.40590    4.56730    4.98850    4.52100    0.26610   88.34100  172.18770  299.94250  299.83910    8.83840    3.41500    0.28890  -67.77890 4040.32610 4302.98950    0.38490
 5899.50000   -9999.25    5.20740    4.22170    7.13980    3.79710    0.29280   82.66480  175.15680  300.20260  298.86510    8.83610    3.56780    0.26780  -67.39810 4132.76360 4302.98950    0.35890
 5900.00000   -9999.25    4.88170    3.59590    4.37870    2.89390    0.24980   77.05710  177.52720  150.57700  279.74230    8.83380    3.91220    0.20380  -67.01720 4128.06190 4375.00920    0.30170
 5900.50000   -9999.25    4.71850    2.89590    6.60490    2.13400    0.17920   73.94800  188.29670  140.85960  225.75300    8.83430    4.14610    0.18860  -66.38360 4097.23130 4426.42010    0.27040
 5901.00000   -9999.25    4.50930    5.54780    8.33500    4.58670    0.10750   74.01660  206.39170   98.15310  178.38040    8.95850    4.02470    0.18640  -65.75140 4076.69140 4349.13490    0.23620
 5901.50000   -9999.25    4.45850    4.35280    4.88130    3.76140    0.05850   75.40100  210.33260   87.79680  149.95690    8.95920    3.77730    0.20040  -65.11920 4128.17680 4302.76380    0.21250
 5902.00000   -9999.25    4.30940    5.33650    8.68210    5.13730    0.05520   73.07050  209.49650   85.02160   95.16260    9.04930    3.78220    0.18150  -64.48700 4035.61770 4323.18470    0.20280
 5902.50000   -9999.25    3.39660    6.88450    6.47470    5.23520    0.04530   74.25670  198.99650   81.83550   90.36060    9.06920    3.82510    0.18830  -64.51320 3902.54860 4348.47700    0.20070
 5903.00000   -9999.25    2.36330    5.02010    6.90830    4.96790    0.03820   74.72940  192.40690   81.16960   88.85290    9.26170    3.87760    0.19520  -64.54400 3749.05840 4373.76930    0.18620
 5903.50000   -9999.25    2.58240    6.74570    7.29670    4.15350    0.02810   75.22750  165.49040   84.35950   88.35200    9.16610    3.95130    0.19860  -64.57490 3728.42200 4397.60690    0.17310
