~Version ---------------------------------------------------
VERS.   2.0 : CWLS log ASCII Standard -VERSION 2.0
WRAP.    NO : One line per depth step
DLM . SPACE : Column Data Section Delimiter
~Well ------------------------------------------------------
STRT .FT               9220.0 : START DEPTH
STOP .FT              11208.0 : STOP DEPTH
STEP .FT                  0.5 : STEP
NULL .               -9999.25 : NULL VALUE
COMP .                        : COMPANY
WELL .                        : WELL
FLD  .                        : FIELD
LOC  .                        : LOCATION
PROV .                        : PROVINCE
CNTY .                        : COUNTY
STAT .                        : STATE
CTRY .                        : COUNTRY
SRVC .                        : SERVICE COMPANY
DATE .                        : DATE
UWI  .                        : UNIQUE WELL ID
API  .                        : API NUMBER
SLAT .WGS84 5.917481465974497 : SURFACE LATITUDE
SLON .WGS84  2.75123126238951 : SURFACE LONGITUDE
DATUM.F                1399.0 : DEPTH DATUM ELEV
~Curve Information -----------------------------------------
DEPT   .FT    : 
AT10   .OHMM  : ARRAY INDUCTION TWO FOOT RESISTIVITY A10
AT30   .OHMM  : ARRAY INDUCTION TWO FOOT RESISTIVITY A30
AT90   .OHMM  : ARRAY INDUCTION TWO FOOT RESISTIVITY A90
DPHZ_LS.DEC   : HGRD STANDARD RESOLUTION DENSITY POROSITY
DTCO   .US/F  : DELTA-T COMPRESSIONAL
DTSM   .US/F  : DELTA-T SHEAR
ECGRS  .GAPI  : ENVIRONMENTALLY CORRECTED GAMMA RAY FROM SONIC LOG
HCALD  .IN    : HRCC CALIPER CALIBRATED FROM DENSITY LOG
HDRA   .G/C3  : HRDD SPINE AND RIBS DENSITY CORRECTION
PEFZ   .B/E   : HRDD STANDARD RESOLUTION FORMATION PHOTOELECTRIC FACTOR
RHOZ   .G/C3  : HRDD STANDARD RESOLUTION FORMATION DENSITY
SPR    .MV    : SPONTANEOUS POTENTIAL FROM RESISTIVITY LOG
TNPH_LS.DEC   : THERMAL NEUTRON POROSITY [LIMESTONE]
~Params ----------------------------------------------------
~Other -----------------------------------------------------
~ASCII -----------------------------------------------------
# ...
 9506.00000    2.14120    2.93960    2.51940    0.11510   79.61800  208.13310   67.94740   13.02550    0.15680    9.72610    2.47410    7.69780    0.27110
 9506.50000    2.54980    2.80170    2.93350    0.04140   77.39890  195.50610   62.68620   10.18210    0.19970    9.04160    2.62780    7.81600    0.27890
 9507.00000    2.97760    3.16740    3.90290    0.05320   77.12250  177.59800   61.94110   10.40980    0.18690    8.39940    2.63080    8.27310    0.25710
 9507.50000    3.17250    3.46000    4.15230    0.06820   78.21330  163.05920   60.26250   10.39350    0.16270    8.04850    2.59350    8.31770    0.23540
 9508.00000    3.20660    3.42790    3.99480    0.07330   78.27670  162.53160   58.58290   10.23910    0.14930    7.96590    2.58360    8.42420    0.21580
 9508.50000    3.27540    3.40840    3.82640    0.07050   78.17950  162.33040   57.31940   10.24350    0.14810    7.99140    2.58940    8.26320    0.20450
 9509.00000    3.28300    3.38410    3.74280    0.07280   78.10650  162.54430   58.05490   10.55490    0.14990    8.07910    2.57830    8.26860    0.20080
 9509.50000    3.25560    3.38030    3.79530    0.11000   78.50350  162.75810   59.23090   10.37660    0.15580    8.57190    2.51060    8.27390    0.22010
 9510.00000    3.15670    3.35400    3.57570    0.15190   79.24970  163.18780   57.08210   10.43160    0.16160    9.11020    2.44330    8.27930    0.24670
 9510.50000    3.00770    3.14320    3.20960    0.16730   78.85580  164.88590   54.80320   10.26770    0.16220    9.76390    2.42250    8.28470    0.26220
 9511.00000    2.81930    2.93240    3.02270    0.13610   78.80500  166.77380   55.73400   10.86980    0.16330    9.87210    2.48070    8.29000    0.25620
 9511.50000    2.68660    2.83210    2.92080    0.09520   79.36680  167.49380   59.78780   10.67310    0.19050    9.60680    2.54690    8.29540    0.24150
 9512.00000    2.77650    2.85350    2.94640    0.09450   79.63570  168.10020   63.59010   10.80190    0.20130    9.31210    2.54070    8.30080    0.24810
 9512.50000    2.83510    2.88030    2.93610    0.12810   79.60990  168.34780   64.96180   10.60160    0.20080    9.26410    2.48760    8.30620    0.25470
 9513.00000    2.76770    2.90700    2.85900    0.16170   79.60710  168.78900   63.84700   10.83160    0.19670    9.57080    2.43170    8.31150    0.27690
 9513.50000    2.70030    2.93960    2.82060    0.16100   78.96820  170.23910   59.95080   10.60440    0.20950    9.91980    2.43740    8.36520    0.27450
 9514.00000    2.63280    2.92260    2.80430    0.14240   79.49030  171.68910   57.10640   10.95340    0.22610    9.98960    2.46760    8.29010    0.27000
 9514.50000    2.64950    2.90560    2.78800    0.13320   79.56940  170.71380   56.92040   11.04820    0.25090   -9999.25    2.48260    8.26940    0.27400
 9515.00000    2.72470    2.89880    2.79010    0.14780   79.72740  169.63590   61.81580   11.29640    0.25020   -9999.25    2.45570    7.95420    0.28360
 9515.50000    2.79090    2.96410    2.81980    0.17110   80.04720  170.30320   62.37220   11.18730    0.24160   -9999.25    2.41210    7.92330    0.29320
 9516.00000    2.84350    3.07300    2.81720    0.21700   82.36660  170.97050   61.66820   11.77850    0.20620   -9999.25    2.33480    7.89230    0.29880
 9516.50000    2.91990    3.18180    2.81720    0.24080   84.66690  179.24730   59.90810   12.53640    0.18650   -9999.25    2.29110    7.86140    0.31860
 9517.00000    3.03200    3.18180    2.71610    0.25670   86.74570  189.44900   62.17200   13.01490    0.18380   -9999.25    2.26480    7.79420    0.33650
 9517.50000    3.17200    3.13760    2.54760    0.27230   87.22570  191.19420   61.72270   12.90880    0.17130   -9999.25    2.23180    7.75470    0.35090
 9518.00000    3.33590    2.91960    2.21050    0.29510   87.52850  191.06000   60.72430   11.99490    0.11930   -9999.25    2.18890    7.49270    0.34400
 9518.50000    3.40090    2.62350    1.87340    0.30050   88.73090  191.02050   55.67070   11.81430    0.07140   -9999.25    2.15070    7.30510    0.33980
 9519.00000    3.25010    2.26500    1.55220    0.30050   89.54160  190.89910   52.11540   11.65370    0.04580   -9999.25    2.11230    7.11130    0.33540
 9519.50000    3.17860    1.90640    1.29450    0.30060   89.82730  190.45000   54.82970   12.25570    0.06450   -9999.25    2.12050    7.46450    0.32590
 9520.00000    2.81520    1.74510    1.18040    0.30060   89.72750  189.34640   58.52200   12.52580    0.10430   -9999.25    2.14750    7.47450    0.31630
 9520.50000    1.73070    1.60940    1.09980    0.30060   89.62770  188.62780   60.12670   12.15240    0.15150   -9999.25    2.22460    7.48460    0.32710
 9521.00000    2.91870    1.58240    1.23560    0.25890   89.52790  189.89130   59.84500   12.34780    0.20550   -9999.25    2.28270    7.49470    0.33440
 9521.50000    5.59530    3.09380    2.00410    0.23790   89.71040  191.15480   59.26860   12.34890    0.21070   -9999.25    2.31940    7.50480    0.33650
 9522.00000    5.56930    5.28560    2.29580    0.21810   88.82970  191.60490   57.84180   12.46060    0.21690   -9999.25    2.34680    7.51480    0.33870
 9522.50000   15.44100    4.69790    2.80420    0.20490   88.68800  184.90270   56.71280   11.44230    0.20890   -9999.25    2.36160    7.52490    0.34100
 9523.00000    9.29500    4.47250    1.96660    0.20310   93.52300  169.78990   57.91200   12.56330    0.19790   -9999.25    2.36230    7.66390    0.33420
 9523.50000   10.73300    6.24880    3.62360    0.21510   96.26730  157.00890   60.82390   12.37410    0.18360   -9999.25    2.34080    7.59700    0.32870
 9524.00000   43.46410   15.10740    5.56370    0.24830   95.55820  171.17580   61.32060   12.48050    0.14430   -9999.25    2.25480    7.76200    0.34840
 9524.50000   57.67300   39.82190   12.31490    0.29080   95.08290  153.74940   64.27040   12.17920    0.10470   -9999.25    2.16260    7.49650    0.36820
 9525.00000   32.24510  112.59000   21.05720    0.30000   94.41940  144.83100   69.61040   12.15600    0.06650   -9999.25    2.05860    7.66110    0.38130
 9525.50000   19.24390   62.94120   29.17410    0.30000   94.37830  136.88770   60.86290   13.07050    0.05780   -9999.25    2.01630    7.49650    0.38450
 9526.00000   16.34800   35.49760   24.67160    0.30010   94.27580  128.38170   55.36690   12.56110    0.08250   -9999.25    2.08070    7.69480    0.42200
 9526.50000   13.33810   36.50330   31.61080    0.24890   88.71800  120.05170   55.88910   12.58030    0.11320    9.99330    2.28730    7.51080    0.45230
 9527.00000   14.43490   33.16050   33.23690    0.12150   58.53630  111.83900   58.02620   12.57400    0.09220    9.21990    2.48700    7.77890    0.30110
 9527.50000   15.57790   31.22560   33.08250    0.03000   58.18630  103.83310   56.80930    9.53560    0.04640    7.95410    2.66830    7.71160    0.08050
 9528.00000   15.90300   29.74090   33.34050    0.00620   58.24760   98.16740   54.57950    9.34620    0.01450    6.57870    2.68780    7.28520    0.01750
 9528.50000   15.81860   29.60270   33.23690    0.05160   59.31010  116.22910   49.21650    9.31330    0.00450    6.11590    2.61150    5.29550    0.01540
 9529.00000   15.73430   29.62790   33.54790    0.10800   58.96110  119.85350   42.72560    9.33740    0.00040    6.03280    2.51750    4.13730    0.02330
 9529.50000   15.64990   29.75380   31.06050    0.14230   59.62560  119.83040   36.62040    9.36140    0.00050    6.03190    2.46640    7.11040    0.02940
 9530.00000   15.56560   29.87970   27.92770    0.15200   59.61940  119.91720   29.58800    9.37100    0.00050    6.09180    2.44950    7.46200    0.02980
 9530.50000   15.48120   29.20930   25.15050    0.14850   59.68630  121.26330   25.41290    9.36040    0.00280    6.15160    2.44880    7.49550    0.02800
 9531.00000   15.33050   28.53890   22.37330    0.11970   59.83810  121.38650   19.89780    9.31340    0.00860    6.22710    2.50420    7.52900    0.02440
 9531.50000   15.14860   27.86850   21.45500    0.07640   58.48900  120.77050   18.50260    9.29380    0.01560    6.22670    2.58120    7.56260    0.02540
