~Version ---------------------------------------------------
VERS.   2.0 : CWLS log ASCII Standard -VERSION 2.0
WRAP.    NO : One line per depth step
DLM . SPACE : Column Data Section Delimiter
~Well ------------------------------------------------------
STRT .FT               9220.0 : START DEPTH
STOP .FT              11208.0 : STOP DEPTH
STEP .FT                  0.5 : STEP
NULL .               -9999.25 : NULL VALUE
COMP .                        : COMPANY
WELL .                        : WELL
FLD  .                        : FIELD
LOC  .                        : LOCATION
PROV .                        : PROVINCE
CNTY .                        : COUNTY
STAT .                        : STATE
CTRY .                        : COUNTRY
SRVC .                        : SERVICE COMPANY
DATE .                        : DATE
UWI  .                        : UNIQUE WELL ID
API  .                        : API NUMBER
SLAT .WGS84 5.917481465974497 : SURFACE LATITUDE
SLON .WGS84  2.75123126238951 : SURFACE LONGITUDE
DATUM.F                1399.0 : DEPTH DATUM ELEV
~Curve Information -----------------------------------------
DEPT   .FT    : 
AT10   .OHMM  : ARRAY INDUCTION TWO FOOT RESISTIVITY A10
AT30   .OHMM  : ARRAY INDUCTION TWO FOOT RESISTIVITY A30
AT90   .OHMM  : ARRAY INDUCTION TWO FOOT RESISTIVITY A90
DPHZ_LS.DEC   : HGRD STANDARD RESOLUTION DENSITY POROSITY
DTCO   .US/F  : DELTA-T COMPRESSIONAL
DTSM   .US/F  : DELTA-T SHEAR
ECGRS  .GAPI  : ENVIRONMENTALLY CORRECTED GAMMA RAY FROM SONIC LOG
HCALD  .IN    : HRCC CALIPER CALIBRATED FROM DENSITY LOG
HDRA   .G/C3  : HRDD SPINE AND RIBS DENSITY CORRECTION
PEFZ   .B/E   : HRDD STANDARD RESOLUTION FORMATION PHOTOELECTRIC FACTOR
RHOZ   .G/C3  : HRDD STANDARD RESOLUTION FORMATION DENSITY
SPR    .MV    : SPONTANEOUS POTENTIAL FROM RESISTIVITY LOG
TNPH_LS.DEC   : THERMAL NEUTRON POROSITY [LIMESTONE]
~Params ----------------------------------------------------
~Other -----------------------------------------------------
~ASCII -----------------------------------------------------
# ...
 9246.00000   -9999.25   -9999.25   -9999.25   -9999.25   -9999.25   -9999.25   32.70200   -9999.25   -9999.25   -9999.25   -9999.25   -9999.25    0.28410
 9246.50000   -9999.25   -9999.25   -9999.25   -9999.25   -9999.25   -9999.25   31.63890   -9999.25   -9999.25   -9999.25   -9999.25   -9999.25    0.27710
 9247.00000   -9999.25   -9999.25   -9999.25   -9999.25   -9999.25   -9999.25   32.43260   -9999.25   -9999.25   -9999.25   -9999.25   -9999.25    0.26490
 9247.50000   -9999.25   -9999.25   -9999.25   -9999.25   -9999.25   -9999.25   33.37280   -9999.25   -9999.25   -9999.25   -9999.25   -9999.25    0.25850
 9248.00000   -9999.25   -9999.25   -9999.25   -9999.25   -9999.25   -9999.25   32.34100   -9999.25   -9999.25   -9999.25   -9999.25   -9999.25    0.25700
 9248.50000   -9999.25   -9999.25   -9999.25   -9999.25   -9999.25   -9999.25   31.44000   -9999.25   -9999.25   -9999.25   -9999.25   -9999.25    0.25320
 9249.00000   -9999.25   -9999.25   -9999.25   -9999.25   -9999.25   -9999.25   30.27000   -9999.25   -9999.25   -9999.25   -9999.25   -9999.25    0.24900
 9249.50000   -9999.25   -9999.25   -9999.25   -9999.25   -9999.25   -9999.25   29.20460   -9999.25   -9999.25   -9999.25   -9999.25   -9999.25    0.19720
 9250.00000   -9999.25   -9999.25   -9999.25   -9999.25   -9999.25   -9999.25   27.05770   -9999.25   -9999.25   -9999.25   -9999.25   -9999.25    0.14670
 9250.50000   -9999.25   -9999.25   -9999.25   -9999.25   -9999.25   -9999.25   26.51960   -9999.25   -9999.25   -9999.25   -9999.25   -9999.25    0.11720
 9251.00000   -9999.25   -9999.25   -9999.25   -9999.25   -9999.25   -9999.25   29.82430   -9999.25   -9999.25   -9999.25   -9999.25   -9999.25    0.10680
 9251.50000   -9999.25   -9999.25   -9999.25   -9999.25   -9999.25   -9999.25   32.00180   -9999.25   -9999.25   -9999.25   -9999.25   -9999.25    0.11480
 9252.00000    3.74720    9.49600    6.61470   -9999.25   48.24090   87.21150   33.43590    8.88850    0.19550    9.49760    2.45110    3.82360    0.10330
 9252.50000    5.67930   15.10480    9.68660    0.17160   48.31420   87.82750   30.87760    9.36720    0.09190    8.27610    2.39980    4.19890    0.07820
 9253.00000   10.10030   24.04080   16.82920    0.18790   48.31420   88.44340   28.39990    9.74000    0.17150    7.05460    2.38140    4.15410    0.05310
 9253.50000   15.58780   37.46210   15.29950    0.15000   48.31420   88.08410   26.86590    9.68870    0.22950    6.46940    2.44360    3.85020    0.02790
 9254.00000   22.27880   43.48480   11.55210    0.13820   48.31420   89.88060   29.55820    9.59040    0.25280    6.53930    2.47330    3.84430    0.02830
 9254.50000   19.50800   39.24870   11.15970    0.13410   48.31420   89.41870   34.45520    9.58310    0.26400    6.81110    2.48050    3.83850    0.03420
 9255.00000   12.58090   22.96940   13.24760    0.12960   46.26100   88.64870   38.63640    9.57130    0.26700    7.09230    2.48180    4.18550    0.03940
 9255.50000    7.81250   14.36730   12.01180    0.08220   48.05750   89.26470   40.62030    9.57240    0.27990    7.51400    2.55520    4.76780    0.04110
 9256.00000    5.55850    8.71580   10.38970    0.03070   47.50330   90.80460   38.89540    9.57790    0.29340    8.18270    2.64670    4.93490    0.03950
 9256.50000    7.23560   10.77110   10.72850    0.01880   47.36360   91.92170   36.94350    9.58020    0.25780    8.66780    2.67660    4.56880    0.03380
 9257.00000    9.24980   18.30370   12.37440    0.05400   47.35770   92.34900   37.10530   11.86940    0.19390    9.42500    2.61370    4.71580    0.03090
 9257.50000    9.85870   28.32670   11.20970    0.10470   47.35170   91.94400   37.16930   11.60220    0.14600    9.81060    2.53230    5.33340    0.03080
 9258.00000    7.07940    9.62190    8.48170    0.11110   47.34580   92.11140   39.12490   11.55640    0.15210   10.00720    2.51890    4.91620    0.03000
 9258.50000    4.56000    5.91410    6.11820    0.10800   47.33990   92.27870   39.53300   11.50050    0.18270   10.00460    2.52410    4.31960    0.03190
 9259.00000    3.27310    4.09770    4.93400    0.10520   47.33400   92.44610   37.93570   11.45910    0.21330   10.00200    2.52920    4.01040    0.03520
 9259.50000    2.30060    2.84920    3.51320    0.10710   47.19850   91.11250   37.11510   11.43700    0.23220   10.00000    2.52670    5.18790    0.03930
 9260.00000    2.15890    3.83540    4.55250    0.11550   47.08230   85.44260   43.47790   11.41840    0.24400   10.00000    2.50960    5.38230    0.04870
 9260.50000    3.44030    5.50110    7.93580    0.12770   47.14390   77.06020   57.41510   11.39890    0.24120   10.00000    2.49240    5.50610    0.05140
 9261.00000    4.48640    7.16690   10.59300    0.12880   47.20550   70.04410   69.97830   11.37570    0.22670   10.00000    2.48780    5.97460    0.05670
 9261.50000    4.36490    6.39780    5.91710    0.13020   47.26710   67.60370   73.58550   11.35050    0.20530   10.00000    2.49910    7.28890    0.08470
 9262.00000    3.76480    4.89130    4.84290    0.17850   47.32870  140.11490   68.68610   11.33660    0.15620   10.00000    2.37050    7.43620    0.17490
 9262.50000    3.44680    4.47690    3.88730    0.20800   47.39030  141.12780   73.17420   11.27620    0.12440   10.00000    2.35680    7.44330    0.29910
 9263.00000    3.71660    4.74120    4.31840    0.18950   51.35120  140.81980   76.84830    9.26560    0.12270    9.92730    2.42250    7.54120    0.42650
 9263.50000    3.97110    5.07160    4.86990    0.10270   55.31210  140.51190   73.21570    9.38640    0.16340    9.64210    2.54100    7.66180    0.40780
 9264.00000    3.81930    5.39400    5.04950    0.07530   59.27300  140.20390   70.77130    9.54600    0.20420    9.41900    2.58320    7.78240    0.38390
 9264.50000    3.92330    5.63090    5.22980    0.08510   63.23390  140.08070   74.19910    9.47760    0.22680    9.27320    2.56560    7.86020    0.35870
 9265.00000    4.17290    5.89550    5.44110    0.10680   67.19480  140.86770   76.66350    9.45450    0.24940    9.57580    2.52970    7.46500    0.33270
 9265.50000    4.51290    6.28880    6.60670    0.11960   71.15570  146.83730   77.05370    9.68960    0.24940    9.85900    2.50510    7.45780    0.31520
 9266.00000    4.78250    6.74570    7.72310    0.12770   78.09680  154.91420   79.82680   10.85910    0.23020    9.96510    2.49260    7.48950    0.31860
 9266.50000    4.91450    7.20070    8.15030    0.13930   81.71600  163.19570   83.43970   10.89330    0.20570   -9999.25    2.47670    7.67700    0.33030
 9267.00000    4.99370    7.21500    7.52540    0.15900   82.04920  168.50380   79.55900   11.20960    0.19530   -9999.25    2.44280    7.42440    0.35000
 9267.50000    4.82950    6.56800    6.90040    0.17340   82.25090  169.59150   75.40110   10.36760    0.20490   -9999.25    2.41310    6.83900    0.41040
 9268.00000    4.66070    6.62120    7.29720    0.19350   82.26220  170.01290   76.83770   11.22740    0.20690   -9999.25    2.36850    6.65230    0.44570
 9268.50000    4.58130    6.09820    6.54320    0.21580   82.39420  170.43420   78.72540   11.19140    0.18950   -9999.25    2.33800    6.64140    0.47420
 9269.00000    4.58620    5.78440    5.96540    0.23160   82.42880  170.80300   79.17770   11.22150    0.16680   -9999.25    2.30320    5.89660    0.38550
 9269.50000    4.59810    5.83860    5.80780    0.26870   82.35710  169.13100   79.46640   11.45540    0.13920   -9999.25    2.24110    4.66250    0.38090
 9270.00000    4.66540    6.19710    5.80780    0.29520   82.37430  167.16880   82.23850   11.26940    0.11000   -9999.25    2.18710    4.30270    0.38670
 9270.50000    4.83430    6.74940    5.89890    0.30000   82.45980  166.92870   78.59900   11.52700    0.05850   -9999.25    2.13210    3.86580    0.38330
 9271.00000    4.89890    7.30170    6.05070    0.30000   82.44950  166.92090   78.96690   10.83860    0.04560   -9999.25    2.12350    2.77510    0.37140
 9271.50000    4.86340    7.28920    6.26960    0.30000   82.28380  166.91320   79.76510   11.71400    0.03260   -9999.25    2.15520    2.22350    0.35810
