~Version ---------------------------------------------------
VERS.   2.0 : CWLS log ASCII Standard -VERSION 2.0
WRAP.    NO : One line per depth step
DLM . SPACE : Column Data Section Delimiter
~Well ------------------------------------------------------
STRT .FT               9220.0 : START DEPTH
STOP .FT              11208.0 : STOP DEPTH
STEP .FT                  0.5 : STEP
NULL .               -9999.25 : NULL VALUE
COMP .                        : COMPANY
WELL .                        : WELL
FLD  .                        : FIELD
LOC  .                        : LOCATION
PROV .                        : PROVINCE
CNTY .                        : COUNTY
STAT .                        : STATE
CTRY .                        : COUNTRY
SRVC .                        : SERVICE COMPANY
DATE .                        : DATE
UWI  .                        : UNIQUE WELL ID
API  .                        : API NUMBER
SLAT .WGS84 5.917481465974497 : SURFACE LATITUDE
SLON .WGS84  2.75123126238951 : SURFACE LONGITUDE
DATUM.F                1399.0 : DEPTH DATUM ELEV
~Curve Information -----------------------------------------
DEPT   .FT    : 
AT10   .OHMM  : ARRAY INDUCTION TWO FOOT RESISTIVITY A10
AT30   .OHMM  : ARRAY INDUCTION TWO FOOT RESISTIVITY A30
AT90   .OHMM  : ARRAY INDUCTION TWO FOOT RESISTIVITY A90
DPHZ_LS.DEC   : HGRD STANDARD RESOLUTION DENSITY POROSITY
DTCO   .US/F  : DELTA-T COMPRESSIONAL
DTSM   .US/F  : DELTA-T SHEAR
ECGRS  .GAPI  : ENVIRONMENTALLY CORRECTED GAMMA RAY FROM SONIC LOG
HCALD  .IN    : HRCC CALIPER CALIBRATED FROM DENSITY LOG
HDRA   .G/C3  : HRDD SPINE AND RIBS DENSITY CORRECTION
PEFZ   .B/E   : HRDD STANDARD RESOLUTION FORMATION PHOTOELECTRIC FACTOR
RHOZ   .G/C3  : HRDD STANDARD RESOLUTION FORMATION DENSITY
SPR    .MV    : SPONTANEOUS POTENTIAL FROM RESISTIVITY LOG
TNPH_LS.DEC   : THERMAL NEUTRON POROSITY [LIMESTONE]
~Params ----------------------------------------------------
~Other -----------------------------------------------------
~ASCII -----------------------------------------------------
# ...
 10130.00000    5.41840    5.62160    5.78990    0.03630   74.88970  142.35450   62.95790    9.54940    0.00080    4.21560    2.64850    5.07190    0.18820
 10130.50000    5.79640    5.89340    6.10060    0.04100   75.32840  142.75580   64.31760    9.55450    0.00080    4.22860    2.64050    5.06920    0.18770
 10131.00000    5.68430    6.16510    6.35010    0.04490   75.33700  142.98850   65.60570    9.56040    0.00090    4.33260    2.63330    5.15820    0.18880
 10131.50000    5.63160    6.19390    6.37130    0.04730   75.50180  143.02450   66.23170    9.63150    0.00000    4.50350    2.62860    5.01200    0.19280
 10132.00000    5.57710    6.00530    6.24990    0.04960   75.51150  143.08810   67.71620    9.83020   -0.00090    4.66570    2.62580    4.08580    0.19720
 10132.50000    5.50690    5.76950    5.93590    0.05220   75.52130  143.36370   65.44050    9.75180   -0.00180    4.65090    2.62110    4.26410    0.20000
 10133.00000    5.17750    5.47730    5.62200    0.05570   75.53100  143.39250   63.74960    9.60070   -0.00270    4.52640    2.61600    4.55070    0.20280
 10133.50000    4.79790    5.11340    5.28860    0.05500   75.54070  143.87440   64.60160    9.60380   -0.00360    4.39580    2.61520    4.76880    0.20200
 10134.00000    4.41820    4.72730    4.95530    0.05280   75.30920  144.69000   63.76770    9.60780   -0.00380    4.34250    2.61980    4.98690    0.19950
 10134.50000    4.65690    5.31050    5.10350    0.04820   72.81710  137.47110   63.20950    9.61300   -0.00380    4.34330    2.62660    5.15070    0.19300
 10135.00000    5.44260    6.03970    5.44160    0.04560   70.25060  134.04960   60.37580    9.62490   -0.00380    4.37370    2.63190    4.92730    0.17760
 10135.50000    5.01690    6.41230    5.44160    0.04350   69.91200  133.68140   58.51290    9.65310   -0.00380    4.41250    2.63500    5.14290    0.16810
 10136.00000    4.84530    6.77430    5.61620    0.04230   69.83710  133.57370   59.08200    9.67130   -0.00390    4.43440    2.63740    4.82830    0.16450
 10136.50000    5.33080    7.40530    5.86500    0.04110   69.83500  133.48640   60.68300    9.70670   -0.00390    4.43480    2.64050    4.48850    0.17250
 10137.00000    6.60260    8.98250    6.11370    0.04180   69.83280  133.39910   63.87300    9.72380   -0.00390    4.43510    2.63870    3.99320    0.17670
 10137.50000    7.85590   10.32570    6.28700    0.03970   69.88310  133.31190   64.88590    9.74090   -0.00400    4.43550    2.64430    4.40210    0.17690
 10138.00000    8.03140   10.73280    7.30870    0.03360   69.93330  133.47870   65.00100    9.74240   -0.00400    4.45560    2.65360    4.75440    0.17530
 10138.50000    5.46370    7.69380    7.10710    0.03190   69.98360  133.24980   67.69530    9.74930   -0.00290    4.49350    2.65460    4.39790    0.17030
 10139.00000    3.74090    4.46480    4.60140    0.03870   70.03380  133.75080   72.57500    9.85720   -0.00010    4.62290    2.64230    4.33470    0.17460
 10139.50000    4.13550    4.56270    5.42610    0.04120   70.63990  137.67740   77.05050    9.92390    0.00910    5.09760    2.63960    4.42610    0.19180
 10140.00000    4.18340    5.52630    7.33540    0.02940   76.41670  146.25720   78.13180    9.94460    0.05620    5.70550    2.65960    4.51750    0.21620
 10140.50000    4.11070    6.70440    7.99620    0.03650   77.78890  146.47810   78.08320    9.96520    0.10270    6.31350    2.64580    4.20640    0.22980
 10141.00000    3.87930    5.33220    5.62200    0.06300   78.56050  146.38270   75.34990   10.01500    0.12440    7.24840    2.59900    4.75390    0.23130
 10141.50000    3.79890    4.51390    4.70160    0.09470   78.60780  146.50800   72.67980   10.06380    0.13370    8.08000    2.55300    4.35970    0.23420
 10142.00000    3.59270    4.04040    4.72200    0.09870   78.60930  146.63330   70.26230   10.43470    0.13930    8.62020    2.54070    3.60280    0.23990
 10142.50000    3.45600    3.67580    4.11540    0.09750   78.68290  146.71120   70.39490   10.20470    0.13660    8.92470    2.54300    3.96490    0.25340
 10143.00000    3.60750    3.99740    4.26750    0.11150   80.08400  149.13700   71.94880   10.27280    0.10290    9.05130    2.52110    4.37130    0.26260
 10143.50000    4.22430    5.52580    5.78450    0.12890   80.27410  150.02320   72.98790   10.40930    0.02280    8.78400    2.48970    4.75390    0.25820
 10144.00000    5.20350    7.46690    6.96560    0.11800   77.87720  146.64970   71.98790   10.48020   -0.02470    8.08000    2.51090    4.50920    0.24830
 10144.50000    5.98860    7.59520    6.64480    0.08420   77.47290  145.18380   73.13540   10.53470   -0.03410    6.67530    2.57260    4.55630    0.22230
 10145.00000    6.18540    6.95900    6.34590    0.04090   78.09690  144.87050   70.42150   10.14870   -0.01670    5.61550    2.64630    4.46360    0.19400
 10145.50000    6.27420    6.99010    6.50740    0.02420   75.11980  142.62090   66.05690    9.98350   -0.00100    4.74050    2.66710    4.37100    0.16570
 10146.00000    6.14000    7.06780    6.67220    0.02500   73.32330  140.37120   60.01410    9.98260   -0.00100    4.60820    2.66800    4.01850    0.15400
 10146.50000    6.12970    7.14560    6.83700    0.02730   72.60470  138.61710   58.38130    9.93770   -0.00240    4.67630    2.66470    4.53580    0.17280
 10147.00000    6.17750    7.22330    6.74190    0.02980   71.94100  137.25380   56.96920    9.92030   -0.00390    4.65510    2.65950    4.95590    0.18410
 10147.50000    6.07340    7.03970    6.50420    0.03390   72.13700  136.29460   55.43860    9.90290   -0.00390    4.59550    2.65460    4.84020    0.18950
 10148.00000    5.97020    6.73370    6.26660    0.03850   72.31110  136.70510   55.64420    9.89920   -0.00310    4.53590    2.64540    5.04920    0.19290
 10148.50000    5.87850    6.40760    6.02890    0.04140   72.52960  137.55960   57.17220    9.89900   -0.00230    4.47630    2.64030    4.78950    0.19540
 10149.00000    5.82350    6.05130    6.15990    0.04320   72.56220  137.63110   56.94040    9.89860   -0.00140    4.47920    2.63650    5.14510    0.19660
 10149.50000    5.88080    6.15990    6.34630    0.04520   72.67380  137.61930   55.03160    9.89060   -0.00060    4.51460    2.63350    5.16200    0.19630
 10150.00000    5.95620    6.36090    6.46530    0.04720   72.39370  137.60760   53.14310    9.87740    0.00020    4.57460    2.62730    5.01070    0.19640
 10150.50000    6.01650    6.56190    6.51080    0.04890   72.13430  137.10090   53.51750    9.82810    0.00050    4.57600    2.62720    4.60740    0.19590
 10151.00000    6.07290    6.77800    6.55630    0.04510   72.04820  136.82810   52.67110    9.75270    0.00080    4.51160    2.63310    4.20410    0.19160
 10151.50000    6.29090    6.99150    6.79520    0.03910   72.03640  136.91180   54.21580    9.67730    0.00080    4.47520    2.64270    3.97630    0.18570
 10152.00000    6.66560    7.35100    7.05560    0.03610   72.02460  136.94710   52.81430    9.68250    0.00070    4.48930    2.65000    4.94150    0.17620
 10152.50000    7.04020    7.63860    7.26390    0.03650   71.45530  136.66580   52.01720    9.69300    0.00060    4.50340    2.64810    4.75900    0.17270
 10153.00000    7.05760    7.56150    7.18120    0.03500   69.76750  135.89330   51.13110    9.69990    0.00100    4.51740    2.65090    4.36600    0.17570
 10153.50000    6.76990    7.37360    7.04340    0.03420   68.28960  135.80180   53.15480    9.71730    0.00030    4.51450    2.65290    5.20410    0.17990
 10154.00000    6.48220    7.29090    6.93320    0.03200   68.13730  137.08120   57.07210    9.73470   -0.00040    4.48300    2.65540    5.02820    0.18010
 10154.50000    6.67910    7.68180    7.29230    0.03080   68.12860  137.53420   57.28970    9.75230   -0.00110    4.50730    2.65710    5.42900    0.18420
 10155.00000    6.63490    8.17040    7.74110    0.03110   68.48590  137.98730   59.49980    9.79350   -0.00180    4.55170    2.65620    5.18970    0.21210
 10155.50000    7.00340    8.79100    8.16330    0.03260   70.62290  139.81570   62.72950    9.79310   -0.00260    4.61580    2.65280    5.17870    0.26160
