~Version ---------------------------------------------------
VERS.   2.0 : CWLS log ASCII Standard -VERSION 2.0
WRAP.    NO : One line per depth step
DLM . SPACE : Column Data Section Delimiter
~Well ------------------------------------------------------
STRT .FT               9220.0 : START DEPTH
STOP .FT              11208.0 : STOP DEPTH
STEP .FT                  0.5 : STEP
NULL .               -9999.25 : NULL VALUE
COMP .                        : COMPANY
WELL .                        : WELL
FLD  .                        : FIELD
LOC  .                        : LOCATION
PROV .                        : PROVINCE
CNTY .                        : COUNTY
STAT .                        : STATE
CTRY .                        : COUNTRY
SRVC .                        : SERVICE COMPANY
DATE .                        : DATE
UWI  .                        : UNIQUE WELL ID
API  .                        : API NUMBER
SLAT .WGS84 5.917481465974497 : SURFACE LATITUDE
SLON .WGS84  2.75123126238951 : SURFACE LONGITUDE
DATUM.F                1399.0 : DEPTH DATUM ELEV
~Curve Information -----------------------------------------
DEPT   .FT    : 
AT10   .OHMM  : ARRAY INDUCTION TWO FOOT RESISTIVITY A10
AT30   .OHMM  : ARRAY INDUCTION TWO FOOT RESISTIVITY A30
AT90   .OHMM  : ARRAY INDUCTION TWO FOOT RESISTIVITY A90
DPHZ_LS.DEC   : HGRD STANDARD RESOLUTION DENSITY POROSITY
DTCO   .US/F  : DELTA-T COMPRESSIONAL
DTSM   .US/F  : DELTA-T SHEAR
ECGRS  .GAPI  : ENVIRONMENTALLY CORRECTED GAMMA RAY FROM SONIC LOG
HCALD  .IN    : HRCC CALIPER CALIBRATED FROM DENSITY LOG
HDRA   .G/C3  : HRDD SPINE AND RIBS DENSITY CORRECTION
PEFZ   .B/E   : HRDD STANDARD RESOLUTION FORMATION PHOTOELECTRIC FACTOR
RHOZ   .G/C3  : HRDD STANDARD RESOLUTION FORMATION DENSITY
SPR    .MV    : SPONTANEOUS POTENTIAL FROM RESISTIVITY LOG
TNPH_LS.DEC   : THERMAL NEUTRON POROSITY [LIMESTONE]
~Params ----------------------------------------------------
~Other -----------------------------------------------------
~ASCII -----------------------------------------------------
# ...
 9376.00000    2.98870    3.52770    3.95830    0.29970   98.06840  167.89020   80.84640   12.33220   -0.05170   -9999.25    2.10830    9.34570    0.35720
 9376.50000    4.04990    5.22090    6.34430    0.29970   98.43340  164.86700   78.38810   12.45200   -0.03390   -9999.25    2.10070    9.44500    0.35990
 9377.00000    6.91910    4.86850    4.26310    0.29970   99.04070  161.18120   71.38050   12.86120   -0.01480   -9999.25    2.10790    9.89060    0.29950
 9377.50000    5.43050    5.74480    4.30280    0.29950  101.84270  158.17780   54.40770   11.04070   -0.00870   -9999.25    2.21740    9.91230    0.07160
 9378.00000    5.40520    6.62120    3.85110    0.17030  103.06330  156.19790   38.07720   11.07470   -0.00460    9.98630    2.40040   10.15850    0.04350
 9378.50000    6.18030    6.29040    6.05550    0.10030   98.47150  155.04300   30.03080    9.67990    0.01250    9.28050    2.58340   10.40460    0.04930
 9379.00000    7.39690    6.31980    6.98660    0.03040   86.79650  154.52120   26.05910    8.83270    0.03540    8.38460    2.70330   10.78920    0.06910
 9379.50000   12.27190   10.09550    9.32480    0.00870   76.04350  154.86340   24.88000    8.82450    0.05500    8.25880    2.65440   11.20260    0.06740
 9380.00000   10.64080   10.82880    8.81630    0.03880   63.68260  139.77250   25.13420    8.98170    0.06160    8.60460    2.56110   11.47080    0.06570
 9380.50000    6.81860    6.99820    9.20980    0.15410   64.01190  124.63960   26.75170    9.13890    0.05600    8.94060    2.45210   11.67550    0.07230
 9381.00000    5.61050    7.20030   11.54460    0.18770   63.47810  124.42950   26.16190    9.62370    0.02820    9.06900    2.38700   11.53380    0.09160
 9381.50000   10.92270   13.04390   16.47620    0.16160   64.07350  124.37290   23.41210   10.17100   -0.00490    7.99070    2.43950   11.51790    0.09700
 9382.00000   13.53320   18.88740   14.67530    0.12470   63.40930  124.93310   21.85500    9.03310   -0.00530    7.18300    2.51030   11.50190    0.08350
 9382.50000   12.25090   17.05360   10.03810    0.08020   64.12220  125.99400   21.93830    8.92290    0.02190    5.79480    2.57230   11.48600    0.06700
 9383.00000    9.41400   13.88790    9.92240    0.06800   63.94430  125.93960   24.46850    8.90420    0.04200    5.13440    2.59660   11.22540    0.08790
 9383.50000    6.49700   13.07050   10.33750    0.06310   63.90910  125.76130   29.34400    8.88550    0.03380    4.55150    2.60270   10.67600    0.12080
 9384.00000    4.69150   11.46810    8.65500    0.07190   63.66150  125.66380   35.39960    8.88850    0.02070    5.02890    2.57620   10.58680    0.17370
 9384.50000    4.19520    9.41590    8.33840    0.10350   68.36120  125.26960   44.63710    8.90720    0.01250    5.79390    2.53030   10.66760    0.18720
 9385.00000    4.01170    9.44830    6.52410    0.11910   78.09670  127.04280   55.45090    8.95420    0.07290    6.75080    2.50260   10.53120    0.18790
 9385.50000    5.18330   11.87560    6.86400    0.11840   80.75460  148.08790   63.33480    9.03250    0.13550    7.55530    2.51440   10.66530    0.21080
 9386.00000    4.48940   15.75310    6.50730    0.10760   81.53570  148.03260   66.47720    9.78630    0.15040    8.01990    2.52070   10.42880    0.23870
 9386.50000    4.97100   11.31390    6.22710    0.11980   81.56340  148.00780   66.59780    9.06800    0.14240    8.34340    2.49830   10.34750    0.26660
 9387.00000    4.93250    8.69020    6.72990    0.13880   81.43310  147.93560   64.96440    9.27980    0.12350    8.59090    2.46540   10.26610    0.24120
 9387.50000    4.12330    7.34970    6.86130    0.14530   82.53540  148.07060   66.40150   10.03110    0.12080    8.81050    2.46270   10.18470    0.23710
 9388.00000    3.49440    6.23410   10.11200    0.14460   82.40650  147.36060   67.87300    9.11520    0.11860    8.86840    2.46200   10.10340    0.24170
 9388.50000    3.16390    4.93840   11.97390    0.14640   81.60760  146.65060   62.38280    9.43310    0.12580    8.82860    2.45920   10.02200    0.23310
 9389.00000    3.15100    4.86100   14.83570    0.16540   82.42890  142.60550   73.11770    9.29340    0.13480    9.04030    2.35920    9.98300    0.21300
 9389.50000    3.25810    5.04920   22.52750    0.26660   78.61060  137.10340   76.66510    9.29560    0.11160    9.34700    2.19300    9.97220    0.19210
 9390.00000    3.87700    7.07210   22.89290    0.30050   75.14020  138.05680   75.45450    9.46020    0.09850    9.80740    2.00210    9.47670    0.17150
 9390.50000    4.54560   11.82100   27.73860    0.30030   75.72200  140.59400   71.29580   12.59100    0.08530    9.97360    1.72390    8.94020    0.16480
 9391.00000    5.11910   21.10170   40.09690    0.30010   75.90690  145.14520   62.76480   13.02160    0.07400    9.98670    1.65710    9.23580    0.17520
 9391.50000    5.67190   19.34920   30.83450    0.29990   75.73930  139.67010   57.31860   13.31120    0.06330    9.98820    1.67140    8.94790    0.19720
 9392.00000    5.65990   10.58500   17.46250    0.29970   75.80500  145.19310   54.76240   13.37760    0.05280    9.98960    1.72240    9.08230    0.21510
 9392.50000    5.70160    8.05220    9.41210    0.29950   75.59210  144.37130   53.46130   13.87850    0.03120    9.98370    1.80410    9.08230    0.19910
 9393.00000    7.10860    9.37620    8.44670    0.29930   72.74900  138.67240   52.03130   14.07680    0.02220    9.97770    1.88570    8.60230    0.17280
 9393.50000    8.61280   13.75870   10.33120    0.29910   62.63510  132.97350   50.20320   14.27510    0.03240    9.97170    1.99770    8.12240    0.14150
 9394.00000   13.22070   33.61570   18.26330    0.26540   63.53480  127.27470   46.75830   11.97690    0.06340    9.96580    2.23210    7.66220    0.13190
 9394.50000   13.90400   40.17370   19.13970    0.13310   64.84090  123.86330   42.61590    9.25140    0.08710    9.93480    2.42830    7.86170    0.12000
 9395.00000   10.65800   21.64540   13.88960    0.06630   64.46240  124.96880   39.27420    9.02670    0.10570    9.80810    2.54890    7.93060    0.07070
 9395.50000    6.73020    9.50600   10.01690    0.05240   64.32890  125.45140   36.65050    8.95440    0.11320    9.44870    2.61900    8.30490    0.03900
 9396.00000    2.80240    4.56110    5.07880    0.06160   64.66780  125.71520   36.58180    9.07480    0.12250    9.12850    2.60570    8.19080    0.03550
 9396.50000    3.65470    7.36260    4.76460    0.07440   63.79530  126.04890   37.28200    9.27550    0.15370    9.30820    2.58440    8.44620    0.04850
 9397.00000    3.88420    7.89960    4.81200    0.08900   63.47080  128.99110   39.78010    9.47620    0.18480    9.72680    2.55450    8.29380    0.06000
 9397.50000    3.34940    7.55550    4.41230    0.14670   68.01590  131.35670   42.89200    9.55900    0.16530    9.91670    2.45140    8.33170    0.09230
 9398.00000    2.84940    6.29280    3.83590    0.21310   67.03310  129.66530   47.30880    9.60630    0.10410    9.99090    2.34270    8.16840    0.12700
 9398.50000    2.61400    4.92880    3.20360    0.25700   64.60950  129.28240   52.49040   10.24010    0.05250    9.99120    2.26790    8.11600    0.14140
 9399.00000    2.43690    4.39430    2.69770    0.27040   64.51470  129.56230   58.49910   10.09190    0.03460    9.99150    2.24260    8.18810    0.14950
 9399.50000    3.13890    6.10240    2.83770    0.28570   64.79090  129.89800   60.26870   10.02130    0.01850    9.99180    2.21950    8.26020    0.16050
 9400.00000    3.55130    6.90470    4.11580    0.30100   72.97670  131.40040   58.32480    9.98060   -0.00780   10.00170    2.18490    8.00460    0.17960
 9400.50000    4.00860    6.10490    5.98070    0.27630   75.20850  132.11230   56.42510    9.98260   -0.01110    9.99310    2.21470    7.73090    0.19870
 9401.00000    5.28080    5.52110    6.28540    0.19580   76.09510  123.06680   52.20740    9.98460   -0.00690    9.99170    2.34660    7.86540    0.21450
 9401.50000    3.57700    4.44870    5.74010    0.14340   76.83290  111.54180   49.97940    9.80720   -0.00060    9.99300    2.46540    7.87250    0.20050
