~Version ---------------------------------------------------
VERS.   2.0 : CWLS log ASCII Standard -VERSION 2.0
WRAP.    NO : One line per depth step
DLM . SPACE : Column Data Section Delimiter
~Well ------------------------------------------------------
STRT .FT               9220.0 : START DEPTH
STOP .FT              11208.0 : STOP DEPTH
STEP .FT                  0.5 : STEP
NULL .               -9999.25 : NULL VALUE
COMP .                        : COMPANY
WELL .                        : WELL
FLD  .                        : FIELD
LOC  .                        : LOCATION
PROV .                        : PROVINCE
CNTY .                        : COUNTY
STAT .                        : STATE
CTRY .                        : COUNTRY
SRVC .                        : SERVICE COMPANY
DATE .                        : DATE
UWI  .                        : UNIQUE WELL ID
API  .                        : API NUMBER
SLAT .WGS84 5.917481465974497 : SURFACE LATITUDE
SLON .WGS84  2.75123126238951 : SURFACE LONGITUDE
DATUM.F                1399.0 : DEPTH DATUM ELEV
~Curve Information -----------------------------------------
DEPT   .FT    : 
AT10   .OHMM  : ARRAY INDUCTION TWO FOOT RESISTIVITY A10
AT30   .OHMM  : ARRAY INDUCTION TWO FOOT RESISTIVITY A30
AT90   .OHMM  : ARRAY INDUCTION TWO FOOT RESISTIVITY A90
DPHZ_LS.DEC   : HGRD STANDARD RESOLUTION DENSITY POROSITY
DTCO   .US/F  : DELTA-T COMPRESSIONAL
DTSM   .US/F  : DELTA-T SHEAR
ECGRS  .GAPI  : ENVIRONMENTALLY CORRECTED GAMMA RAY FROM SONIC LOG
HCALD  .IN    : HRCC CALIPER CALIBRATED FROM DENSITY LOG
HDRA   .G/C3  : HRDD SPINE AND RIBS DENSITY CORRECTION
PEFZ   .B/E   : HRDD STANDARD RESOLUTION FORMATION PHOTOELECTRIC FACTOR
RHOZ   .G/C3  : HRDD STANDARD RESOLUTION FORMATION DENSITY
SPR    .MV    : SPONTANEOUS POTENTIAL FROM RESISTIVITY LOG
TNPH_LS.DEC   : THERMAL NEUTRON POROSITY [LIMESTONE]
~Params ----------------------------------------------------
~Other -----------------------------------------------------
~ASCII -----------------------------------------------------
# ...
 10988.00000   75.62030 1334.00210  595.64160   -0.02760   50.82630   92.70580   63.10160    8.75860   -0.01790    4.69960    2.75720  -52.67340    0.01630
 10988.50000   76.03430  753.03770  411.95970   -0.04260   51.23110   92.26470   76.68060    8.65670   -0.00660    4.26190    2.78510  -52.49380    0.01940
 10989.00000   75.02480  493.67510  287.35060   -0.04720   51.80690   92.21800   82.90140    8.63820    0.00080    4.02570    2.78970  -51.66020    0.02050
 10989.50000   68.32730  297.10350  162.74140   -0.04220   52.46430   92.79950   82.95410    8.61960    0.00150    3.92570    2.78190  -51.32240    0.02060
 10990.00000   66.10260  215.19530  126.85820   -0.03680   54.12380   93.45740   82.08580    8.62200    0.00150    3.82570    2.77010  -50.49240    0.02210
 10990.50000   67.34790  264.12630  133.21150   -0.02470   55.46630   94.15840   79.38990    8.62260    0.00110    3.72140    2.74950  -49.86670    0.02510
 10991.00000   73.48280  352.56500  112.11270    0.00000   56.22710   94.92390   79.30660    8.61680   -0.00080    3.56350    2.70890  -49.20740    0.02960
 10991.50000   84.05060  248.17960  112.78190    0.02970   56.94740   96.80450   81.94930    8.59810   -0.00270    3.39140    2.66530  -48.54810    0.03570
 10992.00000   84.21070   73.97050   60.66610    0.04200   59.04470  100.05800   85.49670    8.60380   -0.00460    3.29490    2.63680  -47.67960    0.04140
 10992.50000   64.56490   52.17860   46.87100    0.04400   61.75180  104.72780   85.29670    8.60940   -0.00610    3.28680    2.63490  -46.75880    0.04710
 10993.00000   41.98610   39.37060   35.06270    0.03640   65.12280  109.71380   86.28400    8.61510   -0.00530    3.32460    2.64810  -45.83810    0.05740
 10993.50000   19.40730   26.57300   21.13930    0.02940   71.06670  118.71760   88.29560    8.62990   -0.00160    3.37220    2.65840  -44.61710    0.08260
 10994.00000   12.29430   13.73040   13.48460    0.03870   79.27020  121.89150   89.02630    8.63600    0.00220    3.44840    2.64110  -43.34290    0.11780
 10994.50000    9.04780   10.68840   10.00920    0.05320   80.94860  128.48760   93.03110    8.63640    0.00590    3.52460    2.62110  -42.47890    0.15300
 10995.00000    8.12920    8.70040    8.42070    0.04870   86.79060  134.63620  101.72050    8.62380    0.01400    3.63360    2.62420  -41.99250    0.17960
 10995.50000    8.53760    9.71800    9.33010    0.04070   84.76420  138.36060  110.20390    8.63480    0.02940    3.61980    2.64090  -41.15810    0.18190
 10996.00000   10.23990   12.74680   11.37530    0.04770   84.35490  140.96990  122.53450    8.64590    0.02800    3.49070    2.62640  -40.79720    0.18820
 10996.50000   12.57860   16.50050   14.21460    0.07140   84.52770  142.48140  134.86500    8.65690    0.00630    3.39650    2.58580  -40.43630    0.19500
 10997.00000   14.91720   20.25420   17.05390    0.09230   85.41780  142.01650  196.97150    8.65690   -0.00240    3.36880    2.55100  -40.07540    0.20180
 10997.50000   18.04350   24.12000   19.66220    0.09980   85.46860  140.86730  252.08630    8.65690   -0.00640    3.33960    2.53860  -39.71450    0.20590
 10998.00000   19.28720   25.78840   19.74500    0.10070   85.70820  140.33950  286.63750    8.65050   -0.00820    3.27510    2.53650  -39.35360    0.20140
 10998.50000   20.26110   27.01800   19.72520    0.10150   85.34090  138.81490  287.79350    8.65260   -0.00820    3.21050    2.53680  -39.26860    0.18390
 10999.00000   21.11580   27.87510   20.36480    0.10000   84.99840  137.13090  290.65590    8.65480   -0.00690    3.14600    2.53880  -39.36760    0.17780
 10999.50000   22.04210   31.44200   24.03360    0.09800   84.76530  136.39480  290.00270    8.65690   -0.00580    3.10070    2.54340  -39.46660    0.17370
 11000.00000   26.18070   39.07350   30.78040    0.09590   84.53220  135.73360  279.47040    8.65390   -0.00400    3.11260    2.54770  -39.56560    0.17480
 11000.50000   29.71120   46.70500   38.06780    0.09050   82.88670  133.82880  259.77950    8.65080   -0.00480    3.13900    2.55850  -39.66450    0.17530
 11001.00000   31.62630   52.33750   46.74710    0.08180   78.75310  128.33540  241.11050    8.64780   -0.00560    3.24020    2.57040  -39.76350    0.17030
 11001.50000   32.59770   54.97160   51.53180    0.06840   79.09690  126.14400  226.52920    8.64470   -0.00650    3.40770    2.59290  -39.86250    0.15640
 11002.00000   32.04420   57.09750   52.77140    0.05710   79.27290  125.33570  211.94790    8.64170   -0.00460    3.53760    2.61610  -40.15210    0.15040
 11002.50000   32.30480   58.46120   54.01100    0.05180   79.37310  124.52750  198.79460    8.63870   -0.00420    3.58640    2.62020  -40.65260    0.14950
 11003.00000   32.67070   59.82500   55.25060    0.05820   79.35110  124.10520  194.30680    8.64870   -0.00390    3.47220    2.60330  -41.27810    0.15640
 11003.50000   33.21330   61.21060   54.11680    0.07560   79.34080  124.40600  195.06360    8.64860   -0.00370    3.30010    2.57340  -42.03820    0.15420
 11004.00000   33.27600   62.80210   52.98300    0.09600   79.34070  124.49900  209.37270    8.64850   -0.00430    3.16720    2.54420  -42.98100    0.15570
 11004.50000   33.83790   64.39370   53.30250    0.10660   79.33770  124.51790  221.64430    8.64840   -0.00490    3.06780    2.52560  -43.99120    0.15920
 11005.00000   34.41990   65.63870   54.10630    0.11380   79.33480  124.53680  221.66390    8.64830   -0.00550    2.97450    2.51480  -44.65510    0.16890
 11005.50000   36.51920   68.44790   56.95590    0.11590   79.33180  124.70070  203.65790    8.64820   -0.00610    2.95690    2.51130  -45.47290    0.16840
 11006.00000   38.32270   74.48290   61.21900    0.11440   79.04710  124.63570  187.96030    8.64810   -0.00670    2.94680    2.51710  -46.29080    0.16180
 11006.50000   37.48460   73.94610   58.72160    0.10940   78.87800  124.62880  182.40560    8.64800   -0.00730    2.95810    2.52490  -46.67710    0.15610
 11007.00000   36.43690   67.01680   56.81600    0.10640   78.78520  125.02470  178.83470    8.64790   -0.00790    3.00240    2.52870  -46.77580    0.15500
 11007.50000   35.38930   62.79050   55.76940    0.10640   78.71210  124.95530  168.94270    8.64790   -0.00810    3.02870    2.52690  -46.87450    0.15450
 11008.00000   34.12400   57.59180   51.13660    0.10710   78.63910  124.88590  155.43400    8.64780   -0.00890    3.07080    2.52930  -46.97310    0.15460
 11008.50000   30.57340   49.76620   42.52750    0.10050   78.64450  124.81660  141.34640    8.64770   -0.01000    3.12350    2.54380  -47.07180    0.15380
 11009.00000   26.98510   41.28380   36.01110    0.09260   78.66960  124.56470  129.37200    8.64760   -0.01110    3.18050    2.55820  -47.17050    0.15290
 11009.50000   26.40910   37.83240   34.07650    0.08480   78.50080  124.99400  116.11530    8.64750   -0.01050    3.24220    2.57000  -47.26920    0.15040
 11010.00000   26.75590   37.53970   34.56520    0.07960   78.42330  126.14510  106.43390    8.64740   -0.00910    3.22540    2.57670  -47.36780    0.14860
 11010.50000   26.05470   35.77780   32.39890    0.07710   79.21430  125.29860  101.92720    8.64730   -0.00730    3.15300    2.58140  -47.46650    0.14880
 11011.00000   24.43350   33.13210   29.40810    0.07140   76.64570  122.87400  102.86720    8.64720   -0.00480    3.06430    2.59330  -47.56520    0.15500
 11011.50000   23.32410   30.87140   27.73600    0.06370   76.54020  122.10810  102.05950    8.64710   -0.00230    3.01430    2.60780  -47.80620    0.16040
 11012.00000   21.20250   26.82250   24.47880    0.05540   76.52940  121.87290  100.95480    8.64700   -0.00030    3.02800    2.62330  -48.06680    0.16320
 11012.50000   19.00270   23.59800   21.77150    0.04840   76.48920  121.63760  102.95800    8.64690   -0.00080    3.09530    2.62840  -48.21090    0.16450
 11013.00000   18.22650   22.38830   20.39750    0.04900   76.48920  121.58570  112.32680    8.64680   -0.00130    3.14520    2.62070  -48.10500    0.16820
 11013.50000   20.09330   27.92270   22.83620    0.05660   76.49600  121.52130  121.96530    8.64670   -0.00180    3.19520    2.60610  -48.32090    0.17330
