~Version ---------------------------------------------------
VERS.   2.0 : CWLS log ASCII Standard -VERSION 2.0
WRAP.    NO : One line per depth step
DLM . SPACE : Column Data Section Delimiter
~Well ------------------------------------------------------
STRT .FT               9220.0 : START DEPTH
STOP .FT              11208.0 : STOP DEPTH
STEP .FT                  0.5 : STEP
NULL .               -9999.25 : NULL VALUE
COMP .                        : COMPANY
WELL .                        : WELL
FLD  .                        : FIELD
LOC  .                        : LOCATION
PROV .                        : PROVINCE
CNTY .                        : COUNTY
STAT .                        : STATE
CTRY .                        : COUNTRY
SRVC .                        : SERVICE COMPANY
DATE .                        : DATE
UWI  .                        : UNIQUE WELL ID
API  .                        : API NUMBER
SLAT .WGS84 5.917481465974497 : SURFACE LATITUDE
SLON .WGS84  2.75123126238951 : SURFACE LONGITUDE
DATUM.F                1399.0 : DEPTH DATUM ELEV
~Curve Information -----------------------------------------
DEPT   .FT    : 
AT10   .OHMM  : ARRAY INDUCTION TWO FOOT RESISTIVITY A10
AT30   .OHMM  : ARRAY INDUCTION TWO FOOT RESISTIVITY A30
AT90   .OHMM  : ARRAY INDUCTION TWO FOOT RESISTIVITY A90
DPHZ_LS.DEC   : HGRD STANDARD RESOLUTION DENSITY POROSITY
DTCO   .US/F  : DELTA-T COMPRESSIONAL
DTSM   .US/F  : DELTA-T SHEAR
ECGRS  .GAPI  : ENVIRONMENTALLY CORRECTED GAMMA RAY FROM SONIC LOG
HCALD  .IN    : HRCC CALIPER CALIBRATED FROM DENSITY LOG
HDRA   .G/C3  : HRDD SPINE AND RIBS DENSITY CORRECTION
PEFZ   .B/E   : HRDD STANDARD RESOLUTION FORMATION PHOTOELECTRIC FACTOR
RHOZ   .G/C3  : HRDD STANDARD RESOLUTION FORMATION DENSITY
SPR    .MV    : SPONTANEOUS POTENTIAL FROM RESISTIVITY LOG
TNPH_LS.DEC   : THERMAL NEUTRON POROSITY [LIMESTONE]
~Params ----------------------------------------------------
~Other -----------------------------------------------------
~ASCII -----------------------------------------------------
# ...
 10624.00000   22.13440   39.71980   34.33950    0.01700   67.35760  108.77860   63.03970    9.20640   -0.00720    3.62260    2.67900  -20.86780    0.09420
 10624.50000   19.12800   30.33710   27.01790    0.03630   67.41110  108.89700   72.63570    9.23220   -0.00740    3.50100    2.64320  -21.04400    0.10230
 10625.00000   19.17220   26.91320   25.23960    0.05140   67.40920  108.65240   84.43790    9.23660   -0.00760    3.40870    2.61920  -21.22020    0.11060
 10625.50000   21.29820   32.27330   28.97880    0.05850   67.40730  108.84680   95.67140    9.24090   -0.00780    3.43190    2.60970  -21.22690    0.11230
 10626.00000   25.28590   44.30520   34.75270    0.05890   67.40550  108.84680  100.97310    9.22270   -0.00770    3.45520    2.60990  -21.65500    0.10870
 10626.50000   29.64190   62.97550   52.16770    0.05830   67.31950  108.70080  105.46060    9.22160   -0.00750    3.47840    2.61090  -21.82040    0.10110
 10627.00000   34.28970   81.64580   69.17930    0.05810   67.31170  108.69230  105.72090    9.22040   -0.00720    3.48770    2.61060  -22.31890    0.10170
 10627.50000   37.72870  105.65110   84.57720    0.05900   67.21640  108.68370  105.89920    9.21940   -0.00690    3.50280    2.60970  -22.95670    0.10240
 10628.00000   39.90860  133.21300  102.34320    0.05970   67.06260  108.52500  100.49370    9.21990   -0.00670    3.55650    2.60790  -23.59440    0.10320
 10628.50000   40.35860  148.07500  121.68790    0.06050   67.01260  108.32870  103.57630    9.22040   -0.00640    3.61120    2.60760  -24.14590    0.10390
 10629.00000   38.99660  142.84620  109.16180    0.05720   66.77800  108.13250  103.89280    9.22080   -0.00610    3.60070    2.61280  -24.24650    0.10520
 10629.50000   37.63460  126.97800   98.01090    0.05220   66.79170  107.77330  100.49370    9.21740   -0.00590    3.51800    2.62130  -24.59030    0.10670
 10630.00000   36.37540  117.65870   89.86450    0.05440   67.19420  108.01160   94.17450    9.20820   -0.00590    3.41730    2.61710  -24.69030    0.10820
 10630.50000   36.57560  115.94870   89.47710    0.06160   67.26770  108.41630   92.22880    9.20190   -0.00590    3.34750    2.60350  -25.09550    0.10790
 10631.00000   37.02250  117.85320   90.87960    0.06550   67.23040  108.19330   93.69140    9.21110   -0.00590    3.40110    2.59870  -25.49830    0.10700
 10631.50000   36.90590  114.18650   90.73640    0.06020   67.22300  108.07070   99.41510    9.19380   -0.00550    3.46930    2.60930  -25.90690    0.10610
 10632.00000   36.05560  108.07540   86.50680    0.05360   67.21560  107.96090   98.79860    9.17640   -0.00520    3.51170    2.61960  -26.42340    0.10520
 10632.50000   35.65360  104.68790   85.34350    0.05210   67.20820  107.80270  101.66540    9.19930   -0.00500    3.52540    2.62110  -26.84340    0.10500
 10633.00000   36.59760  105.38600   90.10780    0.05390   67.20080  107.71860  100.85930    9.19970   -0.00450    3.48180    2.61790  -27.22570    0.10660
 10633.50000   37.55920  117.15760   95.46290    0.05580   67.14830  108.04130  100.64820    9.20000   -0.00530    3.37410    2.61540  -27.60800    0.10780
 10634.00000   37.73770  117.49530   96.79930    0.05950   67.14980  107.77860   99.77060    9.20040   -0.00610    3.27630    2.60720  -27.99020    0.10730
 10634.50000   36.09350  107.56990   84.07420    0.06480   67.02710  107.51580  100.61120    9.19620   -0.00710    3.32100    2.59830  -28.44140    0.10730
 10635.00000   34.95130   97.88120   78.93200    0.06650   65.86750  106.90660   95.87010    9.18520   -0.00810    3.44120    2.59790  -29.13420    0.10860
 10635.50000   33.99880   91.34280   75.49540    0.06340   64.55410  105.23090  101.02410    9.17420   -0.00870    3.58950    2.60550  -29.32630    0.10840
 10636.00000   33.99880   89.53000   74.11650    0.05530   63.73880  104.90970  108.15130    9.17110   -0.00920    3.73770    2.62220  -29.65300    0.10250
 10636.50000   34.48330   90.79010   73.97680    0.04660   63.72990  104.92560  121.40460    9.16950   -0.00650    3.85480    2.63720  -29.86990    0.09560
 10637.00000   35.25670   96.13210   74.26450    0.03900   63.72110  104.97110  124.81240    9.15950   -0.00430    3.78420    2.64830  -30.08670    0.09580
 10637.50000   35.79170  101.94700   79.63980    0.03710   63.71220  104.78960  129.75470    9.15930   -0.00220    3.70960    2.64290  -30.30350    0.09750
 10638.00000   36.35520  106.58100   81.24890    0.04370   63.50400  104.74540  132.65500    9.15910    0.00000    3.65200    2.62860  -30.52030    0.09820
 10638.50000   36.73380  109.89870   83.26020    0.05210   62.47600  104.21030  130.81180    9.15900    0.00040    3.61110    2.61950  -30.68240    0.08900
 10639.00000   37.36780  118.37100   86.16370    0.05180   61.07970  101.71140  118.45960    9.15090    0.00040    3.61090    2.62440  -30.84450    0.07860
 10639.50000   37.97110  124.12680   88.81650    0.04350   60.68410  101.04690  102.29620    9.11880   -0.00070    3.61070    2.63970  -31.00660    0.06070
 10640.00000   37.46830  130.04390   91.41870    0.03420   60.13570  100.27460   80.30270    9.11650   -0.00250    3.65350    2.65250  -31.16870    0.04870
 10640.50000   36.26890  140.58860   97.03050    0.03580   59.52770   99.64810   67.53560    9.11430   -0.00440    3.70300    2.64860  -31.33080    0.04460
 10641.00000   37.72820  159.47060  110.68310    0.03980   57.61180   98.37530   58.20980    9.11200   -0.00620    3.90130    2.64080  -31.49290    0.04120
 10641.50000   42.48920  219.09980  151.40480    0.04340   56.30330   96.37830   54.76720    9.10970   -0.00810    4.06030    2.63750  -31.67340    0.03790
 10642.00000   48.98960  256.74010  194.50350    0.03430   56.33350   94.74250   50.28680    9.10690   -0.00740    4.23180    2.64700  -31.70010    0.03020
 10642.50000   52.32760  279.02690  218.23670    0.02470   56.80400   94.57350   46.27650    9.10350   -0.00530    4.32540    2.66730  -31.79160    0.02140
 10643.00000   47.07820  242.63200  204.02790    0.01400   56.85590   94.61480   42.58520    9.10010   -0.00320    4.40020    2.68710  -31.52520    0.01730
 10643.50000   41.75830  128.67050  129.28560    0.00750   56.88240   94.66140   41.19640    9.10070   -0.00110    4.39650    2.69670  -31.89960    0.01550
 10644.00000   39.71890  126.38350  167.30480    0.00940   57.01590   94.71160   39.95610    9.09330    0.00020    4.36570    2.69220  -31.43820    0.01660
 10644.50000   37.97100  142.05660  190.62570    0.01770   57.26060   94.74000   42.14830    9.08580    0.00020    4.26090    2.67570  -31.33460    0.02200
 10645.00000   35.89170  136.09800  128.02710    0.02610   57.78070   94.85050   46.61960    9.07840    0.00020    3.99290    2.65790  -31.14640    0.02960
 10645.50000   33.98990  106.61400   90.83780    0.03440   58.71170   95.40080   52.16720    9.07090   -0.00100    3.76690    2.64400  -30.95830    0.03730
 10646.00000   32.68340   77.13010   69.73010    0.04280   59.63880   96.30510   57.99360    9.06970   -0.00230    3.52800    2.63780  -30.76000    0.04490
 10646.50000   33.34830   76.62390   63.06640    0.04170   60.27320   97.42760   61.96240    9.07740   -0.00330    3.39580    2.63980  -30.49570    0.05260
 10647.00000   34.89870   85.18520   64.58200    0.03860   60.60310   97.31930   65.52700    9.07720   -0.00330    3.34810    2.64440  -30.48480    0.05460
 10647.50000   36.35490   96.12690   73.59050    0.03920   61.05790   97.77730   66.02590    9.07700   -0.00330    3.37520    2.64320  -30.08360    0.05110
 10648.00000   38.02060  107.06870   84.43690    0.04050   61.34460   98.23520   60.42550    9.07680   -0.00330    3.45770    2.64060  -29.68230    0.04560
 10648.50000   37.96020  112.38660   88.57940    0.04110   61.30980   98.69310   55.41910    9.07660   -0.00340    3.47230    2.63840  -29.44150    0.04270
 10649.00000   37.56610  112.42960   88.25050    0.04110   61.06360   98.83410   54.04160    9.05990   -0.00340    3.48690    2.64080  -29.39190    0.04310
 10649.50000   37.48380  106.86930   84.91670    0.04040   61.13830   99.03890   57.60990    9.07200   -0.00350    3.46640    2.63940  -29.34230    0.04410
