~Version ---------------------------------------------------
VERS.   2.0 : CWLS log ASCII Standard -VERSION 2.0
WRAP.    NO : One line per depth step
DLM . SPACE : Column Data Section Delimiter
~Well ------------------------------------------------------
STRT .FT               9220.0 : START DEPTH
STOP .FT              11208.0 : STOP DEPTH
STEP .FT                  0.5 : STEP
NULL .               -9999.25 : NULL VALUE
COMP .                        : COMPANY
WELL .                        : WELL
FLD  .                        : FIELD
LOC  .                        : LOCATION
PROV .                        : PROVINCE
CNTY .                        : COUNTY
STAT .                        : STATE
CTRY .                        : COUNTRY
SRVC .                        : SERVICE COMPANY
DATE .                        : DATE
UWI  .                        : UNIQUE WELL ID
API  .                        : API NUMBER
SLAT .WGS84 5.917481465974497 : SURFACE LATITUDE
SLON .WGS84  2.75123126238951 : SURFACE LONGITUDE
DATUM.F                1399.0 : DEPTH DATUM ELEV
~Curve Information -----------------------------------------
DEPT   .FT    : 
AT10   .OHMM  : ARRAY INDUCTION TWO FOOT RESISTIVITY A10
AT30   .OHMM  : ARRAY INDUCTION TWO FOOT RESISTIVITY A30
AT90   .OHMM  : ARRAY INDUCTION TWO FOOT RESISTIVITY A90
DPHZ_LS.DEC   : HGRD STANDARD RESOLUTION DENSITY POROSITY
DTCO   .US/F  : DELTA-T COMPRESSIONAL
DTSM   .US/F  : DELTA-T SHEAR
ECGRS  .GAPI  : ENVIRONMENTALLY CORRECTED GAMMA RAY FROM SONIC LOG
HCALD  .IN    : HRCC CALIPER CALIBRATED FROM DENSITY LOG
HDRA   .G/C3  : HRDD SPINE AND RIBS DENSITY CORRECTION
PEFZ   .B/E   : HRDD STANDARD RESOLUTION FORMATION PHOTOELECTRIC FACTOR
RHOZ   .G/C3  : HRDD STANDARD RESOLUTION FORMATION DENSITY
SPR    .MV    : SPONTANEOUS POTENTIAL FROM RESISTIVITY LOG
TNPH_LS.DEC   : THERMAL NEUTRON POROSITY [LIMESTONE]
~Params ----------------------------------------------------
~Other -----------------------------------------------------
~ASCII -----------------------------------------------------
# ...
 9610.00000   49.43170   80.91740  100.86740   -0.01410   52.72560   98.94680   19.28130    9.41280   -0.00080    5.13950    2.73660    5.53610    0.01150
 9610.50000   33.23990   67.80240   92.07500   -0.01240   53.03690  100.33470   16.80150    9.39260    0.00210    5.18420    2.72480    5.36730    0.01210
 9611.00000   22.97630   29.21130   41.39020   -0.00570   53.08910  100.65220   15.22170    9.38990    0.00490    5.37290    2.71430    5.59970    0.01340
 9611.50000   16.83160   20.70040   22.42590   -0.00120   53.23420  100.86280   16.96260    9.45800    0.00780    5.52550    2.71270    5.92290    0.01920
 9612.00000   19.49320   23.39710   26.34250   -0.00160   53.31710  101.26310   20.09390    9.44190    0.01070    5.63650    2.71450    5.57290    0.02550
 9612.50000   21.19730   26.98920   29.47250   -0.00280   53.28820  101.10850   22.63740    9.39220    0.01110    5.61860    2.71080    5.50730    0.02920
 9613.00000   19.78240   26.50310   28.40100    0.00130   53.25930  101.30840   25.02670    9.38410    0.00870    5.62620    2.70650    5.30620    0.03010
 9613.50000   18.43290   24.07260   25.09350    0.00210   53.25700  101.42510   26.45170    9.38280    0.00680    5.67190    2.70310    4.71180    0.03100
 9614.00000   18.47520   23.14670   25.13670    0.00720   53.26130  101.54180   24.62740    9.38470    0.00490    5.67500    2.69690    5.41170    0.03360
 9614.50000   20.13990   26.27850   27.01470    0.00830   53.26550  101.65850   23.75940    9.38650    0.00760    5.66590    2.69470    6.26540    0.03460
 9615.00000   21.19800   29.45960   31.40180    0.01350   53.42510  102.12240   22.80340    9.38840    0.01520    5.68880    2.68240    6.26340    0.03230
 9615.50000   21.88240   32.64080   36.72830    0.01560   54.15110  102.11490   23.18570    9.40420    0.02120    5.88610    2.68480    6.15080    0.03040
 9616.00000   21.39060   32.00950   34.09260    0.01520   55.10400  103.10890   23.61650    9.41850    0.01860    6.03310    2.68020    6.27420    0.03120
 9616.50000   21.52250   30.31940   31.64620    0.01540   54.00310  101.80560   24.15780    9.44070    0.01340    6.16050    2.68500    5.93670    0.03380
 9617.00000   23.01870   32.57620   36.26400    0.01300   53.77160  101.53640   25.98050    9.45890    0.00820    6.03040    2.68730    6.26260    0.03520
 9617.50000   24.60790   36.33760   38.83780    0.01470   53.75380  101.39110   25.92400    9.47710    0.00300    5.77570    2.68610    6.09820    0.03650
 9618.00000   23.79660   39.34670   42.82530    0.01180   53.67570  101.38650   24.35700    9.52600   -0.00120    5.59840    2.68870    5.93390    0.03930
 9618.50000   22.57540   37.68150   40.49920    0.01460   53.66600  101.75160   22.82170    9.52970   -0.00110    5.53300    2.68410    5.76950    0.04430
 9619.00000   21.65480   36.01620   39.56760    0.01870   53.65620  102.11670   20.95700    9.53570   -0.00060    5.46760    2.67860    5.84750    0.04790
 9619.50000   23.48370   37.17340   42.23160    0.01680   53.64640  102.42320   21.37500    9.55670    0.00000    5.44140    2.68170    5.82870    0.04450
 9620.00000   25.15070   39.37960   41.26370    0.01210   53.60380  102.23530   21.41170    9.56830    0.00050    5.39730    2.68870    5.90540    0.03610
 9620.50000   26.52120   41.58590   36.55770    0.00600   53.56120  102.01200   21.44840    9.57990    0.00100    5.34220    2.69960    5.72930    0.03270
 9621.00000   25.69400   43.79220   38.95360    0.00150   53.56120  102.41650   22.29180    9.58020    0.00150    5.33680    2.70740    5.86370    0.03730
 9621.50000   25.43950   41.48640   37.87650   -0.00340   53.56120  102.43710   22.06750    9.58060    0.00700    5.31540    2.71770    5.88770    0.04000
 9622.00000   26.16710   38.94030   35.05810   -0.00740   53.56150  102.34630   24.02470    9.65350    0.00670    5.26640    2.72100    5.53710    0.04380
 9622.50000   23.47620   32.85860   29.42560   -0.00450   53.83880  102.31310   23.44110    9.69830    0.00530    5.15350    2.71610    5.09970    0.04220
 9623.00000   20.94710   24.14710   25.20840    0.00110   53.73560  102.41130   23.35060    9.71520    0.00480    5.09580    2.70690    4.92890    0.04060
 9623.50000   20.89740   22.40480   27.77960    0.00050   53.66160  102.79590   22.03340    9.72540    0.00430    5.04440    2.70910    4.92090    0.04390
 9624.00000   20.52880   25.94530   27.50020   -0.00220   53.56120  103.04360   22.08790    9.70830    0.00380    5.00320    2.71340    4.91280    0.05020
 9624.50000   20.11080   30.74560   28.03940   -0.00490   53.84690  103.52780   21.65300    9.71680    0.00330    5.00320    2.71890    4.97400    0.05670
 9625.00000   19.49450   29.89900   26.27070   -0.00130   54.36180  104.01200   22.87800    9.74370    0.00290    5.09230    2.71280    5.41360    0.06110
 9625.50000   17.05450   28.17260   25.05970    0.00060   54.37660  104.49610   22.84910    9.77060    0.00240    5.20420    2.70960    5.49500    0.06320
 9626.00000   14.22280   19.93030   18.32310    0.00280   54.47520  105.46600   24.77310    9.79750    0.00430    5.41280    2.70460    5.51620    0.06420
 9626.50000   12.32260   16.13990   15.57860    0.00220   55.34010  106.94950   25.30160    9.84630    0.00690    5.62790    2.70640    5.86790    0.06320
 9627.00000   15.88000   18.06750   20.05580    0.00090   56.38980  108.21230   27.55080   10.17500    0.00950    5.70690    2.70820    5.90690    0.06060
 9627.50000   21.45200   23.46790   25.71040   -0.00210   57.43420  110.91840   26.42170    9.93340    0.01050    5.60570    2.71690    6.07570    0.06250
 9628.00000   16.59820   24.87190   29.10310   -0.00940   57.60810  114.48120   25.92400    9.87280    0.01050    5.44310    2.72810    6.14250    0.06560
 9628.50000   12.65990   16.03410   18.30400   -0.00740   57.57150  114.72850   25.36210    9.92410    0.00970    5.36210    2.72000    6.49060    0.06790
 9629.00000   11.52510   14.52320   15.02910   -0.00150   57.57890  115.02390   26.38780    9.97550    0.00840    5.41910    2.71200    7.03630    0.06380
 9629.50000   10.60230   12.66380   13.63850    0.00290   58.42730  115.35540   27.06780    9.99130    0.00650    5.58160    2.70410    7.25060    0.05690
 9630.00000    9.58420   10.73900   11.36710    0.00490   61.04400  117.99040   26.29690    9.98350    0.00470    5.80570    2.70280    7.46500    0.05840
 9630.50000    9.36460    9.64930    9.97850    0.01560   63.74690  122.45620   30.33890    9.97560    0.00150    6.09850    2.68120    7.52980    0.06010
 9631.00000    8.28310   10.84000   10.07160    0.03810   64.41790  125.42920   34.28140    9.96770   -0.00930    6.84150    2.64430    7.88140    0.06090
 9631.50000    6.84220    8.17840    9.13130    0.06230   64.82620  126.75620   38.12050   10.04360   -0.04290    7.64340    2.60740    7.88140    0.06100
 9632.00000    5.40130    6.09970    6.39300    0.07830   65.23450  127.75280   39.10750   10.11950   -0.06350    8.44530    2.57570    7.70610    0.06310
 9632.50000    5.35510    5.31840    5.44870    0.07410   65.64280  129.80030   41.27320   10.30430   -0.07310    8.72680    2.57750    7.90470    0.06780
 9633.00000    5.84050    5.65560    5.63190    0.05680   65.97430  131.16150   41.69350   10.36870   -0.06450    8.00820    2.61220    7.73720    0.07310
 9633.50000    6.32580    6.05110    5.81500    0.03750   65.99870  131.63160   40.54500   10.29830   -0.03800    6.45370    2.65370    8.08340    0.09920
 9634.00000    6.49490    6.44180    5.95250    0.01920   66.39010  132.85190   40.56600   10.24740   -0.02000    5.32920    2.68100    7.81470    0.13080
 9634.50000    6.58490    6.82520    6.24150    0.01080   67.46800  133.87010   41.01320   10.19650   -0.00990    4.78000    2.69310    8.08340    0.15580
 9635.00000    6.67490    6.89270    6.47260    0.00880   66.20370  133.51600   41.71360   10.19840    0.00080    4.67260    2.69480    7.86560    0.14010
 9635.50000    6.72890    6.68570    6.32680    0.01550   65.93410  132.42130   40.82870   10.20520    0.00180    4.77310    2.68160    7.73030    0.13450
