~Version ---------------------------------------------------
VERS.   2.0 : CWLS log ASCII Standard -VERSION 2.0
WRAP.    NO : One line per depth step
DLM . SPACE : Column Data Section Delimiter
~Well ------------------------------------------------------
STRT .FT               9220.0 : START DEPTH
STOP .FT              11208.0 : STOP DEPTH
STEP .FT                  0.5 : STEP
NULL .               -9999.25 : NULL VALUE
COMP .                        : COMPANY
WELL .                        : WELL
FLD  .                        : FIELD
LOC  .                        : LOCATION
PROV .                        : PROVINCE
CNTY .                        : COUNTY
STAT .                        : STATE
CTRY .                        : COUNTRY
SRVC .                        : SERVICE COMPANY
DATE .                        : DATE
UWI  .                        : UNIQUE WELL ID
API  .                        : API NUMBER
SLAT .WGS84 5.917481465974497 : SURFACE LATITUDE
SLON .WGS84  2.75123126238951 : SURFACE LONGITUDE
DATUM.F                1399.0 : DEPTH DATUM ELEV
~Curve Information -----------------------------------------
DEPT   .FT    : 
AT10   .OHMM  : ARRAY INDUCTION TWO FOOT RESISTIVITY A10
AT30   .OHMM  : ARRAY INDUCTION TWO FOOT RESISTIVITY A30
AT90   .OHMM  : ARRAY INDUCTION TWO FOOT RESISTIVITY A90
DPHZ_LS.DEC   : HGRD STANDARD RESOLUTION DENSITY POROSITY
DTCO   .US/F  : DELTA-T COMPRESSIONAL
DTSM   .US/F  : DELTA-T SHEAR
ECGRS  .GAPI  : ENVIRONMENTALLY CORRECTED GAMMA RAY FROM SONIC LOG
HCALD  .IN    : HRCC CALIPER CALIBRATED FROM DENSITY LOG
HDRA   .G/C3  : HRDD SPINE AND RIBS DENSITY CORRECTION
PEFZ   .B/E   : HRDD STANDARD RESOLUTION FORMATION PHOTOELECTRIC FACTOR
RHOZ   .G/C3  : HRDD STANDARD RESOLUTION FORMATION DENSITY
SPR    .MV    : SPONTANEOUS POTENTIAL FROM RESISTIVITY LOG
TNPH_LS.DEC   : THERMAL NEUTRON POROSITY [LIMESTONE]
~Params ----------------------------------------------------
~Other -----------------------------------------------------
~ASCII -----------------------------------------------------
# ...
 10754.00000   30.78090   47.90280   42.21420    0.04130   58.55410   97.78650   80.61350    8.90760   -0.00460    3.48760    2.63240  -28.17830    0.07670
 10754.50000   36.35890   56.65730   51.44880    0.03420   58.59500   97.86740   80.76460    8.90630   -0.00480    3.74970    2.64540  -28.62300    0.06530
 10755.00000   43.73630  100.55730   82.32060    0.02610   58.61510   97.94830   71.79120    8.90500   -0.00500    4.00580    2.65770  -28.99840    0.05060
 10755.50000   54.02200  180.37590  113.19240    0.01810   58.60210   97.96270   58.39700    8.90370   -0.00530    4.22490    2.67190  -29.37370    0.04140
 10756.00000   61.67990  243.01870  185.84580    0.01400   58.59290   97.70650   46.76870    8.90490   -0.00310    4.28310    2.68280  -29.74910    0.03700
 10756.50000   59.39770  249.03200  204.96260    0.01030   58.58750   98.00630   41.46120    8.90790   -0.00080    4.15460    2.69000  -30.12440    0.03790
 10757.00000   52.23230  240.34500  151.33060    0.01060   58.49960   97.78290   44.46580    8.91090    0.00070    3.97890    2.69190  -30.49970    0.04190
 10757.50000   46.70800  175.13340   96.36410    0.01420   58.31320   97.65800   50.60370    8.91390    0.00080    3.74950    2.68750  -30.49970    0.05310
 10758.00000   42.89570  107.86840   83.33940    0.02300   58.56260   97.48280   60.01860    8.91690    0.00040    3.65440    2.67370  -30.57890    0.05970
 10758.50000   44.74610  108.48510   88.62550    0.03150   58.69410   96.71590   66.04820    8.91990   -0.00060    3.70600    2.65560  -30.65800    0.05880
 10759.00000   47.89660  133.83580  103.47430    0.03550   58.71840   96.70370   65.51250    8.92290   -0.00030    3.80310    2.65010  -30.73720    0.05060
 10759.50000   50.40820  169.22830  118.87650    0.03380   58.78130   97.19160   60.30620    8.91770    0.00030    3.86310    2.65170  -30.90340    0.04630
 10760.00000   49.51060  174.50470  126.33260    0.02840   58.70800   96.99470   57.28260    8.92370    0.00020    3.84110    2.65970  -31.25810    0.04420
 10760.50000   47.83040  163.28190  119.99900    0.02380   58.09310   96.79780   57.02880    8.92050    0.00010    3.84120    2.66850  -31.63710    0.04490
 10761.00000   51.57080  155.37810  112.42220    0.02100   56.63110   96.17940   54.46960    8.91300    0.00030    3.89760    2.67340  -31.69530    0.04600
 10761.50000   56.24630  214.21870  146.27240    0.02120   55.53500   94.97220   47.83900    8.90560    0.00040    4.00210    2.67350  -32.23580    0.04340
 10762.00000   61.31050  350.76800  222.99210    0.02440   55.63760   94.59800   38.08480    8.90240   -0.00020    4.28590    2.66790  -32.32910    0.03820
 10762.50000   66.16280  580.31210  333.82760    0.02260   55.66220   94.38780   32.18710    8.90210    0.00040    4.47550    2.66940  -32.86080    0.03050
 10763.00000   71.01520  903.93960  461.42970    0.01590   55.68680   94.44910   29.27570    8.90180    0.00040    4.58240    2.68070  -32.90640    0.02450
 10763.50000   73.19980 1227.56720  632.32380    0.00810   55.71140   94.35820   31.25530    8.90150   -0.00030    4.62420    2.69480  -33.45140    0.01850
 10764.00000   72.63340 1045.28330  684.75020    0.00340   55.73600   94.52350   33.76050    8.90120    0.00020    4.54290    2.70340  -33.30690    0.01510
 10764.50000   71.68960  660.45050  400.35360    0.00290   55.95680   94.72050   37.52380    8.90090   -0.00030    4.40900    2.70430  -33.16250    0.01750
 10765.00000   66.18350  403.42900  248.20330    0.00740   56.81170   95.19350   41.93440    8.90060   -0.00080    4.24280    2.69710  -33.01800    0.02310
 10765.50000   57.77260  260.14140  170.92360    0.01530   57.93610   96.01570   46.08540    8.90030   -0.00130    4.05430    2.68480  -32.87360    0.03110
 10766.00000   50.11430  192.67640  115.85950    0.02690   58.33330   96.83780   53.10260    8.90000   -0.00180    3.86580    2.66750  -32.59230    0.04170
 10766.50000   45.85300  124.05020   94.11880    0.03460   58.58760   97.60400   58.04480    8.89970   -0.00230    3.76270    2.65170  -32.10550    0.05240
 10767.00000   41.59160   96.75470   75.61430    0.03980   58.84200   97.48080   61.35780    8.89940   -0.00280    3.73780    2.64250  -32.01230    0.05980
 10767.50000   39.84580   85.73790   70.05440    0.04050   59.09630   97.33280   59.21630    8.89910   -0.00330    3.75460    2.63880  -31.91900    0.06240
 10768.00000   40.18440   85.13230   66.71840    0.03740   59.46670   97.50870   59.55660    8.89880   -0.00390    3.76610    2.64410  -31.90210    0.06370
 10768.50000   45.36920  110.50750   78.16940    0.03160   59.37730   96.99980   56.21330    8.89850   -0.00330    3.77980    2.65380  -32.19050    0.05910
 10769.00000   51.11320  146.85400  108.47560    0.02820   58.37340   96.28220   54.83590    8.87990   -0.00300    3.81630    2.66000  -32.24820    0.05130
 10769.50000   57.04530  193.50570  142.50980    0.02510   58.06120   95.89900   51.98260    8.87660   -0.00270    3.93120    2.66630  -32.24810    0.04290
 10770.00000   62.55070  254.43010  177.47610    0.02210   57.97570   96.27820   50.20330    8.85010   -0.00240    4.06650    2.67200  -32.22870    0.03450
 10770.50000   66.78880  285.22450  213.68940    0.01850   57.97930   96.25780   47.43210    8.85970   -0.00210    4.13020    2.67850  -32.19630    0.02970
 10771.00000   65.03510  312.06640  256.46080    0.01900   57.98280   96.21280   46.26230    8.86920   -0.00170    4.12720    2.67660  -32.16400    0.02590
 10771.50000   57.25760  276.16890  193.80210    0.02120   57.98630   96.16780   48.00030    8.87880   -0.00100    3.99630    2.67250  -32.13160    0.02570
 10772.00000   49.87650  195.14160  124.16580    0.02260   57.98980   96.12290   54.46300    8.88290   -0.00120    3.84260    2.67070  -31.91990    0.03470
 10772.50000   43.27840  114.11420   89.29050    0.02450   57.99340   96.07790   62.26890    8.88970   -0.00170    3.71060    2.66740  -31.43900    0.04590
 10773.00000   39.51530   92.97290   75.08110    0.02880   58.04890   95.98800   70.43780    8.89970   -0.00230    3.70330    2.66010  -31.97750    0.05640
 10773.50000   43.33190  103.97820   80.80740    0.03540   57.96540   96.11950   78.14440    8.90330   -0.00280    3.76480    2.65000  -31.78740    0.05450
 10774.00000   48.77960  148.72810  111.21060    0.03780   57.87730   96.20700   76.26390    8.90380   -0.00330    3.82630    2.64520  -31.54980    0.04530
 10774.50000   51.89770  193.47800  136.83350    0.03540   57.67770   95.92020   66.72010    8.90430   -0.00330    3.88780    2.64750  -31.31210    0.04000
 10775.00000   54.13840  216.42680  143.33440    0.03280   57.22420   95.63330   52.80260    8.90480   -0.00290    3.94930    2.65320  -31.25030    0.03620
 10775.50000   57.72590  243.66710  168.08050    0.02940   56.28210   95.34650   44.59520    8.90530   -0.00210    4.05290    2.65950  -31.45220    0.03510
 10776.00000   64.84940  374.67580  235.12810    0.02570   55.65630   95.07770   40.11610    8.90580   -0.00130    4.21970    2.66670  -31.65410    0.03190
 10776.50000   70.54120  511.08430  331.51690    0.01990   55.13960   94.68770   36.12270    8.90630   -0.00040    4.41470    2.67690  -31.85600    0.02650
 10777.00000   69.73620  514.48390  296.47160    0.01460   55.13050   94.70450   33.16910    8.90680    0.00040    4.50420    2.68520  -32.05790    0.02000
 10777.50000   64.80710  370.97210  258.27270    0.01190   55.48210   94.72130   32.66420    8.90730    0.00070    4.51460    2.68940  -32.25980    0.01850
 10778.00000   59.62510  261.57590  193.17880    0.01060   55.80470   94.97030   33.87400    8.90770    0.00060    4.44320    2.69190  -32.38090    0.01820
 10778.50000   55.06100  231.92130  192.06870    0.01100   56.37670   95.36090   38.03010    8.90820    0.00010    4.27780    2.68970  -32.38090    0.02190
 10779.00000   47.98720  176.94100  163.34510    0.01560   57.36140   95.60880   41.61530    8.91030   -0.00030    4.10160    2.68250  -32.12540    0.03030
 10779.50000   41.09460  115.33420  112.83420    0.02430   57.93300   96.48890   50.40420    8.91290   -0.00070    3.89850    2.66780  -31.86980    0.04150
