~Version ---------------------------------------------------
VERS.   2.0 : CWLS log ASCII Standard -VERSION 2.0
WRAP.    NO : One line per depth step
DLM . SPACE : Column Data Section Delimiter
~Well ------------------------------------------------------
STRT .FT               9220.0 : START DEPTH
STOP .FT              11208.0 : STOP DEPTH
STEP .FT                  0.5 : STEP
NULL .               -9999.25 : NULL VALUE
COMP .                        : COMPANY
WELL .                        : WELL
FLD  .                        : FIELD
LOC  .                        : LOCATION
PROV .                        : PROVINCE
CNTY .                        : COUNTY
STAT .                        : STATE
CTRY .                        : COUNTRY
SRVC .                        : SERVICE COMPANY
DATE .                        : DATE
UWI  .                        : UNIQUE WELL ID
API  .                        : API NUMBER
SLAT .WGS84 5.917481465974497 : SURFACE LATITUDE
SLON .WGS84  2.75123126238951 : SURFACE LONGITUDE
DATUM.F                1399.0 : DEPTH DATUM ELEV
~Curve Information -----------------------------------------
DEPT   .FT    : 
AT10   .OHMM  : ARRAY INDUCTION TWO FOOT RESISTIVITY A10
AT30   .OHMM  : ARRAY INDUCTION TWO FOOT RESISTIVITY A30
AT90   .OHMM  : ARRAY INDUCTION TWO FOOT RESISTIVITY A90
DPHZ_LS.DEC   : HGRD STANDARD RESOLUTION DENSITY POROSITY
DTCO   .US/F  : DELTA-T COMPRESSIONAL
DTSM   .US/F  : DELTA-T SHEAR
ECGRS  .GAPI  : ENVIRONMENTALLY CORRECTED GAMMA RAY FROM SONIC LOG
HCALD  .IN    : HRCC CALIPER CALIBRATED FROM DENSITY LOG
HDRA   .G/C3  : HRDD SPINE AND RIBS DENSITY CORRECTION
PEFZ   .B/E   : HRDD STANDARD RESOLUTION FORMATION PHOTOELECTRIC FACTOR
RHOZ   .G/C3  : HRDD STANDARD RESOLUTION FORMATION DENSITY
SPR    .MV    : SPONTANEOUS POTENTIAL FROM RESISTIVITY LOG
TNPH_LS.DEC   : THERMAL NEUTRON POROSITY [LIMESTONE]
~Params ----------------------------------------------------
~Other -----------------------------------------------------
~ASCII -----------------------------------------------------
# ...
 11118.00000   66.39080 1019.20760  311.89520    0.12460   81.02920  127.87030  285.44730    8.62770   -0.00940    3.57760    2.49830  -65.88170    0.21360
 11118.50000   68.92740 1182.97210  284.30110    0.12160   80.64680  127.10520  289.61990    8.62700   -0.00980    3.56840    2.50060  -65.91410    0.20810
 11119.00000   70.47720 1798.13750  283.81940    0.12640   80.36860  126.01570  291.83780    8.62620   -0.00970    3.55920    2.49110  -65.95470    0.20240
 11119.50000   71.74440 1366.67130  327.21630    0.13240   80.29950  125.44590  299.55650    8.62550   -0.00960    3.55000    2.48170  -65.99530    0.20020
 11120.00000   71.75290 1853.76250  344.41310    0.13810   80.15340  125.79570  299.56870    8.62480   -0.00950    3.48010    2.47280  -66.03590    0.19620
 11120.50000   71.76140 1946.94950  332.14850    0.14110   79.90550  125.32380  299.58080    8.62400   -0.00960    3.37590    2.46730  -66.07650    0.18820
 11121.00000   69.99550 1954.23600  323.84130    0.14360   79.72140  124.83340  299.59300    8.62330   -0.01040    3.26010    2.46300  -66.11710    0.17150
 11121.50000   68.14320 1963.34410  273.86180    0.14630   79.60090  124.31520  299.60510    8.62250   -0.01120    3.18340    2.45830  -66.15770    0.16010
 11122.00000   65.62200 1765.58060  264.31690    0.14920   79.53520  124.02990  299.61720    8.62180   -0.01170    3.16620    2.45370  -65.90510    0.16170
 11122.50000   64.86200 1628.63340  268.88760    0.14980   79.46040  123.89980  299.62940    8.62100   -0.01090    3.20400    2.45240  -65.77110    0.16980
 11123.00000   65.29720 1366.67130  286.66760    0.14910   79.36530  123.76970  299.64150    8.62030   -0.00870    3.24410    2.45480  -66.04080    0.17620
 11123.50000   68.62450 1082.56120  318.29410    0.14320   79.34890  123.53610  299.65370    8.61960   -0.00650    3.27820    2.46740  -65.83960    0.17750
 11124.00000   76.07100  798.45100  369.33730    0.13420   79.26300  123.15550  299.66580    8.61880   -0.00570    3.33880    2.48330  -65.50360    0.17510
 11124.50000   85.50080  594.78480  361.12040    0.12700   79.33690  123.24630  299.67790    8.61810   -0.00630    3.31100    2.49490  -65.19640    0.17480
 11125.00000  100.67430  442.54100  321.97050    0.12350   79.39370  123.29380  299.69010    8.61730   -0.00700    3.29740    2.49960  -64.91110    0.17370
 11125.50000  104.42090  274.15090  303.77430    0.12030   79.35050  122.81470  299.70220    8.61660   -0.00760    3.32540    2.50450  -64.63630    0.17370
 11126.00000   93.69490  247.70670  291.25860    0.12240   79.22820  122.49640  299.71440    8.61580   -0.00740    3.30850    2.49390  -64.36150    0.17750
 11126.50000   74.22100  221.36960  285.67300    0.13810   79.05740  122.53260  298.84100    8.61510   -0.00840    3.24610    2.47430  -64.08670    0.18110
 11127.00000   59.17160  218.05030  296.68890    0.14830   79.05800  122.55150  294.16570    8.61440   -0.00930    3.16700    2.45180  -63.81190    0.18260
 11127.50000   50.08390  225.45260  319.51600    0.15790   79.05860  122.54450   -9999.25    8.61360   -0.01090    3.12110    2.43920  -63.59170    0.17920
 11128.00000   44.68040  206.36340  274.82020    0.15540   79.05930  122.70440   -9999.25    8.61290   -0.01250    3.13770    2.44630  -63.38520    0.17220
 11128.50000   42.61900  253.47660  319.90440    0.14610   79.24850  122.97570   -9999.25    8.61210   -0.01400    3.21520    2.46390  -63.11910    0.16750
 11129.00000   40.37760  357.62650  363.76000    0.12980   79.33310  123.24700   -9999.25    8.61120   -0.01560    3.37140    2.48800  -62.61480    0.16640
 11129.50000   37.90620  424.69840  348.23330    0.12060   79.54000  123.51820   -9999.25    8.60940   -0.01920    3.61160    2.50670  -62.11050    0.16830
 11130.00000   36.48960  339.89710  342.30720    0.13540   80.02800  124.21090   -9999.25    8.60770   -0.02480    3.76260    2.47700  -62.12000    0.17430
 11130.50000   37.67720  321.16140  492.91840    0.15720   80.69560  125.37150   -9999.25    8.60590   -0.02840    3.72160    2.43980  -61.78380    0.18370
 11131.00000   37.17910  528.17770  354.13870    0.16820   81.43950  126.75550   -9999.25    8.60410   -0.02110    3.52360    2.41860  -61.31220    0.19250
 11131.50000   37.63290  774.31330  477.07700    0.16800   82.14950  127.67230   -9999.25    8.60240   -0.01430    3.35530    2.42530  -60.84060    0.20570
 11132.00000   38.53720  544.74410  361.38490    0.16250   82.04780  128.47240   -9999.25    8.60060   -0.01070    3.41830    2.43790  -60.36900    0.22060
 11132.50000   35.70150  273.64860  197.59090    0.13340   81.94800  128.75540   -9999.25    8.59890   -0.00750    3.49970    2.47530  -59.91010    0.21680
 11133.00000   31.24940  169.81520  122.82060    0.10060   81.66910  128.80500   -9999.25    8.59710   -0.00430    3.51540    2.53500  -59.58370    0.21200
 11133.50000   27.02430   82.48830   70.67320    0.06340   81.02600  128.36540   -9999.25    8.59530    0.00020    3.53110    2.59680  -59.08270   -9999.25
 11134.00000   23.52940   61.18740   61.90580    0.04740   79.83400  127.92570   -9999.25    8.59360    0.00020    3.53060    2.62780  -58.50470   -9999.25
 11134.50000   21.62330   43.54600   49.41880    0.04510   78.65040  127.71250   -9999.25    8.59180    0.00020    3.49310    2.63220  -57.92670   -9999.25
 11135.00000   20.20830   41.54870   42.88020    0.04700   78.01960  126.58950   -9999.25    8.59010    0.00020    3.49240    2.62870  -57.69550   -9999.25
 11135.50000   21.24910   42.92120   44.16390    0.05330   77.04060  124.75520   -9999.25    8.58830   -0.00080    3.49160    2.61610  -57.69550   -9999.25
 11136.00000   23.01470   44.54650   49.82650    0.06750   76.65350  123.18810   -9999.25    8.58660   -0.00280    3.49090    2.58800  -57.78980   -9999.25
 11136.50000   25.00650   55.38750   66.08210    0.09170   76.33230  122.15730   -9999.25    8.58480   -0.00470    3.47700    2.54970  -57.95040   -9999.25
 11137.00000   26.03980   69.97800   80.37720    0.11240   76.24850  121.18910   -9999.25    8.58300   -0.00660    3.46410    2.51460  -58.11100   -9999.25
 11137.50000   26.04700   70.84670   76.80440    0.11980   76.45560  121.02200   -9999.25    8.58130   -0.00850    3.45750    2.50480  -58.27150   -9999.25
 11138.00000   27.46290   77.07860   86.26760    0.11270   77.14900  121.01550   -9999.25    8.57950   -0.01060    3.41890    2.52160  -58.43210   -9999.25
 11138.50000   28.99900   83.93450  103.89820    0.10320   77.41700  121.00890   -9999.25    8.57780   -0.00890    3.38720    2.53220  -58.57970   -9999.25
 11139.00000   26.50760   86.27000  104.84660    0.11350   77.83730  121.56470   -9999.25    8.57600   -0.00720    3.38280    2.51400  -58.49460   -9999.25
 11139.50000   24.29290   68.29820   93.92520    0.13810   78.52540  123.04570   -9999.25    8.57420   -0.00540    3.37930    2.47670  -58.93820   -9999.25
 11140.00000   26.82730   68.44730  131.79630    0.15430   79.22830  123.93910   -9999.25    8.57250   -0.00580    3.42500    2.44800  -59.38170   -9999.25
 11140.50000   31.74770  121.77090  216.38970    0.15880   79.91260  125.35640   -9999.25    8.57070   -0.00630    3.47060    2.43840  -59.47500   -9999.25
 11141.00000   35.19860  153.26030  300.46430    0.16320   80.81870  127.74230   -9999.25    8.56900   -0.00680    3.48890    2.43040  -59.76040   -9999.25
 11141.50000   36.43120  257.82290  384.40920    0.16740   81.26060  128.56960   -9999.25    8.56720   -0.00730    3.42380    2.42280  -60.04580   -9999.25
 11142.00000   36.28130  256.49440  468.35410    0.17190   81.41810  129.59480   -9999.25    8.56540   -0.00770    3.42410    2.41650  -60.38010   -9999.25
 11142.50000   36.44590  254.27170  419.14010    0.16450   81.64300  130.61990   -9999.25    8.56370   -0.00820    3.46750    2.42580  -60.59230   -9999.25
 11143.00000   37.90960  287.50820  322.47080    0.15240   81.87100  130.98890   -9999.25    8.56190   -0.00850    3.50320    2.44660  -60.80450   -9999.25
 11143.50000   38.45890  352.32510  226.48940    0.14520   81.77800  131.41940   -9999.25    8.56020   -0.00710    3.46970    2.46060  -61.26270   -9999.25
