~Version ---------------------------------------------------
VERS.   2.0 : CWLS log ASCII Standard -VERSION 2.0
WRAP.    NO : One line per depth step
DLM . SPACE : Column Data Section Delimiter
~Well ------------------------------------------------------
STRT .FT               9220.0 : START DEPTH
STOP .FT              11208.0 : STOP DEPTH
STEP .FT                  0.5 : STEP
NULL .               -9999.25 : NULL VALUE
COMP .                        : COMPANY
WELL .                        : WELL
FLD  .                        : FIELD
LOC  .                        : LOCATION
PROV .                        : PROVINCE
CNTY .                        : COUNTY
STAT .                        : STATE
CTRY .                        : COUNTRY
SRVC .                        : SERVICE COMPANY
DATE .                        : DATE
UWI  .                        : UNIQUE WELL ID
API  .                        : API NUMBER
SLAT .WGS84 5.917481465974497 : SURFACE LATITUDE
SLON .WGS84  2.75123126238951 : SURFACE LONGITUDE
DATUM.F                1399.0 : DEPTH DATUM ELEV
~Curve Information -----------------------------------------
DEPT   .FT    : 
AT10   .OHMM  : ARRAY INDUCTION TWO FOOT RESISTIVITY A10
AT30   .OHMM  : ARRAY INDUCTION TWO FOOT RESISTIVITY A30
AT90   .OHMM  : ARRAY INDUCTION TWO FOOT RESISTIVITY A90
DPHZ_LS.DEC   : HGRD STANDARD RESOLUTION DENSITY POROSITY
DTCO   .US/F  : DELTA-T COMPRESSIONAL
DTSM   .US/F  : DELTA-T SHEAR
ECGRS  .GAPI  : ENVIRONMENTALLY CORRECTED GAMMA RAY FROM SONIC LOG
HCALD  .IN    : HRCC CALIPER CALIBRATED FROM DENSITY LOG
HDRA   .G/C3  : HRDD SPINE AND RIBS DENSITY CORRECTION
PEFZ   .B/E   : HRDD STANDARD RESOLUTION FORMATION PHOTOELECTRIC FACTOR
RHOZ   .G/C3  : HRDD STANDARD RESOLUTION FORMATION DENSITY
SPR    .MV    : SPONTANEOUS POTENTIAL FROM RESISTIVITY LOG
TNPH_LS.DEC   : THERMAL NEUTRON POROSITY [LIMESTONE]
~Params ----------------------------------------------------
~Other -----------------------------------------------------
~ASCII -----------------------------------------------------
# ...
 9870.00000    5.86080    6.16920    6.20950    0.03070   72.39370  140.28450   49.28120    9.82120   -0.00020    4.44970    2.65650    8.44530    0.17210
 9870.50000    6.06460    6.51690    6.41180    0.02960   72.27860  139.92720   47.56540    9.81000    0.00070    4.45630    2.65930    7.88370    0.17590
 9871.00000    6.12890    6.86460    6.53320    0.02990   72.21040  139.81400   46.21760    9.79890    0.00130    4.44550    2.65780    7.32210    0.18000
 9871.50000    6.10850    7.03160    6.40790    0.03580   72.15390  139.63770   47.55790    9.78770    0.00100    4.51610    2.64990    6.86840    0.17150
 9872.00000    5.80370    6.95030    6.62690    0.04120   72.23790  139.28940   49.38930    9.77660    0.00080    4.59800    2.63970    7.51880    0.16190
 9872.50000    6.63820    7.03160    7.23680    0.04070   72.27830  138.94110   52.65980    9.77550    0.00070    4.67680    2.63960    7.79640    0.15640
 9873.00000    7.12260    7.28430    7.76090    0.03410   71.52460  138.44370   51.66870    9.80050    0.00060    4.75560    2.65150    7.76290    0.15900
 9873.50000    6.94820    7.53700    7.66740    0.02800   71.71230  137.49630   49.09270    9.76660    0.00040    4.70780    2.66170    7.78730    0.16170
 9874.00000    7.05660    7.78970    7.45120    0.02740   71.27790  136.93640   46.66630    9.71390    0.00030    4.63380    2.66290    7.96300    0.16020
 9874.50000    7.00210    7.78970    7.33930    0.02890   70.90400  136.45020   47.54110    9.69820    0.00020    4.55930    2.66060    7.77430    0.15800
 9875.00000    6.69200    7.36190    7.22410    0.03000   70.27000  135.49350   48.19250    9.70210    0.00000    4.50470    2.65830    7.94590    0.16140
 9875.50000    6.56190    6.93410    7.23750    0.02810   69.11310  133.45280   48.93740    9.70600   -0.00010    4.47710    2.66160    7.73850    0.16370
 9876.00000    6.92010    7.44410    8.24490    0.02590   68.75760  131.91340   50.08900    9.71740   -0.00020    4.52180    2.66510    7.60080    0.16200
 9876.50000    7.28050    8.01530    8.32200    0.02350   68.66230  131.63470   50.04670    9.73470   -0.00040    4.61790    2.67040    7.46300    0.14680
 9877.00000    8.16500    8.66980    8.92590    0.01950   67.99130  131.00730   48.35730    9.73420   -0.00050    4.72410    2.68000    7.32530    0.12780
 9877.50000    9.15970    9.64930   10.16570    0.01200   66.84950  129.23130   44.03050    9.73600   -0.00060    4.78220    2.69200    7.31690    0.10800
 9878.00000   10.19230   12.09220   11.15750    0.00640   65.44880  124.68980   41.01640    9.72200   -0.00080    4.84030    2.69980    7.08380    0.10170
 9878.50000   10.56270   12.44280   10.94360    0.00570   64.08990  122.75480   37.96390    9.75800   -0.00090    4.88590    2.70000    6.93790    0.10340
 9879.00000   10.72770   12.21290   10.86030    0.00810   63.08100  120.81990   37.67250    9.79400   -0.00100    4.91250    2.69510    7.52170    0.10490
 9879.50000   10.43070   11.86610   10.42560    0.00890   62.80080  119.33820   39.31720    9.80460   -0.00050    4.90780    2.69460    6.89720    0.10650
 9880.00000   10.06000   11.44140   10.62020    0.00820   62.73430  119.16630   40.12420    9.80870    0.00090    4.89110    2.69720    5.96900    0.10910
 9880.50000    9.95790   11.55310   10.94180    0.00510   62.63110  119.01740   39.03860    9.82630    0.00220    4.84080    2.70240    7.50760    0.11240
 9881.00000   10.48100   12.00580   11.10570   -0.00010   62.54340  118.66900   37.77840    9.87760    0.00350    4.84470    2.71030    7.75190    0.11320
 9881.50000   10.58910   12.45840   11.61590    0.00150   62.91320  118.36720   37.34520    9.91070    0.00380    4.93540    2.70740    6.56980    0.11210
 9882.00000   10.38390   12.36790   12.18900    0.00780   62.75900  118.06540   38.01590    9.94380    0.00220    5.09490    2.69480    6.16310    0.11080
 9882.50000   10.33560   11.83580   12.03790    0.01320   63.19730  118.67440   37.57700    9.98350   -0.00030    5.25440    2.68570    7.40020    0.11080
 9883.00000   10.33560   11.30370   11.78590    0.01590   63.21430  118.46850   37.73260   10.12470   -0.00290    5.31820    2.68270    7.56310    0.10900
 9883.50000   10.52990   10.78210   11.16230    0.01680   63.35080  118.94050   39.63920   10.05530   -0.00330    5.22140    2.68220    7.58730    0.10650
 9884.00000    9.68370   10.26050   10.50250    0.01260   63.49180  119.21420   41.63490    9.97300   -0.00010    5.12320    2.69000    7.72250    0.10450
 9884.50000   10.18110   10.69400   11.31440    0.00620   63.51460  119.20080   42.97330    9.97520    0.00310    5.03040    2.69970    7.55610    0.10100
 9885.00000   10.62880   11.31960   11.67200   -0.00170   63.68870  119.57870   41.24330   10.02380    0.00510    5.00410    2.71080    7.52060    0.09840
 9885.50000   11.06460   12.12780   12.53420   -0.00200   63.68340  119.61680   38.56990   10.00980    0.00230    4.97830    2.71210    7.17250    0.10020
 9886.00000   11.77420   13.42780   11.63470    0.00130   63.67810  119.59090   36.74680    9.99570   -0.00050    4.94210    2.70720    7.55540    0.10110
 9886.50000   11.35950   12.29140   12.13830    0.00560   63.58170  119.29850   36.55930    9.98160   -0.00120    4.90600    2.70110    7.93830    0.10110
 9887.00000   10.99560   12.55040   11.88490    0.00940   63.21610  119.02080   37.37680    9.96750    0.00270    4.88430    2.69330    8.59090    0.10200
 9887.50000   10.90930   12.81720   11.63140    0.01050   63.20270  118.56630   38.38550    9.95350    0.00660    5.02290    2.69180    8.32080    0.10270
 9888.00000   10.70050   12.87700   11.53480    0.01040   63.78140  118.44630   41.06400    9.96880    0.00970    5.24170    2.69370    8.53040    0.10270
 9888.50000   10.52660   12.55570   11.42020    0.01460   63.91630  118.76920   44.24580    9.97250    0.00590    5.35970    2.68530    8.44460    0.10400
 9889.00000   10.56580   12.29140   11.58340    0.01200   63.96980  118.65080   44.91140    9.97790    0.00110    5.20990    2.68980    8.13960    0.10730
 9889.50000   10.74090   12.56180   11.85540    0.00890   63.99600  118.61710   44.81520    9.98330    0.00050    4.98000    2.69410    7.96200    0.11030
 9890.00000   10.43230   12.24020   11.66030    0.00230   64.00040  118.79870   41.53110    9.98870    0.00320    4.83970    2.70440    8.42360    0.11240
 9890.50000   10.00480   11.85880   11.15370    0.00310   64.00480  118.76050   40.76640    9.99410    0.00180    4.81160    2.70470    8.76400    0.11360
 9891.00000    9.87740   11.77140   10.64720    0.00810   64.00920  118.91680   38.46100    9.99960   -0.00330    4.89370    2.69590    8.65800    0.11570
 9891.50000    9.90040   11.56520   10.66480    0.00900   63.98660  119.19060   36.97650   10.00500   -0.00330    4.96220    2.69410    8.48130    0.11780
 9892.00000    9.92330   11.88880   10.68240    0.00660   63.81500  119.18860   36.40080   10.01040   -0.00210    4.97590    2.69840    8.30460    0.11080
 9892.50000    9.94630   12.29340   10.87220    0.00700   63.58160  119.25170   34.80500   10.01580    0.00090    4.89930    2.69810    9.15420    0.10400
 9893.00000   10.02480   13.01880   11.32020    0.01450   63.40900  119.13740   34.24450   10.02120    0.00060    4.82260    2.68720    9.19730    0.09960
 9893.50000   10.11750   13.79580   11.69190    0.02140   63.36490  119.02310   34.70220   10.02660   -0.00090    4.82230    2.67380    9.54150    0.09730
 9894.00000   10.21010   12.86330   11.71580    0.02380   63.30660  118.90890   37.26800   10.03200   -0.00240    4.82810    2.66950    9.08040    0.09690
 9894.50000   10.37140   12.16350   11.67550    0.02060   63.21840  118.83710   39.28880   10.03740   -0.00400    4.81710    2.67350    8.76640    0.09950
 9895.00000   10.43940   12.21870   10.99110    0.01840   63.36550  118.79370   39.97980   10.04290    0.00170    4.78240    2.67760    8.69310    0.10270
 9895.50000   10.08300   12.04780   11.51340    0.01990   63.39360  118.86680   39.19460   10.03700    0.00170    4.74420    2.67560    8.99290    0.10530
