~Version ---------------------------------------------------
VERS.   2.0 : CWLS log ASCII Standard -VERSION 2.0
WRAP.    NO : One line per depth step
DLM . SPACE : Column Data Section Delimiter
~Well ------------------------------------------------------
STRT .FT               9220.0 : START DEPTH
STOP .FT              11208.0 : STOP DEPTH
STEP .FT                  0.5 : STEP
NULL .               -9999.25 : NULL VALUE
COMP .                        : COMPANY
WELL .                        : WELL
FLD  .                        : FIELD
LOC  .                        : LOCATION
PROV .                        : PROVINCE
CNTY .                        : COUNTY
STAT .                        : STATE
CTRY .                        : COUNTRY
SRVC .                        : SERVICE COMPANY
DATE .                        : DATE
UWI  .                        : UNIQUE WELL ID
API  .                        : API NUMBER
SLAT .WGS84 5.917481465974497 : SURFACE LATITUDE
SLON .WGS84  2.75123126238951 : SURFACE LONGITUDE
DATUM.F                1399.0 : DEPTH DATUM ELEV
~Curve Information -----------------------------------------
DEPT   .FT    : 
AT10   .OHMM  : ARRAY INDUCTION TWO FOOT RESISTIVITY A10
AT30   .OHMM  : ARRAY INDUCTION TWO FOOT RESISTIVITY A30
AT90   .OHMM  : ARRAY INDUCTION TWO FOOT RESISTIVITY A90
DPHZ_LS.DEC   : HGRD STANDARD RESOLUTION DENSITY POROSITY
DTCO   .US/F  : DELTA-T COMPRESSIONAL
DTSM   .US/F  : DELTA-T SHEAR
ECGRS  .GAPI  : ENVIRONMENTALLY CORRECTED GAMMA RAY FROM SONIC LOG
HCALD  .IN    : HRCC CALIPER CALIBRATED FROM DENSITY LOG
HDRA   .G/C3  : HRDD SPINE AND RIBS DENSITY CORRECTION
PEFZ   .B/E   : HRDD STANDARD RESOLUTION FORMATION PHOTOELECTRIC FACTOR
RHOZ   .G/C3  : HRDD STANDARD RESOLUTION FORMATION DENSITY
SPR    .MV    : SPONTANEOUS POTENTIAL FROM RESISTIVITY LOG
TNPH_LS.DEC   : THERMAL NEUTRON POROSITY [LIMESTONE]
~Params ----------------------------------------------------
~Other -----------------------------------------------------
~ASCII -----------------------------------------------------
# ...
 10364.00000    6.11100    6.70870    7.12290    0.03780   76.12450  144.68360   69.44610    9.70740    0.00120    4.28320    2.64520   -5.45030    0.19950
 10364.50000    5.75310    6.34170    6.57520    0.04180   76.11020  144.68170   71.02260    9.71470   -0.00130    4.36910    2.63750   -5.38940    0.19790
 10365.00000    5.06190    5.48110    5.90160    0.04470   76.08250  144.69120   75.76980    9.69810   -0.00380    4.45510    2.63330   -5.32860    0.18980
 10365.50000    5.00680    5.75640    5.93100    0.04530   76.00910  143.95160   74.22740    9.69810   -0.00530    4.50350    2.63180   -5.52690    0.18730
 10366.00000    6.79520    8.61390    7.84580    0.04690   75.93450  143.54000   75.77030    9.69810   -0.00570    4.51680    2.62930   -5.11930    0.18550
 10366.50000    7.65170   10.37670    8.85190    0.04490   75.76790  143.43140   67.91640    9.69810   -0.00590    4.49690    2.63360   -5.45840    0.18300
 10367.00000    7.03980    8.41790    8.33770    0.03920   74.96560  141.21010   63.61110    9.69810   -0.00450    4.48790    2.64460   -5.11930    0.17900
 10367.50000    5.29660    7.05030    8.64970    0.02890   72.23620  135.84720   58.83720    9.69810   -0.00210    4.50130    2.66180   -5.66970    0.17460
 10368.00000    5.84070    7.78900    8.94650    0.01840   68.01530  131.27550   58.34000    9.65350    0.00020    4.51470    2.67910   -5.56630    0.17030
 10368.50000    6.34070    8.75540    9.18210    0.01340   67.28110  129.25110   57.93880    9.55660    0.00260    4.50040    2.68720   -5.51300    0.17070
 10369.00000    6.44950    9.72180    9.23360    0.01170   67.18580  129.36610   54.51760    9.57440    0.00460    4.46950    2.68980   -5.83570    0.17020
 10369.50000    6.45280    9.45510    8.78390    0.01150   67.16350  129.48100   51.53110    9.59000    0.00530    4.43880    2.69040   -5.61570    0.16670
 10370.00000    6.35990    8.93510    8.33430    0.00980   67.16350  129.59600   51.78510    9.60560    0.00600    4.43580    2.69270   -5.77000    0.15510
 10370.50000    6.48350    8.41500    7.88460    0.01070   67.12770  129.64190   53.28880    9.62120    0.00660    4.43280    2.69120   -5.92420    0.13490
 10371.00000    6.71410    8.80220    8.07080    0.01220   67.17010  129.64190   52.17550    9.62120    0.00730    4.41160    2.68820   -6.04040    0.11730
 10371.50000    6.90660    9.49810    8.37660    0.01600   67.18620  129.90720   50.74650    9.61390    0.00740    4.36880    2.68200   -5.90720    0.11530
 10372.00000    7.68740    8.57510    7.76990    0.02110   67.52350  129.65050   48.88180    9.61610    0.00640    4.33450    2.67240   -6.21190    0.13240
 10372.50000    7.46200    7.72990    7.25070    0.02530   69.76480  130.31780   50.98780    9.63730    0.00460    4.30130    2.66570   -6.17210    0.15580
 10373.00000    7.37190    7.65530    7.21700    0.02680   73.67080  136.30250   55.36850    9.66170    0.00280    4.27760    2.66330   -6.48530    0.18260
 10373.50000    6.61000    7.77460    6.95450    0.03020   75.00540  146.02460   62.95500    9.66220    0.00100    4.31200    2.65610   -7.12660    0.19270
 10374.00000    5.84230    6.63060    6.70990    0.03630   74.72410  146.34540   68.88470    9.66270   -0.00080    4.37030    2.64690   -6.24200    0.19190
 10374.50000    5.42140    5.71750    6.48400    0.04340   74.59410  146.36670   70.56470    9.67550   -0.00050    4.44300    2.63260   -5.52160    0.18900
 10375.00000    5.51720    6.10050    6.59880    0.04990   74.48580  146.39580   67.57610    9.84400    0.00130    4.59680    2.62420   -5.50790    0.19760
 10375.50000    5.68250    6.51380    6.58450    0.05330   74.37930  146.43010   68.67300    9.93300    0.00540    4.98560    2.61590   -5.49420    0.19650
 10376.00000    5.61700    6.31050    6.37640    0.05760   74.30230  146.46430   70.87360    9.93310    0.00940    5.53110    2.61260   -5.48060    0.19530
 10376.50000    5.57730    6.17210    6.47840    0.05470   74.29600  146.44310   72.97730    9.93310    0.01340    6.07650    2.61760   -5.46690    0.19540
 10377.00000    5.56880    6.13120    6.46910    0.05160   74.28960  146.31790   73.57700    9.93040    0.01670    6.69600    2.62270   -5.39020    0.20370
 10377.50000    5.78080    5.96220    6.28490    0.05000   74.19280  146.64650   71.82470    9.92820    0.01730    6.95830    2.62410   -5.49120    0.22450
 10378.00000    5.48130    5.36210    5.93740    0.05210   73.71820  147.07140   71.09410    9.93120    0.02260    7.35480    2.62040   -5.50800    0.24500
 10378.50000    5.38470    5.01860    5.86050    0.05840   73.28730  146.16860   75.52580    9.96450    0.04170    7.78440    2.60420   -5.57190    0.25730
 10379.00000    5.03560    5.70150    6.08290    0.07950   73.49310  145.85280   80.99610   10.00590    0.05310    8.30320    2.56870   -5.86760    0.23210
 10379.50000    4.75870    5.93450    6.30540    0.09370   73.52850  145.71660   82.03100   10.04730    0.07290    8.86340    2.54740   -5.72040    0.21710
 10380.00000    4.72010    5.69520    6.16030    0.11120   73.81940  146.96270   77.20210   10.22200    0.10730    9.27460    2.51810   -5.88770    0.22290
 10380.50000    4.57060    5.09700    5.18140    0.10760   74.88890  149.61790   72.10020   10.41710    0.14160    9.75360    2.52490   -5.72200    0.22900
 10381.00000    4.27540    4.90350    4.52360    0.10590   79.68820  161.73160   72.51080   10.41110    0.17590    9.90790    2.52880   -5.99530    0.22300
 10381.50000    4.20510    4.99530    4.58170    0.10730   80.28860  160.59410   74.93470   10.63060    0.18760    9.99690    2.52520   -6.24750    0.22310
 10382.00000    4.11410    4.91460    4.76840    0.12360   80.78410  161.81910   75.07700   10.98180    0.19120    9.99760    2.48940   -6.49960    0.22990
 10382.50000    4.00530    4.71260    4.45330    0.14810   80.85260  162.04100   71.23590   10.74230    0.13430    9.99820    2.43720   -6.70130    0.24540
 10383.00000    3.93870    4.55110    4.27330    0.18140   80.96310  161.65210   71.04720   11.17710    0.05810    9.99890    2.39220   -6.32480    0.25990
 10383.50000    3.94930    4.55110    4.41780    0.19810   81.46810  161.41200   72.95950   10.35640   -0.01460    9.99960    2.36840   -6.27350    0.25620
 10384.00000    4.14090    4.63770    4.72120    0.19760   81.88750  161.34400   74.19480   10.61630   -0.02380    9.99150    2.37200   -5.98210    0.25780
 10384.50000    4.38640    4.74590    5.01900    0.16060   82.45270  161.27600   77.57190   10.85410    0.01390    9.50710    2.43070   -6.24960    0.26080
 10385.00000    4.32880    4.61600    4.80080    0.12080   82.32270  161.05100   79.49690   10.41260    0.05150    8.91670    2.50050   -5.92090    0.26720
 10385.50000    4.15760    4.61000    4.63710    0.09610   81.50010  160.47620   78.79500   10.75190    0.08500    8.06200    2.54680   -6.24960    0.26530
 10386.00000    4.64380    5.22000    5.10240    0.07660   81.48240  159.54060   73.36420   10.48090    0.09830    7.55900    2.58030   -5.67630    0.25750
 10386.50000    5.10530    5.59460    5.73010    0.06570   81.46460  159.40780   71.92770   10.31540    0.10220    7.42740    2.59520   -5.85830    0.24970
 10387.00000    5.19920    5.60330    5.99050    0.06770   81.43340  159.26340   73.57100   10.59210    0.07570    7.33260    2.59320   -5.85750    0.24410
 10387.50000    5.32130    5.65600    5.60170    0.07260   81.43340  159.42960   74.69200   10.38630    0.05420    7.33110    2.58550   -5.85670    0.23580
 10388.00000    5.33460    5.78230    5.50200    0.06850   81.39150  159.28490   72.54810   10.31550    0.04190    7.52400    2.58890   -5.85590    0.23770
 10388.50000    5.52050    5.87740    5.65990    0.05630   81.37400  159.06250   71.06870   10.35100    0.04950    7.90550    2.61060   -5.85500    0.23210
 10389.00000    5.70630    5.96220    5.82040    0.07450   76.99060  156.10120   71.37510   10.33480    0.06860    8.43940    2.58670   -5.85420    0.23170
 10389.50000    5.38920    5.72880    5.82550    0.10730   79.48760  156.10480   71.78720   10.31860    0.07740    8.86250    2.52680   -5.72170    0.23770
