~Version ---------------------------------------------------
VERS.   2.0 : CWLS log ASCII Standard -VERSION 2.0
WRAP.    NO : One line per depth step
DLM . SPACE : Column Data Section Delimiter
~Well ------------------------------------------------------
STRT .FT               9220.0 : START DEPTH
STOP .FT              11208.0 : STOP DEPTH
STEP .FT                  0.5 : STEP
NULL .               -9999.25 : NULL VALUE
COMP .                        : COMPANY
WELL .                        : WELL
FLD  .                        : FIELD
LOC  .                        : LOCATION
PROV .                        : PROVINCE
CNTY .                        : COUNTY
STAT .                        : STATE
CTRY .                        : COUNTRY
SRVC .                        : SERVICE COMPANY
DATE .                        : DATE
UWI  .                        : UNIQUE WELL ID
API  .                        : API NUMBER
SLAT .WGS84 5.917481465974497 : SURFACE LATITUDE
SLON .WGS84  2.75123126238951 : SURFACE LONGITUDE
DATUM.F                1399.0 : DEPTH DATUM ELEV
~Curve Information -----------------------------------------
DEPT   .FT    : 
AT10   .OHMM  : ARRAY INDUCTION TWO FOOT RESISTIVITY A10
AT30   .OHMM  : ARRAY INDUCTION TWO FOOT RESISTIVITY A30
AT90   .OHMM  : ARRAY INDUCTION TWO FOOT RESISTIVITY A90
DPHZ_LS.DEC   : HGRD STANDARD RESOLUTION DENSITY POROSITY
DTCO   .US/F  : DELTA-T COMPRESSIONAL
DTSM   .US/F  : DELTA-T SHEAR
ECGRS  .GAPI  : ENVIRONMENTALLY CORRECTED GAMMA RAY FROM SONIC LOG
HCALD  .IN    : HRCC CALIPER CALIBRATED FROM DENSITY LOG
HDRA   .G/C3  : HRDD SPINE AND RIBS DENSITY CORRECTION
PEFZ   .B/E   : HRDD STANDARD RESOLUTION FORMATION PHOTOELECTRIC FACTOR
RHOZ   .G/C3  : HRDD STANDARD RESOLUTION FORMATION DENSITY
SPR    .MV    : SPONTANEOUS POTENTIAL FROM RESISTIVITY LOG
TNPH_LS.DEC   : THERMAL NEUTRON POROSITY [LIMESTONE]
~Params ----------------------------------------------------
~Other -----------------------------------------------------
~ASCII -----------------------------------------------------
# ...
 10494.00000   39.25570  104.76270   82.52690    0.06660   64.29970  103.56310   50.92370    9.15820   -0.00120    3.28640    2.59300  -13.11390    0.08640
 10494.50000   49.88560  154.92370  100.00200    0.05750   63.08710  103.26710   51.83920    9.15110   -0.00120    3.33680    2.60830  -13.83720    0.07590
 10495.00000   58.45950  184.08590  139.58350    0.04860   63.51490  103.06070   50.73220    9.14400   -0.00110    3.43040    2.62490  -13.77730    0.05850
 10495.50000   65.08970  149.55230  118.70820    0.04400   63.53930  102.98660   50.73500    9.13680   -0.00080    3.52820    2.63410  -14.09390    0.04840
 10496.00000   56.62230  135.96230  100.43830    0.04100   63.68170  103.00050   49.40840    9.13560   -0.00060    3.55150    2.63890  -13.83800    0.04750
 10496.50000   38.92870   72.31880   58.33940    0.04160   63.72070  103.24700   50.81370    9.13620   -0.00040    3.46940    2.63910  -13.75090    0.05230
 10497.00000   33.41760   46.75940   44.84240    0.04610   63.73220  102.99190   54.37170    9.13490   -0.00010    3.40140    2.63220  -13.69060    0.06510
 10497.50000   30.15810   56.33650   54.27880    0.05270   63.74360  103.48790   68.48430    9.13370    0.00010    3.35200    2.62080  -13.54240    0.08510
 10498.00000   25.16200   49.39650   44.17770    0.05840   64.75790  105.20970   81.43940    9.15920   -0.00160    3.33010    2.61010  -13.39420    0.09880
 10498.50000   22.48000   35.93860   29.84030    0.06260   68.17170  108.36340   88.83750    9.19130   -0.00390    3.37770    2.60320  -13.24600    0.12470
 10499.00000   20.72610   27.51460   25.21830    0.06730   70.04660  112.51730   88.74900    9.22350   -0.00570    3.45140    2.59460  -13.48790    0.13880
 10499.50000   20.42920   26.64150   23.28990    0.06940   70.60570  114.95320   87.02100    9.23700   -0.00610    3.50070    2.59090  -13.16010    0.14180
 10500.00000   20.63270   25.03670   22.58790    0.06830   70.52920  115.71510   84.26970    9.23820   -0.00570    3.50980    2.59220  -13.14180    0.14160
 10500.50000   21.82270   24.68290   27.83130    0.06690   70.42340  115.61520   84.14570    9.23930   -0.00520    3.46280    2.59440  -12.74870    0.13680
 10501.00000   25.45360   33.65500   36.12200    0.06720   70.32060  115.27470   82.30940    9.21480   -0.00470    3.38860    2.59480  -12.74260    0.12510
 10501.50000   34.68020   55.25960   50.38370    0.06730   70.08290  114.55250   81.60230    9.20470   -0.00420    3.25660    2.59410  -12.73650    0.10930
 10502.00000   36.97450   60.42010   52.30530    0.06500   69.72900  113.74640   78.32370    9.19460   -0.00370    3.17990    2.59760  -12.73040    0.09140
 10502.50000   26.11590   42.98630   43.50910    0.06230   69.62910  112.94020   77.57760    9.20950   -0.00390    3.21800    2.60400  -12.72430    0.08980
 10503.00000   23.03340   31.71600   34.72420    0.05850   69.68000  112.92240   80.36050    9.24870   -0.00430    3.25610    2.60940  -12.61530    0.10340
 10503.50000   20.77290   29.39810   30.90140    0.05670   69.50190  112.77440   83.53030    9.24930   -0.00460    3.28350    2.61320  -12.58580    0.11580
 10504.00000   19.33150   26.24550   28.13400    0.05750   69.28910  112.48370   86.35490    9.24290   -0.00500    3.27740    2.61220  -12.55640    0.12410
 10504.50000   19.26150   25.07390   25.66740    0.06180   68.70290  112.44570   84.98730    9.23640   -0.00530    3.26200    2.60360  -12.61020    0.12780
 10505.00000   22.34320   32.94520   28.70360    0.06530   68.52820  111.96250   84.08050    9.23000   -0.00630    3.27090    2.59730  -12.33450    0.12690
 10505.50000   28.97170   43.87980   39.06760    0.06570   68.08270  111.18980   79.30580    9.23470   -0.00670    3.25720    2.59700  -12.50900    0.11800
 10506.00000   36.20530   54.81430   48.62120    0.06300   67.27940  109.96450   73.63190    9.23010   -0.00700    3.25560    2.60100  -12.34960    0.09500
 10506.50000   39.04260   62.10180   55.66380    0.05950   66.44790  108.67290   66.31050    9.22110   -0.00670    3.23950    2.60890  -12.55670    0.07190
 10507.00000   40.05170   65.72500   55.66570    0.05380   65.25610  106.75640   61.46160    9.22880   -0.00410    3.24720    2.61980  -12.73980    0.06210
 10507.50000   42.71230   72.25880   57.53420    0.04800   65.06110  105.64900   59.49210    9.22370   -0.00150    3.25880    2.62850  -12.76130    0.05810
 10508.00000   45.25120   84.29110   62.86160    0.04700   65.33070  105.77230   60.94050    9.21410    0.00000    3.25840    2.63100  -13.13360    0.06080
 10508.50000   37.53720   65.38920   49.15170    0.05350   65.63340  106.18190   65.00320    9.20440   -0.00160    3.25320    2.61590  -13.10100    0.06700
 10509.00000   29.82320   48.92630   31.86160    0.06000   65.98590  106.58300   68.57420    9.20210   -0.00330    3.24800    2.60590  -13.31130    0.08300
 10509.50000   23.40210   32.46340   26.47410    0.06300   66.41310  106.79520   74.50070    9.24090   -0.00490    3.25190    2.60120  -13.59340    0.10360
 10510.00000   18.92040   26.15710   20.10730    0.06360   65.93530  108.21620   80.07620    9.26270   -0.00650    3.32410    2.60090  -13.87550    0.12280
 10510.50000   17.19730   21.45360   17.49410    0.06390   64.16110  109.13840   88.65150    9.28800   -0.00820    3.41800    2.59990  -14.05720    0.13260
 10511.00000   16.21540   19.91470   17.28940    0.06110   62.49520  108.60150   91.05140    9.28590   -0.00980    3.55440    2.60800  -13.97900    0.14110
 10511.50000   17.78870   21.76270   18.72200    0.04530   62.18800  107.91280   89.78580    9.28390   -0.01080    3.78570    2.64320  -14.28770    0.14210
 10512.00000   22.14070   30.14070   23.99370    0.01510   62.23690  107.22400   76.84270    9.26670   -0.00990    4.01920    2.70700  -14.27430    0.12050
 10512.50000   35.63440   47.56370   38.76620   -0.01580   62.23690  106.87800   59.35530    9.22680   -0.00940    4.15150    2.74570  -14.54740    0.08660
 10513.00000   44.90100   64.98660   52.56320   -0.03560   62.25800  106.88950   44.43670    9.20470   -0.00900    4.28380    2.77420  -14.25160    0.07930
 10513.50000   39.79060   66.51740   55.15850   -0.03330   62.47030  107.04120   34.02120    9.22040   -0.00860    4.29630    2.76350  -14.54740    0.07790
 10514.00000   34.02970   63.79860   54.98060   -0.01790   63.66650  107.08230   36.58880    9.24270   -0.00810    4.25530    2.73920  -14.75310    0.08330
 10514.50000   27.64670   55.17310   46.11610    0.00260   65.48300  107.60440   39.40730    9.26490   -0.00770    3.99080    2.68940  -15.16410    0.10040
 10515.00000   24.90250   45.14440   40.27630    0.03060   67.89840  109.81440   43.72240    9.28010   -0.00730    3.83450    2.64220  -15.44700    0.12490
 10515.50000   30.60180   49.76510   39.30580    0.05860   69.25630  110.98670   56.32700    9.26920   -0.00690    3.70470    2.60290  -15.72990    0.14610
 10516.00000   45.66020  102.02300   81.68940    0.07980   69.29930  111.40630   72.38910    9.25440   -0.00640    3.62180    2.57350  -15.94080    0.13810
 10516.50000   60.36200  218.13510  141.81980    0.08670   69.21960  111.82590   86.70910    9.24160   -0.00600    3.57960    2.56170  -15.78620    0.12550
 10517.00000   64.98430  260.12730  195.17380    0.08670   69.17900  111.99850   94.26190    9.23970   -0.00370    3.53740    2.56180  -16.15560    0.11630
 10517.50000   62.46420  363.96090  227.42750    0.08450   69.16870  112.15070   97.00890    9.22980   -0.00140    3.51530    2.56410  -16.00150    0.11580
 10518.00000   60.92310  533.54450  285.03700    0.08250   70.84260  116.18990   95.51590    9.22000   -0.00030    3.52940    2.56820  -16.00140    0.12070
 10518.50000   58.01400  774.37300  404.07530    0.08100   68.98470  112.05400   93.62850    9.20370   -0.00040    3.53440    2.57110  -16.22580    0.12670
 10519.00000   57.50490  824.61590  491.48680    0.08050   68.91260  111.70240   90.39180    9.20480   -0.00010    3.55230    2.57220  -16.57360    0.12800
 10519.50000   56.75960  809.45180  572.67290    0.08030   68.91770  111.83910   89.92940    9.20580   -0.00030    3.55670    2.57390  -16.99380    0.12360
