~Version ---------------------------------------------------
VERS.   2.0 : CWLS log ASCII Standard -VERSION 2.0
WRAP.    NO : One line per depth step
DLM . SPACE : Column Data Section Delimiter
~Well ------------------------------------------------------
STRT .FT               9220.0 : START DEPTH
STOP .FT              11208.0 : STOP DEPTH
STEP .FT                  0.5 : STEP
NULL .               -9999.25 : NULL VALUE
COMP .                        : COMPANY
WELL .                        : WELL
FLD  .                        : FIELD
LOC  .                        : LOCATION
PROV .                        : PROVINCE
CNTY .                        : COUNTY
STAT .                        : STATE
CTRY .                        : COUNTRY
SRVC .                        : SERVICE COMPANY
DATE .                        : DATE
UWI  .                        : UNIQUE WELL ID
API  .                        : API NUMBER
SLAT .WGS84 5.917481465974497 : SURFACE LATITUDE
SLON .WGS84  2.75123126238951 : SURFACE LONGITUDE
DATUM.F                1399.0 : DEPTH DATUM ELEV
~Curve Information -----------------------------------------
DEPT   .FT    : 
AT10   .OHMM  : ARRAY INDUCTION TWO FOOT RESISTIVITY A10
AT30   .OHMM  : ARRAY INDUCTION TWO FOOT RESISTIVITY A30
AT90   .OHMM  : ARRAY INDUCTION TWO FOOT RESISTIVITY A90
DPHZ_LS.DEC   : HGRD STANDARD RESOLUTION DENSITY POROSITY
DTCO   .US/F  : DELTA-T COMPRESSIONAL
DTSM   .US/F  : DELTA-T SHEAR
ECGRS  .GAPI  : ENVIRONMENTALLY CORRECTED GAMMA RAY FROM SONIC LOG
HCALD  .IN    : HRCC CALIPER CALIBRATED FROM DENSITY LOG
HDRA   .G/C3  : HRDD SPINE AND RIBS DENSITY CORRECTION
PEFZ   .B/E   : HRDD STANDARD RESOLUTION FORMATION PHOTOELECTRIC FACTOR
RHOZ   .G/C3  : HRDD STANDARD RESOLUTION FORMATION DENSITY
SPR    .MV    : SPONTANEOUS POTENTIAL FROM RESISTIVITY LOG
TNPH_LS.DEC   : THERMAL NEUTRON POROSITY [LIMESTONE]
~Params ----------------------------------------------------
~Other -----------------------------------------------------
~ASCII -----------------------------------------------------
# ...
 10000.00000   34.63010   64.09770   44.98870    0.02180   51.89120  115.63780   44.04520    9.29020    0.00120    4.52020    2.67290   -0.39790    0.02420
 10000.50000   28.89650   65.52660   53.14960    0.02260   52.89430  108.70840   35.72890    9.23290    0.00020    4.60930    2.67010   -1.62930    0.00900
 10001.00000   34.11990   99.70850   77.34200    0.02340   55.16010  104.11730   26.23200    9.23020    0.00050    4.83220    2.66920   -3.25340    0.00570
 10001.50000   34.44360  140.05380  109.15760    0.02140   55.99650  102.57880   19.39650    9.27770    0.00110    5.02310    2.67910   -4.27570    0.00950
 10002.00000   43.80540  208.95300  135.24290    0.01400   55.17420  100.58980   18.16800    9.30400    0.00140    5.10880    2.69100   -5.62500    0.01400
 10002.50000   50.21040  288.99730  156.82980    0.00950   52.86430   98.57300   20.62160    9.33140    0.00110    5.10880    2.69400   -6.97430    0.01640
 10003.00000   50.97710  300.82890  149.63000    0.01070   53.42820   95.94060   21.34490    9.33140    0.00130    5.03220    2.68900   -8.48280    0.00980
 10003.50000   51.64810  330.20580  159.69050    0.01440   53.42700   95.79990   18.82860    9.33140    0.00140    4.94300    2.68480   -9.83940    0.00690
 10004.00000   55.74230  526.16810  209.43960    0.01500   53.43620   96.32710   17.07780    9.31460    0.00090    4.74060    2.68410  -11.34430    0.00440
 10004.50000   58.16810  944.03120  301.24810    0.01500   53.41570   96.13880   16.07840    9.28860    0.00110    4.55410    2.68430  -12.84910    0.00440
 10005.00000   59.71520 1263.51000  340.78090    0.01530   54.10830   95.28570   16.43220    9.28790    0.00150    4.37150    2.68220  -14.12370    0.00400
 10005.50000   61.64910 1184.12060  333.85670    0.02030   55.84400   93.57450   14.98950    9.30780    0.00150    4.10810    2.67040  -14.76400    0.00510
 10006.00000   61.78420 1025.05580  277.15650    0.03290   56.32520   93.43120   14.33610    9.29190    0.00010    3.85180    2.64030  -17.19120    0.00590
 10006.50000   59.73420 1218.11610  276.84260    0.05430   56.27680   94.50870   14.96030    9.26580   -0.00130    3.57210    2.60200  -19.79120    0.00830
 10007.00000   59.28570  775.46450  239.75310    0.07350   56.22090   94.66130   15.58450    9.23960   -0.00280    3.40780    2.57970  -20.73830    0.01140
 10007.50000   58.86310  979.54850  220.71890    0.07690   56.21790   94.78950   15.76350    9.22600   -0.00270    3.48750    2.58170  -21.68540    0.01180
 10008.00000   58.46700 1147.28570  274.79470    0.06340   56.14890   94.91780   13.56870    9.21700   -0.00210    3.73010    2.60800  -22.88420    0.00990
 10008.50000   58.23410 1282.84150  306.43240    0.04910   56.03040   94.87650   12.79310    9.21080   -0.00170    4.03740    2.63010  -24.68790    0.00800
 10009.00000   57.90640 1407.65850  316.12030    0.03910   56.02610   94.05990   12.83490    9.24050   -0.00310    4.19300    2.64270  -27.26150    0.00700
 10009.50000   57.60270 1532.47560  343.84190    0.04290   56.02170   93.54660   14.57270    9.17780   -0.00400    4.12130    2.63330  -28.73380    0.00770
 10010.00000   56.92340 1490.56320  424.22360    0.05000   56.01730   93.54660   15.91870    9.09800   -0.00490    3.94500    2.62230  -29.44800    0.00840
 10010.50000   57.18430 1550.54020  476.65020    0.05200   55.92610   93.54660   16.12450    9.09800   -0.00580    3.80280    2.62150  -29.72480    0.00900
 10011.00000   56.74210 1674.69940  549.53480    0.04750   55.92730   93.58580   15.36680    9.08340   -0.00670    3.65660    2.62920  -30.00160    0.00970
 10011.50000   56.71560 1703.56870  578.59020    0.04240   55.92840   93.70660   14.75690    9.05450   -0.00450    3.49070    2.63750  -30.38490    0.01050
 10012.00000   56.14690 1769.53070  574.73400    0.04670   55.92960   93.71260   15.38980    9.03860   -0.00240    3.12660    2.63000  -31.19410    0.01230
 10012.50000   56.09000 1829.69610  543.74490    0.05760   56.04360   93.71860   15.97780    9.01680   -0.00030    2.79270    2.61190  -31.22930    0.01400
 10013.00000   55.63340 1867.05400  523.03460    0.06650   56.45630   92.64940   15.78080    8.99490    0.00100    2.73990    2.59570  -31.57550    0.01580
 10013.50000   55.06980 1872.81680  395.64350    0.06670   56.81550   90.66430   17.57730    8.97740    0.00090    2.86790    2.59610  -31.39270    0.01770
 10014.00000   54.90560 1821.82040  331.09120    0.06000   56.79150   89.87030   20.03580    8.96670    0.00000    3.04470    2.60790  -30.99700    0.02160
 10014.50000   55.09220 1820.96940  276.85970    0.05760   57.23000   90.25700   21.81960    8.93980    0.00100    3.23000    2.60860  -30.56630    0.02530
 10015.00000   55.60790 1946.23930  267.41140    0.06420   57.24930   90.74030   22.64460    8.91290    0.00110    3.43680    2.59800  -30.49200    0.02750
 10015.50000   56.26510 1989.74660  334.42340    0.06630   57.26860   90.83700   21.20060    8.88610    0.00110    3.69750    2.59530  -32.10750    0.02190
 10016.00000   57.00820 1989.74660  327.64390    0.06350   57.35150   90.83700   21.97630    8.85920    0.00050    4.25800    2.60400  -29.14570    0.01640
 10016.50000   57.59190 1989.74660  386.09180    0.05080   57.37120   90.73030   22.69880    8.83230    0.01790    5.31210    2.62610  -20.26040    0.01080
 10017.00000   58.17850 1989.74660  459.07000    0.04880   57.52170   90.59700   23.58690    8.82430    0.03630    6.67760    2.62630  -20.09680    0.00590
 10017.50000   57.84420 1989.74660  494.59670    0.06340   57.70450   90.46360   24.13230    8.81440    0.03970    7.61810    2.59690  -19.93310    0.00590
 10018.00000   57.20880 1620.42830  837.29880    0.09300   57.72930   90.38360   24.13230    8.79450    0.01950    8.52260    2.54770  -19.76940    0.00980
 10018.50000   56.07590  949.74320  478.46630    0.10810   58.10110   90.97190   21.75770    8.75280    0.00440    9.14270    2.52600  -19.50860    0.01410
 10019.00000   54.40860  585.52170  300.44260    0.11230   58.80590   91.57900   17.40240    8.75420   -0.01070    9.67250    2.51860  -19.84510    0.01770
 10019.50000   52.31270  425.60940  204.05100    0.10900   59.08240   92.03360   14.80730    8.75560   -0.01870    9.94160    2.52170  -19.51290    0.02130
 10020.00000   52.12480  306.26740  147.90370    0.11030   59.08790   91.76170   16.36160    8.71980   -0.02620   10.05140    2.52100  -19.53840    0.02220
 10020.50000   50.76790  232.09670  116.71310    0.10400   59.09350   91.65910   17.71650    8.70940   -0.02980   10.10540    2.52960  -19.09340    0.02460
 10021.00000   44.71080  245.21610  100.53240    0.09990   58.67860   91.46690   16.17660    8.70860   -0.04930   10.06440    2.53910  -18.72600    0.02410
 10021.50000   46.97470  219.35320   95.06360    0.09620   57.94140   91.67970   15.89610    8.73340   -0.06570    9.55170    2.54680  -18.04050    0.02230
 10022.00000   51.69790  188.98230   83.53230    0.08610   57.71480   92.47630   17.05030    8.79640   -0.08200    8.12120    2.56360  -17.07750    0.01670
 10022.50000   54.75280  137.95820   70.14490    0.07030   57.64410   93.16320   21.31460    8.85940   -0.07510    6.62220    2.59210  -15.12530    0.01340
 10023.00000   46.10800  105.22420   61.32330    0.05870   57.66500   92.23150   23.51630    8.96770   -0.04410    4.64750    2.60820  -12.87910    0.00960
 10023.50000   32.39200   77.01170   49.27780    0.05830   57.29270   92.84740   24.58920    9.05640   -0.01330    3.64750    2.60940   -9.66940    0.01240
 10024.00000   25.66370   59.08370   38.33110    0.06790   56.74440   95.41390   27.60460    9.05880   -0.00420    3.34400    2.59090   -6.65670    0.01890
 10024.50000   20.81820   39.03320   31.02430    0.07760   56.52410   97.18220   29.76770    9.08830    0.00070    3.91170    2.57460   -5.11530    0.04430
 10025.00000   18.97440   29.22240   25.55360    0.07220   56.38450   97.25560   30.18470    9.11780    0.00560    5.00450    2.59290   -3.64760    0.05580
 10025.50000   27.05670   49.80970   44.93340    0.04570   56.23050   97.34110   28.64470    9.13670    0.01050    5.76500    2.64190   -2.76480    0.04240
