~Version ---------------------------------------------------
VERS.   2.0 : CWLS log ASCII Standard -VERSION 2.0
WRAP.    NO : One line per depth step
DLM . SPACE : Column Data Section Delimiter
~Well ------------------------------------------------------
STRT .FT               9220.0 : START DEPTH
STOP .FT              11208.0 : STOP DEPTH
STEP .FT                  0.5 : STEP
NULL .               -9999.25 : NULL VALUE
COMP .                        : COMPANY
WELL .                        : WELL
FLD  .                        : FIELD
LOC  .                        : LOCATION
PROV .                        : PROVINCE
CNTY .                        : COUNTY
STAT .                        : STATE
CTRY .                        : COUNTRY
SRVC .                        : SERVICE COMPANY
DATE .                        : DATE
UWI  .                        : UNIQUE WELL ID
API  .                        : API NUMBER
SLAT .WGS84 5.917481465974497 : SURFACE LATITUDE
SLON .WGS84  2.75123126238951 : SURFACE LONGITUDE
DATUM.F                1399.0 : DEPTH DATUM ELEV
~Curve Information -----------------------------------------
DEPT   .FT    : 
AT10   .OHMM  : ARRAY INDUCTION TWO FOOT RESISTIVITY A10
AT30   .OHMM  : ARRAY INDUCTION TWO FOOT RESISTIVITY A30
AT90   .OHMM  : ARRAY INDUCTION TWO FOOT RESISTIVITY A90
DPHZ_LS.DEC   : HGRD STANDARD RESOLUTION DENSITY POROSITY
DTCO   .US/F  : DELTA-T COMPRESSIONAL
DTSM   .US/F  : DELTA-T SHEAR
ECGRS  .GAPI  : ENVIRONMENTALLY CORRECTED GAMMA RAY FROM SONIC LOG
HCALD  .IN    : HRCC CALIPER CALIBRATED FROM DENSITY LOG
HDRA   .G/C3  : HRDD SPINE AND RIBS DENSITY CORRECTION
PEFZ   .B/E   : HRDD STANDARD RESOLUTION FORMATION PHOTOELECTRIC FACTOR
RHOZ   .G/C3  : HRDD STANDARD RESOLUTION FORMATION DENSITY
SPR    .MV    : SPONTANEOUS POTENTIAL FROM RESISTIVITY LOG
TNPH_LS.DEC   : THERMAL NEUTRON POROSITY [LIMESTONE]
~Params ----------------------------------------------------
~Other -----------------------------------------------------
~ASCII -----------------------------------------------------
# ...
 10234.00000    5.16850    6.68210    7.44770    0.02520   80.97010  154.48630   63.88070    9.62700   -0.00190    4.91770    2.66700   -2.28420    0.25060
 10234.50000    5.69880    7.56790    9.53150    0.02420   81.28580  154.51700   59.13740    9.63100   -0.00110    4.89690    2.66920   -2.40700    0.25760
 10235.00000    6.49160    7.53490   10.96320    0.02070   79.27940  153.55880   54.11240    9.63500   -0.00030    4.87660    2.67310   -2.25390    0.26110
 10235.50000    4.77280    5.86410    6.41480    0.01200   73.22880  149.51770   49.06770    9.62200    0.00050    4.79790    2.68790   -2.44650    0.25970
 10236.00000    5.14490    5.91900    7.51330    0.00750   79.29510  149.86820   47.19820    9.62300    0.00060    4.76320    2.69530   -2.64840    0.25280
 10236.50000    5.06060    7.33340   13.21640    0.00390   79.68760  154.78380   48.04910    9.62530    0.00060    4.77750    2.70380   -2.83000    0.24960
 10237.00000    4.79350    7.09080   10.55770    0.00610   79.68890  154.83600   50.34920    9.62350    0.00060    4.80160    2.70140   -2.57920    0.24860
 10237.50000    4.55510    5.44710    7.49720    0.00810   79.69020  154.88810   52.17030    9.63490    0.00070    4.83820    2.69800   -2.47380    0.24510
 10238.00000    4.37730    5.03640    5.85540    0.00970   79.69160  154.94030   49.44220    9.63760    0.00070    4.81760    2.69360   -2.36840    0.24510
 10238.50000    4.52710    4.84110    5.22610    0.01150   79.68320  154.99240   51.42850    9.62120    0.00070    4.79980    2.69010   -2.30930    0.24730
 10239.00000    4.59350    4.86290    5.24740    0.01610   79.70480  155.04460   58.37270    9.63310    0.00040    4.84370    2.68280   -2.58690    0.24860
 10239.50000    4.72300    5.36190    5.67560    0.02060   79.87790  154.97100   66.19080    9.64120    0.00090    4.87820    2.67490   -2.67950    0.25490
 10240.00000    4.73880    5.14250    5.24270    0.02210   79.55300  155.05030   69.60980    9.63890    0.00100    4.86540    2.67150   -2.63770    0.26070
 10240.50000    5.03590    5.04590    5.62100    0.01900   78.00890  154.25310   65.92940    9.63650    0.00100    4.85270    2.67880   -2.18170    0.26530
 10241.00000    5.49590    5.89900    6.40290    0.01490   77.07000  152.74700   62.20180    9.63410    0.00090    4.82900    2.68570   -2.26710    0.21470
 10241.50000    5.47260    6.72860    7.75340    0.01410   76.86960  152.79110   61.60710    9.64030    0.00090    4.84280    2.68640   -1.90900    0.19720
 10242.00000    4.61090    6.64720    7.25490    0.01420   76.85230  152.66280   62.06960    9.62680    0.00090    4.84920    2.68580   -2.31290    0.18230
 10242.50000    3.76390    5.94870    6.63170    0.01610   76.74430  152.19910   65.10610    9.63450    0.00080    4.86060    2.68290   -3.14890    0.19870
 10243.00000    3.13890    4.83540    6.29300    0.01530   76.17370  151.65160   64.76920    9.64100    0.00080    4.86650    2.68430   -3.23030    0.23400
 10243.50000    2.71680    4.31440    6.10210    0.01790   75.01850  151.10410   65.49090    9.64060    0.00080    4.89550    2.67870   -3.22590    0.27320
 10244.00000    2.45070    3.84590    5.49250    0.01920   74.51740  150.82520   62.30050    9.64030    0.00050    4.91580    2.67670   -3.22150    0.29490
 10244.50000    2.27600    3.41480    6.29720    0.02060   74.51740  151.32260   63.50410    9.62520    0.00030    4.90620    2.67510   -3.48000    0.29600
 10245.00000    2.18250    3.40070    5.54660    0.02040   74.56880  151.45880   59.93380    9.62780    0.00080    4.89660    2.67620   -3.11910    0.29950
 10245.50000    2.05100    3.60100    4.36610    0.01860   75.89540  152.32060   61.51740    9.63940    0.00040    4.88400    2.67870   -3.34780    0.36720
 10246.00000    3.55380    7.03680    8.39250    0.01840   83.90590  160.99700   63.56190    9.64010    0.00000    4.87070    2.67990   -3.26420    0.35830
 10246.50000    4.12420    9.01440    6.86890    0.01640   89.08920  173.63090   68.49420    9.62420   -0.00040    4.85740    2.68270   -3.46670    0.34850
 10247.00000    4.05090    7.36830    8.27600    0.01750   91.86760  179.02050   72.28030    9.62640   -0.00080    4.85980    2.68080   -3.09930    0.33760
 10247.50000    3.46100    5.59050    9.65130    0.01820   92.09230  179.88800   71.12430    9.62850   -0.00120    4.85540    2.67870   -3.22900    0.31120
 10248.00000    6.29190    8.54220   10.24890    0.02040   92.04360  180.54520   68.44740    9.62880   -0.00170    4.88220    2.67480   -2.81180    0.28000
 10248.50000    9.20370   13.83170   12.52980    0.01830   92.02310  180.36540   64.42890    9.63280   -0.00210    4.86110    2.68050   -2.57130    0.25470
 10249.00000   12.11560   19.44060   15.23590    0.01370   91.97090  180.27650   59.43450    9.64170   -0.00250    4.82080    2.68890   -2.39020    0.27270
 10249.50000   16.81160   27.37730   13.66160    0.00990   92.04030  180.18750   54.46930    9.63700   -0.00290    4.80740    2.69500   -2.20920    0.29860
 10250.00000   16.91300   19.56180   11.73760    0.01020   92.00670  180.19680   52.76630    9.63230   -0.00330    4.83590    2.69140   -2.02810    0.25600
 10250.50000   14.13370   15.80200   11.16710    0.01410   91.97960  180.61910   53.14230    9.62760   -0.00380    4.87140    2.68520   -1.87840    0.21340
 10251.00000   12.01180   14.93270   10.72100    0.01790   91.28840  179.92940   52.01620    9.62280   -0.00420    4.90640    2.67920   -1.85430    0.17080
 10251.50000   10.83070   12.75710   10.72620    0.02330   87.94040  167.99350   51.12950    9.62760   -0.00460    4.90680    2.66960   -1.50330    0.15010
 10252.00000   10.61540   12.88020   10.92370    0.02840   65.61220  132.06300   47.43410    9.62490   -0.00420    4.89700    2.66240   -1.84350    0.14430
 10252.50000   10.12860   12.92980   11.04660    0.02680   65.78680  125.77900   43.59820    9.62480   -0.00350    4.88720    2.66480   -1.66140    0.13770
 10253.00000    9.55000   12.68290   11.15610    0.02290   65.82910  124.37010   38.75370    9.62380   -0.00350    4.87740    2.67330   -2.74660    0.13510
 10253.50000    9.27830   12.76330   11.26560    0.01980   65.82910  124.27950   37.41550    9.61990   -0.00320    4.82890    2.67830   -3.79480    0.13290
 10254.00000    8.71730   12.28180   11.07730    0.01830   65.82910  124.18900   38.54570    9.61600   -0.00280    4.77280    2.67790   -3.01420    0.13330
 10254.50000    7.97910   11.62690   10.84160    0.01980   65.82910  124.09840   39.91360    9.61630   -0.00250    4.72530    2.67590   -2.06630    0.13570
 10255.00000    7.35780   11.10310   10.60590    0.02290   65.82910  124.09120   40.06090    9.62300   -0.00220    4.71330    2.67140   -1.50320    0.13860
 10255.50000    7.04550   11.14860   10.31740    0.02480   65.86450  123.81030   38.11830    9.62590   -0.00180    4.70490    2.66790   -1.82190    0.13800
 10256.00000    6.93730   11.37080   10.01580    0.02580   65.93180  123.56500   36.96090    9.62610   -0.00150    4.72320    2.66660   -1.48700    0.13810
 10256.50000    6.91560   11.59290   10.01810    0.02570   65.93180  123.51530   38.00300    9.61230   -0.00110    4.72460    2.66660   -1.80970    0.13900
 10257.00000    7.04950   12.72480   10.32460    0.02560   66.13710  124.15410   41.11920    9.59850   -0.00080    4.72610    2.66650   -1.57380    0.13770
 10257.50000    7.77610   14.08400   10.63120    0.02380   66.84820  126.25790   45.76870    9.58480   -0.00050    4.72750    2.67050   -2.01870    0.13550
 10258.00000    8.75180   15.48770   11.18010    0.02010   67.65990  129.23120   53.17570    9.59560   -0.00010    4.72900    2.67650   -1.88140    0.13430
 10258.50000   10.49480   16.74220   15.48790    0.01590   67.73080  131.76600   59.79030    9.60540    0.00020    4.73040    2.68360   -2.23010    0.13460
 10259.00000   10.05330   15.98240   22.05940    0.01150   67.73380  132.08910   63.72710    9.60600    0.00060    4.88340    2.69060   -2.12890    0.13540
 10259.50000    8.23320   10.51250   11.02340    0.02470   67.73690  132.04750   64.45710    9.61560    0.00010    5.37290    2.66920   -2.17910    0.13910
