~Version ---------------------------------------------------
VERS.   2.0 : CWLS log ASCII Standard -VERSION 2.0
WRAP.    NO : One line per depth step
DLM . SPACE : Column Data Section Delimiter
~Well ------------------------------------------------------
STRT .FT               9220.0 : START DEPTH
STOP .FT              11208.0 : STOP DEPTH
STEP .FT                  0.5 : STEP
NULL .               -9999.25 : NULL VALUE
COMP .                        : COMPANY
WELL .                        : WELL
FLD  .                        : FIELD
LOC  .                        : LOCATION
PROV .                        : PROVINCE
CNTY .                        : COUNTY
STAT .                        : STATE
CTRY .                        : COUNTRY
SRVC .                        : SERVICE COMPANY
DATE .                        : DATE
UWI  .                        : UNIQUE WELL ID
API  .                        : API NUMBER
SLAT .WGS84 5.917481465974497 : SURFACE LATITUDE
SLON .WGS84  2.75123126238951 : SURFACE LONGITUDE
DATUM.F                1399.0 : DEPTH DATUM ELEV
~Curve Information -----------------------------------------
DEPT   .FT    : 
AT10   .OHMM  : ARRAY INDUCTION TWO FOOT RESISTIVITY A10
AT30   .OHMM  : ARRAY INDUCTION TWO FOOT RESISTIVITY A30
AT90   .OHMM  : ARRAY INDUCTION TWO FOOT RESISTIVITY A90
DPHZ_LS.DEC   : HGRD STANDARD RESOLUTION DENSITY POROSITY
DTCO   .US/F  : DELTA-T COMPRESSIONAL
DTSM   .US/F  : DELTA-T SHEAR
ECGRS  .GAPI  : ENVIRONMENTALLY CORRECTED GAMMA RAY FROM SONIC LOG
HCALD  .IN    : HRCC CALIPER CALIBRATED FROM DENSITY LOG
HDRA   .G/C3  : HRDD SPINE AND RIBS DENSITY CORRECTION
PEFZ   .B/E   : HRDD STANDARD RESOLUTION FORMATION PHOTOELECTRIC FACTOR
RHOZ   .G/C3  : HRDD STANDARD RESOLUTION FORMATION DENSITY
SPR    .MV    : SPONTANEOUS POTENTIAL FROM RESISTIVITY LOG
TNPH_LS.DEC   : THERMAL NEUTRON POROSITY [LIMESTONE]
~Params ----------------------------------------------------
~Other -----------------------------------------------------
~ASCII -----------------------------------------------------
# ...
 9740.00000    5.39070    6.27120    6.08250    0.04360   72.55330  143.34690   53.52460   10.03750   -0.00100    4.54930    2.63580    9.00360    0.18240
 9740.50000    5.56930    6.12730    5.90500    0.04530   72.64610  143.84490   55.29380   10.02910   -0.00100    4.57280    2.63260    8.94040    0.18770
 9741.00000    5.50950    6.04520    5.79840    0.04530   72.83080  144.28550   54.15380   10.02070   -0.00100    4.59670    2.63260    8.74570    0.19000
 9741.50000    5.48250    6.05610    5.88030    0.04240   72.63630  144.47340   54.57130   10.05420   -0.00090    4.57900    2.63650    8.71450    0.18520
 9742.00000    5.65560    6.06690    5.88950    0.04070   72.46280  145.01750   51.64350   10.03750   -0.00090    4.56030    2.63980    8.68340    0.17880
 9742.50000    5.69530    6.09180    5.83260    0.04280   72.94980  145.19830   48.56140   10.01110   -0.00080    4.57710    2.63740    9.11220    0.17530
 9743.00000    5.70050    6.12020    5.76580    0.04230   72.97780  145.37910   48.11830   10.02440   -0.00050    4.57900    2.63730    8.75280    0.17820
 9743.50000    5.62850    6.05050    5.68430    0.04290   73.28190  146.13880   49.32460   10.04280   -0.00040    4.59820    2.63670    8.91030    0.18570
 9744.00000    5.55640    5.95760    5.60270    0.04340   73.17870  146.25610   50.54030   10.04960    0.00070    4.61730    2.63590    8.72350    0.19870
 9744.50000    5.48440    5.90190    5.48570    0.05130   73.18160  145.87340   50.76050   10.06120    0.00170    4.63640    2.62390    8.53230    0.20870
 9745.00000    5.41250    5.88360    5.35980    0.05780   73.18460  146.25270   51.36420   10.08930    0.00310    4.77440    2.61180    8.73870    0.20380
 9745.50000    5.26950    5.69230    5.23380    0.06150   73.52660  147.15960   49.80510   10.15690    0.00360    4.99140    2.60510    8.68890    0.19940
 9746.00000    5.12640    5.60720    5.24140    0.05930   73.37920  147.29920   50.99380   10.16710    0.00700    5.22290    2.60760    8.63910    0.19310
 9746.50000    5.06970    5.57610    5.25080    0.05630   72.88170  147.32910   47.27940   10.17730    0.02190    5.73810    2.61290    8.58930    0.18160
 9747.00000    5.02280    5.50370    5.25830    0.05700   73.65900  148.00110   48.44990   10.18380    0.03930    6.31240    2.61220    8.73160    0.16950
 9747.50000    4.97600    5.50370    5.25830    0.05640   73.61440  148.67300   47.07110   10.18480    0.05700    7.14920    2.61430    8.66220    0.15510
 9748.00000    4.95730    5.40210    5.25830    0.06380   73.66190  149.05280   48.94550   10.28800    0.06330    7.78110    2.60080    8.66700    0.14200
 9748.50000    4.95730    5.40850    5.25830    0.08240   73.97220  149.23790   50.89770   10.51560    0.04350    8.67300    2.57190    8.34900    0.12590
 9749.00000    4.95730    5.42420    5.47120    0.11260   74.39390  149.39060   52.36160   10.56580    0.00960    9.17870    2.52370    8.52260    0.11540
 9749.50000    4.95730    5.37710    5.59510    0.12500   74.47570  149.41450   52.00170   10.65590   -0.01750    9.25370    2.49610    8.38530    0.11130
 9750.00000    4.56690    4.90760    5.15600    0.11760   74.62700  148.17650   52.94090   10.73680   -0.01420    8.94720    2.50720    8.42200    0.13050
 9750.50000    4.56560    4.71980    4.93960    0.09320   73.62850  146.89590   55.56740   10.93750   -0.00610    7.59810    2.54530    8.51290    0.15350
 9751.00000    5.05050    5.39440    5.23380    0.08590   72.91990  146.68690   59.77120   10.24990    0.00100    6.12440    2.56410    8.48430    0.17740
 9751.50000    5.34070    6.06910    5.79840    0.09970   72.47790  146.02500   58.40740   10.26670    0.00310    5.55170    2.54150    8.45740    0.19080
 9752.00000    5.18980    5.90750    5.55450    0.11640   71.63710  144.52760   57.74480   10.17080    0.01130    5.79980    2.51190    8.39430    0.20410
 9752.50000    4.87450    5.50370    5.10200    0.12030   71.38130  144.68060   55.96960   10.25600    0.03800    6.65980    2.50340    8.33120    0.21330
 9753.00000    4.55920    5.31810    4.83710    0.13260   71.02330  144.47680   53.87730   10.61480    0.09630    7.76770    2.48190    8.00910    0.22120
 9753.50000    4.36800    5.13240    4.72630    0.12190   70.84010  144.51810   52.01320   10.87930    0.12850    8.70100    2.46480    8.10690    0.22690
 9754.00000    4.30970    5.18040    4.61550    0.10560   70.90330  144.75740   49.32240   10.68240    0.13320    9.63430    2.38390    7.80740    0.22920
 9754.50000    4.40160    5.23120    4.68560    0.09970   71.39600  144.55550   48.91650   11.29980    0.10580   10.01360    2.32560    7.76250    0.23290
 9755.00000    4.48210    5.26450    4.77320    0.09950   73.05930  145.24980   46.25470   11.44090    0.07500   10.04090    2.29980    7.90500    0.24420
 9755.50000    4.50290    5.17140    4.72660    0.09950   76.61570  149.69480   49.66590   10.75710    0.05490   10.00960    2.35320    7.54880    0.25340
 9756.00000    4.34900    4.88410    4.62850    0.10250   79.12350  158.09850   51.19710   11.24650    0.06210    9.82630    2.45050    7.49830    0.25530
 9756.50000    4.21180    4.65430    4.53030    0.10940   79.13450  159.49400   53.24860   10.68820    0.06840    9.44600    2.52030    7.46550    0.26140
 9757.00000    4.39620    4.75990    4.50230    0.09900   79.22650  159.67050   51.78870   10.60590    0.09440    8.89820    2.54350    7.75150    0.26140
 9757.50000    4.39870    5.07030    4.57350    0.09370   79.27770  159.77340   52.73410   10.56370    0.12180    8.79420    2.54940    7.64350    0.25460
 9758.00000    4.22660    4.91510    4.57920    0.10720   79.32880  159.87620   56.04610   10.60190    0.15870    9.26340    2.53440    7.53560    0.24750
 9758.50000    3.73940    4.36330    4.19050    0.09980   79.33470  159.97900   57.15490   10.80370    0.17870    9.72730    2.53390    7.42760    0.25640
 9759.00000    3.41560    3.99130    3.78400    0.07060   79.34070  160.54160   58.17680   10.93100    0.19720    9.89960    2.57750    7.70020    0.27180
 9759.50000    3.78130    4.13460    4.06000    0.06030   79.74460  161.68400   56.62730   10.85970    0.20520    9.67270    2.60790    7.29270    0.28290
 9760.00000    3.94600    4.87370    4.44150    0.06740   81.40100  161.92850   56.80450   10.55780    0.19180    9.42310    2.59770    7.39910    0.27260
 9760.50000    3.94600    5.18040    4.50550    0.09950   82.33430  159.53530   56.98150   10.54730    0.14790    9.23920    2.54720    7.71340    0.26240
 9761.00000    3.84710    4.71980    4.26420    0.11730   81.81060  156.83140   59.19720   10.56790    0.09190    9.26290    2.51080    7.55750    0.25580
 9761.50000    3.36780    4.08520    3.82680    0.12060   81.80160  156.32860   60.13740   10.63390    0.05340    9.06170    2.50420    7.92390    0.25000
 9762.00000    3.22940    3.35970    3.66900    0.12770   81.79270  156.51820   59.74660   10.75080    0.02290    8.48460    2.48980    7.86480    0.24550
 9762.50000    4.49210    5.45370    6.17470    0.12720   81.38210  154.93440   58.64690   10.74810    0.00940    8.04360    2.49050    8.30760    0.24580
 9763.00000    6.11910    7.78970    9.90540    0.10910   79.75240  151.30150   58.19510   10.70980    0.00000    7.62770    2.52490    7.97880    0.23880
 9763.50000    7.33560    8.20170    8.64620    0.06650   77.99430  148.96680   60.21560   10.63110   -0.00410    6.70730    2.59800    8.15860    0.20750
 9764.00000    7.02980    8.26560    7.38700    0.02920   76.86510  144.75410   56.05660   10.20520   -0.00590    5.78570    2.66070    8.33830    0.17830
 9764.50000    6.74070    8.31900    7.76630    0.02010   74.36600  141.63910   51.28350    9.86650   -0.00510    5.21660    2.67560    8.51800    0.14910
 9765.00000    7.00360    8.65060    7.67140    0.02290   74.09160  140.65720   45.33530    9.84760   -0.00340    4.87130    2.67070    8.39780    0.15020
 9765.50000    7.24810    8.84960    7.38700    0.02360   74.00610  140.29670   42.54690    9.83300   -0.00170    4.75440    2.66920    8.73480    0.15170
