~Version ---------------------------------------------------
VERS.   2.0 : CWLS log ASCII Standard -VERSION 2.0
WRAP.    NO : One line per depth step
DLM . SPACE : Column Data Section Delimiter
~Well ------------------------------------------------------
STRT .FT               9220.0 : START DEPTH
STOP .FT              11208.0 : STOP DEPTH
STEP .FT                  0.5 : STEP
NULL .               -9999.25 : NULL VALUE
COMP .                        : COMPANY
WELL .                        : WELL
FLD  .                        : FIELD
LOC  .                        : LOCATION
PROV .                        : PROVINCE
CNTY .                        : COUNTY
STAT .                        : STATE
CTRY .                        : COUNTRY
SRVC .                        : SERVICE COMPANY
DATE .                        : DATE
UWI  .                        : UNIQUE WELL ID
API  .                        : API NUMBER
SLAT .WGS84 5.917481465974497 : SURFACE LATITUDE
SLON .WGS84  2.75123126238951 : SURFACE LONGITUDE
DATUM.F                1399.0 : DEPTH DATUM ELEV
~Curve Information -----------------------------------------
DEPT   .FT    : 
AT10   .OHMM  : ARRAY INDUCTION TWO FOOT RESISTIVITY A10
AT30   .OHMM  : ARRAY INDUCTION TWO FOOT RESISTIVITY A30
AT90   .OHMM  : ARRAY INDUCTION TWO FOOT RESISTIVITY A90
DPHZ_LS.DEC   : HGRD STANDARD RESOLUTION DENSITY POROSITY
DTCO   .US/F  : DELTA-T COMPRESSIONAL
DTSM   .US/F  : DELTA-T SHEAR
ECGRS  .GAPI  : ENVIRONMENTALLY CORRECTED GAMMA RAY FROM SONIC LOG
HCALD  .IN    : HRCC CALIPER CALIBRATED FROM DENSITY LOG
HDRA   .G/C3  : HRDD SPINE AND RIBS DENSITY CORRECTION
PEFZ   .B/E   : HRDD STANDARD RESOLUTION FORMATION PHOTOELECTRIC FACTOR
RHOZ   .G/C3  : HRDD STANDARD RESOLUTION FORMATION DENSITY
SPR    .MV    : SPONTANEOUS POTENTIAL FROM RESISTIVITY LOG
TNPH_LS.DEC   : THERMAL NEUTRON POROSITY [LIMESTONE]
~Params ----------------------------------------------------
~Other -----------------------------------------------------
~ASCII -----------------------------------------------------
# ...
 10858.00000   39.55050   77.43910   68.62180    0.04300   62.57200  103.03240   86.24420    8.79940   -0.00320    3.67080    2.63570  -33.63480    0.08840
 10858.50000   38.52710   72.95590   63.40280    0.04910   62.31130  102.73510   86.73910    8.79900   -0.00540    3.70720    2.62520  -33.90210    0.08970
 10859.00000   42.33520   82.00140   71.08310    0.05060   62.16440  102.69250   86.54060    8.78940   -0.00760    3.79720    2.62200  -34.37300    0.08830
 10859.50000   46.45800  115.35290   88.65530    0.04180   62.10400  102.57850   80.76480    8.79970   -0.00770    3.91840    2.63700  -34.49780    0.08170
 10860.00000   51.53300  153.70000  115.55070    0.03000   61.76540  102.35740   77.90570    8.79190   -0.00520    4.00410    2.65780  -34.86470    0.07270
 10860.50000   48.68350  145.93340  115.60860    0.02310   61.33260  101.65780   75.99980    8.77860   -0.00270    4.00190    2.67080  -34.97640    0.06530
 10861.00000   46.37560  121.29910   92.26530    0.02220   60.42940  100.81200   74.09390    8.77420   -0.00140    3.96280    2.67160  -35.38560    0.06720
 10861.50000   46.25680  117.63410   89.06120    0.02540   59.52810  100.18110   71.68720    8.76990   -0.00070    3.92260    2.66570  -35.64760    0.07340
 10862.00000   50.94510  154.26260  116.28850    0.02640   59.12910   99.84540   67.72550    8.76550    0.00000    3.95230    2.66330  -35.95930    0.07510
 10862.50000   58.10220  236.02590  151.84110    0.02400   58.89950   99.61680   63.19100    8.76120    0.00050    4.00110    2.66810  -36.44140    0.06370
 10863.00000   65.06470  336.18380  199.27940    0.01870   59.18640   99.38820   57.97140    8.76000    0.00020    4.12370    2.67590  -36.62960    0.05410
 10863.50000   66.92400  360.51710  245.90140    0.01070   59.49320   99.26530   55.33310    8.75970    0.00020    4.24640    2.69060  -36.81770    0.04590
 10864.00000   61.22360  290.38650  191.03420    0.00450   59.84690   99.48460   59.86830    8.75930    0.00040    4.19490    2.70180  -37.00590    0.04260
 10864.50000   51.26300  218.06170  139.89790    0.00360   60.30790   99.97930   67.44890    8.75900    0.00050    4.07260    2.70410  -37.35270    0.04700
 10865.00000   43.23950  145.73690   88.76170    0.01360   60.88670  100.47190   75.02950    8.75860    0.00050    3.92250    2.68690  -37.54910    0.05650
 10865.50000   39.39480   87.74120   73.21220    0.02560   61.35410  100.88290   81.59180    8.75830    0.00040    3.78030    2.66680  -37.74550    0.07600
 10866.00000   39.59150   87.06210   71.82890    0.03460   61.91410  101.91500   85.23000    8.75100    0.00030    3.64780    2.65060  -38.07410    0.08480
 10866.50000   40.36780   87.61910   71.74100    0.03620   62.70340  102.32890   86.43920    8.74740   -0.00040    3.58600    2.64680  -38.14290    0.08880
 10867.00000   39.70240   88.17600   71.65310    0.03930   63.04390  103.01610   85.32580    8.74130   -0.00170    3.59760    2.64200  -38.50310    0.08750
 10867.50000   39.23540   86.79160   71.56520    0.04080   63.41320  103.29300   83.13850    8.74090   -0.00300    3.63730    2.63930  -38.53180    0.08480
 10868.00000   38.45880   83.05210   70.49140    0.04020   63.38450  103.50600   85.54220    8.74040   -0.00430    3.67710    2.63980  -38.85860    0.08280
 10868.50000   37.51260   79.70240   66.87330    0.03790   63.05850  103.71900   87.93470    8.73990   -0.00530    3.67930    2.64480  -38.92850    0.08360
 10869.00000   37.14720   77.67120   63.68150    0.03560   62.43190  103.61260   87.36290    8.72780   -0.00530    3.67790    2.64920  -39.09670    0.08200
 10869.50000   39.61580   84.65660   72.53480    0.03530   62.08650  102.93220   80.27270    8.72200   -0.00530    3.73200    2.64950  -39.26480    0.08090
 10870.00000   42.50060  101.10690   84.07580    0.03280   61.51690  102.24150   70.33500    8.72200   -0.00520    3.85430    2.65420  -39.20780    0.07750
 10870.50000   45.39690  117.64420   94.34010    0.02710   60.79720  101.76650   67.78540    8.72210   -0.00520    3.92320    2.66360  -39.00140    0.07310
 10871.00000   46.76490  128.76920   99.49790    0.02170   60.55320  101.12920   66.03590    8.72210   -0.00510    3.94440    2.67330  -39.29260    0.06790
 10871.50000   47.19710  130.57300  102.45170    0.01840   60.36350  100.91560   66.27500    8.72210   -0.00500    3.94610    2.67810  -39.18180    0.06520
 10872.00000   47.18740  129.12320  104.85440    0.01640   60.30860  100.44820   64.20030    8.72220   -0.00500    3.97900    2.68090  -39.19140    0.06320
 10872.50000   46.48330  119.87350  100.23080    0.01140   60.29900  100.29150   63.06740    8.72220   -0.00490    3.94050    2.68740  -39.32770    0.06110
 10873.00000   42.24390  101.87310   82.66400    0.00910   60.43680  100.38030   63.64470    8.72220   -0.00490    3.90190    2.69360  -39.46390    0.06240
 10873.50000   39.04840   87.33950   72.28760    0.01270   60.43530  100.55400   71.23050    8.72230   -0.00480    3.86340    2.68910  -39.60020    0.06980
 10874.00000   37.47240   78.94790   67.34520    0.02140   60.84590  100.72760   77.90460    8.72230   -0.00480    3.81340    2.67750  -39.73640    0.07540
 10874.50000   39.30940   80.50450   71.07350    0.02680   60.84150  100.90130   81.22750    8.72240   -0.00470    3.80080    2.66450  -39.87270    0.07620
 10875.00000   40.14950   84.39590   77.29100    0.02690   60.78010  101.07490   78.23220    8.72240   -0.00470    3.81480    2.66230  -40.00890    0.07330
 10875.50000   40.19660   88.28740   75.87450    0.02460   60.86200  101.10170   73.80840    8.72240   -0.00460    3.87830    2.66570  -40.14520    0.07110
 10876.00000   39.09180   84.57110   71.44120    0.02240   60.87670  100.90750   74.20830    8.72250   -0.00460    3.91500    2.66990  -40.60990    0.07140
 10876.50000   39.62000   85.58170   73.41420    0.02060   60.65240  101.04230   75.18710    8.72250   -0.00450    3.92100    2.67350  -40.91400    0.07050
 10877.00000   41.97090   97.99450   82.34470    0.02040   60.43940  101.02670   75.36150    8.72250   -0.00450    3.91940    2.67470  -41.14590    0.06910
 10877.50000   42.37470  101.53060   87.21380    0.02130   60.41120  100.66990   76.16940    8.72260   -0.00440    3.88490    2.67450  -41.16920    0.06690
 10878.00000   42.17910  101.53060   87.87830    0.02810   60.49940  100.58440   77.88290    8.72260   -0.00430    3.90870    2.66460  -41.54560    0.06690
 10878.50000   42.20430  103.46310   88.64730    0.03230   60.60440  100.81560   78.99000    8.72250   -0.00430    4.00310    2.65390  -41.56620    0.06670
 10879.00000   41.67780  108.37340   90.71890    0.03000   60.64720  100.78870   80.93900    8.72210   -0.00420    3.99070    2.65470  -42.37340    0.06520
 10879.50000   40.58350  103.92640   93.30850    0.02400   60.66380  100.85520   81.59950    8.72160   -0.00420    3.96000    2.66750  -42.37100    0.06560
 10880.00000   38.94880   96.51490   85.69770    0.02330   60.62140  100.67500   83.84070    8.72110   -0.00410    3.94770    2.67130  -42.58970    0.07080
 10880.50000   40.13280   93.36370   76.72620    0.03040   60.43700  100.49480   88.16310    8.72070   -0.00410    3.94570    2.65970  -42.97320    0.07730
 10881.00000   46.31510  143.76940  105.92270    0.03980   60.02890  100.31460   89.84340    8.72020   -0.00400    3.97840    2.64300  -43.35660    0.07880
 10881.50000   52.89410  240.47800  155.76890    0.04310   59.35090  100.25000   90.47510    8.71970   -0.00400    4.10080    2.63600  -43.74010    0.07320
 10882.00000   57.53590  389.37760  218.83710    0.04310   58.79580   99.71180   80.64450    8.71930   -0.00400    4.21200    2.63430  -44.21410    0.06530
 10882.50000   61.97200  538.27730  272.44130    0.04110   57.81700   98.90890   72.13350    8.71880   -0.00400    4.34980    2.63850  -44.39230    0.05300
 10883.00000   64.58410  734.27360  454.10040    0.03960   56.45600   97.39560   58.45430    8.71910   -0.00390    4.50370    2.64070  -45.04070    0.04290
 10883.50000   65.06980 1041.15470  531.38060    0.03760   55.71210   96.03850   51.60660    8.72210   -0.00390    4.67100    2.64430  -45.69970    0.03190
