~Version ---------------------------------------------------
VERS.   2.0 : CWLS log ASCII Standard -VERSION 2.0
WRAP.    NO : One line per depth step
DLM . SPACE : Column Data Section Delimiter
~Well ------------------------------------------------------
STRT .ft                  45.0 : START DEPTH
STOP .ft                4840.0 : STOP DEPTH
STEP .ft                   0.5 : STEP
NULL .                -9999.25 : NULL VALUE
COMP .                         : COMPANY
WELL .                         : WELL
FLD  .                         : FIELD
LOC  .                         : LOCATION
PROV .                         : PROVINCE
CNTY .                         : COUNTY
STAT .                         : STATE
CTRY .                         : COUNTRY
SRVC .                         : SERVICE COMPANY
DATE .                         : DATE
UWI  .                         : UNIQUE WELL ID
API  .                         : API NUMBER
SLAT .WGS84 1.2375648721258017 : SURFACE LATITUDE
SLON .WGS84 7.2324610566150085 : SURFACE LONGITUDE
DATUM.F                 2601.9 : DEPTH DATUM ELEV
~Curve Information -----------------------------------------
DEPT   .ft    : Depth Curve
CGRR   .GAPI  : CORRECTED GAMMA RAY FROM RESISTIVITY LOG
CGRS   .GAPI  : CORRECTED GAMMA RAY FROM SONIC LOG
DPHZ_LS.DEC   : HGRD STANDARD RESOLUTION DENSITY POROSITY
DTCO   .US/F  : DELTA-T COMPRESSIONAL
DTSM   .US/F  : DELTA-T SHEAR
GR     .GAPI  : GAMMA RAY
HCALD  .IN    : HRCC CALIPER CALIBRATED FROM DENSITY LOG
HCALR  .IN    : HRCC CALIPER CALIBRATED FROM RESISTIVITY LOG
HDRA   .G/C3  : HRDD SPINE AND RIBS DENSITY CORRECTION
HLLD   .OHMM  : HALS LATEROLOG DEEP RESISTIVITY
HLLS   .OHMM  : HALS LATEROLOG SHALLOW RESISTIVITY
PEFZ   .B/E   : HRDD STANDARD RESOLUTION FORMATION PHOTOELECTRIC FACTOR
PR     .N/A   : POISSON'S RATIO
RHOZ   .G/C3  : HRDD STANDARD RESOLUTION FORMATION DENSITY
RXOZ   .OHMM  : INVADED FORMATION RESISTIVITY FILTERED AT 18 INCHES
SGRS   .GAPI  : SPECTROSCOPY GAMMA RAY FROM SONIC LOG
SPHI_LS.DEC   : SONIC POROSITY [LIMESTONE]
TEND   .LBF   : TENSION FROM DENSITY LOG
TENR   .LBF   : TENSION FROM RESISTIVITY LOG
TENS   .LBF   : TENSION FROM SONIC LOG
TNPH_LS.DEC   : THERMAL NEUTRON POROSITY [LIMESTONE]
VPVS   .N/A   : COMPRESSIONAL TO SHEAR VELOCITY RATIO
~Params ----------------------------------------------------
~Other -----------------------------------------------------
~ASCII -----------------------------------------------------
# ...
 1213.00000   32.28890   13.15080   -0.12250   50.49980   93.93630   20.62350   10.07730   10.04250    0.00260 7250.27150 2179.99290    4.57890    0.29320    2.92180 1943.24660   33.21170    0.02280  880.52820  963.69190  948.39930    0.02310    1.86410
 1213.50000   42.83890   24.02660   -0.10290   52.11880   97.46780   25.18400   10.06970   10.05250    0.00180 2040.60440 1936.82640    4.15660    0.30790    2.85430 1025.14470   52.86780    0.03990  880.52820  952.34710  957.67690    0.06520    1.90050
 1214.00000   54.65120   34.90240   -0.01720   54.29260  102.61450   33.61940   10.08810   10.06240    0.00100  797.12770 1034.04660    3.88320    0.31410    2.78680  115.61590   71.75200    0.05710  880.52820  944.69450 1038.00940    0.10730    1.91310
 1214.50000   62.73670   45.77820    0.03340   56.85450  107.05040   47.69330   10.10650   10.07230    0.00550   63.81720  126.16600    3.75620    0.30690    2.71930   53.25690   90.63630    0.07420  880.52820  951.81070 1000.07390    0.11600    1.88920
 1215.00000   67.31170   47.85490    0.05540   59.41650  109.09470   64.95330   10.12480   10.08230    0.00900   63.48910  115.73360    3.71710    0.28670    2.65170   36.55900   94.57390    0.09130  880.52820  958.92700 1008.08310    0.10190    1.85070
 1215.50000   63.66370   42.38210    0.04440   61.04090  108.14850   79.08540   10.14320   10.09220    0.00900   73.95980  142.12770    3.67800    0.27560    2.62390   42.47030   85.73030    0.10160  880.52820  948.79090 1061.78810    0.08100    1.78180
 1216.00000   57.41920   35.91730    0.02200   59.91540  106.19750   88.89850   10.14950   10.10220    0.00660  127.01810  206.60200    3.65490    0.26670    2.64320   55.19130   76.95420    0.10060  880.52820  970.28050 1014.25270    0.06010    1.77390
 1216.50000   52.93930   29.45260    0.01380   57.55640  103.52350   90.39970   10.14410   10.11570   -0.00290  264.09330  328.11280    3.65570    0.27020    2.67450  115.08340   68.44800    0.08280  880.52820  991.77020  987.58190    0.04300    1.80330
 1217.00000   47.90450   22.98780    0.00410   55.49160  100.84950   83.87510   10.13880   10.11590   -0.00860  760.31030  509.83860    3.81080    0.28520    2.70580  174.97560   48.80650    0.06490  880.52820  990.67540  961.79430    0.04120    1.83270
 1217.50000   39.81060   16.52300   -0.01870   53.42680   98.24010   72.41690   10.13350   10.10560   -0.01870 1256.52730 1013.38950    4.08030    0.29920    2.73710  274.12960   25.07300    0.04710  880.52820  989.58070  948.48800    0.04210    1.86830
 1218.00000   31.71670   10.05830   -0.05580   51.36210   97.49050   59.20820   10.13030   10.07940   -0.02050 1752.74440 1953.14030    4.36510    0.30720    2.77090 1239.50210   15.79190    0.02930  880.52820  988.48600  995.68720    0.04340    1.89850
 1218.50000   23.62280    3.49300   -0.07150   49.25570   95.95480   43.05520   10.08560   10.05330   -0.02180 2050.47460 3612.00000    4.62850    0.32590    2.80640 1984.44360   10.23690    0.01150  924.20620  987.39130 1001.87940    0.04640    1.97120
 1219.00000   22.22230    2.79370   -0.08010   47.33130   94.79920   30.57770   10.04470    9.98140   -0.01370 2428.43800 2985.80420    4.44750    0.33490    2.83630 2002.21110   13.54960   -0.00170  923.16510  971.20490  997.61830    0.04930    2.01100
 1219.50000   22.10190    3.10060   -0.07460   46.71550   93.80930   24.81150   10.00380    9.95250   -0.00300 1991.37730 2658.22880    4.12870    0.33960    2.83670 2002.21110   19.06770   -0.00820  922.12400  968.53110  951.54360    0.05230    2.02550
 1220.00000   24.66690    4.10940   -0.07170   46.04940   92.97900   24.59850    9.96300    9.94150    0.01210 1882.53360 2210.36450    3.70080    0.34150    2.82260 1999.44310   26.44980   -0.01580  921.08290  968.89650  952.69210    0.05440    2.04720
 1220.50000   29.84370   10.00930   -0.05220   45.79290   93.47840   27.99220    9.97210    9.95680    0.02360 1280.81820 1717.72130    3.45800    0.34550    2.77090 1095.41610   31.94000   -0.01500  920.04180  973.82040  970.07100    0.09310    2.06880
 1221.00000   35.27370   15.60780   -0.00880   47.86220  100.35230   31.09320   10.05630    9.99850    0.02000  679.27040  970.95300    3.46920    0.34750    2.70410  321.01990   38.89840    0.00070  919.00070  978.74440  987.44980    0.15610    2.07060
 1221.50000   38.29440   21.20620    0.05100   51.12950  106.15310   34.63540   10.14040   10.05060    0.01060  314.53630  501.70280    3.65430    0.34560    2.62740  262.39000   43.07430    0.02340  917.95960  982.68360  994.24670    0.22720    2.05890
 1222.00000   37.27620   21.00680    0.12760   53.24820  113.54600   40.96460   10.18080   10.10660    0.00350  338.81640  534.39820    3.87650    0.33810    2.55070  228.33920   42.10220    0.05680  916.91850  982.68360  994.35510    0.29840    1.99990
 1222.50000   36.25790   16.38370    0.15690   57.23800  115.90380   47.26420   10.22120   10.16530    0.00040  356.84930  597.16530    3.95050    0.33030    2.48230  384.31420   40.48080    0.09020  915.87740  982.68360  994.46340    0.43730    1.97810
 1223.00000   36.37550   16.38460    0.15840   61.05740  116.20400   52.54570   10.20820   10.16770    0.00010  331.32190  570.87880    3.93520    0.31790    2.45400  374.26590   39.78610    0.09740  914.83630  982.68360  956.25010    0.43730    1.93970
 1223.50000   36.63500   16.29440    0.13810   60.29030  116.10280   56.88260   10.16570   10.11520    0.00050  301.33350  568.93870    3.90600    0.31770    2.46570  175.09350   37.81970    0.09310  913.79520  982.68360  934.75050    0.38210    1.94430
 1224.00000   35.18230   14.33140    0.10850   59.18870  115.10060   60.66380   10.13670   10.09420    0.00350  396.67570  840.21320    3.87830    0.32480    2.51780  181.94630   33.85710    0.07930  912.75410  976.11720  973.02760    0.31420    1.98710
 1224.50000   32.44450   12.36840    0.08840   55.59760  112.38240   58.10490   10.11220   10.08730    0.00790  622.46620 1251.54640    3.90570    0.33630    2.56990  453.99690   27.57130    0.06560  911.71300  964.46220  932.20600    0.28360    2.01250
 1225.00000   30.16180   10.23660    0.07370   54.80740  109.04290   51.26760   10.14680   10.08050    0.00810  848.25670 1599.73140    4.00440    0.33380    2.59200 1205.25960   23.47870    0.05460  910.67190  953.53510  937.54920    0.29290    2.01140
 1225.50000   29.07340    8.76100    0.09690   53.98930  107.28250   42.62020   10.16750   10.08040    0.00840  995.83500 1910.66780    4.09880    0.33410    2.55600 1069.66370   21.41920    0.04550  909.63080  943.69990  968.57040    0.30280    2.01030
 1226.00000   28.34510    8.24540    0.13760   53.34240  106.79070   38.54860   10.18410   10.11090    0.00900 1357.07840 2170.35640    4.10770    0.33580    2.50120 1524.71480   21.16960    0.04310  908.58970  927.92680 1001.18010    0.33680    2.01170
 1226.50000   30.50100   10.44530    0.15770   53.15260  107.09030   37.51360   10.19450   10.14140    0.01050  856.70280 2140.95750    4.01410    0.33810    2.45700 1969.79280   22.70290    0.04120  907.54860  940.45650  998.85320    0.37080    2.03000
 1227.00000   33.57570   13.62680    0.15220   53.01470  107.37110   38.51570   10.20490   10.16090    0.01210  590.20290 1035.16970    3.86220    0.33830    2.47740 1528.26820   25.83640    0.03970  906.50750  952.98620  983.25530    0.39420    2.04680
 1227.50000   32.83210   12.32720    0.14520   52.87690  106.23260   38.23270   10.22700   10.17430    0.01490  602.00710 1040.91350    3.79840    0.33720    2.47740 1537.17790   22.73360    0.03830  905.46640  958.02950  984.91810    0.41870    2.01730
 1228.00000   29.09430    8.63660    0.16540   52.62820  105.23170   38.08750   10.26660   10.20120    0.02010 1352.95370 1393.34950    3.95380    0.33520    2.45010 1845.30990   14.88420    0.03690  904.42530  958.08200  934.84440    0.43970    2.01170
 1228.50000   23.86410    3.80890    0.19600   52.29640  104.68290   37.79430   10.29610   10.21450    0.02190 1961.77980 2045.60310    4.10930    0.33460    2.40580 2036.66740    7.38170    0.03550  904.42530  958.13440  984.24410    0.43760    2.01480
