~Version ---------------------------------------------------
VERS.   2.0 : CWLS log ASCII Standard -VERSION 2.0
WRAP.    NO : One line per depth step
DLM . SPACE : Column Data Section Delimiter
~Well ------------------------------------------------------
STRT .ft                  45.0 : START DEPTH
STOP .ft                4840.0 : STOP DEPTH
STEP .ft                   0.5 : STEP
NULL .                -9999.25 : NULL VALUE
COMP .                         : COMPANY
WELL .                         : WELL
FLD  .                         : FIELD
LOC  .                         : LOCATION
PROV .                         : PROVINCE
CNTY .                         : COUNTY
STAT .                         : STATE
CTRY .                         : COUNTRY
SRVC .                         : SERVICE COMPANY
DATE .                         : DATE
UWI  .                         : UNIQUE WELL ID
API  .                         : API NUMBER
SLAT .WGS84 1.2375648721258017 : SURFACE LATITUDE
SLON .WGS84 7.2324610566150085 : SURFACE LONGITUDE
DATUM.F                 2601.9 : DEPTH DATUM ELEV
~Curve Information -----------------------------------------
DEPT   .ft    : Depth Curve
CGRR   .GAPI  : CORRECTED GAMMA RAY FROM RESISTIVITY LOG
CGRS   .GAPI  : CORRECTED GAMMA RAY FROM SONIC LOG
DPHZ_LS.DEC   : HGRD STANDARD RESOLUTION DENSITY POROSITY
DTCO   .US/F  : DELTA-T COMPRESSIONAL
DTSM   .US/F  : DELTA-T SHEAR
GR     .GAPI  : GAMMA RAY
HCALD  .IN    : HRCC CALIPER CALIBRATED FROM DENSITY LOG
HCALR  .IN    : HRCC CALIPER CALIBRATED FROM RESISTIVITY LOG
HDRA   .G/C3  : HRDD SPINE AND RIBS DENSITY CORRECTION
HLLD   .OHMM  : HALS LATEROLOG DEEP RESISTIVITY
HLLS   .OHMM  : HALS LATEROLOG SHALLOW RESISTIVITY
PEFZ   .B/E   : HRDD STANDARD RESOLUTION FORMATION PHOTOELECTRIC FACTOR
PR     .N/A   : POISSON'S RATIO
RHOZ   .G/C3  : HRDD STANDARD RESOLUTION FORMATION DENSITY
RXOZ   .OHMM  : INVADED FORMATION RESISTIVITY FILTERED AT 18 INCHES
SGRS   .GAPI  : SPECTROSCOPY GAMMA RAY FROM SONIC LOG
SPHI_LS.DEC   : SONIC POROSITY [LIMESTONE]
TEND   .LBF   : TENSION FROM DENSITY LOG
TENR   .LBF   : TENSION FROM RESISTIVITY LOG
TENS   .LBF   : TENSION FROM SONIC LOG
TNPH_LS.DEC   : THERMAL NEUTRON POROSITY [LIMESTONE]
VPVS   .N/A   : COMPRESSIONAL TO SHEAR VELOCITY RATIO
~Params ----------------------------------------------------
~Other -----------------------------------------------------
~ASCII -----------------------------------------------------
# ...
 1757.00000   19.49230    0.00040   -0.04720   47.69880   97.28170   42.24340    9.56960    9.54580    0.01960  117.85490   43.11450    3.13930    0.34840    2.78160   45.50750   45.30000    0.00070 1088.59340 1104.17300 1123.84420    0.06700    2.06730
 1757.50000   21.57450    3.59640   -0.03190   47.37080   96.61920   38.91140    9.56980    9.54350    0.01470  102.51700   32.16270    3.16300    0.34760    2.76320   26.63290   50.46080   -0.00050 1075.12870 1099.25210 1100.46750    0.07210    2.05340
 1758.00000   24.10130    3.76150   -0.02230   46.95470   99.56000   40.13950    9.57000    9.55320    0.01160  116.57050   33.83390    3.21250    0.34690    2.74480   29.63460   51.30540   -0.00370 1061.66410 1084.77800 1105.52780    0.07030    2.05730
 1758.50000   24.11510    2.32230   -0.02150   47.02280   98.29100   44.29630    9.57020    9.54560    0.01260  138.43700   45.49240    3.26080    0.34790    2.74630   32.18090   45.69040   -0.00440 1060.66060 1067.91560 1139.33700    0.06530    2.07010
 1759.00000   19.95390    0.31570   -0.03390   47.01680   96.70730   50.88550    9.57040    9.55680    0.03510  140.32510   40.69270    3.31860    0.34800    2.75890   22.00490   38.83810   -0.00440 1062.77250 1068.80290 1145.25700    0.06030    2.08310
 1759.50000   19.58750    0.19740   -0.04070   46.52750   95.83660   54.63880    9.57060    9.55600    0.04670  111.79370   39.20080    3.37640    0.34800    2.77150   17.12990   32.20470   -0.00630 1070.45260 1069.69010 1072.15870    0.06440    2.08490
 1760.00000   18.63840    0.17250   -0.03860   46.60080   95.46390   49.92200    9.55970    9.55520    0.04270  110.71570   39.54640    3.35760    0.34800    2.78160   15.82780   30.55480   -0.00630 1086.48540 1084.33200 1020.08960    0.07260    2.08220
 1760.50000   20.31920    0.16600   -0.03230   46.81220   95.53930   44.00300    9.55910    9.55440    0.03050   77.14150   31.19980    3.32630    0.34870    2.76980   14.69410   33.25170   -0.00580 1088.85880 1089.96630 1076.53260    0.07780    2.07960
 1761.00000   22.94290    2.88580   -0.02530   46.86670   96.13000   41.20260    9.55860    9.54590    0.01250   71.62870   25.23180    3.26290    0.34810    2.75250   13.77090   36.31730   -0.00550 1078.76000 1093.56150 1097.50500    0.07490    2.07580
 1761.50000   22.93650    2.64580   -0.02200   46.98610   95.38770   42.23310    9.55800    9.53750    0.00500   83.03300   31.23270    3.20310    0.34120    2.74940   14.82960   33.58390   -0.00430 1067.98800 1077.33870 1092.40600    0.06930    2.03720
 1762.00000   22.59290    2.69100   -0.02620   47.97040   93.83140   43.38620    9.55750    9.52900    0.00110  145.00850   48.92930    3.15430    0.31720    2.75740   34.79240   31.40710    0.00060 1050.81990 1056.79210 1027.77260    0.06600    1.97440
 1762.50000   23.91750    3.86220   -0.03400   48.94080   92.79500   41.17330    9.55700    9.53590    0.00420  132.41810   42.17560    3.14120    0.30830    2.76870   70.63150   32.43590    0.00830 1032.30550 1040.63990 1103.69520    0.06270    1.92050
 1763.00000   24.75480    4.42800   -0.04170   49.70480   91.69180   38.48830    9.55470    9.53100    0.00740   97.67680   31.36330    3.14700    0.29890    2.77990   56.54900   32.92080    0.01670 1035.19930 1042.06530 1103.38570    0.06200    1.85900
 1763.50000   23.61850    3.17250   -0.04610   49.69140   91.39140   37.77400    9.56340    9.52610    0.00710   99.03910   33.15450    3.19280    0.29390    2.78720   71.97300   31.79520    0.01510 1052.50310 1037.46960 1097.77950    0.05650    1.84690
 1764.00000   22.30110    2.41010   -0.04860   49.82540   91.58450   41.33370    9.57200    9.52510    0.00710  190.77990   56.98510    3.22310    0.29180    2.79090   97.24400   33.59800    0.01250 1061.30440 1070.77840 1095.69270    0.05100    1.84820
 1764.50000   22.12260    2.04140   -0.05090   50.19720   91.77750   40.96650    9.58070    9.53000    0.01800  258.72800   71.85270    3.27300    0.29160    2.78940   90.54820   36.52360    0.01880 1072.70070 1090.76370 1100.01640    0.04800    1.84600
 1765.00000   22.12680    2.02630   -0.04870   49.79930   91.31080   38.74560    9.58930    9.55360    0.03340  238.21130   60.77720    3.32280    0.30000    2.78380   52.74490   39.76090    0.01380 1076.37960 1090.76370 1109.80140    0.05180    1.87950
 1765.50000   22.13110    1.97660   -0.04110   47.31410   88.28590   35.74620    9.58460    9.55930    0.04650  161.79590   43.97230    3.32560    0.30210    2.77390   13.51300   43.26590    0.00790 1068.71260 1090.76370 1119.58650    0.05770    1.90470
 1766.00000   22.06560    1.85120   -0.03100   46.13160   86.83220   34.21410    9.57650    9.55430    0.04640  158.81950   46.99470    3.29150    0.30320    2.76290   13.51240   48.10220   -0.00750 1049.80320 1082.75310 1121.80110    0.06370    1.89090
 1766.50000   21.72090    1.71610   -0.02450   46.64250   87.62110   38.49920    9.60130    9.54930    0.04050  202.30010   52.75510    3.25070    0.30430    2.75570   14.75490   50.66460   -0.00660 1030.89380 1054.67130 1116.70000    0.06970    1.88610
 1767.00000   21.55360    1.39470   -0.02920   46.90460   88.33290   48.12640    9.64540    9.50970    0.03100  243.18440   55.16850    3.25030    0.30610    2.76450   40.73990   53.24350   -0.00430 1010.31910 1048.48550 1081.77080    0.07040    1.88850
 1767.50000   22.52210    2.18060   -0.03810   47.11370   88.28630   55.21680    9.68940    9.62270    0.02250  232.55200   54.65780    3.25280    0.30440    2.78140   79.63810   55.50100   -0.00550 1021.67210 1048.23340 1086.19600    0.06870    1.88750
 1768.00000   23.14780    2.80340   -0.04640   46.90650   86.82880   56.49180    9.75980    9.72390    0.01380  211.06730   51.18660    3.26670    0.30250    2.79420  116.96820   57.01830   -0.00660 1032.88870 1055.81230 1097.01440    0.06700    1.88130
 1768.50000   22.28780    2.21710   -0.05170   46.43630   86.30660   52.23960    9.79880    9.79160    0.00670  205.80910   48.00560    3.27010    0.30030    2.78920   93.21380   55.60980   -0.00860 1064.08290 1085.82100 1119.85100    0.06560    1.87770
 1769.00000   21.48100    1.63160   -0.04770   46.56490   86.75090   47.30540    9.84250    9.85930    0.00010  317.74350   96.80410    3.31280    0.29800    2.77500  103.20950   53.86600   -0.00780 1085.26170 1102.48970 1121.99680    0.06060    1.86510
 1769.50000   22.63110    2.80820   -0.03420   47.15700   87.19520   46.32950    9.94680    9.91120   -0.00440  433.80800  220.02260    3.38640    0.29670    2.76010   61.47600   56.34010   -0.00340 1076.28960 1104.33220 1121.05080    0.05370    1.86450
 1770.00000   24.22550    3.98490   -0.02560   46.71340   87.63950   49.88860    9.98040    9.90660   -0.00900  822.06350  343.24120    3.46970    0.29930    2.75470   50.80540   57.73480   -0.00170 1065.14040 1083.93490 1116.60250    0.04670    1.88910
 1770.50000   25.11620    4.52170   -0.02960   46.08540   87.71480   51.71160    9.86070    9.77240   -0.00940 1963.97050  466.45980    3.63540    0.30570    2.76860   52.00800   58.24970   -0.00600 1042.54000 1063.53770 1106.90080    0.03980    1.90320
 1771.00000   22.13530    2.28520   -0.04120   46.03740   87.26900   52.75170    9.75970    9.69180   -0.00770 3164.37500  772.12220    3.55390    0.31290    2.78480  112.82710   54.23050   -0.01100 1038.97810 1055.70280 1097.19920    0.03310    1.92160
 1771.50000   20.26680    0.15630   -0.05220   45.18620   86.53680   53.33560    9.66020    9.59300   -0.00730 3439.80200  787.30590    3.38790    0.32100    2.80100   71.95110   49.61960   -0.01680 1027.64620 1047.86790 1109.25780    0.02680    1.94460
 1772.00000   19.35100    0.04460   -0.05410   44.52540   85.26250   52.39890    9.59300    9.54010   -0.00700 2121.47680  441.76080    3.24810    0.31810    2.80100   72.63530   48.77480   -0.02250 1010.90650 1075.62050 1129.35440    0.02570    1.93170
 1772.50000   19.99120    0.00040   -0.05020   44.35860   83.67830   51.39210    9.57900    9.54280   -0.00680 1256.35250  189.50370    3.15690    0.30910    2.78650  164.15960   49.79740   -0.02460 1060.06880 1076.02890 1134.88100    0.03220    1.90200
