~Version ---------------------------------------------------
VERS.   2.0 : CWLS log ASCII Standard -VERSION 2.0
WRAP.    NO : One line per depth step
DLM . SPACE : Column Data Section Delimiter
~Well ------------------------------------------------------
STRT .ft                  45.0 : START DEPTH
STOP .ft                4840.0 : STOP DEPTH
STEP .ft                   0.5 : STEP
NULL .                -9999.25 : NULL VALUE
COMP .                         : COMPANY
WELL .                         : WELL
FLD  .                         : FIELD
LOC  .                         : LOCATION
PROV .                         : PROVINCE
CNTY .                         : COUNTY
STAT .                         : STATE
CTRY .                         : COUNTRY
SRVC .                         : SERVICE COMPANY
DATE .                         : DATE
UWI  .                         : UNIQUE WELL ID
API  .                         : API NUMBER
SLAT .WGS84 1.2375648721258017 : SURFACE LATITUDE
SLON .WGS84 7.2324610566150085 : SURFACE LONGITUDE
DATUM.F                 2601.9 : DEPTH DATUM ELEV
~Curve Information -----------------------------------------
DEPT   .ft    : Depth Curve
CGRR   .GAPI  : CORRECTED GAMMA RAY FROM RESISTIVITY LOG
CGRS   .GAPI  : CORRECTED GAMMA RAY FROM SONIC LOG
DPHZ_LS.DEC   : HGRD STANDARD RESOLUTION DENSITY POROSITY
DTCO   .US/F  : DELTA-T COMPRESSIONAL
DTSM   .US/F  : DELTA-T SHEAR
GR     .GAPI  : GAMMA RAY
HCALD  .IN    : HRCC CALIPER CALIBRATED FROM DENSITY LOG
HCALR  .IN    : HRCC CALIPER CALIBRATED FROM RESISTIVITY LOG
HDRA   .G/C3  : HRDD SPINE AND RIBS DENSITY CORRECTION
HLLD   .OHMM  : HALS LATEROLOG DEEP RESISTIVITY
HLLS   .OHMM  : HALS LATEROLOG SHALLOW RESISTIVITY
PEFZ   .B/E   : HRDD STANDARD RESOLUTION FORMATION PHOTOELECTRIC FACTOR
PR     .N/A   : POISSON'S RATIO
RHOZ   .G/C3  : HRDD STANDARD RESOLUTION FORMATION DENSITY
RXOZ   .OHMM  : INVADED FORMATION RESISTIVITY FILTERED AT 18 INCHES
SGRS   .GAPI  : SPECTROSCOPY GAMMA RAY FROM SONIC LOG
SPHI_LS.DEC   : SONIC POROSITY [LIMESTONE]
TEND   .LBF   : TENSION FROM DENSITY LOG
TENR   .LBF   : TENSION FROM RESISTIVITY LOG
TENS   .LBF   : TENSION FROM SONIC LOG
TNPH_LS.DEC   : THERMAL NEUTRON POROSITY [LIMESTONE]
VPVS   .N/A   : COMPRESSIONAL TO SHEAR VELOCITY RATIO
~Params ----------------------------------------------------
~Other -----------------------------------------------------
~ASCII -----------------------------------------------------
# ...
 4797.00000  161.18620   -9999.25   -0.49930   49.61880   80.98270   -9999.25    7.98580    8.00400    0.13730   29.73150   19.72520    9.88950    0.00170    2.99940    8.15360   -9999.25    0.02210 2188.31740 2139.05000 2109.78270    0.27740    1.67190
 4797.50000  159.45880   -9999.25   -0.49940   48.24140   80.33140   -9999.25    7.98840    7.97710    0.19930   22.00060   14.47470    9.91570    0.00170    3.00030    5.12910   -9999.25    0.00880 2179.61330 2150.06200 2092.32710    0.33490    1.70570
 4798.00000  157.73150   -9999.25   -0.49960   47.60530   79.68010   -9999.25    7.99090    7.93220    0.19980   14.01760   12.64030    9.93430    0.00180    3.55600    4.63210   -9999.25   -0.00440 2166.41210 2146.86840 2065.96900    0.42480    1.75710
 4798.50000  156.00410   -9999.25   -0.44330   45.28640   78.95160   -9999.25    7.99340    7.89630    0.19960   10.33120    7.34890    9.95300    0.00180    4.00050    2.25800   -9999.25   -0.01770 2157.54640 2141.97000 2100.78420    0.49670    1.79980
 4799.00000  154.35310   -9999.25   -0.30820   42.30010   77.64040   -9999.25    7.99600    7.94980    0.18230   10.47680    7.01650    9.97160    0.00190    3.93800    1.86270   -9999.25   -0.03090 2145.97270 2137.07180 2113.85620    0.49000    1.86880
 4799.50000   -9999.25   -9999.25   -0.21290   43.22010   79.02720   -9999.25    7.99850    8.04970    0.09470   11.73990    7.73990    9.99030    0.00190    3.62560    1.36360   -9999.25   -0.03890 2129.22610 2132.17330 2112.14280    0.47340    1.93770
 4800.00000   -9999.25   -9999.25   -0.14360   46.42550   83.63810   -9999.25    8.00100    7.99750    0.13070   14.03240    9.34670   10.00890    0.00200    3.31320    1.44690   -9999.25   -0.03830 2122.52760 2125.81490 2110.42920    0.46040    1.98560
 4800.50000   -9999.25   -9999.25   -0.10210   49.63100   93.09840   -9999.25    8.04190    8.00400    0.14840   14.03210   10.35850   10.02750    0.00210    3.00090    1.81360   -9999.25    0.01990 2083.93480 2117.26610 2108.71580    0.46160    1.99530
 4801.00000   -9999.25   -9999.25    0.13960   52.83640  102.55870   -9999.25    8.06210    8.01400    0.12020   14.03180   10.35820   10.04620    0.00210    2.76280    2.21070   -9999.25    0.04530 2092.61870 2128.73390 2126.55250    0.45250    1.99040
 4801.50000   -9999.25   -9999.25    0.22770   56.04190  105.99870   -9999.25    8.05200    8.05780    0.05100   14.16220    9.81870   10.00730    0.00220    2.56510    1.86080   -9999.25    0.06030 2114.28910 2153.54640 2114.71730    0.43210    1.98240
 4802.00000   -9999.25   -9999.25    0.29820   59.24730  109.51690   -9999.25    8.00150    8.09410    0.00950   14.83400    9.23680    9.73800    0.00220    2.36750    1.56930   -9999.25    0.07520 2134.51220 2136.74150 2113.37160    0.42930    1.89610
 4802.50000   -9999.25   -9999.25    0.35720   62.45280  110.76650   -9999.25    7.96110    8.06650    0.02550   14.42660    8.80560    9.46870    0.00230    2.16990    1.68220   -9999.25    0.10940 2121.92040 2139.42820 2114.53050   -9999.25    1.76300
 4803.00000   -9999.25   -9999.25    0.34550   64.37610  106.81640   -9999.25    7.96110    8.02300    0.02330   14.42630    8.72400    9.53370    0.00230    2.13040    1.98100   -9999.25    0.12390 2109.32500 2132.15970 2134.31250   -9999.25    1.62990
 4803.50000   -9999.25   -9999.25    0.33070   63.19600  102.86630   -9999.25    8.06210    8.02280    0.02100   15.11070    8.76420    9.74460    0.00240    2.14830    2.35160   -9999.25    0.11760 2096.72950 2124.89110 2152.25070   -9999.25    1.64810
 4804.00000   -9999.25   -9999.25    0.29980   60.44610  101.35170   -9999.25    8.16310    7.98250   -0.00160   16.52630    9.01110    9.91330    0.00240    2.23790    2.91220   -9999.25    0.10390 2084.13700 2117.62260 2135.08960   -9999.25    1.70700
 4804.50000   -9999.25   -9999.25    0.23940   58.20610  101.40080   -9999.25    8.26400    8.02920   -0.00260   17.69060    9.84080    9.92620    0.00250    2.32750    3.61690   -9999.25    0.09030 2096.78710 2110.35400 2117.92870   -9999.25    1.75410
 4805.00000   -9999.25   -9999.25    0.12770   58.12600  101.07050   -9999.25    8.31010    8.24440    0.00760   18.53000   10.07130    9.93840    0.00260    2.41940    3.60210   -9999.25    0.07660 2103.12960 2094.55030 2096.22190   -9999.25    1.75890
 4805.50000   -9999.25   -9999.25    0.03760   66.82800  110.71270   -9999.25    8.33770    8.26240    0.01960   20.04980   10.21200    9.94550    0.00260    2.51270    5.21470   -9999.25    0.10530 2114.51710 2084.82060 2119.40500   -9999.25    1.76210
 4806.00000   -9999.25   -9999.25   -0.01640   80.93070  126.44770   -9999.25    8.36520    8.35510    0.03170   25.06740   11.33110    9.95260    0.00270    2.60610    7.22730   -9999.25    0.23700 2141.47850 2115.49410 2125.03440   -9999.25    1.77570
 4806.50000   -9999.25   -9999.25    0.03410   86.49160  130.23840   -9999.25    8.39270    8.40210    0.03820   29.87630   13.77160    9.95970    0.00270    2.69950   20.96210   -9999.25    0.29080 2141.13060 2153.74370 2107.40670   -9999.25    1.78740
 4807.00000   -9999.25   -9999.25    0.09690   81.40340  115.48660   -9999.25    8.31450    8.22340    0.04660   28.65480   14.52640    9.96680    0.00280    2.73680   15.68660   -9999.25    0.25050 2122.45870 2176.87940 2089.77930   -9999.25    1.79910
 4807.50000   -9999.25   -9999.25    0.15810   82.81140  113.00610   -9999.25    8.16300    8.51610    0.03660   28.39010   14.66150    9.97400    0.00280    2.63050    7.57850   -9999.25    0.25620 2103.78690 2169.62650 2094.36470   -9999.25    1.80230
 4808.00000   -9999.25   -9999.25    0.21690   86.13100  113.82460   -9999.25    8.01150    8.28130    0.00170   32.49380   16.98420    9.98110    0.00280    2.45330    4.65280   -9999.25    0.27550 2085.11500 2150.93970 2112.50560   -9999.25    1.80550
 4808.50000   -9999.25   -9999.25    0.21050   85.89070  113.84490   -9999.25    8.02530    7.89000   -0.03320   39.64690   20.28510    9.98820    0.00270    2.37170    3.40250   -9999.25    0.28710 2066.44310 2132.25270 2128.39430   -9999.25    1.80410
 4809.00000   -9999.25   -9999.25    0.20490   84.88900  112.73790   -9999.25    8.03900    7.91010   -0.04480   37.32700   19.66660    9.99530    0.00260    2.35380    3.44250   -9999.25    0.27810 2047.77110 2113.56590 2135.27560   -9999.25    1.80230
 4809.50000   -9999.25   -9999.25    0.25890   82.51950  110.20900   -9999.25    8.08210    8.00400   -0.04820   29.30360   16.01100   10.00240    0.00250    2.33600    2.73440   -9999.25    0.26920 2064.25760 2094.87890 2121.67140   -9999.25    1.80230
 4810.00000   -9999.25   -9999.25    0.29910   78.09820  107.91000   -9999.25    8.05180    8.14140   -0.03670   21.99610   12.34760    9.90130    0.00240    2.31820    1.70830   -9999.25    0.25980 2108.04470 2076.19210 2062.60030   -9999.25    1.80230
 4810.50000   -9999.25   -9999.25    0.35540   73.67680   96.70500   -9999.25    7.98120    8.11950   -0.01610   22.20340   12.01050    9.36710    0.00230    2.14270    1.20580   -9999.25    0.20070 2147.34620 2100.48970 2080.51100   -9999.25    1.80230
 4811.00000   -9999.25   -9999.25    0.30010   67.28750   89.55060   -9999.25    7.95090    7.95090    0.01390   25.29010   13.71260    8.83290    0.00220    2.14440    1.91510   -9999.25    0.14690 2151.34570 2135.53340 2083.45240   -9999.25    1.80230
 4811.50000   -9999.25   -9999.25    0.09990   59.58620   82.19120   -9999.25    7.92060    7.87640    0.05220   29.32680   16.54150    8.41570    0.00200    2.23080    4.78680   -9999.25    0.09750 2131.95510 2163.58450 2086.39400   -9999.25    1.80230
 4812.00000   -9999.25   -9999.25    0.03230   51.88500   77.77570   -9999.25    7.89030    7.92970    0.08290   29.87510   16.70360    8.57140    0.00190    2.44420   16.97190   -9999.25    0.04820 2112.56470 2121.90500 2108.20310   -9999.25    1.80230
 4812.50000   -9999.25   -9999.25    0.04540   44.18370   77.45380   -9999.25    7.92060    7.90240    0.06920   29.59850   16.74270    8.83380    0.00180    2.65750   11.17450   -9999.25   -0.00120 2103.56400 2086.38230 2117.02690   -9999.25    1.80230
