~Version ---------------------------------------------------
VERS.   2.0 : CWLS log ASCII Standard -VERSION 2.0
WRAP.    NO : One line per depth step
DLM . SPACE : Column Data Section Delimiter
~Well ------------------------------------------------------
STRT .ft                  45.0 : START DEPTH
STOP .ft                4840.0 : STOP DEPTH
STEP .ft                   0.5 : STEP
NULL .                -9999.25 : NULL VALUE
COMP .                         : COMPANY
WELL .                         : WELL
FLD  .                         : FIELD
LOC  .                         : LOCATION
PROV .                         : PROVINCE
CNTY .                         : COUNTY
STAT .                         : STATE
CTRY .                         : COUNTRY
SRVC .                         : SERVICE COMPANY
DATE .                         : DATE
UWI  .                         : UNIQUE WELL ID
API  .                         : API NUMBER
SLAT .WGS84 1.2375648721258017 : SURFACE LATITUDE
SLON .WGS84 7.2324610566150085 : SURFACE LONGITUDE
DATUM.F                 2601.9 : DEPTH DATUM ELEV
~Curve Information -----------------------------------------
DEPT   .ft    : Depth Curve
CGRR   .GAPI  : CORRECTED GAMMA RAY FROM RESISTIVITY LOG
CGRS   .GAPI  : CORRECTED GAMMA RAY FROM SONIC LOG
DPHZ_LS.DEC   : HGRD STANDARD RESOLUTION DENSITY POROSITY
DTCO   .US/F  : DELTA-T COMPRESSIONAL
DTSM   .US/F  : DELTA-T SHEAR
GR     .GAPI  : GAMMA RAY
HCALD  .IN    : HRCC CALIPER CALIBRATED FROM DENSITY LOG
HCALR  .IN    : HRCC CALIPER CALIBRATED FROM RESISTIVITY LOG
HDRA   .G/C3  : HRDD SPINE AND RIBS DENSITY CORRECTION
HLLD   .OHMM  : HALS LATEROLOG DEEP RESISTIVITY
HLLS   .OHMM  : HALS LATEROLOG SHALLOW RESISTIVITY
PEFZ   .B/E   : HRDD STANDARD RESOLUTION FORMATION PHOTOELECTRIC FACTOR
PR     .N/A   : POISSON'S RATIO
RHOZ   .G/C3  : HRDD STANDARD RESOLUTION FORMATION DENSITY
RXOZ   .OHMM  : INVADED FORMATION RESISTIVITY FILTERED AT 18 INCHES
SGRS   .GAPI  : SPECTROSCOPY GAMMA RAY FROM SONIC LOG
SPHI_LS.DEC   : SONIC POROSITY [LIMESTONE]
TEND   .LBF   : TENSION FROM DENSITY LOG
TENR   .LBF   : TENSION FROM RESISTIVITY LOG
TENS   .LBF   : TENSION FROM SONIC LOG
TNPH_LS.DEC   : THERMAL NEUTRON POROSITY [LIMESTONE]
VPVS   .N/A   : COMPRESSIONAL TO SHEAR VELOCITY RATIO
~Params ----------------------------------------------------
~Other -----------------------------------------------------
~ASCII -----------------------------------------------------
# ...
 1485.00000   66.38950   43.53200   -0.01830   53.08160   94.22870   86.47160    9.03010    8.96980    0.03420  167.78450  395.39220    3.12540    0.27790    2.74360  362.98960   99.87920    0.03820 1020.19470 1060.78110  990.73340    0.07040    1.81940
 1485.50000   43.82380   29.11670   -0.04090   52.29840   92.80060  100.31760    9.04980    9.00990    0.03530  432.55100  719.21760    3.11400    0.28200    2.77460 1030.88020   66.68570    0.03460 1021.67980 1058.42160 1035.34770    0.06120    1.82090
 1486.00000   36.38990   17.27830   -0.06170   50.19360   89.53840  100.03830    9.12050    9.08540    0.02420  697.31760  973.74070    3.16260    0.29710    2.80560 1698.77080   42.44170    0.02480 1023.16490 1056.06210 1036.35630    0.05720    1.84170
 1486.50000   35.69490   15.74800   -0.07170   46.83830   85.59060   62.47400    9.20880    9.17260    0.01650  637.74930  843.36320    3.20960    0.29770    2.81810 1210.82920   33.61130   -0.01260 1024.65010 1053.70260 1037.36500    0.04470    1.86930
 1487.00000   34.66940   15.08410   -0.06650   45.06320   82.90490   40.31500    9.29720    9.25980    0.01220  555.49580  812.54420    3.25040    0.30430    2.82530 1047.35100   28.33600   -0.01720 1026.13530 1051.34310 1038.37380    0.03490    1.89590
 1487.50000   32.89280   12.72460   -0.07080   43.40280   82.33660   30.87990    9.38560    9.35450    0.01570  650.16390  843.20790    3.24280    0.31260    2.83740 1106.96440   23.76410   -0.02850 1027.62020 1048.98360 1039.38240    0.03230    1.93080
 1488.00000   31.72320   11.05300   -0.08120   42.94910   83.04150   25.56560    9.42540    9.38450    0.01790  969.02010 1328.52190    3.22610    0.32680    2.85130 1566.35420   21.06110   -0.03280 1029.10530 1047.58150 1071.33760    0.03070    1.96260
 1488.50000   33.09180   12.53520   -0.09210   43.62490   83.95710   21.86210    9.47620    9.48930    0.02090  780.34540 1298.48650    3.21960    0.32390    2.85980 2016.36330   22.14770   -0.02920 1030.59060 1047.62950 1042.58130    0.03100    1.96840
 1489.00000   36.79340   15.48720   -0.08510   44.36090   84.87270   20.88890    9.50950    9.49230    0.01520  450.86330  713.41270    3.23680    0.31670    2.85200 1443.84280   26.86140   -0.02410 1032.07570 1042.63790 1042.05070    0.03120    1.94880
 1489.50000   37.48160   17.18930   -0.07160   44.63390   84.92510   22.21350    9.50450    9.47660    0.00820  354.11240  710.06670    3.25400    0.31460    2.83490  455.95680   32.01080   -0.02040 1033.56080 1036.39230 1041.52000    0.03210    1.92340
 1490.00000   34.99380   15.16360   -0.06460   44.83730   84.97750   24.98930    9.49490    9.46090    0.00790  362.38520  954.77030    3.26230    0.31480    2.81560  588.64010   31.11530   -0.02090 1035.04590 1030.14660 1040.98940    0.03110    1.92580
 1490.50000   31.56280   11.44710   -0.06940   44.90740   85.02990   29.19270    9.48520    9.44520    0.00760  883.33860 1533.35470    3.22510    0.31500    2.82140  782.91310   26.03450   -0.02040 1027.15700 1023.90090 1040.45870    0.02950    1.92310
 1491.00000   28.75780    8.39450   -0.07730   44.22480   84.41860   32.93230    9.46190    9.41070    0.01240 1417.07870 1906.83410    3.19640    0.31660    2.83230  802.04050   22.04630   -0.02450 1013.01880 1017.65520 1039.92800    0.02340    1.93530
 1491.50000   28.07130    7.81790   -0.07830   43.14380   83.17880   34.20020    9.40320    9.37480    0.01670 1243.18900 1924.53060    3.17680    0.32510    2.84100  417.98410   21.15130   -0.02950  998.88060 1011.40960 1039.39750    0.02220    1.96470
 1492.00000   28.10110    7.87890   -0.07100   43.55020   82.43440   30.72110    9.36080    9.30230    0.02280  933.56010 1653.90270    3.19010    0.31270    2.83050  286.12580   22.55000   -0.03220  984.74240 1019.06040 1038.86670    0.02490    1.94410
 1492.50000   31.49890   11.87080   -0.06050   45.12720   81.93980   27.54740    9.32810    9.30380    0.02610  408.78500  703.14640    3.21630    0.27100    2.80490  309.51890   25.83970   -0.02080  970.60420 1039.94080 1038.33610    0.03030    1.90520
 1493.00000   35.84800   15.95490   -0.04400   47.28890   81.41090   25.93920    9.31010    9.30530    0.02800  102.98530  201.08080    3.21630    0.24200    2.77610   22.64760   31.94360    0.00280  975.04790 1042.95010 1037.80540    0.03570    1.73390
 1493.50000   39.64500   18.69110   -0.02510   47.92020   82.01530   27.58040    9.29220    9.29470    0.02860   53.21020   80.64800    3.21160    0.25160    2.74740    2.52370   36.58020    0.00220 1042.37260 1045.95950 1037.27470    0.05710    1.72500
 1494.00000   35.42500   15.63110   -0.02390   47.61780   83.79090   32.17990    9.23610    9.23510    0.02580   74.88320  357.99140    3.19060    0.26900    2.74720    2.57120   33.19300   -0.00030 1062.04960 1048.96880 1049.43440    0.05710    1.76990
 1494.50000   29.54120   10.74430   -0.04750   47.31550   85.21650   37.70860    9.17100    9.17560    0.02190  594.19340 1044.69360    3.19950    0.28350    2.77790 1597.96750   23.44170   -0.00350 1059.84830 1051.97810 1048.38570    0.03080    1.83370
 1495.00000   27.38650    6.83490   -0.06390   47.01320   84.14560   40.90460    9.08410    9.11610    0.02040 1113.15560 1463.46310    3.21100    0.27860    2.80870  163.21720   19.91260   -0.00600 1061.54960 1054.98740 1039.80270    0.03070    1.81430
 1495.50000   27.24990    6.91560   -0.06520   47.04410   82.85600   36.70510    9.02960    9.06840    0.01960  956.24480 1322.56230    3.22260    0.26780    2.81830  148.07460   19.48900   -0.00420 1059.45940 1057.99670 1054.04610    0.02760    1.77450
 1496.00000   27.61890    7.13680   -0.05980   47.01020   81.69420   29.60730    9.14270    9.10870    0.02400  700.07570  982.10960    3.20520    0.26240    2.81580  116.89130   19.79920   -0.00330 1051.68260 1061.00610 1068.28980    0.02810    1.75980
 1496.50000   27.34160    7.21030   -0.06050   46.47570   80.53230   24.06870    9.28410    9.22140    0.03120  717.46130 1048.21460    3.18060    0.26600    2.80370   56.18270   19.15760   -0.00780 1060.55040 1064.01540 1042.50830    0.02660    1.76660
 1497.00000   26.90120    6.36560   -0.05670   45.48980   80.32280   21.96970    9.37030    9.36440    0.03200  868.76280 1145.77620    3.16000    0.27160    2.79020   30.60730   17.30270   -0.01520 1050.45170 1067.02470 1041.34690    0.03500    1.79770
 1497.50000   26.46070    5.67160   -0.04110   45.17020   80.78670   22.74240    9.40320    9.39120    0.03200  977.49790 1226.84480    3.16280    0.28210    2.77430   20.70450   15.77870   -0.01760 1042.37260 1070.03410 1040.18550    0.03930    1.83100
 1498.00000   26.43700    6.22350   -0.02570   44.78300   81.53670   25.01520    9.37670    9.36340    0.03160  842.83870 1029.79790    3.17700    0.29790    2.75690   18.38040   15.92190   -0.01980 1052.47160 1070.72220 1039.02420    0.04810    1.85430
 1498.50000   26.91830    6.63550   -0.03010   44.69830   82.28680   28.00260    9.34970    9.29000    0.03370  793.38020  920.27680    3.16980    0.29150    2.75780   27.13550   16.29520   -0.02190 1044.05580 1070.72220 1037.86280    0.05100    1.86240
 1499.00000   27.00010    6.82120   -0.04870   44.84140   80.90080   29.27760    9.26850    9.22910    0.03640 1032.83890 1117.99280    3.15950    0.28300    2.77730   37.91350   16.14100   -0.02120 1051.02870 1070.91330 1037.14900    0.05090    1.83150
 1499.50000   26.88610    6.54430   -0.05740   45.10350   82.43140   28.53420    9.18720    9.14100    0.04000 1333.47490 1525.37960    3.15950    0.28220    2.79680  111.09970   15.75260   -0.01880 1072.66910 1070.99960 1038.22550    0.05240    1.84680
 1500.00000   28.14960    8.20870   -0.05910   44.99450   83.96200   27.25680    9.15170    9.10470    0.04430 1139.02530 1475.16020    3.15950    0.29850    2.81010   76.01770   16.71820   -0.01990 1064.76660 1076.46770 1039.30210    0.05510    1.88450
 1500.50000   29.67020    9.87310   -0.05390   44.69490   85.30660   26.34510    9.11960    9.07110    0.04970  895.97330 1117.44580    3.15950    0.31470    2.80400   32.16440   18.24020   -0.02180 1063.72530 1083.26720 1040.37850    0.05770    1.93060
