~Version ---------------------------------------------------
VERS.   2.0 : CWLS log ASCII Standard -VERSION 2.0
WRAP.    NO : One line per depth step
DLM . SPACE : Column Data Section Delimiter
~Well ------------------------------------------------------
STRT .ft                  45.0 : START DEPTH
STOP .ft                4840.0 : STOP DEPTH
STEP .ft                   0.5 : STEP
NULL .                -9999.25 : NULL VALUE
COMP .                         : COMPANY
WELL .                         : WELL
FLD  .                         : FIELD
LOC  .                         : LOCATION
PROV .                         : PROVINCE
CNTY .                         : COUNTY
STAT .                         : STATE
CTRY .                         : COUNTRY
SRVC .                         : SERVICE COMPANY
DATE .                         : DATE
UWI  .                         : UNIQUE WELL ID
API  .                         : API NUMBER
SLAT .WGS84 1.2375648721258017 : SURFACE LATITUDE
SLON .WGS84 7.2324610566150085 : SURFACE LONGITUDE
DATUM.F                 2601.9 : DEPTH DATUM ELEV
~Curve Information -----------------------------------------
DEPT   .ft    : Depth Curve
CGRR   .GAPI  : CORRECTED GAMMA RAY FROM RESISTIVITY LOG
CGRS   .GAPI  : CORRECTED GAMMA RAY FROM SONIC LOG
DPHZ_LS.DEC   : HGRD STANDARD RESOLUTION DENSITY POROSITY
DTCO   .US/F  : DELTA-T COMPRESSIONAL
DTSM   .US/F  : DELTA-T SHEAR
GR     .GAPI  : GAMMA RAY
HCALD  .IN    : HRCC CALIPER CALIBRATED FROM DENSITY LOG
HCALR  .IN    : HRCC CALIPER CALIBRATED FROM RESISTIVITY LOG
HDRA   .G/C3  : HRDD SPINE AND RIBS DENSITY CORRECTION
HLLD   .OHMM  : HALS LATEROLOG DEEP RESISTIVITY
HLLS   .OHMM  : HALS LATEROLOG SHALLOW RESISTIVITY
PEFZ   .B/E   : HRDD STANDARD RESOLUTION FORMATION PHOTOELECTRIC FACTOR
PR     .N/A   : POISSON'S RATIO
RHOZ   .G/C3  : HRDD STANDARD RESOLUTION FORMATION DENSITY
RXOZ   .OHMM  : INVADED FORMATION RESISTIVITY FILTERED AT 18 INCHES
SGRS   .GAPI  : SPECTROSCOPY GAMMA RAY FROM SONIC LOG
SPHI_LS.DEC   : SONIC POROSITY [LIMESTONE]
TEND   .LBF   : TENSION FROM DENSITY LOG
TENR   .LBF   : TENSION FROM RESISTIVITY LOG
TENS   .LBF   : TENSION FROM SONIC LOG
TNPH_LS.DEC   : THERMAL NEUTRON POROSITY [LIMESTONE]
VPVS   .N/A   : COMPRESSIONAL TO SHEAR VELOCITY RATIO
~Params ----------------------------------------------------
~Other -----------------------------------------------------
~ASCII -----------------------------------------------------
# ...
 2317.00000   19.17380    0.26390   -0.04790   47.17090   85.56260   37.48970    9.36750    9.32850    0.01210 12716.66700 5851.82230    3.54370    0.29000    2.78660 1978.76310   35.62300   -0.00300 1241.03000 1260.03200 1259.66220    0.06120    1.85280
 2317.50000   20.07070    0.82870   -0.04810   47.15420   85.56300   37.15340    9.34910    9.31790    0.01350 9030.88570 5517.56840    3.58430    0.29190    2.78640 1976.82620   39.65230   -0.00220 1235.69710 1257.41490 1261.85050    0.05750    1.83820
 2318.00000   21.69490    2.12510   -0.05920   46.96180   85.21040   36.49320    9.33070    9.30570    0.02000 6583.14450 5212.28420    3.61490    0.29450    2.80270 1974.88930   44.27430   -0.00460 1242.35970 1254.79790 1264.03870    0.05380    1.84400
 2318.50000   23.30570    3.66210   -0.07230   46.55330   84.76960   35.40640    9.31230    9.29360    0.02510 5245.72120 4840.14060    3.59580    0.29710    2.82120 1972.95230   50.40160   -0.00630 1237.31040 1252.18070 1265.92110    0.04990    1.85910
 2319.00000   24.53260    5.29780   -0.07660   46.12170   84.63000   36.22060    9.29590    9.24750    0.02320 3654.19730 4664.52780    3.57670    0.30070    2.83600 1971.01540   56.86150   -0.01200 1233.46910 1252.18070 1266.58040    0.04690    1.87860
 2319.50000   25.59390    6.52210   -0.07210   45.64250   83.91650   38.58790    9.28240    9.24380    0.02160 4365.00340 5212.66110    3.49770    0.30320    2.82930 1969.07850   60.52480   -0.01460 1231.43990 1252.18070 1266.99800    0.04250    1.88660
 2320.00000   26.71080    6.90770   -0.07030   45.31680   83.20290   45.12710    9.27370    9.25800    0.02100 8364.01760 7808.44380    3.43680    0.30390    2.82730 1967.14160   62.27570   -0.01730 1227.74510 1251.35470 1266.44820    0.03810    1.87990
 2320.50000   27.29380    7.20870   -0.07580   45.06570   83.10030   49.71770    9.25030    9.21080    0.02040 12090.83590 8217.96880    3.43040    0.29990    2.83400 1965.20460   62.79800   -0.01940 1221.55130 1251.26450 1265.89860    0.03590    1.87520
 2321.00000   27.35960    6.52470   -0.08310   44.81470   82.63470   54.54590    9.24670    9.20890    0.02050 8613.29300 5880.53660    3.46260    0.30230    2.84250 1963.26770   59.79770   -0.02160 1215.35750 1251.44930 1265.34880    0.03460    1.88290
 2321.50000   26.12210    5.16430   -0.08310   44.72440   82.53560   55.50380    9.24310    9.20700    0.02090 6318.44870 5643.90280    3.46310    0.30320    2.84980 1961.33080   55.46370   -0.02280 1220.85120 1252.73430 1264.79900    0.03380    1.88580
 2322.00000   23.30950    3.95260   -0.07480   45.13310   83.06240   54.02310    9.23040    9.18130    0.01750 6289.53270 5884.65530    3.41080    0.30050    2.83940 1959.39390   51.14620   -0.02020 1229.26680 1260.14590 1264.24930    0.03350    1.88210
 2322.50000   25.40130    4.97660   -0.06580   45.17340   83.61540   53.11030    9.21160    9.20140    0.01030 4343.21090 4667.02390    3.33090    0.30280    2.82310 1957.45690   56.11550   -0.01780 1234.31620 1272.91350 1263.69960    0.03290    1.87540
 2323.00000   30.16270   10.56600   -0.06200   45.23880   83.77370   55.02860    9.23530    9.19820    0.01220 3394.55370 4624.05810    3.31920    0.30450    2.81270 1955.52000   65.35460   -0.01640 1234.31620 1272.91350 1263.14980    0.03350    1.86420
 2323.50000   35.58560   16.15550   -0.07070   45.92000   83.91350   62.35350    9.25430    9.22040    0.01590 4634.32570 5241.03660    3.37910    0.29640    2.82860 1953.58310   73.82390   -0.01320 1234.31620 1278.98650 1262.60010    0.04020    1.85300
 2324.00000   38.71170   21.74500   -0.07990   47.43390   85.80700   72.57810    9.25620    9.21420    0.01910 5032.79490 10806.09670    3.45860    0.28660    2.84130 1951.64620   84.51900    0.00120 1241.66060 1287.29940 1262.05040    0.04320    1.83430
 2324.50000   46.98170   29.44840   -0.06550   49.64680   90.75040   79.44390    9.24690    9.20030    0.02310 2056.97000 2006.56180    3.52230    0.28590    2.82270 1088.18850  100.26490    0.01580 1250.84140 1295.61240 1261.50060    0.07250    1.82820
 2325.00000   55.34470   40.08830   -0.00450   53.13130   99.05120   86.62500    9.23750    9.18640    0.02280  828.63420  484.80860    3.51530    0.28790    2.73310  233.45920  148.57860    0.04020 1251.14750 1291.93910 1271.19620    0.10550    1.86250
 2325.50000   63.70760   47.05670    0.05540   58.52330  108.82660   95.99000    9.22400    9.16870    0.01900  229.26790  388.39010    3.45440    0.28470    2.64340  230.33890  168.42240    0.07910 1245.53700 1288.26570 1270.27810    0.13930    1.87080
 2326.00000   67.99320   48.48830    0.08230   63.91530  113.42770   99.89440    9.23810    9.17670    0.01520  179.35630  265.67890    3.42080    0.28280    2.57360  159.86850  159.75680    0.11800 1244.41490 1284.59240 1261.36730    0.15330    1.85110
 2326.50000   68.39390   48.69380    0.07760   63.87520  112.66110  118.31750    9.24950    9.19450    0.01140   80.42310  119.13060    3.45450    0.28320    2.57490   73.10100  151.19800    0.11770 1244.41490 1280.91910 1254.43840    0.15950    1.81330
 2327.00000   67.98650   41.77530    0.06050   60.44900  109.95300  122.59660    9.25690    9.21810    0.00720   46.51350   81.76850    3.54500    0.29240    2.61890   20.65590  139.00840    0.10100 1250.34970 1277.24580 1236.50840    0.15920    1.86610
 2327.50000   61.15920   30.74380    0.03660   57.10290  105.31830  124.70030    9.26230    9.18850    0.00050   75.75230  167.91830    3.62940    0.30440    2.65280   35.27200  120.27990    0.07440 1245.38090 1273.57240 1253.16460    0.11920    1.89210
 2328.00000   47.80070   19.71230    0.00640   53.75670   99.23090  123.89160    9.26760    9.22020   -0.00530 1040.08830 1654.06340    3.72870    0.29630    2.70450  870.28090  103.29820    0.04790 1236.69690 1269.89900 1256.49570    0.07110    1.87810
 2328.50000   34.44220    8.68070   -0.03080   50.41060   89.99750  109.11130    9.27560    9.23940   -0.01350 1998.19700 4794.03130    3.79210    0.29860    2.75730 1943.48690   70.51020    0.02140 1228.01290 1267.06880 1254.32130    0.03870    1.86520
 2329.00000   28.45260    4.54910   -0.05650   47.06450   85.78890  101.78390    9.30740    9.24310   -0.01350 16604.32030 16964.54300    3.84640    0.30300    2.80920 1816.54170   51.39700   -0.00520 1219.32910 1263.80320 1249.20560    0.02980    1.87960
 2329.50000   24.07910    0.76000   -0.07100   45.71080   84.75400   62.93360    9.32760    9.26910   -0.01300 20799.14060 10666.08400    3.87820    0.30100    2.83000 1708.52670   45.45750   -0.01320 1215.76530 1257.99870 1247.05000    0.02890    1.88000
 2330.00000   21.50270    0.87790   -0.06280   45.70440   84.40780   54.90660    9.35640    9.29470   -0.00990 59392.95700 12724.65140    3.75080    0.30030    2.80560 1837.57030   42.51460   -0.01350 1223.99820 1248.22330 1249.33460    0.03970    1.87150
 2330.50000   20.20380    0.80780   -0.04900   45.70900   84.03340   50.36500    9.41250    9.35210   -0.00610 59670.50000 12150.71680    3.61410    0.29710    2.78130 1964.79900   40.52760   -0.01290 1232.23110 1239.41700 1251.61910    0.04510    1.86160
 2331.00000   18.57380    0.73760   -0.03170   45.91390   83.55910   45.33220    9.48570    9.42580    0.00060 58583.38280 12322.77250    3.51860    0.29400    2.76550  783.75360   38.68020   -0.01230 1233.87760 1250.34250 1253.90380    0.04620    1.85160
 2331.50000   17.32040    0.66750   -0.04440   46.15620   83.82080   36.91860    9.55890    9.47680    0.01090 47191.51950 11986.00880    3.52870    0.29240    2.77820  723.20340   36.23480   -0.01110 1233.87760 1265.45070 1256.18840    0.04750    1.84810
 2332.00000   17.59370    0.59740   -0.05750   45.65990   83.86890   30.78670    9.63210    9.48180    0.03060 30033.62110 10371.17380    3.58330    0.29870    2.80280  534.94370   36.63870   -0.01380 1229.54960 1264.27750 1258.47300    0.05020    1.87210
 2332.50000   17.86760    0.52720   -0.06860   45.34440   83.91700   28.26330    9.66600    9.48670    0.04720 31759.08590 8826.02830    3.61430    0.30570    2.81850  238.87000   36.89720   -0.01680 1222.33590 1257.73840 1260.75760    0.05150    1.89460
