~Version ---------------------------------------------------
VERS.   2.0 : CWLS log ASCII Standard -VERSION 2.0
WRAP.    NO : One line per depth step
DLM . SPACE : Column Data Section Delimiter
~Well ------------------------------------------------------
STRT .ft                  45.0 : START DEPTH
STOP .ft                4840.0 : STOP DEPTH
STEP .ft                   0.5 : STEP
NULL .                -9999.25 : NULL VALUE
COMP .                         : COMPANY
WELL .                         : WELL
FLD  .                         : FIELD
LOC  .                         : LOCATION
PROV .                         : PROVINCE
CNTY .                         : COUNTY
STAT .                         : STATE
CTRY .                         : COUNTRY
SRVC .                         : SERVICE COMPANY
DATE .                         : DATE
UWI  .                         : UNIQUE WELL ID
API  .                         : API NUMBER
SLAT .WGS84 1.2375648721258017 : SURFACE LATITUDE
SLON .WGS84 7.2324610566150085 : SURFACE LONGITUDE
DATUM.F                 2601.9 : DEPTH DATUM ELEV
~Curve Information -----------------------------------------
DEPT   .ft    : Depth Curve
CGRR   .GAPI  : CORRECTED GAMMA RAY FROM RESISTIVITY LOG
CGRS   .GAPI  : CORRECTED GAMMA RAY FROM SONIC LOG
DPHZ_LS.DEC   : HGRD STANDARD RESOLUTION DENSITY POROSITY
DTCO   .US/F  : DELTA-T COMPRESSIONAL
DTSM   .US/F  : DELTA-T SHEAR
GR     .GAPI  : GAMMA RAY
HCALD  .IN    : HRCC CALIPER CALIBRATED FROM DENSITY LOG
HCALR  .IN    : HRCC CALIPER CALIBRATED FROM RESISTIVITY LOG
HDRA   .G/C3  : HRDD SPINE AND RIBS DENSITY CORRECTION
HLLD   .OHMM  : HALS LATEROLOG DEEP RESISTIVITY
HLLS   .OHMM  : HALS LATEROLOG SHALLOW RESISTIVITY
PEFZ   .B/E   : HRDD STANDARD RESOLUTION FORMATION PHOTOELECTRIC FACTOR
PR     .N/A   : POISSON'S RATIO
RHOZ   .G/C3  : HRDD STANDARD RESOLUTION FORMATION DENSITY
RXOZ   .OHMM  : INVADED FORMATION RESISTIVITY FILTERED AT 18 INCHES
SGRS   .GAPI  : SPECTROSCOPY GAMMA RAY FROM SONIC LOG
SPHI_LS.DEC   : SONIC POROSITY [LIMESTONE]
TEND   .LBF   : TENSION FROM DENSITY LOG
TENR   .LBF   : TENSION FROM RESISTIVITY LOG
TENS   .LBF   : TENSION FROM SONIC LOG
TNPH_LS.DEC   : THERMAL NEUTRON POROSITY [LIMESTONE]
VPVS   .N/A   : COMPRESSIONAL TO SHEAR VELOCITY RATIO
~Params ----------------------------------------------------
~Other -----------------------------------------------------
~ASCII -----------------------------------------------------
# ...
 3133.00000   20.17090    0.92060   -0.02280   47.79100   85.67140   48.41810    9.30220    9.27220    0.02660 1291.74990  945.22350    3.27120    0.28540    2.75630  380.01010   45.92070   -0.00090 1551.26040 1571.13560 1549.37370    0.07680    1.82730
 3133.50000   21.49800    1.64860   -0.01950   48.42550   87.50280   48.66600    9.31380    9.28660    0.02670  638.48620  913.61780    3.25860    0.28570    2.74710  257.28450   48.75360    0.00440 1555.14450 1571.13560 1549.37370    0.08700    1.83920
 3134.00000   22.12220    1.36970   -0.01210   48.56730   88.47640   47.43950    9.32820    9.30110    0.03000  635.54970 1103.07300    3.23680    0.28590    2.73150  267.96680   49.66790    0.00880 1561.51450 1572.05370 1541.69080    0.10180    1.84500
 3134.50000   21.17590    0.67530   -0.00380   48.99470   88.29630   45.89090    9.34260    9.31550    0.03110 1343.20100 1914.02980    3.20160    0.28620    2.71900  376.17950   46.30480    0.01040 1571.61330 1578.85860 1540.37670    0.11100    1.83560
 3135.00000   20.09640    0.00840    0.00180   48.98840   88.11620   46.71740    9.33800    9.30570    0.03300 2009.33110 3945.54220    3.16640    0.28520    2.70980  904.49640   43.44530    0.00930 1571.53130 1585.66370 1543.79130    0.11050    1.82530
 3135.50000   15.40880    0.00650   -0.00390   48.72730   87.58010   48.35230    9.33990    9.34770    0.03380 3770.39720 6086.14260    3.17300    0.28350    2.71650 1797.55320   40.20790    0.00740 1564.79880 1583.68230 1566.12080    0.10160    1.81920
 3136.00000   15.27960    0.00450   -0.00910   48.31020   87.20800   50.18060    9.34180    9.31080    0.02910 5510.11330 6878.65280    3.20100    0.28520    2.72700 1716.05440   40.36200    0.00520 1560.22140 1575.84290 1557.01290    0.09260    1.82350
 3136.50000   16.76650    0.00260   -0.00080   47.93370   86.53040   50.97340    9.34190    9.32330    0.02320 5076.26070 7063.26170    3.25370    0.28640    2.71440 1789.27230   42.87210    0.00270 1557.47500 1568.00370 1550.76310    0.08460    1.82900
 3137.00000   18.80540    0.00070    0.01240   47.65510   85.72450   46.67360    9.34060    9.33670    0.01420 2516.38210 4698.85300    3.31990    0.28720    2.68730 1431.99120   46.42310    0.00080 1557.47500 1567.22420 1544.51330    0.07840    1.83190
 3137.50000   20.13150    0.53630    0.01420   47.44440   85.18020   39.81600    9.33930    9.31500    0.01010 1593.31380 2464.21730    3.37870    0.28790    2.68880  441.88520   49.15160   -0.00010 1557.47500 1566.44490 1542.13820    0.07230    1.83480
 3138.00000   21.28380    0.97770    0.00030   47.32110   85.15740   38.17990    9.33810    9.29830    0.00650 1638.32340 2510.92360    3.35790    0.28870    2.70290  461.90190   50.08630    0.00000 1563.24570 1570.93770 1540.73180    0.05990    1.83770
 3138.50000   21.27980    1.14500   -0.01630   47.31950   85.69460   44.30660    9.33900    9.30830    0.00440 2047.09700 3123.58890    3.32520    0.28990    2.73560  690.60900   50.84990   -0.00020 1577.67250 1578.94520 1539.32540    0.05740    1.84340
 3139.00000   21.94910    3.23720   -0.02620   47.48790   86.51020   50.99820    9.33990    9.29600    0.00080 1981.58540 2200.15580    3.27010    0.29250    2.75160  837.93610   53.07730   -0.00110 1577.67250 1586.70040 1546.21900    0.06000    1.84910
 3139.50000   24.50910    6.36080   -0.02940   47.73260   87.02110   49.24090    9.33200    9.29880   -0.00190 1273.74080 1476.94380    3.24360    0.28970    2.75990  186.23640   57.51590    0.00090 1577.67250 1593.44700 1553.11250    0.06420    1.84710
 3140.00000   27.37300    9.48440   -0.02520   47.69320   86.99200   48.07600    9.32140    9.28930    0.00320  535.53450  719.11230    3.26820    0.29130    2.75480   84.87770   61.95440    0.00070 1569.32500 1593.01700 1550.30900    0.06770    1.84790
 3140.50000   30.23680   11.46080   -0.02110   47.50340   86.96290   49.04330    9.31910    9.27980    0.00900  530.59150  739.44270    3.29290    0.29480    2.74860   74.61000   62.64440    0.00000 1566.12900 1588.97890 1545.08120    0.07120    1.85370
 3141.00000   29.77820    8.88290   -0.01590   47.05100   86.93370   51.67550    9.31680    9.28300    0.01740  762.02310 1646.13900    3.32740    0.29690    2.74250  176.67940   58.89920   -0.00240 1562.93310 1584.94080 1538.39420    0.07440    1.86450
 3141.50000   27.31760    6.30440   -0.01320   46.72900   87.75410   54.99660    9.31440    9.28100    0.02010 1328.22790 2102.72270    3.40640    0.30180    2.73160  179.15760   51.58510   -0.00540 1559.73710 1585.67380 1529.51830    0.07620    1.89580
 3142.00000   24.85710    3.97150   -0.00570   46.52580   89.14080   54.46900    9.31210    9.26740    0.02320 1806.16080 2654.67040    3.54220    0.31660    2.71810   84.09650   46.63370   -0.00810 1556.54130 1589.58750 1532.93920    0.07880    1.94470
 3142.50000   23.26050    3.03110    0.00160   46.28730   89.73520   48.51330    9.30980    9.29040    0.02320 1627.52010 2608.84670    3.64590    0.32240    2.70780   77.00080   41.13560   -0.00950 1547.38060 1584.47230 1533.77190    0.08090    1.96420
 3143.00000   22.72310    2.75750    0.00170   46.12940   88.50900   38.78480    9.30260    9.27740    0.02490 1138.79540 2049.58570    3.69600    0.31960    2.71710  104.81810   38.85110   -0.01130 1551.97090 1584.47230 1531.90800    0.07410    1.94860
 3143.50000   22.83970    3.25370   -0.01160   45.99220   87.24850   32.40730    9.29230    9.26440    0.02690  932.43280 1249.20040    3.67600    0.31480    2.73930   95.76610   39.76380   -0.01230 1556.56120 1584.47230 1527.91650    0.06020    1.92400
 3144.00000   24.69180    4.53770   -0.03010   46.16390   87.31770   32.02190    9.28200    9.22320    0.02760 1151.65520 1278.53170    3.67450    0.31510    2.76140  162.68520   41.65900   -0.01050 1564.21180 1592.52930 1515.41540    0.04370    1.92740
 3144.50000   26.47000    6.31610   -0.03680   46.38500   88.84200   37.46280    9.25810    9.21260    0.02380 1628.33020 1905.51200    3.74710    0.31880    2.77200  315.32530   42.90710   -0.00870 1572.62740 1601.38760 1502.91420    0.02320    1.93770
 3145.00000   27.10390    7.16700   -0.02930   46.39560   89.65860   44.24750    9.23580    9.20330    0.01330 2056.84110 8963.79880    4.15640    0.32150    2.75700 1972.71970   43.77360   -0.00870 1577.67680 1606.70260 1505.40300    0.01710    1.95180
 3145.50000   28.09680    7.97250   -0.01920   46.24790   89.90050   46.78290    9.22350    9.18820    0.00230 10581.60250 7191.42770    4.44210    0.32420    2.74280 1981.91220   44.79760   -0.01000 1577.67680 1606.70260 1501.44730    0.00200    1.96470
 3146.00000   28.18690    7.93950   -0.01760   46.22910   90.14250   46.13810    9.22140    9.18040   -0.00670 9306.93260 5330.89310    4.66830    0.32690    2.73890 1980.53870   44.08410   -0.00920 1570.60690 1605.92470 1524.03770   -0.00450    1.97640
 3146.50000   27.31670    7.20210   -0.02170   46.08340   90.38440   44.27670    9.20910    9.17260   -0.00940 7835.74370 4858.49560    4.74380    0.32860    2.74500 1979.16520   41.46230   -0.01000 1564.69270 1597.18300 1526.17830   -0.00520    1.98470
 3147.00000   25.83750    5.72330   -0.02080   45.71160   90.42850   42.40510    9.19360    9.13820   -0.01050 7368.60940 4703.26610    4.71230    0.33210    2.75100 1977.79170   38.87180   -0.01400 1549.64760 1588.44140 1526.60640   -0.00230    1.99550
 3147.50000   24.56130    4.60420   -0.01950   45.46110   89.72330   38.92180    9.17810    9.11660   -0.00810 7368.66800 5019.95950    4.66020    0.33290    2.75430 1976.41820   37.70960   -0.01620 1554.40330 1592.73100 1526.60640    0.00030    1.99470
 3148.00000   25.15390    4.79210   -0.02670   45.13270   88.86630   36.39170    9.17710    9.15210   -0.00100 7368.73830 5535.65090    4.60810    0.32910    2.75760 1975.04470   41.01520   -0.01860 1554.77260 1597.98190 1534.01950    0.00290    1.98560
 3148.50000   26.90840    7.22150   -0.03480   44.78720   87.30690   35.50750    9.17980    9.13310   -0.00420 7034.70070 5904.05910    4.51850    0.32530    2.77270 1973.67110   49.24790   -0.02080 1557.58010 1603.23280 1543.50290    0.00720    1.97650
