~Version ---------------------------------------------------
VERS.   2.0 : CWLS log ASCII Standard -VERSION 2.0
WRAP.    NO : One line per depth step
DLM . SPACE : Column Data Section Delimiter
~Well ------------------------------------------------------
STRT .ft                  45.0 : START DEPTH
STOP .ft                4840.0 : STOP DEPTH
STEP .ft                   0.5 : STEP
NULL .                -9999.25 : NULL VALUE
COMP .                         : COMPANY
WELL .                         : WELL
FLD  .                         : FIELD
LOC  .                         : LOCATION
PROV .                         : PROVINCE
CNTY .                         : COUNTY
STAT .                         : STATE
CTRY .                         : COUNTRY
SRVC .                         : SERVICE COMPANY
DATE .                         : DATE
UWI  .                         : UNIQUE WELL ID
API  .                         : API NUMBER
SLAT .WGS84 1.2375648721258017 : SURFACE LATITUDE
SLON .WGS84 7.2324610566150085 : SURFACE LONGITUDE
DATUM.F                 2601.9 : DEPTH DATUM ELEV
~Curve Information -----------------------------------------
DEPT   .ft    : Depth Curve
CGRR   .GAPI  : CORRECTED GAMMA RAY FROM RESISTIVITY LOG
CGRS   .GAPI  : CORRECTED GAMMA RAY FROM SONIC LOG
DPHZ_LS.DEC   : HGRD STANDARD RESOLUTION DENSITY POROSITY
DTCO   .US/F  : DELTA-T COMPRESSIONAL
DTSM   .US/F  : DELTA-T SHEAR
GR     .GAPI  : GAMMA RAY
HCALD  .IN    : HRCC CALIPER CALIBRATED FROM DENSITY LOG
HCALR  .IN    : HRCC CALIPER CALIBRATED FROM RESISTIVITY LOG
HDRA   .G/C3  : HRDD SPINE AND RIBS DENSITY CORRECTION
HLLD   .OHMM  : HALS LATEROLOG DEEP RESISTIVITY
HLLS   .OHMM  : HALS LATEROLOG SHALLOW RESISTIVITY
PEFZ   .B/E   : HRDD STANDARD RESOLUTION FORMATION PHOTOELECTRIC FACTOR
PR     .N/A   : POISSON'S RATIO
RHOZ   .G/C3  : HRDD STANDARD RESOLUTION FORMATION DENSITY
RXOZ   .OHMM  : INVADED FORMATION RESISTIVITY FILTERED AT 18 INCHES
SGRS   .GAPI  : SPECTROSCOPY GAMMA RAY FROM SONIC LOG
SPHI_LS.DEC   : SONIC POROSITY [LIMESTONE]
TEND   .LBF   : TENSION FROM DENSITY LOG
TENR   .LBF   : TENSION FROM RESISTIVITY LOG
TENS   .LBF   : TENSION FROM SONIC LOG
TNPH_LS.DEC   : THERMAL NEUTRON POROSITY [LIMESTONE]
VPVS   .N/A   : COMPRESSIONAL TO SHEAR VELOCITY RATIO
~Params ----------------------------------------------------
~Other -----------------------------------------------------
~ASCII -----------------------------------------------------
# ...
  925.00000   24.62640    3.87240   -0.13470   55.12100  102.80590   25.02890   10.64230   10.64080   -0.01400   50.52860   43.76170    4.74270    0.30400    2.94030   57.00400   10.36520    0.05530  867.43050  829.74910  939.64140    0.01400    1.88380
  925.50000   25.55500    4.40300   -0.12150   54.94870  102.45420   28.25400   10.62160   10.63660   -0.00720   83.73830   90.44360    4.67180    0.30450    2.93340  104.15970   11.88600    0.05320  868.39970  835.63630  941.65100    0.01610    1.88510
  926.00000   25.68510    4.70460   -0.10580   54.60170  101.98050   34.36750   10.62760   10.63240    0.00030  116.94810  136.92190    4.66350    0.30580    2.91830   47.12440   12.02400    0.05050  869.36890  844.13700  943.66070    0.01690    1.88730
  926.50000   26.27160    5.81300   -0.10020   54.51970  103.06000   35.02440   10.62400   10.62820    0.00780   95.87970  140.11230    4.69650    0.30710    2.89980   62.23630   12.16210    0.05110  877.80820  850.61060  945.67030    0.02180    1.90180
  927.00000   27.27860    6.75610   -0.09570   54.80950  105.86290   32.08100   10.61080   10.62110    0.01590   63.47130   81.05670    4.74910    0.31700    2.88450   30.46960   13.49720    0.05430  880.26280  848.97570  947.67990    0.02890    1.93340
  927.50000   29.01230    8.54130   -0.09980   54.99690  108.42400   26.97610   10.60540   10.60420    0.02270   44.35830   59.95730    4.81160    0.32360    2.87050   28.42050   15.62800    0.06130  875.09070  847.34080  947.22770    0.03660    1.95540
  928.00000   31.73310   11.19450   -0.11120   56.26190  108.30320   25.92000   10.58620   10.57050    0.03320   40.05120   52.12230    4.82470    0.31350    2.87020   32.01570   19.68340    0.07080  859.70590  840.58230  945.13440    0.04100    1.91960
  928.50000   34.51520   13.48040   -0.12400   57.74200  107.10350   27.84010   10.53980   10.52740    0.03190   39.67830   50.26270    4.83790    0.30050    2.88420   41.86880   22.97950    0.07640  864.70790  833.82370  943.04100    0.03330    1.89550
  929.00000   33.35680   13.68990   -0.13240   58.17730  105.54900   30.15450   10.47420   10.45200    0.02840   44.23540   51.43680    4.88070    0.29260    2.90400   53.38030   22.24970    0.07960  853.76940  831.12030  940.94770    0.02090    1.84210
  929.50000   30.79690   10.94040   -0.12030   57.69880  103.74590   32.51380   10.40850   10.37950    0.02490   50.95720   78.98490    4.93080    0.29010    2.92060  240.80560   19.37450    0.08050  837.57150  831.12030  938.85430    0.01230    1.83180
  930.00000   28.00320    8.19090   -0.10760   56.62230  101.56980   33.03270   10.38840   10.32260    0.02150   87.88510  108.46160    4.98100    0.28880    2.91420  583.24210   15.65730    0.06560  821.37360  831.12030  917.04600    0.00440    1.83070
  930.50000   26.90150    6.84250   -0.11160   55.17820   99.50710   32.06500   10.35820   10.26940    0.01450  123.61810  141.95400    5.03120    0.29250    2.90210  542.06680   13.12060    0.05880  805.17570  831.12030  890.30900   -0.00070    1.84680
  931.00000   26.90850    6.82400   -0.12030   53.73410   97.25410   31.03090   10.33180   10.27340   -0.00080  186.95830  273.37240    5.08140    0.30160    2.89060  938.76800   12.39610    0.04470  797.66490  831.12030  886.18530   -0.00130    1.87900
  931.50000   26.89840    6.67170   -0.12440   52.29000   98.08560   30.04890   10.31940   10.25850   -0.00170  288.30150  316.79300    5.07140    0.30970    2.88670 1490.88830   11.88690    0.03220  797.32640  831.12030  886.18530   -0.00130    1.91920
  932.00000   26.88830    6.60620   -0.12240   51.05460   97.67700   28.79240   10.31640   10.24360   -0.00990  259.23520  282.26500    5.03630    0.31930    2.90050 1952.16220   11.90200    0.02380  796.98790  831.12030  891.20940   -0.00160    1.94240
  932.50000   26.97210    6.61470   -0.12490   50.58220   97.09030   25.92670   10.31350   10.22860    0.00360  230.16900  239.07960    5.03130    0.31820    2.91030 1926.12150   12.11760    0.02200  791.37520  831.12030  889.53460   -0.00180    1.93720
  933.00000   26.53290    6.02670   -0.13630   50.56240   96.94190   23.90480   10.31060   10.24390    0.00430  206.93290  221.84260    5.04130    0.31740    2.91600  440.44220   11.37940    0.02150  794.86940  831.12030  878.36980   -0.00430    1.93660
  933.50000   25.54820    5.43860   -0.14190   50.51690   96.90330   25.21930   10.31030   10.25250    0.01270  216.82690  254.80330    5.07140    0.31790    2.92450  196.69240    9.84150    0.02090  799.45200  842.19380  877.39040   -0.00980    1.93590
  934.00000   24.86130    4.60850   -0.14200   50.58300   96.37890   24.52530   10.32320   10.26700    0.00260  253.94270  351.94690    5.23040    0.31660    2.93290  203.24020    8.58680    0.02030  808.38770  856.05140  878.95740   -0.01370    1.93030
  934.50000   24.20410    4.07480   -0.14480   50.53870   96.01580   22.39600   10.33700   10.27190   -0.00850  366.86070  518.96670    5.47470    0.31590    2.94140 1376.62100    6.77030    0.01980  806.64060  869.90900  886.36990   -0.01700    1.92800
  935.00000   23.45010    3.36430   -0.15410   50.24470   95.65280   19.83840   10.33830   10.26230   -0.01120  495.99290  662.04500    5.59420    0.31530    2.94970 1986.01390    5.23140    0.01910  807.58540  864.40010  887.29260   -0.01910    1.92690
  935.50000   22.98830    2.96020   -0.16170   50.10360   95.42340   18.62770   10.33600   10.25260   -0.01410  625.12520  787.82190    5.66970    0.31410    2.95860 1756.10750    4.42120    0.01880  803.26960  863.38790  888.21540   -0.01990    1.92270
  936.00000   22.41000    2.43010   -0.15690   50.11650   96.06390   19.08280   10.33370   10.25010   -0.01330  729.31120  850.07420    5.62620    0.31890    2.97080  886.34410    4.11740    0.01820  798.95380  859.70590  891.86260   -0.02060    1.94170
  936.50000   22.16760    2.06410   -0.15110   50.18350   96.91840   21.10070   10.33140   10.26830   -0.00840  726.27040  600.71600    5.54040    0.32360    2.96880  882.67140    3.63320    0.01890  794.63790  852.01940  893.35380   -0.02100    1.95820
  937.00000   22.46590    2.01670   -0.15660   50.25050   96.90100   23.10920   10.32910   10.26890   -0.00570  736.73870  539.78580    5.43030    0.32120    2.95950 1377.76480    3.93040    0.01990  789.97740  844.33280  890.47420   -0.02160    1.95160
  937.50000   22.76410    2.42470   -0.16370   50.29540   96.59080   25.19930   10.33240   10.27200   -0.00800  754.39790  716.84200    5.33750    0.31830    2.96610 2042.90560    4.39390    0.02020  789.97740  842.79550  895.27360   -0.02140    1.94250
  938.00000   23.08490    2.85190   -0.16310   50.73570   97.15990   24.10610   10.33560   10.25590   -0.01040  747.74150  554.21370    5.22830    0.31530    2.97500 2010.93850    4.38590    0.02250  789.97740  842.79550  901.67330   -0.01770    1.93420
  938.50000   23.42070    3.50480   -0.15410   51.22150   97.74930   20.24300   10.32760   10.23970   -0.00630  141.66040  163.76460    5.10860    0.31410    2.97670  280.92260    4.22020    0.02670  797.55150  847.69160  938.95840   -0.01360    1.91740
  939.00000   24.04090    4.29360   -0.13960   51.56340   97.31050   16.76210   10.31960   10.25480    0.00050  125.69670  162.28940    4.86020    0.30900    2.96050  262.35280    5.02410    0.03040  810.17490  855.54560  874.70750   -0.00940    1.90060
  939.50000   25.79820    5.08240   -0.11590   52.05600   96.66390   17.56400   10.31160   10.23500    0.02430  144.01760  193.29390    4.55190    0.30190    2.94120  251.24050   10.89670    0.03530  799.80230  863.39950  879.55660   -0.00320    1.87700
  940.00000   26.78300    5.87110   -0.10630   52.63860   95.84740   22.55660   10.30360   10.24360    0.03580  211.69690  490.94180    4.36790    0.30130    2.89350 1633.69300   14.18810    0.03590  747.93950  862.43080  884.40570    0.01400    1.85680
  940.50000   26.31480    6.35030   -0.10010   51.68340   95.03080   27.89250   10.28370   10.24740    0.04350 1250.28210 1145.83580    4.18390    0.30310    2.82700 1996.48380   14.34880    0.03110  806.07720  861.46210  889.25490    0.03130    1.87470
