~Version ---------------------------------------------------
VERS.   2.0 : CWLS log ASCII Standard -VERSION 2.0
WRAP.    NO : One line per depth step
DLM . SPACE : Column Data Section Delimiter
~Well ------------------------------------------------------
STRT .ft                  45.0 : START DEPTH
STOP .ft                4840.0 : STOP DEPTH
STEP .ft                   0.5 : STEP
NULL .                -9999.25 : NULL VALUE
COMP .                         : COMPANY
WELL .                         : WELL
FLD  .                         : FIELD
LOC  .                         : LOCATION
PROV .                         : PROVINCE
CNTY .                         : COUNTY
STAT .                         : STATE
CTRY .                         : COUNTRY
SRVC .                         : SERVICE COMPANY
DATE .                         : DATE
UWI  .                         : UNIQUE WELL ID
API  .                         : API NUMBER
SLAT .WGS84 1.2375648721258017 : SURFACE LATITUDE
SLON .WGS84 7.2324610566150085 : SURFACE LONGITUDE
DATUM.F                 2601.9 : DEPTH DATUM ELEV
~Curve Information -----------------------------------------
DEPT   .ft    : Depth Curve
CGRR   .GAPI  : CORRECTED GAMMA RAY FROM RESISTIVITY LOG
CGRS   .GAPI  : CORRECTED GAMMA RAY FROM SONIC LOG
DPHZ_LS.DEC   : HGRD STANDARD RESOLUTION DENSITY POROSITY
DTCO   .US/F  : DELTA-T COMPRESSIONAL
DTSM   .US/F  : DELTA-T SHEAR
GR     .GAPI  : GAMMA RAY
HCALD  .IN    : HRCC CALIPER CALIBRATED FROM DENSITY LOG
HCALR  .IN    : HRCC CALIPER CALIBRATED FROM RESISTIVITY LOG
HDRA   .G/C3  : HRDD SPINE AND RIBS DENSITY CORRECTION
HLLD   .OHMM  : HALS LATEROLOG DEEP RESISTIVITY
HLLS   .OHMM  : HALS LATEROLOG SHALLOW RESISTIVITY
PEFZ   .B/E   : HRDD STANDARD RESOLUTION FORMATION PHOTOELECTRIC FACTOR
PR     .N/A   : POISSON'S RATIO
RHOZ   .G/C3  : HRDD STANDARD RESOLUTION FORMATION DENSITY
RXOZ   .OHMM  : INVADED FORMATION RESISTIVITY FILTERED AT 18 INCHES
SGRS   .GAPI  : SPECTROSCOPY GAMMA RAY FROM SONIC LOG
SPHI_LS.DEC   : SONIC POROSITY [LIMESTONE]
TEND   .LBF   : TENSION FROM DENSITY LOG
TENR   .LBF   : TENSION FROM RESISTIVITY LOG
TENS   .LBF   : TENSION FROM SONIC LOG
TNPH_LS.DEC   : THERMAL NEUTRON POROSITY [LIMESTONE]
VPVS   .N/A   : COMPRESSIONAL TO SHEAR VELOCITY RATIO
~Params ----------------------------------------------------
~Other -----------------------------------------------------
~ASCII -----------------------------------------------------
# ...
  653.00000   21.30750    0.59650   -0.06310   61.02650  124.12670   34.67520    9.55960    9.57250    0.03730    0.20670    5.89140    5.16650    0.33780    2.71730    6.84450   37.91800    0.09980  782.22620  763.17870  764.38760    0.29950    2.02360
  653.50000   21.30480    1.71620   -0.00310   59.48880  119.88950   38.35490    9.65300    9.68910    0.01820    4.17170   10.06220    4.34130    0.33980    2.72550    6.94880   43.00000    0.08900  778.03230  756.94700  746.53860    0.17020    2.01680
  654.00000   22.81880    3.04670   -0.00230   59.64810  118.90080   43.44940    9.74650    9.75250    0.01680    9.12800   17.97200    3.73500    0.33490    2.75990    6.96240   47.64490    0.08690  781.74050  754.73290  745.66270    0.13640    2.01000
  654.50000   23.62980    3.35300   -0.02980   60.16230  118.95470   49.56030    9.82120    9.80840    0.01680   15.99170   33.90750    3.27470    0.32850    2.79430    7.81620   44.76380    0.09940  769.30550  758.38510  748.73240    0.10250    1.98660
  655.00000   22.87510    2.68310   -0.06430   61.04850  118.12700   51.70820    9.85890    9.85700    0.02370   23.21490   49.84300    2.81450    0.32760    2.88350   26.12530   39.05210    0.09640  765.06000  762.03720  768.02340    0.08180    1.97580
  655.50000   22.58690    3.03750   -0.09870   59.33440  117.56810   48.01580    9.89570    9.88600    0.03210   27.61050   56.20890    2.61050    0.33300    2.90100   30.42220   34.20120    0.07470  766.27430  765.68940  779.28690    0.06880    1.99560
  656.00000   23.89520    4.36670   -0.11740   51.96930  104.13010   42.03800    9.93250    9.88600    0.03820   22.87260   49.05260    2.74780    0.33750    2.91860   40.74260   35.64990    0.04100  762.27710  769.34150  783.44510    0.06770    2.02460
  656.50000   25.36280    5.37290   -0.12660   47.61800   95.62020   38.71170    9.91340    9.88600    0.03840   30.50880   44.55040    3.25480    0.33890    2.92660   57.42440   36.42900    0.00730  771.56650  772.99370  783.93530    0.06300    2.02610
  657.00000   25.88670    5.89470   -0.12780   47.25840   94.09220   39.58560    9.91500    9.88480    0.02960  114.01420   61.67330    3.80160    0.33960    2.93460  102.77620   35.48030   -0.00080  781.80900  780.32250  773.94010    0.04350    2.00360
  657.50000   24.12860    4.36440   -0.13620   47.85140   94.29520   39.99720    9.91670    9.91140    0.01910  241.71470  116.91690    4.36510    0.33900    2.94260  176.64080   29.18690    0.00030  784.74790  787.65130  773.94010    0.02390    1.97990
  658.00000   22.27950    1.31760   -0.14620   51.33550   94.49820   36.86830    9.90390    9.92470    0.01070  369.41520  275.11050    4.65800    0.31230    2.94620 1387.03580   19.55060    0.02040  779.83130  791.09640  773.94010    0.00430    1.90000
  658.50000   20.31010    0.69880   -0.14490   53.49370   94.81180   30.21390    9.96320    9.92410   -0.00310  376.07030  307.49170    5.07210    0.27470    2.94360 1980.92100   11.49410    0.03970  786.71450  791.95240  773.94010   -0.00390    1.82080
  659.00000   20.72780    0.72640   -0.14360   53.10330   95.76190   25.54300    9.97140    9.93720   -0.01890  281.78380  153.10970    5.29540    0.27300    2.93290  898.67570   10.25190    0.04410  769.88340  791.18500  773.94010   -0.00190    1.81660
  659.50000   22.57420    2.25950   -0.14220   53.39970   98.51130   24.41170    9.98100    9.99040   -0.01730  187.49730   71.81200    5.30560    0.28890    2.89900  295.08130   13.35400    0.04300  757.68170  783.92420  773.94010    0.01300    1.86580
  660.00000   24.75600    5.35530   -0.13300   54.29120  102.06100   24.69220   10.03640   10.03250   -0.01070   93.21070   45.46800    5.17160    0.29840    2.86980  187.73190   16.58270    0.05280  763.99790  776.66340  773.94010    0.02790    1.85350
  660.50000   26.93770    6.32610   -0.11380   57.19140  104.49460   25.65020   10.09190   10.07480   -0.00400   29.17560   30.37890    4.93670    0.28490    2.84590   28.36730   18.14180    0.06930  770.31410  782.83510  773.94010    0.04280    1.83290
  661.00000   28.62590    7.72900   -0.10220   58.54700  105.35500   26.56190   10.12620   10.11700    0.00050   22.05540   25.54430    4.76300    0.27580    2.83760   18.65520   19.66800    0.08210  784.15660  792.36490  773.94010    0.05550    1.80340
  661.50000   30.00160    9.23250   -0.07590   59.69990  106.66570   27.19570   10.18930   10.15930    0.01120   18.50570   21.48480    4.68120    0.26980    2.82960   17.45500   21.39180    0.09380  777.84490  798.08280  785.75810    0.06670    1.78600
  662.00000   31.68460   10.73590   -0.07400   60.58540  107.39220   28.67100   10.23030   10.19490    0.01230   17.66380   18.30680    4.63440    0.27300    2.81930   17.31250   23.23630    0.09550  774.05790  798.08280  794.13170    0.07790    1.79090
  662.50000   34.01770   13.11600   -0.06470   60.33410  107.04140   30.91150   10.26670   10.23570    0.01020   15.96280   19.33680    4.57870    0.27520    2.80750   11.98110   25.97670    0.09480  774.05790  796.69320  792.61350    0.08890    1.80790
  663.00000   36.91230   15.71530   -0.05390   59.70990  106.69070   33.17870   10.34400   10.28980    0.00840   14.53100   21.03640    4.48630    0.27640    2.78960   10.66690   28.71710    0.08850  774.05790  782.74260  788.62240    0.09940    1.80200
  663.50000   38.96310   17.65690   -0.04310   59.54950  106.82890   35.67920   10.41040   10.42480    0.00720   12.83550   19.71020    4.35640    0.27490    2.77160   12.03360   31.11120    0.08910  770.20870  768.79190  784.63130    0.10990    1.79600
  664.00000   40.47860   19.36190   -0.03320   60.43700  108.19530   38.37680   10.50720   10.55990    0.00750   11.13360   17.33930    4.22420    0.27030    2.75270    9.43600   33.44670    0.09350  765.39710  769.22390  780.64020    0.12040    1.78620
  664.50000   41.20910   20.79370   -0.02330   61.68640  109.40640   39.57200   10.58600   10.66790    0.03050   10.39870   15.55100    4.12040    0.26640    2.70830    7.19040   34.97100    0.10560  759.19760  773.25160  786.05670    0.13090    1.77640
  665.00000   41.19530   21.24690   -0.00810   61.38870  106.86970   38.32870   10.68070   10.66810    0.06010    9.74340   14.30240    4.25100    0.26720    2.63610    5.90350   35.62100    0.10670  747.44610  771.25480  791.47320    0.14230    1.77990
  665.50000   40.63800   20.76110    0.02550   58.95420  101.70510   37.12310   10.75400   10.70230    0.09590    7.14030    9.99170    4.38170    0.26700    2.54280    3.81550   35.11200    0.09020  735.69450  758.97570  794.53480    0.15710    1.77130
  666.00000   38.65050   19.59470    0.07850   55.11370   96.96050   38.89530   10.79520   10.76320    0.12570    5.76550    7.84530    4.46970    0.26900    2.51610    1.48060   32.64460    0.05320  739.72810  746.69660  788.17720    0.15990    1.77330
  666.50000   36.07270   17.79980    0.12150   53.22180   93.44890   41.78420   10.73610   11.47520    0.11960    8.12150   10.95590    4.53200    0.27960    2.63310    0.53160   27.34060    0.04010  743.76170  752.07100  781.81960    0.14900    1.82880
  667.00000   32.23070   13.70900    0.05840   51.73820   95.88880   43.14540   10.60160   10.74050    0.11260   16.92560   26.82100    4.45460    0.29810    2.78030    0.56990   20.57810    0.03120  748.55810  769.21450  764.27550    0.10120    1.86900
  667.50000   29.22980    9.61830   -0.09190   52.06800   95.96800   37.46260   10.50060   10.42740    0.09910   35.22810   50.03860    4.50870    0.29470    2.92860    3.02950   13.40430    0.03260  753.35440  778.83060  758.77480    0.05340    1.85510
  668.00000   26.88430    6.76020   -0.09800   52.96380   96.86600   32.17500   10.47270   10.42780    0.07270   65.12450  107.75670    4.73890    0.28910    2.96200   34.95070   10.38560    0.03870  758.15080  783.42830  763.43440    0.00560    1.82260
  668.50000   26.16790    5.75120   -0.15480   53.73500   98.37370   28.35760   10.44700   10.42820    0.02300  110.76630  111.52270    5.14230    0.29280    2.96070  117.02980    8.11910    0.04570  762.94720  788.02610  771.04540    0.00840    1.84850
