~Version ---------------------------------------------------
VERS.   2.0 : CWLS log ASCII Standard -VERSION 2.0
WRAP.    NO : One line per depth step
DLM . SPACE : Column Data Section Delimiter
~Well ------------------------------------------------------
STRT .ft                  45.0 : START DEPTH
STOP .ft                4840.0 : STOP DEPTH
STEP .ft                   0.5 : STEP
NULL .                -9999.25 : NULL VALUE
COMP .                         : COMPANY
WELL .                         : WELL
FLD  .                         : FIELD
LOC  .                         : LOCATION
PROV .                         : PROVINCE
CNTY .                         : COUNTY
STAT .                         : STATE
CTRY .                         : COUNTRY
SRVC .                         : SERVICE COMPANY
DATE .                         : DATE
UWI  .                         : UNIQUE WELL ID
API  .                         : API NUMBER
SLAT .WGS84 1.2375648721258017 : SURFACE LATITUDE
SLON .WGS84 7.2324610566150085 : SURFACE LONGITUDE
DATUM.F                 2601.9 : DEPTH DATUM ELEV
~Curve Information -----------------------------------------
DEPT   .ft    : Depth Curve
CGRR   .GAPI  : CORRECTED GAMMA RAY FROM RESISTIVITY LOG
CGRS   .GAPI  : CORRECTED GAMMA RAY FROM SONIC LOG
DPHZ_LS.DEC   : HGRD STANDARD RESOLUTION DENSITY POROSITY
DTCO   .US/F  : DELTA-T COMPRESSIONAL
DTSM   .US/F  : DELTA-T SHEAR
GR     .GAPI  : GAMMA RAY
HCALD  .IN    : HRCC CALIPER CALIBRATED FROM DENSITY LOG
HCALR  .IN    : HRCC CALIPER CALIBRATED FROM RESISTIVITY LOG
HDRA   .G/C3  : HRDD SPINE AND RIBS DENSITY CORRECTION
HLLD   .OHMM  : HALS LATEROLOG DEEP RESISTIVITY
HLLS   .OHMM  : HALS LATEROLOG SHALLOW RESISTIVITY
PEFZ   .B/E   : HRDD STANDARD RESOLUTION FORMATION PHOTOELECTRIC FACTOR
PR     .N/A   : POISSON'S RATIO
RHOZ   .G/C3  : HRDD STANDARD RESOLUTION FORMATION DENSITY
RXOZ   .OHMM  : INVADED FORMATION RESISTIVITY FILTERED AT 18 INCHES
SGRS   .GAPI  : SPECTROSCOPY GAMMA RAY FROM SONIC LOG
SPHI_LS.DEC   : SONIC POROSITY [LIMESTONE]
TEND   .LBF   : TENSION FROM DENSITY LOG
TENR   .LBF   : TENSION FROM RESISTIVITY LOG
TENS   .LBF   : TENSION FROM SONIC LOG
TNPH_LS.DEC   : THERMAL NEUTRON POROSITY [LIMESTONE]
VPVS   .N/A   : COMPRESSIONAL TO SHEAR VELOCITY RATIO
~Params ----------------------------------------------------
~Other -----------------------------------------------------
~ASCII -----------------------------------------------------
# ...
 4525.00000   34.92140   14.17170   -0.04560   50.81790   91.99130   36.46100    8.16950    8.12900    0.03030  129.40290  117.75530    3.58750    0.28110    2.79480  119.06980   29.84340    0.02470 2049.90190 2105.55860 2027.47110    0.06730    1.81400
 4525.50000   32.82300   12.33610   -0.06010   49.70520   90.10740   31.17330    8.18110    8.12980    0.02120  186.60970  159.74320    3.58750    0.28770    2.81010  174.88060   34.01780    0.01490 2051.33080 2110.24830 2023.90910    0.04420    1.83650
 4526.00000   32.47370   12.36350   -0.05920   49.76550   90.93860   32.15630    8.18020    8.12980    0.00480  181.52990  182.37900    3.60090    0.29430    2.80890  160.05840   44.00240    0.01740 2052.76000 2114.93800 2020.34690    0.04130    1.85290
 4526.50000   35.85600   17.45680   -0.05290   51.40440   93.26920   38.64520    8.17920    8.12980    0.00320  166.11270  204.20660    3.60190    0.29660    2.79290  149.31350   53.00420    0.02890 2054.18920 2115.72750 2007.07420    0.04900    1.85790
 4527.00000   41.26560   22.35680   -0.04690   53.11590   95.66770   45.56590    8.17830    8.13180    0.00960  163.02930  192.22560    3.59370    0.29710    2.76630  154.92210   62.65550    0.04110 2055.61820 2105.47780 2026.33330    0.06750    1.85080
 4527.50000   42.62820   21.76160   -0.03710   53.83520   98.06630   53.13430    8.17740    8.11910    0.01490  102.81830   78.91160    3.58550    0.29510    2.74740   56.63910   55.31390    0.04550 2045.51890 2095.21220 2041.74060    0.09630    1.84890
 4528.00000   37.81540   15.42170   -0.01620   53.52040   99.50430   52.31530    8.17640    8.11790    0.01960   42.60730   50.16420    3.57610    0.28680    2.72240   38.89810   43.12550    0.04390 2035.42020 2084.92990 2031.69230    0.12510    1.84200
 4528.50000   31.97600   10.09850    0.00740   52.67130   94.91720   43.24170    8.17550    8.11630    0.01810   27.72490   38.62600    3.56180    0.27960    2.69740   39.53920   32.78210    0.03900 2035.42020 2064.56270 2021.64400    0.10160    1.83520
 4529.00000   29.93870    9.74680    0.01340   51.64030   92.53670   33.42760    8.17460    8.11470    0.01330   35.77650   62.49520    3.54140    0.28470    2.69300   45.99670   31.00150    0.02830 2035.42020 2054.31370 2011.59570    0.07250    1.82830
 4529.50000   33.06220   13.42000   -0.00190   50.47520   92.53670   34.79290    8.17360    8.11310    0.00890   74.76990  100.46700    3.50090    0.29400    2.72070  133.56730   36.08690    0.02040 2038.41050 2055.17360 2001.54740    0.06080    1.83540
 4530.00000   36.89060   17.38370   -0.02590   50.30490   92.77200   41.28830    8.17270    8.11150    0.00340  113.76320  138.43870    3.52490    0.29770    2.75440  323.35390   41.41430    0.02040 2042.14830 2057.56980 2016.12980    0.05360    1.86000
 4530.50000   37.65620   16.78390   -0.03620   50.34420   92.74210   47.49560    8.17180    8.10990    0.00100  138.44010  149.46790    3.55210    0.29370    2.77600  150.48740   41.57260    0.02060 2045.88610 2059.96610 2030.71220    0.05220    1.86050
 4531.00000   35.36650   12.41370   -0.04030   50.15320   91.71760   48.17990    8.16890    8.10830    0.00040   93.36120  144.70530    3.60680    0.29380    2.77970  140.12980   37.35780    0.01880 2049.62380 2062.36230 2039.19060    0.05380    1.84190
 4531.50000   28.56230    8.04360   -0.04210   49.48720   90.87110   43.53310    8.16470    8.10670    0.00100   87.90870  136.88600    3.63090    0.29400    2.77900  131.57760   33.14300    0.01210 2053.36180 2064.75850 2025.92680    0.06260    1.84230
 4532.00000   26.93780    6.93210   -0.03900   47.94410   89.68370   35.12440    8.16050    8.10510    0.00380  156.97290  179.12600    3.66160    0.29420    2.77120  351.57270   31.54900    0.00550 2057.09940 2067.15480 2012.66310    0.05800    1.85130
 4532.50000   27.45730    7.24310   -0.03380   47.52880   87.64350   32.57230    8.15080    8.10350    0.00360  200.65340  170.23360    3.68600    0.29420    2.76220  217.10580   32.68390    0.00100 2060.83720 2069.55080 2005.11520    0.04730    1.85780
 4533.00000   27.81080    7.55880   -0.02860   48.37980   89.51230   32.22680    8.14870    8.10220   -0.00230  244.42860  180.82050    3.71040    0.29430    2.76110  243.79710   36.06400    0.00510 2064.57500 2071.94730 2020.43090    0.04120    1.86100
 4533.50000   28.36290    7.87450   -0.03450   50.20870   91.38110   34.68850    8.14650    8.10220   -0.00460  330.04120  292.95240    3.72100    0.29440    2.77850  634.99030   43.66570    0.01470 2068.31270 2074.34350 2032.41240    0.03750    1.86430
 4534.00000   30.75710    8.19020   -0.04250   50.54990   92.76450   40.68800    8.14440    8.10220    0.00400  400.38510  347.65320    3.68790    0.29610    2.78390  922.19970   55.77520    0.02120 2072.05050 2076.73950 2026.87020    0.04510    1.86750
 4534.50000   34.80670   13.18330   -0.04220   50.46090   93.70370   53.59500    8.14230    8.10210    0.01190  291.58850  231.65930    3.65230    0.29750    2.76780  109.36170   68.59180    0.02160 2075.78830 2077.25710 2021.32800    0.06630    1.87620
 4535.00000   35.01710   14.98720   -0.02880   50.57140   94.14560   60.13340    8.14100    8.10210    0.01760   33.38820   92.66310    3.58680    0.29980    2.74760   37.68540   62.26900    0.02200 2079.52610 2078.67970 2015.78560    0.08940    1.88750
 4535.50000   31.54090   12.99730   -0.01170   50.61150   93.64810   54.11410    8.12500    8.10210    0.02110   50.99430   36.72500    3.54630    0.29670    2.72740   32.47550   49.52120    0.02300 2083.26390 2082.17330 2010.24350    0.09860    1.86620
 4536.00000   28.93510    9.63570   -0.00680   50.12740   91.88230   44.02250    8.12550    8.10170    0.01940  136.67240  195.99130    3.50280    0.29030    2.72250   76.66210   36.80050    0.01580 2087.00170 2085.66700 2010.56240    0.09070    1.83870
 4536.50000   29.13100    8.96480   -0.01340   49.44300   90.06900   39.46230    8.12600    8.10110    0.01580  222.35050  355.25770    3.48610    0.29320    2.73660  135.39260   33.36610    0.01230 2090.73950 2089.16040 2011.91760    0.07800    1.84810
 4537.00000   31.19720   10.47890   -0.02290   48.75870   90.39230   39.78990    8.12640    8.10060    0.01220  290.89660  450.82650    3.48500    0.29980    2.74990  127.27590   35.58530    0.00920 2080.27780 2092.65410 2007.67070    0.06520    1.87500
 4537.50000   33.02310   13.01270   -0.02360   49.87290   90.73520   43.92670    8.12690    8.10010    0.00570  275.17570  358.37540    3.46700    0.30240    2.74640   73.44940   42.02830    0.01530 2039.47910 2096.14770 2003.42370    0.06440    1.87900
 4538.00000   37.93080   17.63390   -0.01250   51.52730   92.12470   50.97100    8.12740    8.09960    0.00250  194.18920  207.75270    3.43760    0.29790    2.72520   57.63390   53.04370    0.03550 2040.73470 2099.64110 1999.17680    0.07640    1.86180
 4538.50000   42.83860   22.25510    0.00300   53.87060   97.42860   66.15800    8.12790    8.09900    0.00380  113.20260  118.14790    3.40820    0.29140    2.70420   50.10250   73.31370    0.05210 2044.47990 2103.13480 1994.92980    0.08840    1.84450
 4539.00000   45.34510   24.71000    0.01490   55.36600  100.60950   79.07000    8.12840    8.09850    0.00970   47.08630   78.39480    3.40400    0.29460    2.68590   32.84030   89.56250    0.05490 2048.22490 2106.62840 1990.68290    0.10830    1.84120
 4539.50000   42.67940   23.00600    0.02290   55.28020  101.46260   84.64000    8.12890    8.09800    0.01960   30.73810   39.47240    3.45300    0.29890    2.67830   22.03570   85.20580    0.05330 2051.96970 2110.12180 2011.16490    0.12820    1.85220
 4540.00000   39.34740   20.24570    0.02150   55.06600  101.00560   70.75650    8.12940    8.09740    0.02390   19.89090   22.28580    3.52180    0.29610    2.68370   17.07060   62.44740    0.05340 2055.71480 2113.61550 2031.64700    0.12710    1.86320
 4540.50000   39.27190   18.79090    0.01100   54.93960  100.52250   52.04000    8.12990    8.09690    0.02820   32.07990   39.48620    3.53440    0.29160    2.72180   22.33210   41.83620    0.05480 2059.45970 2117.10890 2052.12890    0.10460    1.84590
