~Version ---------------------------------------------------
VERS.   2.0 : CWLS log ASCII Standard -VERSION 2.0
WRAP.    NO : One line per depth step
DLM . SPACE : Column Data Section Delimiter
~Well ------------------------------------------------------
STRT .ft                  45.0 : START DEPTH
STOP .ft                4840.0 : STOP DEPTH
STEP .ft                   0.5 : STEP
NULL .                -9999.25 : NULL VALUE
COMP .                         : COMPANY
WELL .                         : WELL
FLD  .                         : FIELD
LOC  .                         : LOCATION
PROV .                         : PROVINCE
CNTY .                         : COUNTY
STAT .                         : STATE
CTRY .                         : COUNTRY
SRVC .                         : SERVICE COMPANY
DATE .                         : DATE
UWI  .                         : UNIQUE WELL ID
API  .                         : API NUMBER
SLAT .WGS84 1.2375648721258017 : SURFACE LATITUDE
SLON .WGS84 7.2324610566150085 : SURFACE LONGITUDE
DATUM.F                 2601.9 : DEPTH DATUM ELEV
~Curve Information -----------------------------------------
DEPT   .ft    : Depth Curve
CGRR   .GAPI  : CORRECTED GAMMA RAY FROM RESISTIVITY LOG
CGRS   .GAPI  : CORRECTED GAMMA RAY FROM SONIC LOG
DPHZ_LS.DEC   : HGRD STANDARD RESOLUTION DENSITY POROSITY
DTCO   .US/F  : DELTA-T COMPRESSIONAL
DTSM   .US/F  : DELTA-T SHEAR
GR     .GAPI  : GAMMA RAY
HCALD  .IN    : HRCC CALIPER CALIBRATED FROM DENSITY LOG
HCALR  .IN    : HRCC CALIPER CALIBRATED FROM RESISTIVITY LOG
HDRA   .G/C3  : HRDD SPINE AND RIBS DENSITY CORRECTION
HLLD   .OHMM  : HALS LATEROLOG DEEP RESISTIVITY
HLLS   .OHMM  : HALS LATEROLOG SHALLOW RESISTIVITY
PEFZ   .B/E   : HRDD STANDARD RESOLUTION FORMATION PHOTOELECTRIC FACTOR
PR     .N/A   : POISSON'S RATIO
RHOZ   .G/C3  : HRDD STANDARD RESOLUTION FORMATION DENSITY
RXOZ   .OHMM  : INVADED FORMATION RESISTIVITY FILTERED AT 18 INCHES
SGRS   .GAPI  : SPECTROSCOPY GAMMA RAY FROM SONIC LOG
SPHI_LS.DEC   : SONIC POROSITY [LIMESTONE]
TEND   .LBF   : TENSION FROM DENSITY LOG
TENR   .LBF   : TENSION FROM RESISTIVITY LOG
TENS   .LBF   : TENSION FROM SONIC LOG
TNPH_LS.DEC   : THERMAL NEUTRON POROSITY [LIMESTONE]
VPVS   .N/A   : COMPRESSIONAL TO SHEAR VELOCITY RATIO
~Params ----------------------------------------------------
~Other -----------------------------------------------------
~ASCII -----------------------------------------------------
# ...
 3421.00000   22.94270    3.43060   -0.00120   49.65170   90.11640   42.72690    8.68590    8.64050    0.02220   49.49340   37.06110    3.28620    0.29280    2.75830    7.26130   34.32810    0.01280 1669.39290 1706.24160 1616.38230    0.12320    1.84830
 3421.50000   22.11700    2.41860    0.02200   50.41940   92.12550   38.78430    8.69140    8.64030    0.02040   20.35960   31.72010    3.27080    0.29130    2.71850    5.49990   32.40850    0.02350 1669.39290 1711.24820 1627.49870    0.13390    1.85040
 3422.00000   23.23520    2.73420    0.03950   52.17120   94.10130   39.03690    8.69680    8.64010    0.01270   25.30040   34.00420    3.24070    0.28730    2.68000    6.71860   33.95260    0.03070 1678.66810 1714.52620 1623.53850    0.14230    1.83570
 3422.50000   24.73670    4.53650    0.04680   52.99700   95.71440   41.92250    8.70230    8.65530    0.00730   31.11980   54.84230    3.17690    0.28330    2.65490   10.83110   38.98760    0.03940 1690.68090 1724.54590 1615.80900    0.13800    1.82160
 3423.00000   26.47790    6.32600    0.04520   53.02150   96.49660   46.18420    8.71560    8.68330   -0.00360   35.85710   58.24910    3.12790    0.28330    2.63970   15.61180   47.03820    0.03890 1690.68090 1727.53700 1609.62540    0.13250    1.82190
 3423.50000   28.12800    8.05910    0.04220   52.40090   96.13000   47.39550    8.72440    8.67910   -0.01450   35.85440   57.17390    3.13800    0.28620    2.64160   19.95370   56.10170    0.03470 1680.61250 1719.98540 1609.62540    0.12830    1.82650
 3424.00000   28.86630    8.37660    0.03650   51.21640   94.69860   49.14430    8.72220    8.67300   -0.01300   36.18580   58.78390    3.14860    0.27740    2.64820   19.80960   59.11970    0.02740 1662.31710 1698.06380 1609.62540    0.11800    1.83110
 3424.50000   28.68410    8.54110    0.02540   50.84640   92.13320   51.26420    8.72000    8.68460   -0.00580   66.35030   96.06140    3.20130    0.26850    2.66560   26.88060   51.71840    0.02420 1650.09920 1688.05140 1609.62540    0.09840    1.80490
 3425.00000   28.74080    8.44060   -0.00060   51.27370   90.07990   51.63260    8.71780    8.68460    0.00140   96.79470  170.61820    3.18630    0.25960    2.69680   43.32680   44.31710    0.02680 1646.99800 1674.40860 1609.62540    0.07870    1.76490
 3425.50000   31.06580    9.34490   -0.02500   51.63720   90.71720   50.13470    8.71570    8.68460    0.00700  209.04500  373.72190    3.18650    0.25870    2.71780  263.44070   51.97900    0.02910 1643.89690 1672.07150 1610.58240    0.05500    1.76330
 3426.00000   37.29970   16.14430   -0.04860   51.72950   92.31780   49.20100    8.71760    8.66670    0.01230  228.03660  576.82550    3.24760    0.27350    2.75320  378.53250   71.19030    0.03130 1646.39950 1677.27170 1615.36730    0.05990    1.79460
 3426.50000   42.42220   22.77940   -0.05970   51.76240   93.49750   57.91590    8.72470    8.68030    0.01320   84.58750  263.57410    3.29790    0.27950    2.78860   97.68030   88.28800    0.03110 1650.30310 1682.47190 1620.15220    0.07640    1.81370
 3427.00000   39.47130   19.17700   -0.05480   51.62520   94.07220   67.21730    8.72490    8.68160    0.01420   84.58260  106.94570    3.36140    0.28480    2.80630   92.40030   74.96780    0.02920 1654.20650 1687.67200 1624.93710    0.09290    1.82400
 3427.50000   31.53620   11.73900   -0.04680   51.47130   94.07920   75.12370    8.72510    8.68510    0.01520  151.50710  226.95310    3.38410    0.28670    2.79740   91.94900   53.28700    0.02870 1658.11020 1692.87220 1629.72200    0.08350    1.82630
 3428.00000   24.59410    4.30110   -0.04210   51.21220   93.32000   70.11520    8.75010    8.68860    0.01850  250.62810  344.51530    3.37830    0.28760    2.78850  194.15110   32.88880    0.02830 1658.96350 1691.90300 1621.99260    0.06820    1.82860
 3428.50000   22.17480    1.36260   -0.04600   50.93070   92.66150   52.43280    8.76700    8.74460    0.02070  181.28110  251.54050    3.37260    0.28890    2.78270  157.70030   28.83870    0.02510 1647.61570 1690.93400 1614.26310    0.05930    1.83080
 3429.00000   22.65160    3.06850   -0.05070   50.70050   92.73960   36.96720    8.78400    8.74250    0.02140  111.93500  133.97050    3.33170    0.29020    2.78180  115.16070   33.73950    0.02320 1636.26790 1672.27140 1612.42360    0.06810    1.83970
 3429.50000   28.77750   10.75920   -0.04870   50.89660   92.63720   33.89480    8.80090    8.77780    0.02100   56.45740   66.89320    3.30290    0.29150    2.79650   38.76070   42.96960    0.02420 1638.44560 1685.33400 1619.41910    0.07850    1.84370
 3430.00000   36.26560   15.07250   -0.04190   51.26930   92.53470   41.31040    8.81450    8.79450    0.01660   56.19180   75.12230    3.30960    0.28180    2.79250   39.66850   53.24950    0.02730 1647.51530 1692.85750 1626.41460    0.07530    1.80960
 3430.50000   36.53530   15.25890   -0.04740   52.19650   92.43230   48.16670    8.81830    8.79970    0.01160  148.04550  198.30110    3.33180    0.27320    2.78240  125.75640   55.87280    0.03450 1656.58510 1703.79690 1636.95650    0.06700    1.77970
 3431.00000   33.14160   13.44940   -0.06810   51.29450   91.06360   53.22250    8.82910    8.80490    0.01360  239.89890  321.48000    3.34830    0.26340    2.79130  247.50280   55.00580    0.03130 1663.22550 1710.09550 1652.81850    0.05870    1.76060
 3431.50000   28.89950    8.48110   -0.08740   49.89160   88.85070   55.30650    8.85900    8.81070    0.01610  331.75230  375.70370    3.37310    0.26260    2.81010  337.35140   53.25460    0.02020 1669.25850 1706.80900 1631.71670    0.05040    1.78020
 3432.00000   23.41780    3.51290   -0.09070   48.14220   86.19950   53.25800    8.88880    8.83070    0.01710  578.07640  472.44010    3.36010    0.27700    2.82890  435.72320   47.44820    0.00000 1675.29160 1709.13260 1620.67100    0.04220    1.79800
 3432.50000   20.24010    0.12400   -0.08680   46.44020   84.39750   47.39050    8.89830    8.84710    0.00760 1565.20720 1946.73250    3.32820    0.28500    2.84770 1216.41910   40.31990   -0.00780 1681.32470 1716.06010 1609.62540    0.03350    1.81780
 3433.00000   17.34390    0.00040   -0.09120   46.22970   83.80790   39.56840    8.91620    8.87180    0.00620 3032.71410 7835.61380    3.30620    0.28560    2.86050 2015.43700   37.43950   -0.01080 1691.02170 1745.16420 1604.14290    0.02480    1.83100
 3433.50000   17.88280    0.35360   -0.09070   45.91370   83.53890   36.05240    8.93490    8.88690    0.00470 1851.98960 2036.63990    3.34950    0.28880    2.85130 1339.53860   40.73730   -0.01380 1715.37450 1767.19400 1600.05800    0.02100    1.83960
 3434.00000   20.03910    0.70970   -0.07630   45.56390   83.16440   37.51740    8.95510    8.90210    0.00310 1081.35840 1373.32280    3.39280    0.29100    2.82780  808.68310   50.36400   -0.01640 1733.41530 1760.92610 1607.34660    0.02290    1.84250
 3434.50000   22.80010    2.60560   -0.06070   45.67340   83.17210   45.92710    8.97510    8.92720   -0.00090  460.58240  571.60710    3.43610    0.28850    2.80440  482.37880   63.60520   -0.01460 1718.54300 1754.65840 1605.96200    0.02540    1.82960
 3435.00000   24.55130    4.27100   -0.04850   45.92640   83.54010   54.07340    8.97990    8.94580   -0.00140  454.21390  596.01570    3.41780    0.28600    2.79040  355.15100   74.70920   -0.01190 1692.17400 1730.87280 1604.57740    0.02700    1.82340
 3435.50000   23.33940    4.15560   -0.06030   46.10770   83.90800   61.60980    9.00910    8.98690    0.00150  799.37810 1186.65940    3.35630    0.28550    2.80430  453.71670   77.99270   -0.01170 1688.15830 1730.36580 1605.79480    0.02710    1.82560
 3436.00000   23.47440    1.72730   -0.07870   46.72110   84.65980   66.52390    9.04000    9.00760    0.00210 1371.11990 1902.21000    3.24800    0.28750    2.83840  655.46690   79.70360   -0.00860 1686.81510 1722.48610 1607.01220    0.02990    1.83160
 3436.50000   30.55870   10.03930   -0.08010   47.63660   85.94670   68.31960    9.06620    9.02560    0.00020 1106.28380 1670.34840    3.18800    0.28750    2.84540  559.03160   92.10940   -0.00380 1685.47190 1724.00570 1608.22960    0.03500    1.83150
