~Version ---------------------------------------------------
VERS.   2.0 : CWLS log ASCII Standard -VERSION 2.0
WRAP.    NO : One line per depth step
DLM . SPACE : Column Data Section Delimiter
~Well ------------------------------------------------------
STRT .ft                  45.0 : START DEPTH
STOP .ft                4840.0 : STOP DEPTH
STEP .ft                   0.5 : STEP
NULL .                -9999.25 : NULL VALUE
COMP .                         : COMPANY
WELL .                         : WELL
FLD  .                         : FIELD
LOC  .                         : LOCATION
PROV .                         : PROVINCE
CNTY .                         : COUNTY
STAT .                         : STATE
CTRY .                         : COUNTRY
SRVC .                         : SERVICE COMPANY
DATE .                         : DATE
UWI  .                         : UNIQUE WELL ID
API  .                         : API NUMBER
SLAT .WGS84 1.2375648721258017 : SURFACE LATITUDE
SLON .WGS84 7.2324610566150085 : SURFACE LONGITUDE
DATUM.F                 2601.9 : DEPTH DATUM ELEV
~Curve Information -----------------------------------------
DEPT   .ft    : Depth Curve
CGRR   .GAPI  : CORRECTED GAMMA RAY FROM RESISTIVITY LOG
CGRS   .GAPI  : CORRECTED GAMMA RAY FROM SONIC LOG
DPHZ_LS.DEC   : HGRD STANDARD RESOLUTION DENSITY POROSITY
DTCO   .US/F  : DELTA-T COMPRESSIONAL
DTSM   .US/F  : DELTA-T SHEAR
GR     .GAPI  : GAMMA RAY
HCALD  .IN    : HRCC CALIPER CALIBRATED FROM DENSITY LOG
HCALR  .IN    : HRCC CALIPER CALIBRATED FROM RESISTIVITY LOG
HDRA   .G/C3  : HRDD SPINE AND RIBS DENSITY CORRECTION
HLLD   .OHMM  : HALS LATEROLOG DEEP RESISTIVITY
HLLS   .OHMM  : HALS LATEROLOG SHALLOW RESISTIVITY
PEFZ   .B/E   : HRDD STANDARD RESOLUTION FORMATION PHOTOELECTRIC FACTOR
PR     .N/A   : POISSON'S RATIO
RHOZ   .G/C3  : HRDD STANDARD RESOLUTION FORMATION DENSITY
RXOZ   .OHMM  : INVADED FORMATION RESISTIVITY FILTERED AT 18 INCHES
SGRS   .GAPI  : SPECTROSCOPY GAMMA RAY FROM SONIC LOG
SPHI_LS.DEC   : SONIC POROSITY [LIMESTONE]
TEND   .LBF   : TENSION FROM DENSITY LOG
TENR   .LBF   : TENSION FROM RESISTIVITY LOG
TENS   .LBF   : TENSION FROM SONIC LOG
TNPH_LS.DEC   : THERMAL NEUTRON POROSITY [LIMESTONE]
VPVS   .N/A   : COMPRESSIONAL TO SHEAR VELOCITY RATIO
~Params ----------------------------------------------------
~Other -----------------------------------------------------
~ASCII -----------------------------------------------------
# ...
 4237.00000   37.43900   16.52930    0.00290   54.13940  100.16270   32.03410    9.25570    9.21540    0.00770   17.25520   19.42320    3.42650    0.28190    2.70560   16.93820   33.87210    0.04860 1853.83020 1977.37630 1840.82390    0.12160    1.82770
 4237.50000   43.66730   21.91630    0.01900   56.41210  102.41660   38.44980    9.28430    9.23680    0.00740   16.86000   18.37240    3.35360    0.28050    2.68820   14.40150   40.53640    0.06190 1874.36550 1975.89470 1840.82390    0.14530    1.81480
 4238.00000   47.69930   26.91230    0.03500   57.15000  103.09590   45.09120    9.28200    9.25820    0.00760   17.90740   20.03340    3.32930    0.27990    2.66150   15.24680   47.47560    0.07050 1875.28150 1974.41280 1848.36010    0.15480    1.81460
 4238.50000   50.34100   30.30090    0.03870   57.60690  103.40950   50.21630    9.27690    9.25790    0.01400   19.19700   21.70950    3.31330    0.27560    2.65090   18.46470   55.63390    0.07580 1876.19760 1972.93100 1870.30830    0.16430    1.80280
 4239.00000   51.78350   31.75240    0.03610   59.54810  104.79500   53.12680    9.27180    9.25650    0.02920   17.79750   21.81050    3.35010    0.26540    2.64770   18.58420   63.52710    0.08980 1877.11360 1971.44920 1868.65730    0.17010    1.77470
 4239.50000   49.39660   26.70370    0.04310   60.89220  105.76280   51.92890    9.29070    9.25500    0.03070   16.17150   17.67690    3.39120    0.25530    2.63570   13.30230   58.02630    0.09810 1878.02950 1933.77250 1867.00630    0.18310    1.75170
 4240.00000   43.42160   22.05330    0.05850   61.27540  104.29920   43.23600    9.28090    9.25360    0.03100   11.85560   16.51500    3.40940    0.24240    2.61490    7.31960   49.65860    0.10370 1878.94570 1845.41630 1865.35520    0.17560    1.72860
 4240.50000   37.44660   18.21370    0.06520   60.73310  100.20530   36.43200    9.26900    9.25310    0.02160   15.46750   19.21800    3.39380    0.22720    2.60520    7.45860   34.67060    0.09450 1879.86170 1875.31210 1868.95280    0.16160    1.69910
 4241.00000   34.54250   14.37410    0.06430   59.49450   99.07500   30.32700    9.25960    9.25340    0.01010   20.83460   24.69340    3.41310    0.22170    2.60550   13.57590   24.31470    0.08430 1896.92460 1925.36470 1870.37210    0.13470    1.67500
 4241.50000   31.99440   11.95990    0.05880   57.45190   96.24380   27.54130    9.26000    9.25150    0.00850   26.20160   30.16880    3.43650    0.22560    2.61200   20.25060   16.29900    0.07240 1938.20790 1953.15010 1870.37210    0.11800    1.68140
 4242.00000   32.06270   12.51070    0.05600   56.71970   94.86040   25.15930    9.26040    9.24130    0.00760   29.69680   32.66200    3.42790    0.22870    2.62030   26.20360   17.29100    0.06790 1952.36770 1985.02080 1949.35770    0.10670    1.68790
 4242.50000   33.59030   13.62710    0.05450   56.03260   94.11430   26.11920    9.26080    9.23120    0.00870   25.60720   26.83520    3.41940    0.22970    2.62820   24.10900   19.36320    0.06310 1956.24870 1966.21980 1891.43950    0.10930    1.69060
 4243.00000   35.23750   14.60980    0.05000   55.92010   95.34040   29.28340    9.23750    9.22730    0.01300   25.13830   26.60220    3.40070    0.23760    2.64220   23.55900   22.38540    0.06120 1951.31030 1942.83120 1868.27210    0.11510    1.71830
 4243.50000   35.83720   14.38850    0.03560   56.00960   98.41820   30.32180    9.23090    9.22750    0.02150   27.20230   29.77990    3.37890    0.25320    2.65620   23.23650   21.90440    0.06360 1936.09120 1931.97610 1852.40010    0.11560    1.74930
 4244.00000   32.89740   12.91710    0.02800   57.33550  101.34690   28.22440    9.21370    9.21720    0.02820   24.74630   29.02250    3.38970    0.26280    2.66770    5.62710   20.80870    0.07370 1905.45100 1925.38130 1836.92790    0.11360    1.76990
 4244.50000   32.00800   11.85180    0.03060   58.39560  100.53030   26.40250    9.20810    9.20420    0.03210   20.44040   24.53120    3.42350    0.24830    2.66410    5.35710   19.22840    0.08260 1946.37540 1918.78650 1844.70150    0.11690    1.75110
 4245.00000   32.19080   11.86590    0.03960   58.14970   97.56210   26.26080    9.19980    9.19130    0.01960   19.58120   21.63620    3.43160    0.23120    2.64640    5.03620   19.41150    0.07870 1913.30260 1912.19170 1865.13530    0.12140    1.70380
 4245.50000   32.90760   12.60830    0.04380   56.70740   94.70270   25.65540    9.19160    9.17840    0.00380   26.44650   29.53110    3.47120    0.23130    2.64200   20.99310   20.27740    0.06690 1880.22970 1905.59680 1885.56880    0.12190    1.69440
 4246.00000   33.51350   12.96100    0.03710   55.54370   91.84340   25.20350    9.17520    9.16540   -0.00040   57.06680   47.22170    3.57560    0.22860    2.65510   30.31190   20.84540    0.05640 1879.41870 1907.50890 1885.56880    0.11610    1.68350
 4246.50000   32.77900   12.73320    0.02320   53.79480   88.98400   24.74390    9.15340    9.15250    0.00210   87.68710   64.91230    3.72700    0.22500    2.67060   49.61110   19.11280    0.04780 1889.24430 1909.42090 1878.36820    0.10220    1.67220
 4247.00000   32.34370   11.89470    0.01420   51.69610   88.98760   23.91190    9.14130    9.13950    0.00360   95.13030   82.60290    3.81140    0.23670    2.69180   85.11700   17.38990    0.03920 1904.30400 1930.05440 1862.36560    0.08830    1.72530
 4247.50000   33.25300   12.03240    0.00780   51.77620   92.29190   24.54420    9.12120    9.12660    0.00880   94.25940   76.49600    3.73790    0.25870    2.70220   82.23510   18.92230    0.03210 1913.16740 1940.02320 1846.36320    0.08910    1.77830
 4248.00000   34.40980   14.08090    0.00380   54.24010   95.26980   26.01960    9.11010    9.11370    0.02010   77.80820   44.81480    3.53870    0.27250    2.70430   59.83550   24.70550    0.03740 1922.03100 1944.56790 1848.53700    0.10600    1.80250
 4248.50000   35.12750   15.05740    0.00880   56.10460   99.49190   29.87500    9.09900    9.10070    0.02510   44.18900   33.73940    3.40050    0.27420    2.67930   43.48280   29.39920    0.05640 1930.89450 1945.49650 1855.25500    0.12440    1.80300
 4249.00000   34.26020   14.15800    0.03140   57.51200  100.38640   32.19010    9.08790    9.08780    0.03090   17.29390   21.25490    3.35210    0.26260    2.64970   25.54500   32.84340    0.07970 1939.75810 1946.42490 1861.97300    0.14900    1.76000
 4249.50000   32.00890   11.75090    0.06000   59.21470  100.26910   32.11090    9.07670    9.07490    0.02670   17.61950   18.67300    3.34920    0.23730    2.62010   15.26230   29.75360    0.09050 1950.65840 1946.61060 1861.97300    0.16860    1.71670
 4250.00000   29.19420    9.11810    0.06930   60.02940  100.67970   33.36100    9.06560    9.06190    0.02080   22.59630   21.06610    3.36350    0.22610    2.59630   17.29810   27.98500    0.09160 1951.75760 1946.61060 1861.97300    0.16860    1.69290
 4250.50000   27.35280    7.43980    0.07130   58.80780  100.26140   37.26990    9.05490    9.04900    0.01560   27.49100   27.64340    3.35500    0.25000    2.59790   31.80390   25.02190    0.08120 1952.85680 1979.58760 1861.97300    0.14990    1.73210
 4251.00000   29.33360    9.72630    0.06180   56.76810   98.30600   44.06420    9.04480    9.03600    0.00920   30.01830   35.24800    3.32400    0.25550    2.61530    4.74740   28.24240    0.07090 1950.64480 1981.85930 1860.82740    0.14250    1.74330
 4251.50000   33.01960   12.47150    0.05000   55.52940   96.57190   46.08530    9.03470    9.02580    0.01200   38.54910   39.73390    3.28680    0.26110    2.63080    4.76890   32.16940    0.06050 1947.60490 1984.13070 1880.88390    0.13860    1.76300
 4252.00000   32.48640   12.37500    0.04320   54.07890   94.62070   37.94810    9.02460    9.01280    0.01420   49.85980   45.44550    3.26960    0.26360    2.64620    4.92540   30.05620    0.05200 1944.56490 1986.40220 1880.88390    0.13290    1.77140
 4252.50000   28.22670    8.99800    0.03720   53.24490   93.34950   28.20880    9.01460    8.99650    0.01690   69.75870   94.06280    3.19910    0.26020    2.65700   44.64730   22.92190    0.04250 1941.52510 1988.67370 1880.88390    0.12510    1.76130
