~Version ---------------------------------------------------
VERS.   2.0 : CWLS log ASCII Standard -VERSION 2.0
WRAP.    NO : One line per depth step
DLM . SPACE : Column Data Section Delimiter
~Well ------------------------------------------------------
STRT .ft                  45.0 : START DEPTH
STOP .ft                4840.0 : STOP DEPTH
STEP .ft                   0.5 : STEP
NULL .                -9999.25 : NULL VALUE
COMP .                         : COMPANY
WELL .                         : WELL
FLD  .                         : FIELD
LOC  .                         : LOCATION
PROV .                         : PROVINCE
CNTY .                         : COUNTY
STAT .                         : STATE
CTRY .                         : COUNTRY
SRVC .                         : SERVICE COMPANY
DATE .                         : DATE
UWI  .                         : UNIQUE WELL ID
API  .                         : API NUMBER
SLAT .WGS84 1.2375648721258017 : SURFACE LATITUDE
SLON .WGS84 7.2324610566150085 : SURFACE LONGITUDE
DATUM.F                 2601.9 : DEPTH DATUM ELEV
~Curve Information -----------------------------------------
DEPT   .ft    : Depth Curve
CGRR   .GAPI  : CORRECTED GAMMA RAY FROM RESISTIVITY LOG
CGRS   .GAPI  : CORRECTED GAMMA RAY FROM SONIC LOG
DPHZ_LS.DEC   : HGRD STANDARD RESOLUTION DENSITY POROSITY
DTCO   .US/F  : DELTA-T COMPRESSIONAL
DTSM   .US/F  : DELTA-T SHEAR
GR     .GAPI  : GAMMA RAY
HCALD  .IN    : HRCC CALIPER CALIBRATED FROM DENSITY LOG
HCALR  .IN    : HRCC CALIPER CALIBRATED FROM RESISTIVITY LOG
HDRA   .G/C3  : HRDD SPINE AND RIBS DENSITY CORRECTION
HLLD   .OHMM  : HALS LATEROLOG DEEP RESISTIVITY
HLLS   .OHMM  : HALS LATEROLOG SHALLOW RESISTIVITY
PEFZ   .B/E   : HRDD STANDARD RESOLUTION FORMATION PHOTOELECTRIC FACTOR
PR     .N/A   : POISSON'S RATIO
RHOZ   .G/C3  : HRDD STANDARD RESOLUTION FORMATION DENSITY
RXOZ   .OHMM  : INVADED FORMATION RESISTIVITY FILTERED AT 18 INCHES
SGRS   .GAPI  : SPECTROSCOPY GAMMA RAY FROM SONIC LOG
SPHI_LS.DEC   : SONIC POROSITY [LIMESTONE]
TEND   .LBF   : TENSION FROM DENSITY LOG
TENR   .LBF   : TENSION FROM RESISTIVITY LOG
TENS   .LBF   : TENSION FROM SONIC LOG
TNPH_LS.DEC   : THERMAL NEUTRON POROSITY [LIMESTONE]
VPVS   .N/A   : COMPRESSIONAL TO SHEAR VELOCITY RATIO
~Params ----------------------------------------------------
~Other -----------------------------------------------------
~ASCII -----------------------------------------------------
# ...
 2861.00000   24.00760    4.50170   -0.00200   49.09580   93.49860   30.81640    9.22520    9.16810    0.01970 1761.88920 1012.28850    4.18010    0.30930    2.70340  285.72140   27.36490    0.00950 1448.19820 1529.94840 1468.33120    0.13060    1.90220
 2861.50000   24.87550    4.83900   -0.02710   48.57210   89.71460   34.81830    9.17930    9.14260    0.02300 1811.63090 1797.52510    4.11590    0.29580    2.73910  552.96800   29.84160    0.00780 1448.50950 1522.45800 1474.32300    0.11540    1.86450
 2862.00000   25.39620    5.76440   -0.04970   47.90150   86.54060   38.39480    9.13340    9.11670    0.02800 3085.37400 2563.85840    3.90280    0.28980    2.77470  515.82160   34.22710   -0.00180 1434.24440 1509.60420 1469.21700    0.10020    1.84640
 2862.50000   26.54220    6.89350   -0.06180   46.14220   83.57420   37.24510    9.11020    9.09090    0.03390 3697.94530 2024.22170    3.57820    0.29970    2.81040  510.67180   38.52340   -0.01720 1428.53830 1496.75020 1472.25450    0.08500    1.86190
 2863.00000   27.07690    6.68520   -0.05630   44.51620   84.11510   33.98380    9.10260    9.06500    0.04120 1870.36990  489.69910    3.42830    0.30730    2.81040  395.70400   43.26970   -0.02220 1428.53830 1483.89650 1473.94780    0.07920    1.89800
 2863.50000   26.37070    4.94220   -0.04150   45.57790   87.13860   34.27540    9.09710    9.03920    0.03530  821.69560  244.44940    3.55650    0.30890    2.77450  147.34560   43.73610   -0.01120 1428.53830 1483.89650 1464.81340    0.09640    1.89960
 2864.00000   24.60930    2.96860   -0.02150   47.74050   89.12800   41.54200    9.06770    9.02560    0.02700  222.65770  144.33140    3.77760    0.30480    2.73860  115.55810   41.55760   -0.00200 1426.52210 1490.94240 1467.87340    0.11760    1.88750
 2864.50000   21.74160    0.99500   -0.01580   47.74270   88.93040   46.27310    9.07210    9.02540    0.02240  228.95340  184.65000    3.92720    0.30030    2.73770   88.47680   38.28320    0.00190 1414.04000 1464.94090 1467.24020    0.11840    1.88100
 2865.00000   19.67370    0.80860   -0.02970   47.19430   87.39400   49.29350    9.04970    9.02520    0.02030  721.54530  697.91340    3.84600    0.29580    2.75330  138.11080   37.29350   -0.00130 1409.13230 1464.94090 1469.11250    0.11760    1.86470
 2865.50000   19.20760    0.76580   -0.04470   46.53780   84.99550   50.69280    9.03220    9.02080    0.01800 1331.92310 1445.25550    3.55150    0.29080    2.76890  337.08490   36.89330   -0.00530 1418.45430 1465.92240 1469.11250    0.07810    1.84350
 2866.00000   18.89960    0.72300   -0.05360   46.11750   82.59710   50.83040    9.03410    9.01650    0.01770 1942.30080 1929.12230    3.35670    0.29020    2.79490 1213.96960   36.51500   -0.01460 1427.77620 1475.05400 1457.55520    0.05300    1.83900
 2866.50000   19.09660    0.68030   -0.05730   45.07900   82.23890   48.60030    9.03610    9.01220    0.01870 5055.01420 2986.84570    3.19340    0.29260    2.80680 1915.48210   36.13710   -0.01820 1437.09830 1484.18550 1461.06670    0.04460    1.84700
 2867.00000   19.83580    0.63750   -0.06350   45.03220   82.96530   41.87350    9.02660    9.00780    0.03060 2009.19270 2046.90230    3.12650    0.29780    2.81870 1205.51840   36.99910   -0.01880 1446.42030 1493.31730 1468.13790    0.04100    1.86780
 2867.50000   20.17220    0.59470   -0.06930   45.07420   83.81270   33.50070    9.01980    9.00350    0.04170   98.93880  101.51090    3.12630    0.30300    2.82450   51.21430   38.33260   -0.01900 1445.64370 1502.44890 1487.77310    0.04400    1.87810
 2868.00000   20.90470    0.54780   -0.06320   45.27940   84.83450   30.00130    9.03810    8.99910    0.04190   97.27880  100.58140    3.17360    0.30730    2.82040   48.89760   39.41930   -0.01720 1422.83330 1487.34290 1508.75060    0.04900    1.88830
 2868.50000   20.90430    0.48450   -0.04930   45.56710   85.94810   36.01430    9.05640    8.99480    0.03820  429.20450  309.58540    3.21720    0.30870    2.80630   45.40510   39.51530   -0.01510 1400.02280 1470.01150 1514.70120    0.04800    1.88890
 2869.00000   21.44270    1.17460   -0.04160   45.70610   85.38720   44.69660    9.07000    8.99040    0.03240  761.28480  619.43360    3.27650    0.30670    2.79230   95.07410   40.79630   -0.01410 1397.52270 1451.38350 1515.19680    0.04400    1.88950
 2869.50000   22.51970    2.13950   -0.04480   45.68450   83.75190   50.93950    9.09160    8.98610    0.02460  750.80460  651.87320    3.30470    0.29500    2.78130   85.32120   42.29440   -0.01370 1399.58300 1464.77810 1515.69230    0.04070    1.85860
 2870.00000   22.01830    1.56450   -0.04630   45.82850   82.14160   51.98910    9.05890    8.98180    0.01850 1642.36950  804.04660    3.32780    0.28380    2.78230   88.56170   42.21510   -0.01300 1419.88460 1476.91890 1483.77950    0.04050    1.81120
 2870.50000   21.18300    0.84150   -0.04320   45.97470   82.11000   50.09460    9.02550    8.97740    0.01500 2035.34530 1591.56630    3.34630    0.28230    2.78710  266.17190   41.22740   -0.01230 1440.18620 1480.59740 1451.86690    0.04100    1.80910
 2871.00000   21.45250    0.95020   -0.04020   46.00570   82.55800   48.40770    9.00550    8.97310    0.01630 10470.93850 4778.99320    3.33190    0.28730    2.77870  533.68110   44.86850   -0.01230 1456.50760 1479.88790 1453.19090    0.04260    1.83140
 2871.50000   23.78710    4.23560   -0.03600   46.00780   83.00600   46.99680    8.99500    8.96870    0.01630 1963.25740 1975.56810    3.32130    0.28560    2.76540  415.67250   53.19280   -0.01270 1456.90800 1479.17830 1458.03990    0.04760    1.83680
 2872.00000   26.55560    6.15160   -0.01960   46.21760   83.38800   48.83670    8.98460    8.96440    0.00610  171.10670  177.39700    3.35590    0.28230    2.74850   43.97280   58.15270   -0.01140 1457.30830 1478.46880 1454.53850    0.05660    1.82070
 2872.50000   27.24420    6.47040   -0.01040   46.63310   83.50650   55.40120    8.97200    8.96010    0.00280  176.20440  239.02870    3.38640    0.28020    2.73210   25.12200   57.97220   -0.00840 1457.70870 1477.75930 1459.07780    0.06560    1.79940
 2873.00000   24.38910    4.21020   -0.01700   47.00360   83.97100   65.79760    8.96330    8.93310    0.00080  850.90370  559.17320    3.37140    0.28400    2.73670   35.41590   53.87320   -0.00460 1458.10910 1477.04970 1458.90530    0.05820    1.81050
 2873.50000   21.15690    0.38620   -0.03340   46.75060   84.47750   70.14840    8.96270    8.90620    0.00340 1520.63090 1839.31630    3.32140    0.28700    2.75690  239.34070   47.91470   -0.00510 1458.50940 1476.34020 1478.86660    0.04680    1.82900
 2874.00000   19.63460    0.20190   -0.05160   46.12880   83.90290   61.27010    8.96330    8.89950    0.00420 1986.09680 11261.40330    3.27440    0.28950    2.77710  637.50150   41.75550   -0.01670 1458.90980 1475.63060 1477.82600    0.03270    1.84130
 2874.50000   18.62460    0.17820   -0.05840   44.78320   82.17420   52.38160    8.96850    8.89280    0.01190 5506.04440 6706.55570    3.26630    0.29140    2.79730  986.64150   38.88220   -0.01890 1459.31020 1474.92110 1474.49040    0.02900    1.86050
 2875.00000   18.15330    0.15450   -0.06230   44.41030   81.10580   44.32680    8.94880    8.88600    0.01160 5848.66550 7329.87700    3.26830    0.29290    2.81100 1836.76420   37.41690   -0.02170 1459.71060 1480.24010 1461.97470    0.02570    1.85260
 2875.50000   17.30490    0.13070   -0.06710   44.89360   81.17270   37.83280    8.92240    8.87930    0.01130 29270.47850 14865.75490    3.27500    0.28680    2.81910 1909.88420   36.24170   -0.01970 1460.11080 1489.57810 1449.45910    0.02230    1.83430
 2876.00000   16.56420    0.10700   -0.07230   45.28840   81.23960   35.35680    8.92090    8.87930    0.01110 58682.39840 22401.63280    3.28170    0.28120    2.82620 1747.57810   34.87070   -0.01680 1475.07340 1498.91610 1462.52840    0.01900    1.82160
 2876.50000   16.06590    0.08330   -0.07470   45.23610   81.10100   35.79560    8.91950    8.87930    0.01710 59236.52340 27684.67380    3.30220    0.28000    2.83120 1908.34990   34.27490   -0.01790 1493.67630 1508.25420 1480.43660    0.01570    1.80800
