~Version ---------------------------------------------------
VERS.   2.0 : CWLS log ASCII Standard -VERSION 2.0
WRAP.    NO : One line per depth step
DLM . SPACE : Column Data Section Delimiter
~Well ------------------------------------------------------
STRT .ft                  45.0 : START DEPTH
STOP .ft                4840.0 : STOP DEPTH
STEP .ft                   0.5 : STEP
NULL .                -9999.25 : NULL VALUE
COMP .                         : COMPANY
WELL .                         : WELL
FLD  .                         : FIELD
LOC  .                         : LOCATION
PROV .                         : PROVINCE
CNTY .                         : COUNTY
STAT .                         : STATE
CTRY .                         : COUNTRY
SRVC .                         : SERVICE COMPANY
DATE .                         : DATE
UWI  .                         : UNIQUE WELL ID
API  .                         : API NUMBER
SLAT .WGS84 1.2375648721258017 : SURFACE LATITUDE
SLON .WGS84 7.2324610566150085 : SURFACE LONGITUDE
DATUM.F                 2601.9 : DEPTH DATUM ELEV
~Curve Information -----------------------------------------
DEPT   .ft    : Depth Curve
CGRR   .GAPI  : CORRECTED GAMMA RAY FROM RESISTIVITY LOG
CGRS   .GAPI  : CORRECTED GAMMA RAY FROM SONIC LOG
DPHZ_LS.DEC   : HGRD STANDARD RESOLUTION DENSITY POROSITY
DTCO   .US/F  : DELTA-T COMPRESSIONAL
DTSM   .US/F  : DELTA-T SHEAR
GR     .GAPI  : GAMMA RAY
HCALD  .IN    : HRCC CALIPER CALIBRATED FROM DENSITY LOG
HCALR  .IN    : HRCC CALIPER CALIBRATED FROM RESISTIVITY LOG
HDRA   .G/C3  : HRDD SPINE AND RIBS DENSITY CORRECTION
HLLD   .OHMM  : HALS LATEROLOG DEEP RESISTIVITY
HLLS   .OHMM  : HALS LATEROLOG SHALLOW RESISTIVITY
PEFZ   .B/E   : HRDD STANDARD RESOLUTION FORMATION PHOTOELECTRIC FACTOR
PR     .N/A   : POISSON'S RATIO
RHOZ   .G/C3  : HRDD STANDARD RESOLUTION FORMATION DENSITY
RXOZ   .OHMM  : INVADED FORMATION RESISTIVITY FILTERED AT 18 INCHES
SGRS   .GAPI  : SPECTROSCOPY GAMMA RAY FROM SONIC LOG
SPHI_LS.DEC   : SONIC POROSITY [LIMESTONE]
TEND   .LBF   : TENSION FROM DENSITY LOG
TENR   .LBF   : TENSION FROM RESISTIVITY LOG
TENS   .LBF   : TENSION FROM SONIC LOG
TNPH_LS.DEC   : THERMAL NEUTRON POROSITY [LIMESTONE]
VPVS   .N/A   : COMPRESSIONAL TO SHEAR VELOCITY RATIO
~Params ----------------------------------------------------
~Other -----------------------------------------------------
~ASCII -----------------------------------------------------
# ...
 3965.00000   18.85560    0.40170    0.01040   50.00320   89.85430   29.11370    9.05870    8.96070    0.00980   37.44160   49.44560    3.24120    0.27640    2.69100    8.35770   22.92540    0.01880 1820.02910 1852.09170 1817.15060    0.10550    1.80280
 3965.50000   18.31700    0.35610    0.00030   49.56820   88.96200   30.16650    9.06860    8.96050    0.00670   76.29880  163.28520    3.23770    0.27550    2.70080   23.79220   23.31420    0.01640 1820.02910 1852.33790 1812.66380    0.09110    1.80180
 3966.00000   18.31710    0.31050   -0.00450   49.08170   88.06980   31.03860    9.07840    8.96030    0.00050  108.58830  189.03790    3.23420    0.27250    2.71060   37.31410   27.26420    0.01180 1820.02910 1852.58420 1804.77360    0.07960    1.79330
 3966.50000   19.66400    2.81390   -0.00140   49.19710   87.35600   30.26900    9.08820    8.96010   -0.00050   93.38590  156.23700    3.23080    0.27280    2.71790   31.49300   34.50560    0.01160 1820.02910 1852.83040 1791.77810    0.08170    1.78930
 3967.00000   26.34640    8.84300   -0.00260   49.77410   87.51130   30.82250    9.08490    8.95990    0.00630   84.12800  148.05610    3.22490    0.26930    2.72130   25.51390   45.79980    0.01490 1812.47490 1853.07670 1793.10720    0.08630    1.79730
 3967.50000   32.05870   13.86650   -0.00750   50.35110   88.33280   37.05380    9.07840    8.95970    0.01230  103.43200  169.39730    3.20260    0.26770    2.72460   35.31520   57.04880    0.02010 1819.26450 1862.38010 1805.66760    0.09080    1.78710
 3968.00000   35.54150   16.34510   -0.00900   50.86600   89.14710   44.44790    9.07190    8.95950    0.01440  127.15370  186.47240    3.19540    0.26590    2.72800   47.24470   62.23580    0.02500 1826.05420 1868.90480 1822.74960    0.09530    1.77690
 3968.50000   37.44610   17.28290   -0.00620   51.05230   89.80740   55.30220    9.06540    8.95930    0.01180   97.07130  146.51300    3.19340    0.26480    2.73040   73.35310   60.06250    0.02610 1836.86040 1875.42940 1825.30730    0.09810    1.77400
 3969.00000   37.45010   14.08140   -0.00850   50.35730   89.17690   51.55590    9.05890    8.95910    0.00970   64.60110   96.06500    3.19930    0.26760    2.72510   32.64370   48.37580    0.02060 1853.69170 1881.95400 1816.17260    0.08910    1.77860
 3969.50000   32.47980    8.19190   -0.01550   49.33880   88.03970   43.50830    9.05240    8.95890    0.00860   72.44420   96.51910    3.23260    0.27560    2.73250   30.83340   34.13340    0.01370 1860.42400 1888.47860 1811.00630    0.07560    1.79790
 3970.00000   27.10340    3.81840   -0.02440   48.14280   86.65690   33.58370    9.04860    8.95870    0.00480  141.61440  145.88350    3.26310    0.27900    2.74790   50.40680   19.91100    0.00290 1847.80750 1884.84140 1811.79310    0.06200    1.80210
 3970.50000   23.15280    2.76690   -0.03430   47.11290   84.53800   29.68540    9.04680    8.95850    0.00620  370.47680  312.35010    3.27610    0.28180    2.76180  327.13400   16.82210   -0.00310 1835.19100 1869.25460 1812.57970    0.04840    1.81180
 3971.00000   22.64610    2.91490   -0.04110   46.62850   84.12310   26.10230    9.04490    8.95830    0.00430  599.33930  516.15200    3.25660    0.28460    2.77570  943.51870   18.38690   -0.00700 1818.53490 1845.22890 1820.16250    0.04300    1.81990
 3971.50000   23.57140    4.42270   -0.04500   46.59020   84.37580   24.54420    9.04300    8.95800    0.00380  654.16920  608.87850    3.23220    0.28590    2.78340 1287.63770   21.04360   -0.00720 1814.75770 1844.41160 1827.74520    0.04630    1.82790
 3972.00000   25.01640    5.66810   -0.04040   46.76540   84.62850   23.78670    9.04120    8.95780    0.00380  369.07020  290.39370    3.20770    0.28580    2.77660  443.04700   26.83510   -0.00610 1814.00230 1843.59440 1838.94080    0.05390    1.82790
 3972.50000   26.76680    7.09780   -0.03210   46.93450   84.88120   24.69770    9.03930    8.95760    0.00460   86.59190   98.38760    3.18610    0.28660    2.76590   70.29230   29.63000   -0.00500 1817.77950 1842.77690 1830.10630    0.06500    1.82660
 3973.00000   27.33130    7.46570   -0.02340   47.07950   85.00960   27.85610    9.03740    8.95740    0.00540   86.59940  102.58910    3.17600    0.28570    2.75520   58.11230   28.60630   -0.00440 1820.04570 1841.95960 1838.01840    0.07140    1.82440
 3973.50000   25.92300    5.64070   -0.01930   47.13400   84.95150   32.70250    9.03560    8.95720    0.00610  222.87560  346.88220    3.14560    0.28570    2.74340  164.51170   22.92060   -0.00420 1818.11780 1841.14230 1821.33140    0.07000    1.82230
 3974.00000   24.21750    3.97930   -0.02010   47.16590   84.86830   34.79480    9.03370    8.95700    0.00690  447.30600  544.84200    3.11840    0.28570    2.74490  339.56300   18.15560   -0.00390 1814.90450 1840.32500 1804.64430    0.05980    1.82440
 3974.50000   23.57820    3.54510   -0.02210   47.26630   85.44770   33.79580    9.03180    8.95680    0.00770  449.40260  479.69080    3.10930    0.28660    2.74860  378.81500   17.50010   -0.00220 1819.40310 1839.50770 1805.10550    0.06060    1.82870
 3975.00000   24.43640    5.00920   -0.02270   47.73810   86.33320   29.97580    9.02990    8.95660    0.00910  353.55470  310.45040    3.15460    0.28560    2.75010  215.41580   21.04860    0.00330 1816.18980 1843.24650 1805.56670    0.06930    1.82830
 3975.50000   25.91050    6.50500   -0.01440   48.66110   88.00300   27.33210    9.02810    8.95640    0.01520  214.35040  141.21000    3.22610    0.28190    2.74800   52.01660   26.12340    0.00880 1812.97640 1844.45610 1803.98410    0.08220    1.81850
 3976.00000   26.87110    6.56750    0.00910   49.48900   89.16070   26.15480    9.02620    8.95620    0.01040   75.14600   24.83250    3.30150    0.27950    2.70320   29.29660   30.70470    0.01320 1816.00630 1835.54810 1799.33620    0.10400    1.79960
 3976.50000   26.64790    6.06220    0.03010   49.96300   89.33850   26.87740    9.02430    8.95600    0.00420   19.19650   24.26570    3.30060    0.28370    2.66370    6.57650   29.41760    0.01600 1810.95690 1826.64030 1794.68820    0.11560    1.81990
 3977.00000   25.51280    4.90640    0.04040   49.66030   88.90280   27.87810    9.02250    8.95580    0.00330   23.58240   34.62770    3.27250    0.28790    2.64680    6.63890   25.66940    0.01390 1805.90760 1819.88960 1813.06740    0.11220    1.82990
 3977.50000   24.37760    4.08630    0.02770   48.81810   88.46700   28.87880    9.02060    8.95560    0.00370   40.94630   57.64920    3.24440    0.28770    2.64880   13.95990   21.77710    0.01020 1800.85820 1821.76840 1817.71660    0.10490    1.83590
 3978.00000   24.27600    4.75460    0.01450   49.02320   88.03090   30.63950    9.01730    8.95540    0.00570   58.31010   81.04570    3.22630    0.28300    2.68070   22.79730   18.93050    0.00850 1803.21330 1823.64720 1805.27370    0.09770    1.83300
 3978.50000   25.05780    5.42300    0.00730   48.58870   87.59360   33.62390    9.01180    8.95520   -0.00010   62.36230   79.69500    3.22330    0.28360    2.70100   20.21060   17.17490    0.00640 1811.62520 1831.56680 1803.79600    0.09190    1.83850
 3979.00000   26.04830    6.21860    0.01190   47.90000   87.13670   33.91770    9.00630    8.95490    0.00000   60.65650   76.31650    3.20600    0.28610    2.69770   20.88670   18.59130    0.00130 1820.03750 1839.48650 1801.03310    0.09450    1.84400
 3979.50000   27.10340    7.21020    0.01490   48.66360   88.19400   32.12720    9.00080    8.95470   -0.00170   58.72460   79.42740    3.18490    0.28860    2.69400   20.21510   21.60890    0.00100 1828.44960 1852.53190 1793.12980    0.10230    1.84290
 3980.00000   28.15850   10.17040    0.01320   49.41790   90.39850   32.10760    8.99530    8.95450    0.00040   63.70820   82.20770    3.17550    0.29110    2.69070   20.50070   29.33390    0.01220 1836.86180 1868.99430 1785.22640    0.11000    1.84310
 3980.50000   31.93950   14.70400    0.01300   50.40830   92.64620   38.85030    8.98980    8.95430    0.00570   70.61100   82.96880    3.22830    0.29010    2.68930   23.01290   37.00790    0.02090 1824.01990 1864.87400 1790.70870    0.11960    1.84400
