~Version ---------------------------------------------------
VERS.   2.0 : CWLS log ASCII Standard -VERSION 2.0
WRAP.    NO : One line per depth step
DLM . SPACE : Column Data Section Delimiter
~Well ------------------------------------------------------
STRT .ft                  45.0 : START DEPTH
STOP .ft                4840.0 : STOP DEPTH
STEP .ft                   0.5 : STEP
NULL .                -9999.25 : NULL VALUE
COMP .                         : COMPANY
WELL .                         : WELL
FLD  .                         : FIELD
LOC  .                         : LOCATION
PROV .                         : PROVINCE
CNTY .                         : COUNTY
STAT .                         : STATE
CTRY .                         : COUNTRY
SRVC .                         : SERVICE COMPANY
DATE .                         : DATE
UWI  .                         : UNIQUE WELL ID
API  .                         : API NUMBER
SLAT .WGS84 1.2375648721258017 : SURFACE LATITUDE
SLON .WGS84 7.2324610566150085 : SURFACE LONGITUDE
DATUM.F                 2601.9 : DEPTH DATUM ELEV
~Curve Information -----------------------------------------
DEPT   .ft    : Depth Curve
CGRR   .GAPI  : CORRECTED GAMMA RAY FROM RESISTIVITY LOG
CGRS   .GAPI  : CORRECTED GAMMA RAY FROM SONIC LOG
DPHZ_LS.DEC   : HGRD STANDARD RESOLUTION DENSITY POROSITY
DTCO   .US/F  : DELTA-T COMPRESSIONAL
DTSM   .US/F  : DELTA-T SHEAR
GR     .GAPI  : GAMMA RAY
HCALD  .IN    : HRCC CALIPER CALIBRATED FROM DENSITY LOG
HCALR  .IN    : HRCC CALIPER CALIBRATED FROM RESISTIVITY LOG
HDRA   .G/C3  : HRDD SPINE AND RIBS DENSITY CORRECTION
HLLD   .OHMM  : HALS LATEROLOG DEEP RESISTIVITY
HLLS   .OHMM  : HALS LATEROLOG SHALLOW RESISTIVITY
PEFZ   .B/E   : HRDD STANDARD RESOLUTION FORMATION PHOTOELECTRIC FACTOR
PR     .N/A   : POISSON'S RATIO
RHOZ   .G/C3  : HRDD STANDARD RESOLUTION FORMATION DENSITY
RXOZ   .OHMM  : INVADED FORMATION RESISTIVITY FILTERED AT 18 INCHES
SGRS   .GAPI  : SPECTROSCOPY GAMMA RAY FROM SONIC LOG
SPHI_LS.DEC   : SONIC POROSITY [LIMESTONE]
TEND   .LBF   : TENSION FROM DENSITY LOG
TENR   .LBF   : TENSION FROM RESISTIVITY LOG
TENS   .LBF   : TENSION FROM SONIC LOG
TNPH_LS.DEC   : THERMAL NEUTRON POROSITY [LIMESTONE]
VPVS   .N/A   : COMPRESSIONAL TO SHEAR VELOCITY RATIO
~Params ----------------------------------------------------
~Other -----------------------------------------------------
~ASCII -----------------------------------------------------
# ...
 2029.00000   22.97480    1.79770   -0.03390   47.34550   89.10390   23.81020    9.75540    9.73920    0.02520 11112.21880 4472.34130    3.60190    0.30630    2.76750 1881.44130   22.41750   -0.00280 1122.01640 1150.25240 1161.91060    0.10290    1.89610
 2029.50000   24.39330    3.01550   -0.03170   47.82950   90.88230   24.48590    9.76590    9.74740    0.02880 4480.41650 3849.60180    3.67700    0.31140    2.76930 1662.78750   25.46300    0.00040 1114.11690 1140.81450 1154.37430    0.11110    1.91230
 2030.00000   24.71790    4.31710   -0.01660   48.35830   91.69640   28.42850    9.77640    9.75400    0.02110 4084.59400 3606.66800    3.71490    0.31210    2.74000 1311.03660   26.91850    0.00600 1120.76750 1143.18510 1161.89920    0.12260    1.91450
 2030.50000   24.47020    4.60930    0.00390   49.01880   92.33360   32.21710    9.78690    9.75340    0.01240 4356.20310 3723.63720    3.71460    0.31110    2.71070 1234.84240   26.86280    0.00960 1135.10310 1153.22920 1162.98500    0.13640    1.90910
 2031.00000   24.22250    4.25260    0.01150   49.32950   92.97070   33.71820    9.78570    9.75340    0.00700 4646.45360 3792.01440    3.71430    0.30960    2.69630 1219.52080   26.50800    0.01070 1144.15340 1163.27330 1162.43230    0.13920    1.90840
 2031.50000   23.60670    3.81680    0.00590   49.05320   92.48060   32.97710    9.78450    9.73950    0.00520 4253.61230 3669.75560    3.69850    0.30980    2.69870 1238.80960   25.41180    0.01080 1153.20370 1173.31750 1167.90870    0.12910    1.90780
 2032.00000   22.39150    2.38800   -0.00700   48.46360   91.79790   33.13370    9.78340    9.72660    0.00510 5664.17380 4020.58570    3.66010    0.30860    2.73490 1243.23680   24.11490    0.00770 1149.08910 1174.95070 1168.29610    0.10540    1.90640
 2032.50000   21.12000    1.35480   -0.03210   47.84600   90.34450   34.18860    9.77760    9.74100    0.00680 14372.27050 4640.92240    3.61750    0.30730    2.77060 1423.18070   21.99800    0.00360 1125.22730 1161.93090 1167.41130    0.08160    1.89960
 2033.00000   19.95160    0.67780   -0.05430   47.27030   88.43780   33.12020    9.77930    9.74000    0.00860 30890.16020 5261.25880    3.61950    0.30580    2.80480 1454.96470   20.33580   -0.00310 1105.63460 1148.91110 1160.22270    0.06000    1.89350
 2033.50000   19.76460    0.24210   -0.07070   46.81740   87.43380   30.82120    9.78110    9.73890    0.00730 33403.56250 5510.13770    3.61460    0.30390    2.82670 1449.64880   19.25580   -0.00650 1116.46200 1140.80710 1173.23570    0.05510    1.88740
 2034.00000   19.14100    0.29740   -0.06290   47.01290   86.66270   28.12070    9.78280    9.72960    0.00510 15260.40040 4744.71240    3.58420    0.30340    2.81440 1319.88930   18.98240   -0.00800 1114.53850 1140.07690 1178.54490    0.06750    1.88560
 2034.50000   18.76360    0.35270   -0.04540   47.20830   87.64830   26.76230    9.78450    9.71230    0.00800 4403.05420 3962.54100    3.55370    0.30500    2.78570 1384.59050   19.99690   -0.00370 1106.36320 1143.22200 1172.29820    0.08380    1.88770
 2035.00000   19.95650    0.39690   -0.02440   47.81180   89.74490   25.96210    9.78630    9.73020    0.01510 3346.03880 2977.28320    3.47350    0.30350    2.75700 1244.72330   22.39230    0.00260 1123.19450 1151.54080 1166.05160    0.10050    1.89600
 2035.50000   22.49840    1.36890   -0.01050   48.94010   91.07800   24.93230    9.77940    9.73690    0.02020 2289.02320 1903.75200    3.40890    0.30200    2.73570 1083.72890   26.54720    0.00870 1135.53740 1159.85950 1165.57630    0.11420    1.89250
 2036.00000   24.11280    3.03030    0.00140   49.46170   92.17010   26.20980    9.77440    9.71440    0.01980 1884.58670 1921.29830    3.38440    0.30060    2.70720  674.14380   30.29800    0.01480 1141.14790 1160.30220 1173.75820    0.12210    1.88320
 2036.50000   24.51550    4.16360    0.01150   50.63070   93.26220   28.36210    9.77120    9.71520    0.01310  619.03460 1205.02370    3.37780    0.29820    2.69450  428.46240   31.86270    0.02080 1127.10120 1158.77610 1181.94010    0.12330    1.87330
 2037.00000   23.97420    4.03630    0.01600   51.24660   94.02410   29.70800    9.76800    9.71220    0.01110  490.44120  914.95560    3.37820    0.29440    2.68940  413.14380   31.76010    0.02690 1117.85970 1144.87520 1185.20290    0.12400    1.86340
 2037.50000   23.00300    3.38360    0.00910   51.41210   94.50060   33.18610    9.76490    9.71300    0.01690  488.12990  895.91450    3.37860    0.29350    2.69550  417.71640   30.62020    0.02780 1113.09590 1143.83340 1187.23600    0.12400    1.85350
 2038.00000   21.46740    2.38880    0.00270   51.12820   93.99600   36.80430    9.76170    9.71150    0.02160  524.39150 1085.19470    3.37900    0.29430    2.70440  478.74230   29.30790    0.02530 1118.60420 1148.80730 1190.87240    0.12200    1.85370
 2038.50000   20.60170    1.15080   -0.00270   50.53850   93.34540   35.65010    9.75860    9.71490    0.02500  648.62370 1290.22450    3.37940    0.29820    2.71300  540.87670   26.52020    0.02160 1127.78480 1155.28490 1181.27650    0.11900    1.85830
 2039.00000   19.37160    0.10680   -0.00150   49.31030   92.38310   31.23040    9.75930    9.71420    0.02250  772.85590 1430.65930    3.37980    0.30200    2.71730  611.99100   23.85220    0.01150 1133.29320 1161.76260 1173.46690    0.11250    1.88160
 2039.50000   18.89930    0.00040   -0.00250   48.26050   91.46830   27.39310    9.76580    9.71250    0.01180  916.67400 1689.21750    3.45960    0.31020    2.71920  624.30310   21.83160    0.00590 1135.61500 1168.24040 1168.33670    0.09620    1.90770
 2040.00000   18.42710    0.00040   -0.01410   47.52070   91.28460   28.01580    9.77230    9.71090   -0.00010 1401.57280 1978.95230    3.55110    0.31410    2.71980  690.81610   21.08810    0.00030 1139.48460 1174.71800 1166.92690    0.07990    1.92250
 2040.50000   18.65200    0.00040   -0.02920   47.71770   90.34560   28.36650    9.77880    9.71140   -0.00340 1942.14700 2015.51340    3.62140    0.30940    2.75370  850.85380   21.60370    0.00370 1143.35420 1178.60470 1168.16030    0.06690    1.91380
 2041.00000   19.78220    0.00040   -0.04210   48.99060   90.62240   29.22300    9.78530    9.74280   -0.00440 3825.70950 3188.94090    3.72830    0.29790    2.78340 1057.75520   24.36700    0.01160 1147.22390 1178.60470 1169.63790    0.07200    1.88450
 2041.50000   22.10000    0.62070   -0.03840   50.04790   91.96700   31.31630    9.79180    9.75570    0.00010 1641.02800 2491.28660    3.75410    0.29060    2.77180  862.32410   28.26370    0.01630 1151.09350 1179.09790 1171.11570    0.09260    1.86150
 2042.00000   23.99820    2.87040   -0.01910   50.88640   93.31170   33.33470    9.78760    9.72700    0.00820  886.43990 2006.49160    3.64340    0.29080    2.74280  764.98630   32.33000    0.02480 1144.00740 1168.41100 1172.59340    0.11440    1.84370
 2042.50000   24.99690    4.32070   -0.00020   51.22020   94.11910   35.84620    9.77620    9.72330    0.00740  649.34590  986.43100    3.51670    0.29170    2.71380  513.18510   35.06840    0.02860 1136.92140 1157.72410 1174.07100    0.12450    1.84830
 2043.00000   24.00770    3.76270    0.01880   51.42050   94.49980   37.83950    9.76480    9.71960    0.00480  454.45440  906.74500    3.38990    0.29160    2.68480  400.69300   33.58130    0.02900 1133.93130 1147.03720 1175.54870    0.12760    1.84830
 2043.50000   22.77310    2.83260    0.01990   51.43740   94.04030   38.72860    9.75350    9.71590    0.00380  437.81740  841.71420    3.33790    0.29140    2.67900  364.02620   31.05280    0.02900 1124.39010 1136.35030 1177.02640    0.12350    1.84530
 2044.00000   21.86170    1.80700    0.00850   51.48010   93.82240   34.82100    9.75400    9.69440    0.01030  393.15340  749.04380    3.34870    0.28930    2.69680  339.57030   28.43980    0.02900 1119.90830 1138.94600 1174.60300    0.11890    1.83890
 2044.50000   21.29710    1.26490   -0.00210   51.30810   93.60440   29.83810    9.73990    9.68670    0.01520  350.31490  639.97180    3.39320    0.28970    2.72520  298.99410   26.53430    0.02770 1135.66390 1162.46220 1169.57890    0.11450    1.83840
