~Version ---------------------------------------------------
VERS.   2.0 : CWLS log ASCII Standard -VERSION 2.0
WRAP.    NO : One line per depth step
DLM . SPACE : Column Data Section Delimiter
~Well ------------------------------------------------------
STRT .ft                  45.0 : START DEPTH
STOP .ft                4840.0 : STOP DEPTH
STEP .ft                   0.5 : STEP
NULL .                -9999.25 : NULL VALUE
COMP .                         : COMPANY
WELL .                         : WELL
FLD  .                         : FIELD
LOC  .                         : LOCATION
PROV .                         : PROVINCE
CNTY .                         : COUNTY
STAT .                         : STATE
CTRY .                         : COUNTRY
SRVC .                         : SERVICE COMPANY
DATE .                         : DATE
UWI  .                         : UNIQUE WELL ID
API  .                         : API NUMBER
SLAT .WGS84 1.2375648721258017 : SURFACE LATITUDE
SLON .WGS84 7.2324610566150085 : SURFACE LONGITUDE
DATUM.F                 2601.9 : DEPTH DATUM ELEV
~Curve Information -----------------------------------------
DEPT   .ft    : Depth Curve
CGRR   .GAPI  : CORRECTED GAMMA RAY FROM RESISTIVITY LOG
CGRS   .GAPI  : CORRECTED GAMMA RAY FROM SONIC LOG
DPHZ_LS.DEC   : HGRD STANDARD RESOLUTION DENSITY POROSITY
DTCO   .US/F  : DELTA-T COMPRESSIONAL
DTSM   .US/F  : DELTA-T SHEAR
GR     .GAPI  : GAMMA RAY
HCALD  .IN    : HRCC CALIPER CALIBRATED FROM DENSITY LOG
HCALR  .IN    : HRCC CALIPER CALIBRATED FROM RESISTIVITY LOG
HDRA   .G/C3  : HRDD SPINE AND RIBS DENSITY CORRECTION
HLLD   .OHMM  : HALS LATEROLOG DEEP RESISTIVITY
HLLS   .OHMM  : HALS LATEROLOG SHALLOW RESISTIVITY
PEFZ   .B/E   : HRDD STANDARD RESOLUTION FORMATION PHOTOELECTRIC FACTOR
PR     .N/A   : POISSON'S RATIO
RHOZ   .G/C3  : HRDD STANDARD RESOLUTION FORMATION DENSITY
RXOZ   .OHMM  : INVADED FORMATION RESISTIVITY FILTERED AT 18 INCHES
SGRS   .GAPI  : SPECTROSCOPY GAMMA RAY FROM SONIC LOG
SPHI_LS.DEC   : SONIC POROSITY [LIMESTONE]
TEND   .LBF   : TENSION FROM DENSITY LOG
TENR   .LBF   : TENSION FROM RESISTIVITY LOG
TENS   .LBF   : TENSION FROM SONIC LOG
TNPH_LS.DEC   : THERMAL NEUTRON POROSITY [LIMESTONE]
VPVS   .N/A   : COMPRESSIONAL TO SHEAR VELOCITY RATIO
~Params ----------------------------------------------------
~Other -----------------------------------------------------
~ASCII -----------------------------------------------------
# ...
 2589.00000    7.93790    0.26050    0.02230   49.99540   90.69760   49.84240    9.42630    9.36380    0.00220  281.54110  335.07570    3.28060    0.28760    2.67780   28.29580   44.30960    0.01780 1365.53410 1398.57780 1357.99120    0.13810    1.83510
 2589.50000   11.04660    0.26980    0.01720   50.21640   90.40610   45.89960    9.42340    9.38570    0.00100  334.25040  516.76230    3.24620    0.28340    2.68510   43.69570   47.76860    0.01910 1349.80400 1396.23950 1369.12340    0.12480    1.82230
 2590.00000   14.50930    0.27910    0.00210   50.16590   90.11940   42.98850    9.42340    9.38850   -0.00330  639.05270  923.03210    3.21270    0.28320    2.69650  240.03090   51.90460    0.01800 1334.07390 1378.56860 1373.64980    0.11070    1.81860
 2590.50000   17.60230    0.28840   -0.00270   49.89980   89.83270   43.91170    9.42780    9.39120   -0.00700 1008.26470 1329.30190    3.18840    0.28800    2.71200  693.91580   55.65030    0.01690 1324.63590 1360.89770 1377.78980    0.09650    1.82710
 2591.00000   20.07210    0.29770   -0.01060   49.45910   89.80050   52.24810    9.43400    9.39400   -0.00420 1246.89540 1423.30810    3.20050    0.29270    2.72740  970.63740   59.13590    0.01440 1323.96280 1368.24350 1384.64380    0.08510    1.84360
 2591.50000   22.04750    2.39390   -0.01110   49.22050   90.84870   56.08960    9.43830    9.41060    0.00390  992.33330 1283.84520    3.21260    0.29750    2.73230  961.33870   62.67610    0.01180 1337.94340 1377.42570 1371.58250    0.08510    1.86280
 2592.00000   25.07790    4.39700   -0.00310   49.20930   91.63960   55.77800    9.44860    9.41850    0.01360  558.69310  761.49790    3.22470    0.30290    2.72110  317.31030   64.94100    0.01200 1351.92400 1401.52660 1358.52120    0.08980    1.87690
 2592.50000   24.80850    3.79320    0.00820   49.20500   92.04460   49.47310    9.45660    9.41860    0.02110  298.46610  311.97570    3.26220    0.30840    2.70570   50.50650   60.40600    0.01190 1362.43120 1401.42330 1368.56950    0.11200    1.88600
 2593.00000   22.92300    2.22310    0.01950   49.16270   92.18780   46.16450    9.46100    9.41650    0.02610  307.54180  310.42070    3.30620    0.30780    2.68940   30.03130   55.19970    0.01180 1359.04550 1401.31990 1378.61780    0.12360    1.89470
 2593.50000   20.22950    0.11380    0.02760   49.23980   91.91100   48.65360    9.46540    9.41610    0.02000  322.73940  333.24300    3.34340    0.30550    2.67240   32.64200   49.55810    0.01190 1355.65980 1386.60640 1397.35100    0.12520    1.89300
 2594.00000   19.52230    0.00290    0.03370   49.44710   91.33820   53.87190    9.46290    9.41570    0.01780  337.93700  356.75500    3.33910    0.29980    2.66040   43.31850   44.41860    0.01370 1344.16500 1368.24050 1387.23050    0.11090    1.87370
 2594.50000   19.93760    0.00780    0.02810   49.71780   90.93700   57.19530    9.45870    9.38530    0.02030  293.90760  325.98540    3.32990    0.29230    2.66130   49.03580   38.44560    0.01600 1327.26420 1365.94460 1373.92850    0.09420    1.84960
 2595.00000   20.16250    0.01270    0.01850   49.74920   90.53580   54.60200    9.44830    9.40940    0.02240  267.79050  291.81410    3.43220    0.29480    2.66390   55.52940   35.46480    0.01430 1324.25520 1378.57090 1365.77820    0.06620    1.84200
 2595.50000   20.49900    0.20090    0.01170   48.85820   89.94470   48.57280    9.44780    9.40850    0.01810  306.02840  719.57040    3.59090    0.30050    2.67780  105.96470   33.98500    0.00880 1333.87300 1381.09620 1358.52120    0.04210    1.86580
 2596.00000   19.96030    0.20090    0.00690   48.15650   89.65990   44.76050    9.44720    9.40770    0.01430  843.42740 1404.73020    4.08770    0.30610    2.69160  306.52230   31.35490    0.00310 1339.64360 1381.09620 1364.00210    0.02260    1.88950
 2596.50000   17.71860    0.20090    0.00200   47.35070   88.65460   40.75030    9.44660    9.40680    0.00960 1489.27000 1970.99320    4.35000    0.30960    2.70550  970.57790   26.43320   -0.00270 1336.32320 1381.09620 1373.13680    0.00850    1.90410
 2597.00000   16.57060    0.20090   -0.00640   46.72470   87.61260   37.85930    9.45180    9.40600    0.00400 9567.23440 5456.02000    4.62280    0.30970    2.71940 1142.21850   22.35520   -0.00840 1331.43030 1377.72750 1371.91890    0.00230    1.90480
 2597.50000   16.25630    0.20090   -0.01510   46.37730   87.57250   34.79540    9.45840    9.40510   -0.00070 10690.03710 6256.53080    4.62430    0.31030    2.73320 1168.61580   20.09450   -0.00880 1326.53740 1373.51820 1365.64070    0.00080    1.92070
 2598.00000   16.99700    0.20090   -0.01330   46.15610   87.59110   32.58240    9.46500    9.41040   -0.00570 13571.37010 5915.56690    4.58750    0.30910    2.73960 1936.89860   19.71460   -0.01010 1321.64450 1369.30900 1361.97990    0.00110    1.92250
 2598.50000   19.03970    0.20090   -0.00970   46.56880   86.88220   31.29840    9.47160    9.42390   -0.00940 19252.81450 6427.57080    4.50960    0.30390    2.74600 1936.69890   21.20170   -0.00760 1316.85250 1365.09960 1361.49690    0.00640    1.88830
 2599.00000   20.80710    0.63160   -0.01550   46.91820   86.41490   30.89160    9.47820    9.39670   -0.00810 18458.10160 4232.31980    4.43160    0.29770    2.75100 1899.91660   23.84230   -0.00500 1316.85250 1360.89030 1373.72610    0.01960    1.86370
 2599.50000   23.01970    2.28230   -0.02640   47.30260   86.48460   31.11400    9.48480    9.42850    0.00110 6516.38620 2009.69340    4.19760    0.29610    2.75110  634.93980   26.28830   -0.00340 1321.62620 1360.81480 1377.53830    0.03290    1.85570
 2600.00000   24.00090    2.79020   -0.02320   47.97130   88.14930   31.77540    9.49140    9.46030    0.00900 1917.29380  190.62500    3.79390    0.29600    2.72940  199.71780   25.86870    0.00350 1323.08340 1360.73930 1373.96030    0.05320    1.85700
 2600.50000   23.05340    2.67380   -0.00510   48.90390   90.82910   32.69660    9.46500    9.41800    0.01700  553.65150  185.44970    3.54040    0.29660    2.70840   18.60170   24.98420    0.00790 1324.54060 1360.66380 1369.05140    0.08400    1.86020
 2601.00000   22.79820    2.55740    0.02390   49.49420   92.16780   30.87350    9.44970    9.39620    0.01390  266.97880  216.36510    3.28860    0.29710    2.68740   10.42490   24.32080    0.01510 1325.99790 1360.58830 1379.53870    0.11180    1.86340
 2601.50000   22.99100    2.77510    0.03800   50.08440   93.03440   28.93940    9.44490    9.41310    0.00600  234.54590  260.58230    3.23060    0.29770    2.66640   10.61030   24.74510    0.01910 1330.67860 1360.51280 1379.53870    0.12780    1.86360
 2602.00000   22.60390    2.39780    0.04110   50.67470   93.27740   28.39040    9.44090    9.40450    0.00700  207.42650  289.82030    3.24680    0.29590    2.64940   11.65450   24.60050    0.02130 1335.35930 1360.43730 1375.14120    0.13470    1.85770
 2602.50000   21.56420    1.38810    0.03860   50.96460   93.21610   29.29620    9.43760    9.40010    0.01300  182.68760  281.44130    3.31070    0.29560    2.64960    9.90050   22.99970    0.02400 1336.23850 1360.36170 1378.51100    0.12720    1.85560
 2603.00000   20.92570    0.76900    0.03100   50.54020   93.41030   29.52610    9.43420    9.39580    0.02540  188.24690  269.25580    3.39040    0.30270    2.65540   10.96120   21.61160    0.02220 1334.58330 1360.28630 1374.26010    0.11470    1.87770
 2603.50000   20.40070    0.19740    0.02250   49.81920   93.60000   28.24570    9.42900    9.41480    0.03410  201.52640  233.89230    3.48190    0.31170    2.66180   10.81940   20.80650    0.01670 1324.66170 1360.21070 1381.55770    0.09980    1.91130
 2604.00000   20.19030    0.23550    0.01620   49.03130   92.42370   25.84420    9.42100    9.37660    0.03870  254.81030  193.19760    3.54220    0.31110    2.67770   12.08590   21.02010    0.01160 1309.22940 1335.47840 1381.55770    0.08490    1.91120
 2604.50000   20.05480    0.27370    0.00880   48.64300   90.54220   24.38430    9.41300    9.40110    0.03500  370.37420  183.39950    3.58150    0.30770    2.69170   16.94330   23.86090    0.00830 1292.94490 1326.32530 1381.55770    0.07000    1.90010
