~Version ---------------------------------------------------
VERS.   2.0 : CWLS log ASCII Standard -VERSION 2.0
WRAP.    NO : One line per depth step
DLM . SPACE : Column Data Section Delimiter
~Well ------------------------------------------------------
STRT .ft                  45.0 : START DEPTH
STOP .ft                4840.0 : STOP DEPTH
STEP .ft                   0.5 : STEP
NULL .                -9999.25 : NULL VALUE
COMP .                         : COMPANY
WELL .                         : WELL
FLD  .                         : FIELD
LOC  .                         : LOCATION
PROV .                         : PROVINCE
CNTY .                         : COUNTY
STAT .                         : STATE
CTRY .                         : COUNTRY
SRVC .                         : SERVICE COMPANY
DATE .                         : DATE
UWI  .                         : UNIQUE WELL ID
API  .                         : API NUMBER
SLAT .WGS84 1.2375648721258017 : SURFACE LATITUDE
SLON .WGS84 7.2324610566150085 : SURFACE LONGITUDE
DATUM.F                 2601.9 : DEPTH DATUM ELEV
~Curve Information -----------------------------------------
DEPT   .ft    : Depth Curve
CGRR   .GAPI  : CORRECTED GAMMA RAY FROM RESISTIVITY LOG
CGRS   .GAPI  : CORRECTED GAMMA RAY FROM SONIC LOG
DPHZ_LS.DEC   : HGRD STANDARD RESOLUTION DENSITY POROSITY
DTCO   .US/F  : DELTA-T COMPRESSIONAL
DTSM   .US/F  : DELTA-T SHEAR
GR     .GAPI  : GAMMA RAY
HCALD  .IN    : HRCC CALIPER CALIBRATED FROM DENSITY LOG
HCALR  .IN    : HRCC CALIPER CALIBRATED FROM RESISTIVITY LOG
HDRA   .G/C3  : HRDD SPINE AND RIBS DENSITY CORRECTION
HLLD   .OHMM  : HALS LATEROLOG DEEP RESISTIVITY
HLLS   .OHMM  : HALS LATEROLOG SHALLOW RESISTIVITY
PEFZ   .B/E   : HRDD STANDARD RESOLUTION FORMATION PHOTOELECTRIC FACTOR
PR     .N/A   : POISSON'S RATIO
RHOZ   .G/C3  : HRDD STANDARD RESOLUTION FORMATION DENSITY
RXOZ   .OHMM  : INVADED FORMATION RESISTIVITY FILTERED AT 18 INCHES
SGRS   .GAPI  : SPECTROSCOPY GAMMA RAY FROM SONIC LOG
SPHI_LS.DEC   : SONIC POROSITY [LIMESTONE]
TEND   .LBF   : TENSION FROM DENSITY LOG
TENR   .LBF   : TENSION FROM RESISTIVITY LOG
TENS   .LBF   : TENSION FROM SONIC LOG
TNPH_LS.DEC   : THERMAL NEUTRON POROSITY [LIMESTONE]
VPVS   .N/A   : COMPRESSIONAL TO SHEAR VELOCITY RATIO
~Params ----------------------------------------------------
~Other -----------------------------------------------------
~ASCII -----------------------------------------------------
# ...
 3693.00000   35.65680   13.73570   -0.03710   49.32030   87.96230   77.55460    8.68660    8.63220    0.01100  141.63150  216.62050    3.38410    0.27900    2.77360  145.13370   99.94720    0.01140 1751.10420 1782.89490 1720.77200    0.06780    1.81480
 3693.50000   36.10270   16.36280   -0.04020   48.54970   86.50670   93.26050    8.69750    8.68290    0.00720  160.12600  224.77140    3.38990    0.27840    2.78790  132.68860  114.98980    0.00880 1752.46840 1786.20900 1714.85250    0.06710    1.80720
 3694.00000   32.58870   13.31490   -0.05890   47.92410   84.74630   98.19010    8.70000    8.65090    0.00550  215.98140  334.95820    3.35480    0.27770    2.80630  400.75690   99.46400    0.00230 1753.83250 1789.52290 1711.62810    0.06640    1.80100
 3694.50000   25.72340    6.45220   -0.07610   46.89240   83.11950   93.34790    8.70250    8.66560    0.00610 2004.37480 9280.30960    3.29020    0.28060    2.82460 1683.44270   83.13890   -0.00660 1755.19650 1792.83700 1708.40360    0.02580    1.78660
 3695.00000   22.16360    3.03340   -0.08220   45.10150   81.49270   72.80690    8.69760    8.65440    0.00740 12286.32520 16672.06840    3.26650    0.28340    2.83960 1978.78340   70.34220   -0.01710 1756.56050 1792.11790 1705.17910    0.01630    1.76860
 3695.50000   20.87420    0.78840   -0.08190   44.27970   80.51780   58.36800    8.69190    8.65460    0.00980 11204.89360 14305.46090    3.25180    0.29150    2.84650 2002.49440   67.64560   -0.02280 1757.92470 1775.26680 1707.86890    0.01120    1.76020
 3696.00000   22.48990    2.09050   -0.08590   43.73650   79.97800   51.46990    8.69220    8.65480    0.01280 10018.71970 13913.63770    3.23130    0.29350    2.85480 2002.49440   70.74070   -0.02870 1768.13840 1758.41560 1719.43010    0.01460    1.79920
 3696.50000   24.84640    3.60460   -0.09260   43.76720   79.30910   57.87470    8.69650    8.67130    0.01760 9174.09280 13222.12210    3.21090    0.29400    2.86430 2000.57100   72.90010   -0.02870 1753.98360 1747.48450 1730.99120    0.01840    1.86220
 3697.00000   26.26010    6.31830   -0.09530   43.91600   79.24410   68.18620    8.71590    8.65480    0.02060 7175.25390 11612.04200    3.18520    0.29540    2.86770 1999.74850   71.34210   -0.02720 1743.29350 1745.43350 1727.22470    0.02570    1.85150
 3697.50000   24.60680    4.69820   -0.08730   43.99600   79.59620   76.30460    8.73540    8.71840    0.02100 1993.75770 2076.56570    3.18790    0.29670    2.84880 1949.96580   62.26340   -0.02650 1766.66170 1743.38260 1734.54820    0.03290    1.85440
 3698.00000   22.95350    1.26410   -0.07100   44.05880   81.57470   74.84200    8.75480    8.73160    0.02130 1048.11510  993.25720    3.23200    0.29700    2.82620 1739.40220   52.15380   -0.02590 1789.39600 1773.11470 1732.24190    0.04020    1.87630
 3698.50000   25.87500    4.31950   -0.05080   45.20650   83.41750   61.05040    8.75560    8.74490    0.02220  340.96590  620.31500    3.26260    0.30000    2.80510 1296.73070   44.16330   -0.01790 1789.39600 1788.30990 1721.77340    0.04690    1.87940
 3699.00000   31.31220    8.81460   -0.04320   46.75850   85.09430   47.67180    8.75770    8.75820    0.02410  314.38550  579.86700    3.26510    0.29480    2.79040  850.10550   47.83650   -0.00640 1789.39600 1785.87460 1711.30490    0.05340    1.87430
 3699.50000   36.74940   15.43060   -0.04460   48.31040   87.03170   41.92260    8.76500    8.75960    0.02310  299.26900  459.53960    3.28390    0.29150    2.78330 1013.53250   66.40860    0.00450 1799.54030 1791.62950 1714.43530    0.06130    1.85720
 3700.00000   44.02880   23.54550   -0.04700   49.45860   89.38960   51.32170    8.77230    8.76490    0.02060  208.22910  281.29980    3.35060    0.28610    2.79010  477.95310   99.86290    0.01370 1742.77100 1772.18880 1718.08840    0.07100    1.84010
 3700.50000   50.05860   28.88560   -0.04930   49.94990   89.81700   72.99940    8.77960    8.76640    0.01870  132.24410  244.54780    3.41650    0.28420    2.79440  219.27210  103.07970    0.01890 1698.84050 1746.44920 1718.94760    0.09820    1.82300
 3701.00000   47.20740   25.88530   -0.05270   51.05450   89.82080   90.42110    8.78680    8.69460    0.01600  225.38040  317.14330    3.41080    0.27210    2.79740  220.33180   99.59100    0.02230 1696.27730 1730.38880 1712.09770    0.09550    1.78780
 3701.50000   42.33300   21.12520   -0.05430   51.89740   89.75500   86.25430    8.79410    8.72600    0.01260  379.57250  583.64520    3.33230    0.26010    2.79810 1092.48010   65.20750    0.03130 1687.05600 1748.20400 1705.24760    0.08270    1.75800
 3702.00000   38.43490   19.26660   -0.05050   52.43310   89.57230   69.83910    8.80140    8.75730    0.00240  410.50370  619.03420    3.26430    0.24800    2.79320 1010.92760   52.72980    0.03550 1683.65820 1725.30650 1713.82300    0.06750    1.73360
 3702.50000   38.98460   20.79960   -0.04460   52.91190   89.30320   50.10520    8.80870    8.79630   -0.00070  267.47590  411.11770    3.23350    0.24320    2.78720  626.93420   49.69210    0.04010 1703.55470 1747.61080 1726.25500    0.07090    1.71440
 3703.00000   46.00120   25.20740   -0.04480   52.52030   89.28720   46.12810    8.81600    8.80860   -0.00540  126.33700  251.48160    3.22490    0.24620    2.78470  242.94080   65.74300    0.03810 1719.47190 1755.00310 1731.22780    0.08220    1.73690
 3703.50000   50.48660   30.12950   -0.04860   51.06210   89.27110   57.09010    8.82330    8.80710   -0.00580  126.35540  224.20950    3.22250    0.26110    2.79080  164.63310   76.85610    0.02840 1706.45570 1760.36690 1731.22780    0.09350    1.77460
 3704.00000   44.75120   30.32830   -0.05190   50.59940   88.30920   67.56420    8.83060    8.80560   -0.00210  288.86000  366.32900    3.22010    0.26720    2.79650  235.16380   70.04450    0.02200 1692.76720 1751.67700 1729.03590    0.09580    1.76510
 3704.50000   31.39730   15.35290   -0.04870   50.21150   86.90500   67.63820    8.83790    8.80410   -0.00050  455.31570  800.54690    3.18580    0.26090    2.79390  748.31100   52.89980    0.01990 1679.07890 1742.98710 1722.52400    0.08170    1.75390
 3705.00000   21.59260    0.47800   -0.04210   49.78000   86.03850   56.61600    8.84510    8.80260    0.00220  397.70840  688.03090    3.17970    0.25750    2.78050  458.97450   42.00610    0.01560 1680.40010 1734.29720 1716.01250    0.07130    1.75570
 3705.50000   21.37570    1.92080   -0.02960   48.99480   85.70160   43.21690    8.85240    8.78910    0.00490  253.48650  424.73350    3.17310    0.27260    2.76550  147.34160   40.40280    0.00940 1691.72830 1725.60740 1713.92140    0.07520    1.80400
 3706.00000   24.07760    2.94780   -0.01420   47.71400   85.85310   37.78510    8.85970    8.79700    0.00690  138.11480  255.62240    3.18000    0.28600    2.74420   53.04710   45.76530    0.00270 1665.40600 1716.91750 1718.46140    0.08290    1.82690
 3706.50000   25.56700    5.09300    0.00100   47.95470   86.57350   37.46260    8.86700    8.81360    0.00940  139.42590  255.67510    3.21330    0.28170    2.72290   52.07270   50.05260    0.00320 1643.96510 1708.22750 1723.00130    0.08750    1.81700
 3707.00000   27.49310    6.99980    0.00950   48.78300   87.29400   39.59140    8.86510    8.80590    0.01100  224.37880  362.11440    3.27280    0.27580    2.70160  105.27550   55.03580    0.00840 1637.35780 1701.27580 1722.96770    0.08700    1.80480
 3707.50000   30.94540   11.31900    0.01010   49.48670   87.65740   43.78990    8.85720    8.78900    0.01180  289.27110  436.47560    3.34380    0.27220    2.69670  228.23370   67.59490    0.01350 1633.23140 1715.57890 1720.96850    0.08310    1.79250
 3708.00000   38.30200   18.43440    0.00140   49.02640   87.05040   52.10830    8.84920    8.77370    0.01170  258.80980  389.48120    3.39750    0.27660    2.71480  228.28230   84.68670    0.01400 1629.10510 1734.83090 1711.10750    0.07900    1.79700
 3708.50000   40.22940   17.75950   -0.01890   48.62440   86.11940   63.83490    8.84070    8.75840    0.01090  616.27320  374.64030    3.42520    0.28110    2.73680  265.15950  100.44060    0.00980 1630.03630 1743.13570 1707.64750    0.07770    1.81210
