~Version ---------------------------------------------------
VERS.   2.0 : CWLS log ASCII Standard -VERSION 2.0
WRAP.    NO : One line per depth step
DLM . SPACE : Column Data Section Delimiter
~Well ------------------------------------------------------
STRT .F                4184.0 : START DEPTH
STOP .F               12644.0 : STOP DEPTH
STEP .F                   0.5 : STEP
NULL .               -9999.25 : NULL VALUE
COMP .                        : COMPANY
WELL .                        : WELL
FLD  .                        : FIELD
LOC  .                        : LOCATION
PROV .                        : PROVINCE
CNTY .                        : COUNTY
STAT .                        : STATE
CTRY .                        : COUNTRY
SRVC .                        : SERVICE COMPANY
DATE .                        : DATE
UWI  .                        : UNIQUE WELL ID
API  .                        : API NUMBER
SLAT .WGS84 5.507655973853105 : SURFACE LATITUDE
SLON .WGS84 3.878737303608915 : SURFACE LONGITUDE
DATUM.F                1842.0 : DEPTH DATUM ELEV
~Curve Information -----------------------------------------
DEPT.F     : 
SPR .MV    : SPONTANEOUS POTENTIAL FROM RES.
CILD.MMHO  : CONDUCTIVITY INDUCTION LOG DEEP
SFLU.OHMM  : SPHERICALLY FOCUSED LOG UNAVERAGED RESISTIVITY
ILM .OHMM  : INDUCTION LOG MEDIUM
DRHO.G/C3  : DENSITY CORRECTION
RHOB.G/C3  : BULK DENSITY
PEF .B/E   : PHOTOELECTRIC FACTOR
DPHI.DEC   : DENSITY POROSITY LIMESTONE
NPHI.DEC   : NEUTRON POROSITY LIMESTONE
DTCO.US/F  : COMPRESSIONAL-WAVE INTERVAL TRANSIT TIME ACOUSTIC SLOWNESS
DTSM.US/F  : SHEAR-WAVE INTERVAL TRANSIT TIME DELTA-T
GRR .GAPI  : GAMMA RAY FROM RES. LOG.
ILD .OHMM  : INDUCTION LOG DEEP
CALD.IN    : CALIPER FDC LOG
~Params ----------------------------------------------------
~Other -----------------------------------------------------
~ASCII -----------------------------------------------------
# ...
 10063.00000   33.28060   37.58740   46.82470   -9999.25   -9999.25   -9999.25   -9999.25   -9999.25   -9999.25   -9999.25   -9999.25   93.15690   38.79700   -9999.25
 10063.50000   33.28060   39.00610   45.07720   -9999.25   -9999.25   -9999.25   -9999.25   -9999.25   -9999.25   -9999.25   -9999.25   97.25130   36.95460   -9999.25
 10064.00000   33.28060   40.42490   42.66540   -9999.25   -9999.25   -9999.25   -9999.25   -9999.25   -9999.25   -9999.25   -9999.25  101.34560   35.11220   -9999.25
 10064.50000   33.28060   41.84370   40.25350   -9999.25   -9999.25   -9999.25   -9999.25   -9999.25   -9999.25   -9999.25   -9999.25  102.77540   33.26980   -9999.25
 10065.00000   33.28060   43.26250   37.84160   -9999.25   -9999.25   -9999.25   -9999.25   -9999.25   -9999.25   -9999.25   -9999.25  100.65240   31.42740   -9999.25
 10065.50000   33.28060   44.25880   35.42970   -9999.25   -9999.25   -9999.25   -9999.25   -9999.25   -9999.25   -9999.25   -9999.25   98.52940   29.58500   -9999.25
 10066.00000   33.28060   44.75540   33.01780   -9999.25   -9999.25   -9999.25   -9999.25   -9999.25   -9999.25   -9999.25   -9999.25   96.40640   28.61390   -9999.25
 10066.50000   33.28060   45.25200   31.78220   -9999.25   -9999.25   -9999.25   -9999.25   -9999.25   -9999.25   -9999.25   -9999.25   91.86750   28.71190   -9999.25
 10067.00000   32.95810   45.74850   33.64040   -9999.25   -9999.25   -9999.25   -9999.25   -9999.25   -9999.25   -9999.25   -9999.25   84.79080   30.62970   -9999.25
 10067.50000   32.31620   44.81410   37.33860   -9999.25   -9999.25   -9999.25   -9999.25   -9999.25   -9999.25   -9999.25   -9999.25   77.71410   34.24750   -9999.25
 10068.00000   31.67430   42.54400   41.03680   -9999.25   -9999.25   -9999.25   -9999.25   -9999.25   -9999.25   -9999.25   -9999.25   73.75700   37.86530   -9999.25
 10068.50000   31.03240   40.27400   44.73510   -9999.25   -9999.25   -9999.25   -9999.25   -9999.25   -9999.25   -9999.25   -9999.25   72.87550   41.48320   -9999.25
 10069.00000   30.39050   38.00390   48.43330   -9999.25   -9999.25   -9999.25   -9999.25   -9999.25   -9999.25   -9999.25   -9999.25   72.60960   45.10100   -9999.25
 10069.50000   29.74860   35.73390   55.61390   -9999.25   -9999.25   -9999.25   -9999.25   -9999.25   -9999.25   -9999.25   -9999.25   72.60960   46.79580   -9999.25
 10070.00000   22.14290   33.46380   58.81190   48.98870    0.00960   -9999.25   -9999.25    0.01390    0.07830   -9999.25   -9999.25   72.60960   47.07720    9.30380
 10070.50000   22.14290   -9999.25   66.33660   48.98870    0.01060   -9999.25   -9999.25    0.01190    0.07910   -9999.25   -9999.25   63.31230   47.35860    9.32890
 10071.00000   21.78010   -9999.25   64.46530   48.32490    0.01010   -9999.25   -9999.25    0.01250    0.08890   -9999.25   -9999.25   64.56230   47.64000    9.37870
 10071.50000   21.20180   -9999.25   61.45050   45.72550    0.00940   -9999.25   -9999.25    0.02040    0.10160   -9999.25   -9999.25   65.81230   47.92140    9.42850
 10072.00000   20.55560   -9999.25   52.87430   43.26590    0.00880   -9999.25   -9999.25    0.02680    0.11150   -9999.25   -9999.25   67.06230   46.51680    9.48130
 10072.50000   20.15870   -9999.25   47.39730   40.93870    0.00810   -9999.25   -9999.25    0.03370    0.11940   -9999.25   -9999.25   68.31230   44.20540    9.50940
 10073.00000   19.34920   -9999.25   45.23370   38.65320    0.00770   -9999.25   -9999.25    0.04200    0.11970   -9999.25   -9999.25   69.56230   41.89410    9.54040
 10073.50000   18.49210   -9999.25   42.88560   36.29520    0.00770   -9999.25   -9999.25    0.04990    0.12000   -9999.25   -9999.25   70.81230   39.58270    9.65880
 10074.00000   17.59260   -9999.25   39.77030   33.99410    0.00910   -9999.25   -9999.25    0.05490    0.12010   -9999.25   -9999.25   70.59520   37.27130    9.65880
 10074.50000   16.69310   -9999.25   38.91090   31.83890    0.01100   -9999.25   -9999.25    0.05700    0.11990   -9999.25   -9999.25   69.07740   34.95990    9.65880
 10075.00000   15.79360   -9999.25   39.20790   29.94750    0.01310   -9999.25   -9999.25    0.05510    0.11820   -9999.25   -9999.25   68.15480   33.91090    9.65880
 10075.50000   15.86080   -9999.25   39.60990   29.94750    0.01610   -9999.25   -9999.25    0.05360    0.10660   -9999.25   -9999.25   70.84180   34.21680    9.65880
 10076.00000   16.17220   -9999.25   45.41780   29.94750    0.01850   -9999.25   -9999.25    0.05510    0.08940   -9999.25   -9999.25   77.78060   35.28320    9.62770
 10076.50000   16.48350   -9999.25   49.78460   32.05630    0.02260   -9999.25   -9999.25    0.05250    0.07090   -9999.25   -9999.25   84.71940   36.48910    9.55300
 10077.00000   16.79490   -9999.25   52.47530   35.20060    0.02840   -9999.25   -9999.25    0.04480    0.06240   -9999.25   -9999.25   90.29760   37.69500    9.48130
 10077.50000   17.10620   -9999.25   56.43560   40.08830    0.02840   -9999.25   -9999.25    0.03520    0.07510   -9999.25   -9999.25   94.34520   38.90100    9.48130
 10078.00000   17.38100   -9999.25   58.41580   39.88070    0.02590   -9999.25   -9999.25    0.03210    0.09610   -9999.25   -9999.25   97.91670   40.10690    9.48130
 10078.50000   18.20350   -9999.25   58.41580   39.54290    0.02210   -9999.25   -9999.25    0.03180    0.10910   -9999.25   -9999.25  104.02380   41.31290    9.48130
 10079.00000   18.93940   -9999.25   56.43560   39.20800    0.01650   -9999.25   -9999.25    0.03440    0.10110   -9999.25   -9999.25  108.63100   42.51880    9.48130
 10079.50000   19.67530   -9999.25   56.43560   38.87590    0.01090   -9999.25   -9999.25    0.04140    0.08820   -9999.25   -9999.25  108.63100   43.72480    9.48130
 10080.00000   20.55560   -9999.25   52.47530   38.15330    0.00820   -9999.25   -9999.25    0.04860    0.07590   -9999.25   -9999.25  103.27380   45.04950    9.48130
 10080.50000   20.55560   -9999.25   50.49500   36.65350    0.00930   -9999.25   -9999.25    0.05140    0.07970   -9999.25   -9999.25   97.80950   43.78120    9.54690
 10081.00000   20.47620   -9999.25   50.49500   34.64890    0.01050   -9999.25   -9999.25    0.04990    0.08570   -9999.25   -9999.25   92.34520   42.37430    9.60670
 10081.50000   20.34970   -9999.25   48.95120   34.81060    0.01170   -9999.25   -9999.25    0.04750    0.09160   -9999.25   -9999.25   87.20240   40.96730    9.65750
 10082.00000   20.22320   -9999.25   47.22770   35.22020    0.01220   -9999.25   -9999.25    0.04620    0.09340   -9999.25   -9999.25   87.20240   39.56040    9.64790
 10082.50000   20.09670   -9999.25   44.55690   34.97570    0.01050   -9999.25   -9999.25    0.04460    0.09470   -9999.25   -9999.25   87.79760   38.15350    9.63830
 10083.00000   19.97020   -9999.25   41.77660   33.80570    0.00880   -9999.25   -9999.25    0.04270    0.09760   -9999.25   -9999.25   92.79760   36.74650    9.62860
 10083.50000   19.84380   -9999.25   38.99620   32.67480    0.00660   -9999.25   -9999.25    0.04380    0.10470   -9999.25   -9999.25   96.72620   35.33960    9.61900
 10084.00000   19.25170   -9999.25   36.21580   31.58180    0.00430   -9999.25   -9999.25    0.05090    0.11350   -9999.25   -9999.25   97.32140   33.93270    9.60930
 10084.50000   17.80610   -9999.25   33.43550   30.49830    0.00200   -9999.25   -9999.25    0.06310    0.12630   -9999.25   -9999.25   94.40480   32.52570    9.59960
 10085.00000   16.36050   -9999.25   30.79210   28.48330    0.00510   -9999.25   -9999.25    0.07170    0.13550   -9999.25   -9999.25   91.36900   31.11880    9.64340
 10085.50000   15.17860   -9999.25   30.19800   26.55300    0.00880   -9999.25   -9999.25    0.07560    0.14430   -9999.25   -9999.25   90.17860   29.71190    9.67750
 10086.00000   14.16670   -9999.25   30.00000   24.50660    0.01410   -9999.25   -9999.25    0.07190    0.14840   -9999.25   -9999.25   90.17860   28.41580    9.67280
 10086.50000   13.15480   -9999.25   29.80200   24.50660    0.02100   -9999.25   -9999.25    0.06180    0.14640   -9999.25   -9999.25   99.18150   28.41580    9.66800
