~Version ---------------------------------------------------
VERS.   2.0 : CWLS log ASCII Standard -VERSION 2.0
WRAP.    NO : One line per depth step
DLM . SPACE : Column Data Section Delimiter
~Well ------------------------------------------------------
STRT .F                4184.0 : START DEPTH
STOP .F               12644.0 : STOP DEPTH
STEP .F                   0.5 : STEP
NULL .               -9999.25 : NULL VALUE
COMP .                        : COMPANY
WELL .                        : WELL
FLD  .                        : FIELD
LOC  .                        : LOCATION
PROV .                        : PROVINCE
CNTY .                        : COUNTY
STAT .                        : STATE
CTRY .                        : COUNTRY
SRVC .                        : SERVICE COMPANY
DATE .                        : DATE
UWI  .                        : UNIQUE WELL ID
API  .                        : API NUMBER
SLAT .WGS84 5.507655973853105 : SURFACE LATITUDE
SLON .WGS84 3.878737303608915 : SURFACE LONGITUDE
DATUM.F                1842.0 : DEPTH DATUM ELEV
~Curve Information -----------------------------------------
DEPT.F     : 
SPR .MV    : SPONTANEOUS POTENTIAL FROM RES.
CILD.MMHO  : CONDUCTIVITY INDUCTION LOG DEEP
SFLU.OHMM  : SPHERICALLY FOCUSED LOG UNAVERAGED RESISTIVITY
ILM .OHMM  : INDUCTION LOG MEDIUM
DRHO.G/C3  : DENSITY CORRECTION
RHOB.G/C3  : BULK DENSITY
PEF .B/E   : PHOTOELECTRIC FACTOR
DPHI.DEC   : DENSITY POROSITY LIMESTONE
NPHI.DEC   : NEUTRON POROSITY LIMESTONE
DTCO.US/F  : COMPRESSIONAL-WAVE INTERVAL TRANSIT TIME ACOUSTIC SLOWNESS
DTSM.US/F  : SHEAR-WAVE INTERVAL TRANSIT TIME DELTA-T
GRR .GAPI  : GAMMA RAY FROM RES. LOG.
ILD .OHMM  : INDUCTION LOG DEEP
CALD.IN    : CALIPER FDC LOG
~Params ----------------------------------------------------
~Other -----------------------------------------------------
~ASCII -----------------------------------------------------
# ...
 11767.00000   59.77980   -9999.25   52.15240   42.34150    0.00280    2.56220    3.08270    0.08200    0.05380   59.96910  101.96910  104.10710   43.12040    8.04140
 11767.50000   59.72830   -9999.25   55.65560   45.61050    0.00370    2.55600    3.07770    0.08880    0.04980   59.11200  100.54440   96.72620   46.04480    8.04140
 11768.00000   59.67680   -9999.25   69.78700   49.34540    0.00460    2.55820    3.10460    0.08830    0.04440   58.40040   98.49420   91.22450   49.35620    8.04140
 11768.50000   59.62540   -9999.25   84.85370   53.38610    0.00550    2.59170    3.25550    0.07490    0.03740   57.70270   96.76300   87.99750   52.90560    8.04140
 11769.00000   59.57390   -9999.25  103.17320   57.72190    0.00640    2.61870    3.39800    0.05870    0.03010   56.85200   94.68730   84.77040   56.71040    8.04140
 11769.50000   59.52240   -9999.25  133.84180   66.70580    0.00700    2.63230    3.51380    0.04720    0.02610   55.54950   92.61150   81.99110   60.78870    8.04140
 11770.00000   59.47090   -9999.25  180.83690   77.00080    0.00740    2.63620    3.51850    0.04280    0.02380   54.09270   91.93050   81.25000   65.16030    8.04140
 11770.50000   59.49330   -9999.25  292.75920   88.88470    0.00720    2.63380    3.48290    0.04350    0.02350   54.09270   93.47490   82.20180   70.53720    8.04140
 11771.00000   59.59370   -9999.25  754.25210  101.56430    0.00630    2.63030    3.44730    0.04500    0.02420   53.87950   92.56150   84.15950   71.83470    8.04140
 11771.50000   59.69400   -9999.25  841.42110  101.56430    0.00510    2.62440    3.35940    0.04760    0.02670   53.70660   91.72420   86.11730   73.15610    8.04140
 11772.00000   59.79440   -9999.25  841.42110  101.56430    0.00330    2.60740    3.22410    0.05430    0.03050   55.26200   91.83670   88.07500   73.15610    8.04140
 11772.50000   59.89480   -9999.25  651.90970   97.92850    0.00170    2.58860    3.08880    0.06670    0.03490   56.65750   93.92990   90.91670   73.15610    8.06610
 11773.00000   59.99520   -9999.25  419.54170   80.48220    0.00460    2.57600    3.05530    0.07560    0.04610   57.56760   96.02320   94.53100   71.83470    8.10540
 11773.50000   60.09560   -9999.25  260.01770   65.04400    0.00760    2.57800    3.12500    0.07650    0.05760   59.66120  100.13840  100.15950   57.28170    8.14970
 11774.00000   60.19600   -9999.25  155.68360   52.56730    0.01060    2.57500    3.32130    0.07630    0.06910   62.49420  105.85990  107.38810   46.91420    8.15280
 11774.50000   60.23810   -9999.25   90.71130   42.48380    0.01430    2.56220    3.55370    0.08300    0.08860   65.67570  111.58140  115.29170   38.42320    8.14370
 11775.00000   60.23810   -9999.25   58.78370   34.33450    0.01800    2.56520    3.72660    0.08580    0.11010   67.12360  114.58170  123.68200   31.46890    8.16820
 11775.50000   60.28310   -9999.25   46.38180   27.74850    0.02170    2.59440    3.74630    0.07160    0.13080   67.08110  115.48260  133.63100   25.77330    8.18960
 11776.00000   60.35740   -9999.25   32.21250   22.42570    0.02360    2.62440    3.58540    0.05240    0.14210   66.21280  114.05100  144.34520   20.42310    8.21090
 11776.50000   60.43180   -9999.25   18.30730   18.30730    0.02050    2.63720    3.49950    0.04190    0.14180   65.34450  112.29270  147.91670   19.39740    8.21890
 11777.00000   60.50620   -9999.25   19.06100   18.05540    0.01160    2.62730    3.52970    0.04610    0.13080   64.51740  110.53440  139.80440   18.64410    8.21560
 11777.50000   60.58050   -9999.25   20.27470   17.70070    0.00640    2.60960    3.55900    0.05430    0.12410   64.51740  108.53280  130.12330   18.64410    8.21160
 11778.00000   60.65490   -9999.25   21.97120   17.76510    0.00340    2.61450    3.58840    0.05580    0.12310   63.83400  108.11200  121.13100   18.64410    8.20770
 11778.50000   60.72930   -9999.25   24.91320   18.15900    0.00580    2.62640    3.65770    0.05020    0.12360   63.85430  107.76060  122.99400   18.76040    8.20370
 11779.00000   60.80360   -9999.25   28.24920   18.56160    0.00830    2.63420    3.74750    0.04390    0.12960   64.58690  108.30120  127.51190   18.99350    8.19970
 11779.50000   60.87800   -9999.25   29.94750   18.97320    0.01060    2.63330    3.76930    0.04240    0.13920   65.31950  108.91170  132.02980   19.22940    8.20160
 11780.00000   60.95240   -9999.25   29.94750   19.39390    0.01000    2.62580    3.75570    0.04810    0.14880   66.06180  109.52220  134.22620   19.46830    8.20430
 11780.50000   61.03170   -9999.25   28.33320   19.82390    0.00870    2.62240    3.74630    0.05140    0.15640   65.62470  111.33980  118.64430   19.71010    8.20700
 11781.00000   61.03170   -9999.25   25.69490   20.26340    0.00580    2.62240    3.74630    0.05090    0.16370   65.28960  112.39380  109.77380   19.95500    8.20970
 11781.50000   61.03170   -9999.25   23.30230   20.79870    0.00270    2.62460    3.72830    0.04930    0.16710   66.06180  112.39380  106.84520   20.05420    8.21230
 11782.00000   61.03170   -9999.25   21.18130   20.79870    0.00440    2.63300    3.71670    0.04560    0.16620   65.60490  112.08240  108.28570   20.05420    8.21500
 11782.50000   61.03170   -9999.25   21.50810   20.74830    0.00610    2.65110    3.74630    0.03610    0.15760   64.79090  113.93820  111.53270   20.05420    8.21770
 11783.00000   61.03170   -9999.25   22.94840   20.53590    0.00830    2.66600    3.73540    0.02580    0.14660   64.13130  112.22390  115.29760   20.05420    8.21890
 11783.50000   61.03170   -9999.25   24.48510   20.32570    0.01230    2.67180    3.72390    0.02220    0.14070   64.42180  111.62160  119.36310   20.05420    8.25080
 11784.00000   61.24740   -9999.25   26.12480   20.11760    0.01510    2.67350    3.71670    0.02130    0.14310   64.66600  113.55210  123.88100   20.05420    8.28400
 11784.50000   61.60180   -9999.25   27.33880   18.94240    0.01280    2.67760    3.81980    0.01880    0.15430   64.90350  115.79000  130.30950   18.36410    8.31750
 11785.00000   61.95610   -9999.25   24.47680   17.44580    0.01050    2.68130    3.90420    0.01670    0.15980   66.06180  118.52510  139.94050   16.93490    8.32510
 11785.50000   62.31050   -9999.25   19.72070   16.06740    0.00880    2.67450    3.90420    0.01940    0.16200   68.01500  121.26020  150.89290   15.61690    8.33280
 11786.00000   62.66480   -9999.25   16.41070   14.79790    0.00740    2.66180    3.79800    0.02770    0.16360   70.33490  124.36290  154.46430   14.40150    8.30320
 11786.50000   63.01910   -9999.25   15.67890   13.62870    0.00610    2.65240    3.71670    0.03220    0.18490   72.65490  131.69110  159.42260   13.28070    8.22110
 11787.00000   63.41270   -9999.25   15.06880   12.55180    0.00470    2.65410    3.79570    0.03220    0.20090   73.83940  134.40150  167.82140   12.24710    8.13910
 11787.50000   64.20640   -9999.25   13.88550   11.56010    0.00450    2.65540    3.95360    0.03080    0.20860   74.03480  134.01540  170.83330   12.03800    8.06110
 11788.00000   64.20640   -9999.25   11.99200   10.98940    0.00770    2.65600    4.11890    0.03090    0.19130   73.56760  130.25870  174.10710   12.25940    8.06110
 11788.50000   63.87300   -9999.25   10.40460   10.98940    0.01090    2.65410    4.13190    0.03250    0.16860   71.61390  123.95680  156.69050   12.50310    7.99990
 11789.00000   63.50790   -9999.25   11.17650   12.16020    0.01280    2.64550    3.99410    0.03760    0.13080   68.88190  114.96990  151.48810   13.09560    7.92870
 11789.50000   63.14290   -9999.25   14.71060   14.25210    0.01320    2.62910    3.81960    0.04660    0.10430   64.58380  108.31040  149.70240   14.88960    7.86390
 11790.00000   62.77780   -9999.25   19.33630   17.02000    0.01360    2.61150    3.58340    0.05680    0.09660   60.59850  103.62160  137.04370   18.66610    7.80970
 11790.50000   62.41270   -9999.25   31.34750   21.20510    0.01850    2.59460    3.43480    0.06700    0.09600   59.26970  100.47880  126.00000   23.40030    7.75990
