~Version ---------------------------------------------------
VERS.   2.0 : CWLS log ASCII Standard -VERSION 2.0
WRAP.    NO : One line per depth step
DLM . SPACE : Column Data Section Delimiter
~Well ------------------------------------------------------
STRT .F                4184.0 : START DEPTH
STOP .F               12644.0 : STOP DEPTH
STEP .F                   0.5 : STEP
NULL .               -9999.25 : NULL VALUE
COMP .                        : COMPANY
WELL .                        : WELL
FLD  .                        : FIELD
LOC  .                        : LOCATION
PROV .                        : PROVINCE
CNTY .                        : COUNTY
STAT .                        : STATE
CTRY .                        : COUNTRY
SRVC .                        : SERVICE COMPANY
DATE .                        : DATE
UWI  .                        : UNIQUE WELL ID
API  .                        : API NUMBER
SLAT .WGS84 5.507655973853105 : SURFACE LATITUDE
SLON .WGS84 3.878737303608915 : SURFACE LONGITUDE
DATUM.F                1842.0 : DEPTH DATUM ELEV
~Curve Information -----------------------------------------
DEPT.F     : 
SPR .MV    : SPONTANEOUS POTENTIAL FROM RES.
CILD.MMHO  : CONDUCTIVITY INDUCTION LOG DEEP
SFLU.OHMM  : SPHERICALLY FOCUSED LOG UNAVERAGED RESISTIVITY
ILM .OHMM  : INDUCTION LOG MEDIUM
DRHO.G/C3  : DENSITY CORRECTION
RHOB.G/C3  : BULK DENSITY
PEF .B/E   : PHOTOELECTRIC FACTOR
DPHI.DEC   : DENSITY POROSITY LIMESTONE
NPHI.DEC   : NEUTRON POROSITY LIMESTONE
DTCO.US/F  : COMPRESSIONAL-WAVE INTERVAL TRANSIT TIME ACOUSTIC SLOWNESS
DTSM.US/F  : SHEAR-WAVE INTERVAL TRANSIT TIME DELTA-T
GRR .GAPI  : GAMMA RAY FROM RES. LOG.
ILD .OHMM  : INDUCTION LOG DEEP
CALD.IN    : CALIPER FDC LOG
~Params ----------------------------------------------------
~Other -----------------------------------------------------
~ASCII -----------------------------------------------------
# ...
 12271.00000   99.14290   -9999.25  117.50880   48.68980    0.00700    2.62830    3.40720    0.04910    0.06360   59.02700   98.49420   78.72220   50.80750    7.54930
 12271.50000   99.36680   -9999.25   88.36130   46.33350    0.00600    2.61450    3.35130    0.05730    0.07110   59.11200   99.53150   82.25000   49.23930    7.55020
 12272.00000   99.59080   -9999.25   67.70910   44.09120    0.00650    2.60270    3.29540    0.06240    0.07860   59.11200  100.93690   85.41670   47.01160    7.55310
 12272.50000   99.81480   -9999.25   50.80750   41.95740    0.00720    2.60270    3.26260    0.06380    0.08430   61.03140  102.34230   95.83330   44.88470    7.55600
 12273.00000   99.92060   -9999.25   50.26860   39.92690    0.00820    2.60430    3.27740    0.06000    0.08620   62.69940  103.51350  102.21190   42.85400    7.55900
 12273.50000   99.92060   -9999.25   48.83410   37.95510    0.00920    2.61350    3.32660    0.05420    0.08620   63.92660  103.48050  105.84050   40.82580    7.56190
 12274.00000   99.92060   -9999.25   46.38180   37.95510    0.01020    2.61900    3.39110    0.05250    0.08620   64.51740  103.39210  107.44050   40.08830    7.56480
 12274.50000   99.92060   -9999.25   47.49970   38.65320    0.01150    2.61650    3.41580    0.05400    0.08620   64.51740  103.30360  101.27380   40.08830    7.56770
 12275.00000   99.92060   -9999.25   48.10380   42.00240    0.01260    2.61500    3.41860    0.05460    0.08390   64.32430  103.21520   97.09820   40.08830    7.56580
 12275.50000   99.92060   -9999.25   46.38180   45.70250    0.01180    2.62020    3.53900    0.05060    0.07830   62.70140  103.12740   93.75000   47.01160    7.56330
 12276.00000   99.92060   -9999.25   53.14030   49.72850    0.01040    2.62930    3.75550    0.04430    0.06000   60.91760  101.58150   89.35450   53.70480    7.56090
 12276.50000   99.92060   -9999.25   89.01710   54.10920    0.00910    2.64430    4.14170    0.03660    0.04240   59.20210   99.05170   83.13890   60.96620    7.55840
 12277.00000   99.92060   -9999.25  149.11560   58.87580    0.00770    2.65450    4.38680    0.02960    0.03290   57.58040   97.37610   76.92330   60.72220    7.55590
 12277.50000   99.92060   -9999.25  220.78460   66.82450    0.00690    2.66420    4.27350    0.02520    0.03250   56.02320   96.20850   70.70770   59.86500    7.55340
 12278.00000   99.92060   -9999.25  292.33260   66.78360    0.00790    2.66710    4.02270    0.02470    0.04120   57.28760   96.15060   68.75000   58.59730    7.55090
 12278.50000   99.92060   -9999.25  175.47910   58.78370    0.00860    2.65550    3.61330    0.03270    0.05720   57.95370   97.61000   74.85710   57.44600    7.54830
 12279.00000   99.92060   -9999.25  114.83030   58.28230    0.00740    2.63880    3.47980    0.04230    0.06960   58.33980   99.06950   81.66070   56.67930    7.55510
 12279.50000   99.92060   -9999.25   75.98300   57.83430    0.00600    2.62240    3.48280    0.05230    0.07530   58.72590  100.52900   88.46430   52.00690    7.56220
 12280.00000   99.92060   -9999.25   56.67930   48.98870    0.00450    2.61080    3.48030    0.05870    0.07990   60.28960  101.96910   91.36900   48.85490    7.56740
 12280.50000   99.92060   -9999.25   56.67930   48.74720    0.00370    2.60290    3.46610    0.06210    0.07740   61.42860  101.61580   92.55950   48.47940    7.56370
 12281.00000   99.92060   -9999.25   58.78370   48.49710    0.00630    2.60590    3.45200    0.05900    0.07130   60.97140  100.88610   87.99830   48.10380    7.56000
 12281.50000   99.92060   -9999.25   70.64020   48.24820    0.00930    2.61440    3.46760    0.05430    0.06240   59.41470  100.15640   84.11050   46.78930    7.55630
 12282.00000   99.92060   -9999.25   85.01190   48.10380    0.01220    2.62100    3.53080    0.05110    0.05930   58.94210   99.65250   81.84520   44.67250    7.55270
 12282.50000   99.92060   -9999.25   99.72980   46.33350    0.01260    2.62180    3.58840    0.05060    0.06660   60.65640  101.72460   83.43250   43.23840    7.54900
 12283.00000   99.71270   -9999.25   77.89960   43.65590    0.01260    2.61970    3.52070    0.05140    0.07490   59.49810  102.74130   85.95240   43.74180    7.55090
 12283.50000   99.46580   -9999.25   58.10200   40.82580    0.01040    2.62300    3.48960    0.04940    0.08100   59.49810  102.65510   87.87860   43.91360    7.55400
 12284.00000   99.21900   -9999.25   49.88980   41.02800    0.00790    2.63080    3.57930    0.04420    0.08220   59.27670  102.49290   88.18090   43.71660    7.55710
 12284.50000   98.97210   -9999.25   53.45490   41.45230    0.00570    2.64200    3.67860    0.03880    0.07350   58.72590  102.35520   87.20240   43.49230    7.56020
 12285.00000   98.72530   -9999.25   62.08770   41.88100    0.00610    2.64760    3.69300    0.03580    0.06550   58.35260  102.29730   87.97620   43.26910    7.56330
 12285.50000   98.47850   -9999.25   71.90030   42.34150    0.00650    2.65210    3.63330    0.03320    0.05940   58.02830  102.13510   89.48810   42.70230    7.56640
 12286.00000   98.23160   -9999.25   76.18410   42.34150    0.00660    2.65700    3.67670    0.02940    0.05810   57.01740  101.96910   91.00000   41.46250    7.56800
 12286.50000   97.98480   -9999.25   73.98760   41.98800    0.00630    2.65890    3.69490    0.02850    0.06530   56.02320  100.42470   92.55950   40.25880    7.56240
 12287.00000   97.73790   -9999.25   69.02370   41.02720    0.00610    2.65490    3.69110    0.03200    0.06840   57.74900  101.49500   95.85420   39.09000    7.55720
 12287.50000   97.49110   -9999.25   64.39290   40.08830    0.00590    2.64670    3.68710    0.03600    0.07250   59.20850  102.85710  101.33930   37.95510    7.55200
 12288.00000   97.24420   -9999.25   57.65890   38.92640    0.00570    2.65100    3.77840    0.03250    0.07870   60.65640  103.46500  111.60710   36.23790    7.55990
 12288.50000   96.99740   -9999.25   44.35330   36.93140    0.00630    2.66690    4.04870    0.02510    0.08880   62.58690  104.29900  123.57540   34.59840    7.59780
 12289.00000   96.75060   -9999.25   32.80500   35.03860    0.00710    2.67470    4.32870    0.02040    0.09940   62.58690  105.13290  128.86900   33.03310    7.63560
 12289.50000   96.50370   -9999.25   32.80500   33.24280    0.00770    2.66970    4.27310    0.02280    0.10320   61.95680  105.29150  128.86900   31.53850    7.67350
 12290.00000   96.25690   -9999.25   34.30320   31.53910    0.00770    2.66090    4.17390    0.02770    0.09620   61.56760  105.05790  125.59520   30.11170    7.70710
 12290.50000   96.01000   -9999.25   40.33760   29.92260    0.00810    2.65790    3.94970    0.02900    0.08660   61.42860  106.06950  118.03570   28.74930    7.71420
 12291.00000   95.76320   -9999.25   48.10380   28.38910    0.00940    2.66280    3.77120    0.02710    0.08990   61.42860  107.04250  117.29760   27.44860    7.72130
 12291.50000   95.51640   -9999.25   46.38180   26.93410    0.01060    2.66780    3.52910    0.02460    0.10200   61.68340  107.94260  120.32140   26.20680    7.72840
 12292.00000   95.26950   -9999.25   38.89880   25.55370    0.01210    2.67280    3.47980    0.02190    0.12240   62.65640  108.63760  122.32140   25.70900    7.73550
 12292.50000   94.98780   -9999.25   33.27180   24.50660    0.01360    2.67770    3.49490    0.01920    0.13240   63.62930  109.33260  117.21940   25.47210    7.74260
 12293.00000   94.67770   -9999.25   28.35380   24.29090    0.01240    2.68150    3.62690    0.01640    0.13470   64.51740  111.10420  111.81970   25.23730    7.74410
 12293.50000   94.36750   -9999.25   28.35380   24.01130    0.01120    2.68360    3.81890    0.01590    0.12630   64.51740  113.16600  107.44050   25.00470    7.74150
 12294.00000   94.05740   -9999.25   30.06850   23.62930    0.01010    2.68160    4.01090    0.01670    0.12040   62.77220  112.00770  106.36190   24.77420    7.73900
 12294.50000   93.74730   -9999.25   31.59070   23.77370    0.00900    2.67710    4.08190    0.01910    0.11540   61.85710  109.21700  104.82140   24.50660    7.73640
