~Version ---------------------------------------------------
VERS.   2.0 : CWLS log ASCII Standard -VERSION 2.0
WRAP.    NO : One line per depth step
DLM . SPACE : Column Data Section Delimiter
~Well ------------------------------------------------------
STRT .F                4184.0 : START DEPTH
STOP .F               12644.0 : STOP DEPTH
STEP .F                   0.5 : STEP
NULL .               -9999.25 : NULL VALUE
COMP .                        : COMPANY
WELL .                        : WELL
FLD  .                        : FIELD
LOC  .                        : LOCATION
PROV .                        : PROVINCE
CNTY .                        : COUNTY
STAT .                        : STATE
CTRY .                        : COUNTRY
SRVC .                        : SERVICE COMPANY
DATE .                        : DATE
UWI  .                        : UNIQUE WELL ID
API  .                        : API NUMBER
SLAT .WGS84 5.507655973853105 : SURFACE LATITUDE
SLON .WGS84 3.878737303608915 : SURFACE LONGITUDE
DATUM.F                1842.0 : DEPTH DATUM ELEV
~Curve Information -----------------------------------------
DEPT.F     : 
SPR .MV    : SPONTANEOUS POTENTIAL FROM RES.
CILD.MMHO  : CONDUCTIVITY INDUCTION LOG DEEP
SFLU.OHMM  : SPHERICALLY FOCUSED LOG UNAVERAGED RESISTIVITY
ILM .OHMM  : INDUCTION LOG MEDIUM
DRHO.G/C3  : DENSITY CORRECTION
RHOB.G/C3  : BULK DENSITY
PEF .B/E   : PHOTOELECTRIC FACTOR
DPHI.DEC   : DENSITY POROSITY LIMESTONE
NPHI.DEC   : NEUTRON POROSITY LIMESTONE
DTCO.US/F  : COMPRESSIONAL-WAVE INTERVAL TRANSIT TIME ACOUSTIC SLOWNESS
DTSM.US/F  : SHEAR-WAVE INTERVAL TRANSIT TIME DELTA-T
GRR .GAPI  : GAMMA RAY FROM RES. LOG.
ILD .OHMM  : INDUCTION LOG DEEP
CALD.IN    : CALIPER FDC LOG
~Params ----------------------------------------------------
~Other -----------------------------------------------------
~ASCII -----------------------------------------------------
# ...
 10903.00000   25.31750   -9999.25   54.65030   40.82580    0.01090    2.54700    2.75870    0.09700    0.09020   56.79920   99.63360  171.13100   40.08830    8.93400
 10903.50000   24.29960   -9999.25   49.88980   40.82580    0.01160    2.53340    2.61150    0.10400    0.08300   58.81660  101.47880  168.41670   40.08830    8.85470
 10904.00000   23.16570   -9999.25   42.34150   40.82580    0.01160    2.51850    2.52220    0.11420    0.06890   62.58690  103.51350  156.00400   39.17300    8.77120
 10904.50000   22.03170   -9999.25   45.83720   37.94680    0.01160    2.49870    2.57690    0.12500    0.05870   63.35910  103.80570  148.51190   36.46800    8.77040
 10905.00000   20.89780   -9999.25   53.15690   35.07460    0.01090    2.47240    2.67620    0.13790    0.06720   63.35910  104.82620  152.67860   33.94980    8.76800
 10905.50000   19.76390   -9999.25   56.67930   32.41980    0.00950    2.44700    2.75910    0.15250    0.09520   62.85930  106.12870  155.29290   31.60550    8.76560
 10906.00000   18.63000   -9999.25   46.74670   29.40650    0.01000    2.43340    2.73450    0.16170    0.11070   62.31660  106.98840  158.03570   29.40650    8.76330
 10906.50000   17.49600   -9999.25   37.37380   29.56990    0.01770    2.44840    2.59050    0.15670    0.10380   61.77390  106.98840  139.58330   29.40650    8.76090
 10907.00000   16.36210   -9999.25   31.97070   29.94750    0.02250    2.47360    2.46300    0.14100    0.09210   61.49960  104.73360  131.81750   29.40650    8.75860
 10907.50000   15.22820   -9999.25   30.49830   28.60600    0.02250    2.49560    2.49350    0.12720    0.08540   61.69500  102.77990  128.27380   28.35380    8.75620
 10908.00000   14.09420   -9999.25   30.49830   26.59870    0.02250    2.50220    2.59780    0.12270    0.09410   62.20080  102.54630  135.41670   26.75950    8.75380
 10908.50000   12.96030   -9999.25   30.49830   24.50660    0.02160    2.50370    2.66040    0.12090    0.10590   61.86320  102.39670  151.48810   25.25480    8.75150
 10909.00000   11.82640   -9999.25   30.49830   24.50660    0.02010    2.50170    2.57940    0.12170    0.10750   60.18860  100.68730  156.84520   24.50660    8.71550
 10909.50000   11.03170   -9999.25   30.49830   24.66140    0.01860    2.49800    2.44530    0.12450    0.09690   58.51410  100.03860  155.05950   24.62000    8.65600
 10910.00000   11.03170   -9999.25   31.22970   25.18590    0.01710    2.49430    2.39390    0.12680    0.08580   57.28440  101.66020  149.10710   25.00290    8.59640
 10910.50000   11.03170   -9999.25   32.80500   25.72150    0.01500    2.49490    2.64710    0.12620    0.07630   56.63320  103.12740  127.67860   25.39170    8.57710
 10911.00000   11.03170   -9999.25   32.80500   26.26850    0.01250    2.50180    2.98340    0.12290    0.07470   56.02320  103.12740  131.84520   25.78660    8.58200
 10911.50000   11.03170   -9999.25   31.63070   26.84500    0.01000    2.51310    3.28090    0.11390    0.10030   54.56910  103.01870  163.91190   26.54330    8.58700
 10912.00000   11.03170   -9999.25   31.05930   27.97210    0.00960    2.53110    3.35140    0.10480    0.12990   53.32050  102.85590  196.56900   28.45220    8.59190
 10912.50000   12.22220   -9999.25   31.05930   30.04690    0.00960    2.53750    3.11300    0.10190    0.14230   51.72780  102.35520  216.36900   30.49830    8.59690
 10913.00000   13.23020   -9999.25   35.68730   32.27560    0.01050    2.52380    2.89730    0.10840    0.13030   51.00390  100.00770  203.87950   32.69160    8.60180
 10913.50000   14.20640   -9999.25   41.00470   34.66950    0.01200    2.49750    2.65960    0.12650    0.10080   51.39000   97.40280  183.27980   35.04270    8.60680
 10914.00000   12.75990   -9999.25   47.11460   37.24110    0.01340    2.47040    2.60580    0.13950    0.08070   53.58410   95.48650  162.68010   37.56280    8.61180
 10914.50000   10.49210   -9999.25   54.13480   40.00340    0.01730    2.45980    2.63680    0.14700    0.07100   55.95640   96.46330  146.72620   40.26410    8.61210
 10915.00000    8.22420   -9999.25   60.01800   42.97060    0.02050    2.46080    2.70150    0.14620    0.07150   57.95370   98.41700  141.96430   43.15970    8.61010
 10915.50000    6.27620   -9999.25   60.57630   46.15790    0.01810    2.46050    2.68150    0.14760    0.07210   58.89640   98.88030  141.96430   46.26360    8.60810
 10916.00000    4.66350   -9999.25   62.36900   49.88980    0.01470    2.45040    2.66340    0.15280    0.07260   59.71040   98.88030  141.96430   49.88980    8.60610
 10916.50000    3.05080   -9999.25   67.16450   49.88980    0.01160    2.43940    2.68020    0.15830    0.07330   61.16470  100.80120  141.80710   49.88980    8.60410
 10917.00000    1.43810   -9999.25   70.53720   49.88980    0.01160    2.43230    2.68020    0.16250    0.07410   62.79280  102.74130  141.50480   49.88980    8.60220
 10917.50000    0.71430   -9999.25   70.53720   49.88980    0.01160    2.42690    2.66540    0.16470    0.07630   63.74520  103.12740  141.36900   49.88980    8.60020
 10918.00000    0.71430   -9999.25   65.08910   49.88980    0.01060    2.42630    2.53060    0.16590    0.07900   64.13130  102.79150  140.54420   49.88980    8.59820
 10918.50000    0.71430   -9999.25   60.72220   48.89050    0.00940    2.42740    2.48270    0.16510    0.08140   62.88800  101.32620  139.46430   48.32300    8.59620
 10919.00000    0.71430   -9999.25   56.64840   47.22200    0.00840    2.43140    2.48270    0.16210    0.08270   60.65640  100.93440  138.39290   46.76930    8.59420
 10919.50000    0.71430   -9999.25   52.84780   45.61050    0.00750    2.44280    2.59540    0.15520    0.08380   57.18150  101.19690  141.36900   45.26550    8.60050
 10920.00000    0.71430   -9999.25   49.30220   44.05390    0.00670    2.45480    2.71230    0.14780    0.08820   55.25100   99.22780  148.45240   43.81010    8.60980
 10920.50000    2.80950   -9999.25   45.54400   42.55040    0.00830    2.46840    2.78870    0.14210    0.09270   55.25100   96.29730  153.86900   42.40150    8.61910
 10921.00000    4.82540   -9999.25   45.54400   41.09830    0.01010    2.46610    2.76750    0.14190    0.09610   56.22170   95.40540  153.86900   41.03820    8.62840
 10921.50000    7.06350   -9999.25   45.54400   39.71870    0.01160    2.45250    2.74930    0.15400    0.09470   57.61720   95.40540  149.01190   40.08830    8.63770
 10922.00000    7.47740   -9999.25   45.54400   38.44160    0.01160    2.43660    2.77710    0.16070    0.09270   59.11200   99.03480  146.13100   38.86870    8.64700
 10922.50000    7.94260   -9999.25   46.84300   37.20560    0.01160    2.42940    2.82680    0.16640    0.09090   61.53150  102.29090  146.13100   37.54220    8.67110
 10923.00000    8.40780   -9999.25   48.73930   36.00940    0.00990    2.41420    2.84280    0.17870    0.09320   63.65250  105.54700  148.12200   36.26100    8.72070
 10923.50000    8.87300   -9999.25   50.80750   34.85160    0.00760    2.36870    2.83380    0.20540    0.10060   65.60620  108.75770  150.89290   35.02350    8.75210
 10924.00000    9.33820   -9999.25   46.15050   33.73100    0.00710    2.32540    2.79950    0.22750    0.10930   67.22010  112.00770  155.57340   33.82820    8.75370
 10924.50000   11.07780   -9999.25   38.85910   32.21250    0.00840    2.31340    2.72950    0.23390    0.11090   65.63060  114.55080  162.88100   32.67380    8.75530
 10925.00000   13.19440   -9999.25   31.63070   32.38910    0.01490    2.36670    2.74930    0.19160    0.11220   64.00260  108.14670  168.75000   32.06610    8.75690
 10925.50000   15.31110   -9999.25   34.25420   32.80500    0.02580    2.43270    2.79860    0.15730    0.12130   62.37450  106.70460  185.39760   31.81960    8.75850
 10926.00000   17.42780   -9999.25   37.82680   31.41810    0.02760    2.47830    2.90570    0.12720    0.13240   61.76960  107.19300  196.72620   31.03440    8.76010
 10926.50000   19.54440   -9999.25   41.57670   29.31020    0.02940    2.50590    3.00010    0.11830    0.13250   62.58370  110.03480  191.55950   28.55300    8.76170
