~Version ---------------------------------------------------
VERS.   2.0 : CWLS log ASCII Standard -VERSION 2.0
WRAP.    NO : One line per depth step
DLM . SPACE : Column Data Section Delimiter
~Well ------------------------------------------------------
STRT .F                4184.0 : START DEPTH
STOP .F               12644.0 : STOP DEPTH
STEP .F                   0.5 : STEP
NULL .               -9999.25 : NULL VALUE
COMP .                        : COMPANY
WELL .                        : WELL
FLD  .                        : FIELD
LOC  .                        : LOCATION
PROV .                        : PROVINCE
CNTY .                        : COUNTY
STAT .                        : STATE
CTRY .                        : COUNTRY
SRVC .                        : SERVICE COMPANY
DATE .                        : DATE
UWI  .                        : UNIQUE WELL ID
API  .                        : API NUMBER
SLAT .WGS84 5.507655973853105 : SURFACE LATITUDE
SLON .WGS84 3.878737303608915 : SURFACE LONGITUDE
DATUM.F                1842.0 : DEPTH DATUM ELEV
~Curve Information -----------------------------------------
DEPT.F     : 
SPR .MV    : SPONTANEOUS POTENTIAL FROM RES.
CILD.MMHO  : CONDUCTIVITY INDUCTION LOG DEEP
SFLU.OHMM  : SPHERICALLY FOCUSED LOG UNAVERAGED RESISTIVITY
ILM .OHMM  : INDUCTION LOG MEDIUM
DRHO.G/C3  : DENSITY CORRECTION
RHOB.G/C3  : BULK DENSITY
PEF .B/E   : PHOTOELECTRIC FACTOR
DPHI.DEC   : DENSITY POROSITY LIMESTONE
NPHI.DEC   : NEUTRON POROSITY LIMESTONE
DTCO.US/F  : COMPRESSIONAL-WAVE INTERVAL TRANSIT TIME ACOUSTIC SLOWNESS
DTSM.US/F  : SHEAR-WAVE INTERVAL TRANSIT TIME DELTA-T
GRR .GAPI  : GAMMA RAY FROM RES. LOG.
ILD .OHMM  : INDUCTION LOG DEEP
CALD.IN    : CALIPER FDC LOG
~Params ----------------------------------------------------
~Other -----------------------------------------------------
~ASCII -----------------------------------------------------
# ...
 11599.00000   50.18340   -9999.25   57.72190   37.95510    0.00470    2.61720    3.47510    0.05390    0.09120   58.83400  103.12740  103.33010   39.33770    8.71830
 11599.50000   50.71430   -9999.25   56.67930   37.95510    0.00540    2.62050    3.53730    0.05150    0.09420   58.67150  103.12740  105.07280   39.61190    8.67480
 11600.00000   50.89960   -9999.25   54.42940   37.74810    0.00600    2.61900    3.56860    0.05100    0.09650   58.60180  103.12740  106.81540   39.88790    8.63310
 11600.50000   51.08790   -9999.25   52.23490   37.40020    0.00670    2.61550    3.52000    0.05380    0.09630   58.53200  103.12740  108.55810   40.16590    8.59370
 11601.00000   51.27620   -9999.25   50.12880   37.26950    0.00730    2.61400    3.43960    0.05590    0.09440   58.46220  101.61200  109.22620   40.44580    8.60490
 11601.50000   51.46450   -9999.25   48.98870   37.26950    0.00770    2.61510    3.40530    0.05500    0.09130   58.39240   99.78040  105.70140   40.72760    8.61340
 11602.00000   51.65280   -9999.25   49.88980   38.78590    0.00770    2.62000    3.48960    0.05180    0.08490   58.14830   97.94880  101.43450   42.29270    8.61340
 11602.50000   51.84110   -9999.25   56.26760   42.15670    0.00760    2.63720    3.81540    0.04240    0.07450   57.36680   96.94980   98.51190   44.63990    8.61340
 11603.00000   52.02940   -9999.25   72.58500   44.72140    0.00720    2.64860    4.01490    0.03390    0.06460   55.63710   96.94980   99.72620   46.25680    8.61350
 11603.50000   52.21770   -9999.25   91.04250   44.72140    0.00690    2.65860    4.14800    0.02820    0.06430   56.70370   97.41700  104.24400   45.83050    8.61420
 11604.00000   52.40600   -9999.25   96.15960   44.35200    0.00660    2.65940    4.03950    0.02860    0.07260   57.18150   99.10810  107.79290   45.40810    8.61500
 11604.50000   52.59430   -9999.25   82.27550   43.84160    0.00620    2.65700    3.83110    0.03100    0.08800   57.47360  102.52700  108.99760   44.98950    8.61570
 11605.00000   52.78260   -9999.25   69.56370   43.33710    0.00580    2.65200    3.70100    0.03510    0.09880   58.03090  103.51350  109.66270   44.57490    8.61640
 11605.50000   52.97090   -9999.25   56.80170   42.83840    0.00620    2.64190    3.68150    0.03920    0.10580   58.35530  103.77030  109.22620   44.16400    8.61720
 11606.00000   53.09520   -9999.25   57.02130   42.34150    0.00710    2.64250    3.75170    0.03920    0.11160   58.38490  104.25870  110.92860   42.37240    8.61790
 11606.50000   53.21380   -9999.25   57.46300   40.23480    0.00800    2.64610    3.82530    0.03630    0.11540   58.41450  104.67180  112.43450   38.62510    8.61860
 11607.00000   53.33930   -9999.25   57.72190   38.21730    0.00890    2.65020    3.81290    0.03330    0.11650   58.44410  106.21620  112.51670   36.54580    8.61940
 11607.50000   53.46480   -9999.25   55.05020   36.30100    0.00970    2.65420    3.80840    0.03030    0.11660   58.47370  108.10810  110.10710   36.42520    8.62010
 11608.00000   53.59030   -9999.25   52.55960   35.28620    0.01020    2.65820    3.81900    0.02840    0.11780   58.50330  108.73740  108.63100   36.30490    8.62080
 11608.50000   53.71580   -9999.25   50.80750   34.64890    0.01050    2.66040    3.82530    0.02770    0.11970   58.53290  107.27220  109.52980   36.18510    8.62160
 11609.00000   53.84130   -9999.25   50.80750   34.64890    0.00980    2.65950    3.72130    0.02910    0.11840   58.56250  105.83010  110.21030   36.06560    8.62230
 11609.50000   53.96680   -9999.25   50.80750   34.88970    0.00910    2.65700    3.57440    0.03010    0.11710   58.59210  105.43320  109.93450   35.93530    8.62300
 11610.00000   54.09230   -9999.25   52.20220   35.70680    0.00920    2.65840    3.55770    0.02850    0.11580   58.62170  105.04250  110.41670   36.82500    8.62380
 11610.50000   54.21780   -9999.25   55.03870   36.54300    0.01070    2.66210    3.60730    0.02690    0.11030   58.65130  104.65170  115.73930   37.83300    8.62450
 11611.00000   54.34330   -9999.25   58.02940   37.39880    0.01160    2.66140    3.64290    0.02840    0.10330   58.68090  104.28570  120.53570   38.86870    8.62520
 11611.50000   54.46880   -9999.25   59.86500   38.45850    0.01160    2.65740    3.65650    0.03060    0.09570   58.71050  103.09870  120.53570   39.93280    8.62600
 11612.00000   54.59420   -9999.25   59.86500   39.88320    0.01160    2.65500    3.66730    0.03050    0.09040   58.41180  101.98240  116.30710   41.02590    8.62670
 11612.50000   54.71970   -9999.25   59.86500   41.36080    0.01440    2.65970    3.87460    0.02660    0.08900   58.03640  101.19690  111.01190   42.14900    8.62740
 11613.00000   54.84520   -9999.25   67.88120   42.89310    0.01800    2.66550    3.92420    0.02380    0.09370   58.31550  101.19690  107.39290   43.30290    8.62820
 11613.50000   54.97070   -9999.25   76.97070   44.48210    0.02150    2.66980    3.90990    0.02250    0.10030   58.59460  102.10100  106.25000   44.48830    8.62890
 11614.00000   55.09620   -9999.25   84.64080   46.38180    0.02100    2.67080    3.94580    0.02240    0.10500   58.72590  102.91510  106.25000   45.70620    8.62960
 11614.50000   55.22170   -9999.25   83.75070   46.38180    0.02060    2.67170    4.01280    0.02250    0.10430   58.72590  102.95950  109.02600   46.38180    8.63040
 11615.00000   55.34720   -9999.25   81.83420   46.09520    0.01520    2.66810    3.96310    0.02570    0.10360   58.72590  102.47100  111.47320   46.38180    8.63110
 11615.50000   55.47270   -9999.25   79.96160   45.67040    0.00880    2.66010    3.88450    0.03060    0.09970   58.72590  101.96910  113.98810   46.38180    8.63180
 11616.00000   55.59820   -9999.25   75.87230   45.24940    0.00660    2.65440    3.90700    0.03140    0.09570   58.72590  102.39190  111.96030   45.91310    8.63260
 11616.50000   55.72370   -9999.25   77.71990   44.83240    0.00540    2.65890    4.00610    0.02700    0.09390   58.72590  103.12740  108.44640   44.41960    8.63280
 11617.00000   55.84920   -9999.25   81.40280   43.09750    0.00520    2.66490    4.07940    0.02420    0.10160   58.72590  102.35520  105.65480   42.97470    8.63140
 11617.50000   55.97470   -9999.25   85.26020   40.97490    0.00630    2.66680    4.11910    0.02580    0.11150   58.72590  103.93820  105.65480   41.57670    8.63000
 11618.00000   56.10020   -9999.25   83.11200   38.95670    0.00750    2.66090    4.14120    0.02900    0.12250   58.83780  106.00390  109.07140   40.22430    8.62850
 11618.50000   56.22570   -9999.25   74.47080   35.93530    0.00820    2.65530    4.10920    0.03250    0.13440   59.32620  108.44600  113.58930   38.91580    8.62710
 11619.00000   56.37480   -9999.25   66.55100   36.24030    0.00880    2.65140    4.05960    0.03370    0.13470   59.39920  108.81080  115.77380   38.65320    8.62570
 11619.50000   56.53670   -9999.25   60.96620   37.01100    0.00950    2.65260    4.09380    0.03220    0.13120   59.00850  106.85710  115.34320   38.65320    8.62430
 11620.00000   56.69870   -9999.25   60.96620   37.79820    0.01010    2.65400    4.21770    0.03130    0.12220   58.72590  104.67180  114.84130   38.65320    8.62280
 11620.50000   56.86060   -9999.25   60.96620   38.60200    0.01050    2.65500    4.30900    0.03130    0.11320   58.86940  104.67180  114.58330   39.36430    8.62140
 11621.00000   57.02250   -9999.25   64.56520   39.36430    0.01010    2.65500    4.25440    0.03080    0.10730   59.03220  104.67180  114.85710   39.36430    8.62000
 11621.50000   57.18450   -9999.25   70.53720   39.67040    0.00980    2.65700    4.13720    0.02820    0.10640   58.96970  104.67180  115.10810   39.71430    8.61860
 11622.00000   57.34640   -9999.25   70.53720   39.95840    0.00990    2.66360    4.05230    0.02530    0.10540   58.69060  104.67180  115.35910   40.04400    8.61710
 11622.50000   57.50830   -9999.25   70.76910   40.24850    0.01040    2.66680    4.11150    0.02540    0.10510   58.41150  104.67180  115.61010   40.37640    8.61570
