~Version ---------------------------------------------------
VERS.   2.0 : CWLS log ASCII Standard -VERSION 2.0
WRAP.    NO : One line per depth step
DLM . SPACE : Column Data Section Delimiter
~Well ------------------------------------------------------
STRT .F                4184.0 : START DEPTH
STOP .F               12644.0 : STOP DEPTH
STEP .F                   0.5 : STEP
NULL .               -9999.25 : NULL VALUE
COMP .                        : COMPANY
WELL .                        : WELL
FLD  .                        : FIELD
LOC  .                        : LOCATION
PROV .                        : PROVINCE
CNTY .                        : COUNTY
STAT .                        : STATE
CTRY .                        : COUNTRY
SRVC .                        : SERVICE COMPANY
DATE .                        : DATE
UWI  .                        : UNIQUE WELL ID
API  .                        : API NUMBER
SLAT .WGS84 5.507655973853105 : SURFACE LATITUDE
SLON .WGS84 3.878737303608915 : SURFACE LONGITUDE
DATUM.F                1842.0 : DEPTH DATUM ELEV
~Curve Information -----------------------------------------
DEPT.F     : 
SPR .MV    : SPONTANEOUS POTENTIAL FROM RES.
CILD.MMHO  : CONDUCTIVITY INDUCTION LOG DEEP
SFLU.OHMM  : SPHERICALLY FOCUSED LOG UNAVERAGED RESISTIVITY
ILM .OHMM  : INDUCTION LOG MEDIUM
DRHO.G/C3  : DENSITY CORRECTION
RHOB.G/C3  : BULK DENSITY
PEF .B/E   : PHOTOELECTRIC FACTOR
DPHI.DEC   : DENSITY POROSITY LIMESTONE
NPHI.DEC   : NEUTRON POROSITY LIMESTONE
DTCO.US/F  : COMPRESSIONAL-WAVE INTERVAL TRANSIT TIME ACOUSTIC SLOWNESS
DTSM.US/F  : SHEAR-WAVE INTERVAL TRANSIT TIME DELTA-T
GRR .GAPI  : GAMMA RAY FROM RES. LOG.
ILD .OHMM  : INDUCTION LOG DEEP
CALD.IN    : CALIPER FDC LOG
~Params ----------------------------------------------------
~Other -----------------------------------------------------
~ASCII -----------------------------------------------------
# ...
 10567.00000   33.52950   -9999.25   40.82580   32.64240    0.01980    2.70970    3.70660   -0.00060    0.16600   63.84400  113.93820   98.48810   33.63410    8.77120
 10567.50000   33.42190   -9999.25   41.24650   33.40850    0.02010    2.70630    3.80030    0.00210    0.15560   63.45170  113.93820   94.74700   35.36050    8.74310
 10568.00000   33.31430   -9999.25   42.70970   35.65980    0.02040    2.69840    3.87460    0.00530    0.14530   63.48390  113.93820   89.97820   37.17560    8.69370
 10568.50000   32.74010   -9999.25   49.13960   38.33360    0.02310    2.69600    3.84260    0.00810    0.13170   63.64740  113.93820   85.41670   39.08380    8.64430
 10569.00000   31.56880   -9999.25   58.83730   41.20790    0.02540    2.68970    3.72130    0.01180    0.11850   63.40760  110.73170   87.61310   41.08990    8.59490
 10569.50000   30.39750   -9999.25   70.44890   45.02810    0.02170    2.66520    3.56120    0.02450    0.11610   62.56700  108.03480   90.77380   45.84590    8.54940
 10570.00000   29.22620   -9999.25   93.90780   50.57650    0.01590    2.63160    3.41070    0.04880    0.11380   61.72640  105.44400  102.98810   52.09700    8.52250
 10570.50000   28.05490   -9999.25  134.94410   56.80860    0.00900    2.59040    3.13420    0.07020    0.09840   59.90890  103.17890  113.39290   59.20040    8.49510
 10571.00000   26.72060   -9999.25  168.58150   62.88500    0.00750    2.56610    2.91460    0.08110    0.08330   57.55520  100.99960  115.69290   64.23660    8.50140
 10571.50000   25.31510   -9999.25  203.02730   66.38920    0.00870    2.55290    2.79280    0.08990    0.06880   56.79540   98.82030  117.55950   67.81610    8.51780
 10572.00000   23.90950   -9999.25  193.47320   70.08870    0.01050    2.55130    2.69960    0.09210    0.06530   56.79540   96.26260  114.95090   71.59510    8.53430
 10572.50000   22.50400   -9999.25  162.31620   73.99430    0.01410    2.55930    2.64230    0.08820    0.06870   57.25870   93.32050  108.73880   75.58470    8.55080
 10573.00000   21.64550   -9999.25  136.17680   78.11760    0.01750    2.56840    2.57910    0.08220    0.07260   57.91250   92.31660  102.52680   80.13670    8.56200
 10573.50000   20.97620   -9999.25  114.24690   80.13670    0.01550    2.57550    2.51790    0.07740    0.07550   58.16990   94.16990   97.32140   80.13670    8.57190
 10574.00000   20.30690   -9999.25  107.27280   75.01280    0.01320    2.57700    2.49260    0.07630    0.07420   57.67950   95.80440   99.89630   75.48600    8.56610
 10574.50000   19.76190   -9999.25  110.63210   70.77870    0.01160    2.57410    2.49710    0.07790    0.07270   57.18150   96.17760  102.47790   71.39090    8.55620
 10575.00000   19.76190   -9999.25  116.79700   66.78360    0.00900    2.56680    2.50610    0.08300    0.07130   57.50320   94.82620  105.05950   70.53720    8.57110
 10575.50000   19.76190   -9999.25  121.87160   66.78360    0.00530    2.55820    2.54240    0.08830    0.07000   57.83010   93.86100  104.78720   70.53720    8.59230
 10576.00000   19.76190   -9999.25  116.49580   67.23150    0.00160    2.55160    2.68200    0.09230    0.06980   58.15700   94.85710  100.64580   70.95390    8.61340
 10576.50000   19.76190   -9999.25  103.43260   68.28120    0.00000    2.54930    2.90540    0.09410    0.06960   58.48390   95.83780   99.50220   71.46310    8.59370
 10577.00000   19.83600   -9999.25  103.43260   69.34740    0.00090    2.54890    3.01240    0.09460    0.06850   58.64090   95.96910  101.19640   71.97590    8.60200
 10577.50000   20.00330   -9999.25  103.43260   70.43020    0.00180    2.54850    2.98260    0.09400    0.06660   58.31400   93.86100  102.89060   72.49240    8.61020
 10578.00000   20.17060   -9999.25  114.16590   71.52990    0.00270    2.55130    2.95660    0.09210    0.06210   57.95370   95.01930  104.46430   73.15610    8.62950
 10578.50000   20.33800   -9999.25  138.56240   63.24260    0.00270    2.56560    3.00090    0.08350    0.06210   56.92660   95.40540  110.41670   69.16070    8.65590
 10579.00000   20.50530   -9999.25  166.14110   53.05800    0.00270    2.58220    3.08510    0.07370    0.07530   55.78250   95.18760  116.63890   58.43650    8.68220
 10579.50000   20.88890   -9999.25  154.13060   44.51350    0.00270    2.59840    3.15700    0.06390    0.09180   55.25100   95.01930  121.48930   49.37530    8.77360
 10580.00000   21.98410   -9999.25  131.08930   37.34510    0.00270    2.60440    3.17900    0.06050    0.11550   55.25100   97.07210  125.89960   41.71910    8.90530
 10580.50000   23.07940   -9999.25   71.68530   31.33100    0.00340    2.60160    3.19350    0.06290    0.13540   56.26030   98.87000  124.58180   35.25010    9.03710
 10581.00000   24.17460   -9999.25   43.27790   26.28550    0.00460    2.59310    3.19350    0.06730    0.13680   57.31110  100.66800  121.94640   29.78410    9.12240
 10581.50000   25.31750   -9999.25   28.92810   22.05250    0.00590    2.58390    3.19350    0.07180    0.13320   58.36180  102.46590  119.31100   25.41640    9.17960
 10582.00000   25.31750   -9999.25   21.18130   19.70090    0.00700    2.58190    3.15230    0.07390    0.12560   59.41260  104.74130  118.15480   21.50030    9.23680
 10582.50000   24.81480   -9999.25   18.30730   18.30730    0.00800    2.58370    3.07500    0.07230    0.11790   60.46330  107.37450  121.83040   18.64410    9.29400
 10583.00000   23.47620   -9999.25   18.79420   18.30730    0.00960    2.59050    3.01450    0.06790    0.11030   60.97960  107.76060  126.59920   18.84910    9.35840
 10583.50000   22.13760   -9999.25   20.43420   19.21110    0.01540    2.60170    2.95140    0.06190    0.10670   60.83950  107.25100  129.46430   19.14340    9.42430
 10584.00000   20.55560   -9999.25   23.22360   20.24240    0.02150    2.60460    2.93680    0.06120    0.11210   60.69940  106.48040  122.01640   19.44230    9.47590
 10584.50000   18.25560   -9999.25   28.62640   21.32900    0.02360    2.59360    2.93680    0.06960    0.12150   60.38460  105.70990  109.78050   19.74590    9.50880
 10585.00000   15.00000   -9999.25   30.16660   21.76840    0.02520    2.57040    2.89380    0.08350    0.12800   59.99230  104.93930   97.54460   20.05420    9.54170
 10585.50000   10.30420   -9999.25   30.49830   21.96780    0.02420    2.54480    2.85880    0.09960    0.12840   60.78830  104.16880   88.92410   20.42310    9.57470
 10586.00000    4.72660   -9999.25   32.87990   21.96780    0.02310    2.52230    2.86370    0.11000    0.11800   62.03650  103.51350   84.22620   19.56420    9.59960
 10586.50000   -0.85100   -9999.25   40.08830   20.77440    0.02480    2.50950    2.87520    0.11890    0.11540   63.28470  105.03590   84.22620   17.70950    9.56770
 10587.00000   -5.63490   -9999.25   40.08830   19.05640    0.03090    2.49670    2.91410    0.12590    0.12720   64.53280  109.23880   84.05480   16.03060    9.52070
 10587.50000   -8.90870   -9999.25   34.20440   17.33310    0.04070    2.48060    2.95300    0.13880    0.14620   65.67570  113.44180   83.45240   15.04960    9.53450
 10588.00000  -12.58990   -9999.25   29.52290   17.02000    0.05310    2.46150    2.97630    0.14980    0.15080   66.65640  116.28570   82.14580   14.44490    9.54770
 10588.50000  -14.88490   -9999.25   28.35380   17.02000    0.05840    2.44240    2.93680    0.15970    0.15290   67.63710  118.24710   79.25940   14.53900    9.56020
 10589.00000  -15.95240   -9999.25   28.35380   17.27000    0.05900    2.43480    2.88300    0.15920    0.14580   67.99230  120.50190   76.37300   14.62370    9.66430
 10589.50000  -16.74600   -9999.25   30.12540   18.50020    0.05490    2.44650    2.82970    0.14880    0.13180   67.99230  118.26260   73.48660   14.71060    9.75220
 10590.00000  -17.53970   -9999.25   35.28620   20.14580    0.04500    2.46840    2.80130    0.12740    0.09800   66.02320  112.70270   70.60020   15.58900    9.80870
 10590.50000  -17.53970   -9999.25   75.43560   21.93770    0.03510    2.53980    2.81370    0.10100    0.06600   61.64480  106.81850   69.34520   16.53900    9.88000
