~Version ---------------------------------------------------
VERS.   2.0 : CWLS log ASCII Standard -VERSION 2.0
WRAP.    NO : One line per depth step
DLM . SPACE : Column Data Section Delimiter
~Well ------------------------------------------------------
STRT .F                4184.0 : START DEPTH
STOP .F               12644.0 : STOP DEPTH
STEP .F                   0.5 : STEP
NULL .               -9999.25 : NULL VALUE
COMP .                        : COMPANY
WELL .                        : WELL
FLD  .                        : FIELD
LOC  .                        : LOCATION
PROV .                        : PROVINCE
CNTY .                        : COUNTY
STAT .                        : STATE
CTRY .                        : COUNTRY
SRVC .                        : SERVICE COMPANY
DATE .                        : DATE
UWI  .                        : UNIQUE WELL ID
API  .                        : API NUMBER
SLAT .WGS84 5.507655973853105 : SURFACE LATITUDE
SLON .WGS84 3.878737303608915 : SURFACE LONGITUDE
DATUM.F                1842.0 : DEPTH DATUM ELEV
~Curve Information -----------------------------------------
DEPT.F     : 
SPR .MV    : SPONTANEOUS POTENTIAL FROM RES.
CILD.MMHO  : CONDUCTIVITY INDUCTION LOG DEEP
SFLU.OHMM  : SPHERICALLY FOCUSED LOG UNAVERAGED RESISTIVITY
ILM .OHMM  : INDUCTION LOG MEDIUM
DRHO.G/C3  : DENSITY CORRECTION
RHOB.G/C3  : BULK DENSITY
PEF .B/E   : PHOTOELECTRIC FACTOR
DPHI.DEC   : DENSITY POROSITY LIMESTONE
NPHI.DEC   : NEUTRON POROSITY LIMESTONE
DTCO.US/F  : COMPRESSIONAL-WAVE INTERVAL TRANSIT TIME ACOUSTIC SLOWNESS
DTSM.US/F  : SHEAR-WAVE INTERVAL TRANSIT TIME DELTA-T
GRR .GAPI  : GAMMA RAY FROM RES. LOG.
ILD .OHMM  : INDUCTION LOG DEEP
CALD.IN    : CALIPER FDC LOG
~Params ----------------------------------------------------
~Other -----------------------------------------------------
~ASCII -----------------------------------------------------
# ...
 11935.00000   68.82940   -9999.25   42.34150   20.29010   -0.00170    2.64820    4.40970    0.03600    0.13290   63.68340  114.32430  145.53570   21.18130    7.89750
 11935.50000   68.88000   -9999.25   38.28860   20.05420    0.00140    2.65350    4.33540    0.03270    0.14230   64.51740  113.91890  145.53570   21.22770    7.89580
 11936.00000   68.93060   -9999.25   34.02300   20.05420    0.00440    2.66090    4.19930    0.02850    0.14190   64.51740  112.69300  139.59820   21.36860    7.89420
 11936.50000   69.01010   -9999.25   35.18350   20.05420    0.00570    2.66040    3.93750    0.02750    0.12660   63.71210  111.46720  132.38840   21.51040    7.89250
 11937.00000   69.17420   -9999.25   38.59690   20.05420    0.00570    2.65650    3.72660    0.02970    0.11030   63.01160  110.46330  125.17860   21.57100    7.89090
 11937.50000   69.33830   -9999.25   42.34150   20.05420    0.00570    2.65660    3.68710    0.03090    0.09740   62.58690  111.81470  122.91670   21.37530    7.88920
 11938.00000   69.50240   -9999.25   38.82090   20.05420    0.00570    2.65970    3.81100    0.02960    0.09990   63.32240  113.16600  125.89290   20.88610    7.88760
 11938.50000   69.66650   -9999.25   35.59310   19.88590    0.00570    2.65910    4.05230    0.02850    0.11640   64.05790  113.16600  137.34380   20.40820    7.88590
 11939.00000   69.83050   -9999.25   32.21250   19.68240    0.00710    2.65530    4.11150    0.03050    0.12940   64.90350  113.54540  143.07540   20.05420    7.88430
 11939.50000   69.99460   -9999.25   32.21250   19.48090    0.00890    2.65220    4.01880    0.03230    0.13280   65.28960  113.91310  143.70910   20.05420    7.89580
 11940.00000   70.15870   -9999.25   32.48770   19.33630    0.00960    2.65290    3.85430    0.03250    0.13360   65.28960  114.32430  142.00150   20.05420    7.89460
 11940.50000   70.32280   -9999.25   33.50610   19.33630    0.00960    2.65560    3.66160    0.03140    0.13510   64.67180  114.32430  140.29390   20.05420    7.88050
 11941.00000   70.48690   -9999.25   34.64890   19.91640    0.00960    2.65860    3.62780    0.02970    0.13550   63.97130  114.01760  138.91670   20.05420    7.86630
 11941.50000   70.65100   -9999.25   34.64890   20.46160    0.00820    2.66180    3.70160    0.02810    0.13420   63.35910  113.73740  138.61310   20.05420    7.83930
 11942.00000   70.81510   -9999.25   34.64890   21.02170    0.00690    2.66330    3.77590    0.02620    0.12960   63.42810  113.00880  138.39290   20.29750    7.80960
 11942.50000   70.97920   -9999.25   37.34720   21.59720    0.00560    2.66200    3.77280    0.02710    0.12520   63.48940  111.40400  136.78570   21.03340    7.76790
 11943.00000   71.14330   -9999.25   40.43220   22.18840    0.00440    2.65410    3.76600    0.03060    0.12230   63.55070  109.79920  134.82140   21.79590    7.72580
 11943.50000   71.30740   -9999.25   43.12040   22.79580    0.00370    2.64670    3.73160    0.03600    0.11000   63.61200  108.19450  132.37350   22.58620    7.72580
 11944.00000   71.46520   -9999.25   41.56160   23.41990    0.00370    2.64100    3.68190    0.03970    0.09700   63.67330  106.60230  129.71730   23.40500    7.72580
 11944.50000   71.62090   -9999.25   40.08830   24.06100    0.00370    2.63470    3.58280    0.04350    0.08380   63.74520  109.67740  126.48810   23.91700    7.72580
 11945.00000   71.77660   -9999.25   43.01050   24.95730    0.00400    2.62820    3.49080    0.04660    0.09090   64.28570  112.72840  128.57140   23.26170    7.72580
 11945.50000   71.93220   -9999.25   48.51240   24.01630    0.00440    2.62640    3.46000    0.04850    0.11830   64.93950  115.77950  141.72620   22.62450    7.72580
 11946.00000   72.08790   -9999.25   51.74210   22.62850    0.00470    2.63140    3.52400    0.04690    0.13580   65.59330  117.41310  161.60710   22.00460    7.72580
 11946.50000   72.24360   -9999.25   40.37430   21.18130    0.00360    2.64020    3.58420    0.04170    0.14540   65.92280  114.23780  157.67860   21.57100    7.72580
 11947.00000   72.39930   -9999.25   30.49830   21.18130    0.00270    2.64900    3.63770    0.03640    0.14740   64.54050  110.11890  152.08330   21.57100    7.72580
 11947.50000   72.55490   -9999.25   27.33880   21.18130    0.00270    2.65200    3.64210    0.03260    0.11320   62.25230  105.35710  132.96130   22.37180    7.72580
 11948.00000   72.71060   -9999.25   29.77330   23.41430    0.00270    2.65130    3.64630    0.03310    0.07830   60.27030  100.33110  109.43450   24.75690    7.72580
 11948.50000   72.86630   -9999.25   42.60700   27.35160    0.00270    2.64680    3.64760    0.03590    0.04790   58.78760   95.30500   85.90770   27.63440    7.72580
 11949.00000   73.06690   -9999.25  100.66910   31.95100    0.00270    2.63620    3.59620    0.04210    0.03520   57.48000   91.62680   75.29760   30.84640    7.72580
 11949.50000   73.30440   -9999.25  237.85480   37.32390    0.00320    2.62500    3.53610    0.04940    0.03950   56.17250   90.00000   75.29760   36.11920    7.72580
 11950.00000   73.54190   -9999.25  628.57220   43.60030    0.00460    2.61850    3.46990    0.05240    0.05120   56.78350   93.07460   76.48810   42.89640    7.72580
 11950.50000   73.77950   -9999.25  494.39400   50.80750    0.00610    2.62760    3.51920    0.04810    0.06430   58.72490   98.28100   90.47450   50.80750    7.72580
 11951.00000   74.01700   -9999.25  270.46740   51.74210    0.00730    2.63720    3.48550    0.04310    0.08180   60.66620  103.48730  102.16810   50.80750    7.72580
 11951.50000   74.25450   -9999.25  139.82680   46.75220    0.00860    2.63580    3.39090    0.04200    0.10080   62.60760  108.69370  113.86170   45.07160    7.72580
 11952.00000   74.52380   -9999.25   87.77800   40.34830    0.00670    2.63420    3.32520    0.04360    0.11220   64.13130  112.15440  125.55530   39.04550    7.72580
 11952.50000   74.47250   -9999.25   61.07750   34.82150    0.00450    2.63490    3.32760    0.04360    0.12460   63.94790  110.46330  137.24890   33.82510    7.72580
 11953.00000   74.41320   -9999.25   44.15440   30.05180    0.00260    2.63670    3.43270    0.04210    0.13380   64.51740  111.23550  146.12300   28.87540    7.72580
 11953.50000   74.35390   -9999.25   35.93530   26.36010    0.00150    2.63810    3.48850    0.04120    0.13430   64.11780  111.23550  147.91670   27.33880    7.72580
 11954.00000   74.29460   -9999.25   35.93530   26.36010    0.00040    2.63760    3.51340    0.04120    0.12980   63.63320  110.49970  143.27380   26.84500    7.72580
 11954.50000   74.23530   -9999.25   37.64500   26.36010    0.00040    2.63240    3.51810    0.04390    0.12110   63.49940  107.31550  136.79420   26.84500    7.72580
 11955.00000   74.17600   -9999.25   41.05900   26.36010    0.00200    2.61930    3.49950    0.05100    0.11150   63.39770  104.13130  130.05950   27.33880    7.72580
 11955.50000   74.11670   -9999.25   44.78250   30.34680    0.00370    2.60950    3.54140    0.06010    0.09740   61.81540  101.21240  122.36190   28.96390    7.72580
 11956.00000   74.05740   -9999.25   51.64790   35.13860    0.00890    2.61050    3.61330    0.05620    0.08070   60.07100   98.62810  114.34880   32.06960    7.72580
 11956.50000   73.99810   -9999.25   75.28450   40.68710    0.01410    2.63540    3.81540    0.04590    0.06440   58.96650   96.17760  106.33570   35.50820    7.72580
 11957.00000   73.93880   -9999.25  188.75130   47.11170    0.01930    2.64760    3.91410    0.03600    0.05420   58.64350   98.15640   98.51190   39.31550    7.72580
 11957.50000   73.87950   -9999.25  210.56530   52.69390    0.02440    2.63470    3.88060    0.04260    0.05950   58.33980  101.18490   94.34520   41.04280    7.72580
 11958.00000   73.82030   -9999.25  210.56530   52.69390    0.01360    2.60260    3.80030    0.06290    0.06980   59.10430  104.21330   94.34520   41.38980    7.72580
 11958.50000   73.76100   -9999.25  192.22330   48.38190    0.00880    2.58070    3.71990    0.07480    0.08430   61.81470  106.21620  104.32140   41.73970    7.72580
