~Version ---------------------------------------------------
VERS.   2.0 : CWLS log ASCII Standard -VERSION 2.0
WRAP.    NO : One line per depth step
DLM . SPACE : Column Data Section Delimiter
~Well ------------------------------------------------------
STRT .F                4184.0 : START DEPTH
STOP .F               12644.0 : STOP DEPTH
STEP .F                   0.5 : STEP
NULL .               -9999.25 : NULL VALUE
COMP .                        : COMPANY
WELL .                        : WELL
FLD  .                        : FIELD
LOC  .                        : LOCATION
PROV .                        : PROVINCE
CNTY .                        : COUNTY
STAT .                        : STATE
CTRY .                        : COUNTRY
SRVC .                        : SERVICE COMPANY
DATE .                        : DATE
UWI  .                        : UNIQUE WELL ID
API  .                        : API NUMBER
SLAT .WGS84 5.507655973853105 : SURFACE LATITUDE
SLON .WGS84 3.878737303608915 : SURFACE LONGITUDE
DATUM.F                1842.0 : DEPTH DATUM ELEV
~Curve Information -----------------------------------------
DEPT.F     : 
SPR .MV    : SPONTANEOUS POTENTIAL FROM RES.
CILD.MMHO  : CONDUCTIVITY INDUCTION LOG DEEP
SFLU.OHMM  : SPHERICALLY FOCUSED LOG UNAVERAGED RESISTIVITY
ILM .OHMM  : INDUCTION LOG MEDIUM
DRHO.G/C3  : DENSITY CORRECTION
RHOB.G/C3  : BULK DENSITY
PEF .B/E   : PHOTOELECTRIC FACTOR
DPHI.DEC   : DENSITY POROSITY LIMESTONE
NPHI.DEC   : NEUTRON POROSITY LIMESTONE
DTCO.US/F  : COMPRESSIONAL-WAVE INTERVAL TRANSIT TIME ACOUSTIC SLOWNESS
DTSM.US/F  : SHEAR-WAVE INTERVAL TRANSIT TIME DELTA-T
GRR .GAPI  : GAMMA RAY FROM RES. LOG.
ILD .OHMM  : INDUCTION LOG DEEP
CALD.IN    : CALIPER FDC LOG
~Params ----------------------------------------------------
~Other -----------------------------------------------------
~ASCII -----------------------------------------------------
# ...
 10231.00000   27.69840   -9999.25   45.03220   34.24700    0.01010    2.66780    3.40290    0.02510    0.05180   57.50270  103.89960   77.80060   36.17190   10.55030
 10231.50000   27.69840   -9999.25   48.81710   35.86330    0.01040    2.67040    3.43170    0.02340    0.05480   55.63710  102.44010   81.84520   37.87900   10.47790
 10232.00000   27.69840   -9999.25   52.92010   37.55590    0.01060    2.67570    3.53970    0.02040    0.05850   55.23940  101.82860   84.47280   39.36430   10.41680
 10232.50000   27.69840   -9999.25   55.65560   38.65320    0.00950    2.67440    3.64080    0.01990    0.06300   54.92280  102.41700   87.71260   39.85580   10.35580
 10233.00000   27.69840   -9999.25   55.65560   38.65320    0.00820    2.66910    3.60750    0.02350    0.07580   55.16790  102.22780   90.77380   40.28220   10.32190
 10233.50000   27.69840   -9999.25   54.31600   38.65320    0.00680    2.66190    3.51900    0.02720    0.08820   55.41310  101.08370   90.77380   40.71320   10.29140
 10234.00000   27.69840   -9999.25   53.48740   38.65320    0.00550    2.66040    3.44030    0.02870    0.10010   55.63710  100.03860   90.77380   41.14870   10.25290
 10234.50000   27.69840   -9999.25   52.69390   38.65320    0.00440    2.66490    3.49830    0.02630    0.10200   55.63710  100.03860   89.95240   41.57670   10.19130
 10235.00000   27.69840   -9999.25   53.90280   38.65320    0.00330    2.66980    3.62980    0.02380    0.10110   55.63710  100.70460   88.29360   41.35840   10.13950
 10235.50000   27.69840   -9999.25   55.87130   38.28750    0.00260    2.66980    3.79080    0.02330    0.10280   55.63710  101.62930   86.85710   41.14700   10.08280
 10236.00000   27.69840   -9999.25   57.91160   37.48120    0.00240    2.66680    3.80650    0.02600    0.11420   55.63710  102.74130   89.66670   40.93670   10.02700
 10236.50000   27.69840   -9999.25   59.86500   36.69190    0.00220    2.65620    3.70230    0.03120    0.12560   55.35520  105.89810   94.20240   40.72750    9.99410
 10237.00000   27.69840   -9999.25   56.45810   35.91920    0.00190    2.64810    3.59390    0.03560    0.13240   55.58920  108.14670   98.73810   40.51930    9.99410
 10237.50000   27.69840   -9999.25   53.46350   34.64890    0.00220    2.64810    3.50940    0.03540    0.13060   56.17760  107.11710   99.10710   40.31220    9.99410
 10238.00000   27.69840   -9999.25   50.62770   34.68410    0.00510    2.65430    3.51920    0.03290    0.12770   57.12280  105.48260   96.92330   40.08830    9.98000
 10238.50000   27.69840   -9999.25   47.94230   34.79850    0.00800    2.66230    3.64760    0.02690    0.12490   58.29960  103.89960   94.73940   40.08830    9.92290
 10239.00000   27.69840   -9999.25   47.23500   34.91330    0.01240    2.66980    3.72660    0.02370    0.12210   59.06410  105.58560   92.55560   40.08830    9.83470
 10239.50000   27.73250   -9999.25   48.42930   35.02850    0.01740    2.67030    3.76800    0.02300    0.11900   58.86800  107.22010   91.02380   40.08830    9.79220
 10240.00000   27.80720   -9999.25   50.71500   35.14410    0.01850    2.67100    3.77900    0.02340    0.11700   58.72590  107.42280   92.17260   40.08830    9.77980
 10240.50000   27.88180   -9999.25   51.74210   35.26010    0.01510    2.67250    3.79640    0.02180    0.12140   60.16220  106.19690   92.92860   40.08830    9.72540
 10241.00000   27.95650   -9999.25   52.69390   35.37640    0.01160    2.67210    3.82400    0.02240    0.12630   61.04250  106.21620   93.22100   40.08830    9.65880
 10241.50000   28.03120   -9999.25   52.01500   35.49310    0.00820    2.66880    3.80430    0.02470    0.12800   61.04250  105.61900   93.31550   40.08830    9.63770
 10242.00000   28.10580   -9999.25   51.33410   35.61020    0.00470    2.66160    3.72660    0.02890    0.12780   60.27030  105.83010   93.41000   40.08830    9.61640
 10242.50000   28.18050   -9999.25   50.80750   35.72770    0.00560    2.65400    3.73410    0.03330    0.12760   61.42860  107.76060   93.50450   40.08830    9.59960
 10243.00000   28.25510   -9999.25   50.90760   35.84560    0.00670    2.65200    3.75280    0.03340    0.12610   60.29340  107.51870   93.59900   40.08830    9.59960
 10243.50000   28.32980   -9999.25   51.14290   35.93530    0.00780    2.65460    3.76520    0.03160    0.12450   59.49810  106.86490   93.69350   40.08830    9.56720
 10244.00000   28.40450   -9999.25   51.37930   35.93530    0.00860    2.65780    3.77590    0.02970    0.12460   59.66460  106.21110   94.18370   40.08830    9.52750
 10244.50000   28.47910   -9999.25   51.61680   35.93530    0.00830    2.65810    3.69300    0.02990    0.12730   59.80470  105.44400   95.26360   40.08830    9.49880
 10245.00000   28.55380   -9999.25   52.02580   36.47980    0.00800    2.65790    3.64760    0.03010    0.13000   60.09650  105.72720   96.34350   40.08830    9.47230
 10245.50000   28.62850   -9999.25   52.62910   37.11610    0.00770    2.65950    3.68400    0.02820    0.13160   60.58690  106.21620   96.07540   40.08830    9.44590
 10246.00000   28.70310   -9999.25   53.66320   37.76360    0.00770    2.66570    3.73900    0.02480    0.13110   61.07720  106.57690   93.82990   40.08830    9.44370
 10246.50000   28.77780   -9999.25   53.27820   38.01410    0.00770    2.67080    3.77850    0.02300    0.13020   61.56760  106.99720   90.15820   40.08830    9.45140
 10247.00000   28.85240   -9999.25   52.06380   38.09770    0.00750    2.66490    3.76230    0.02660    0.13050   61.75390  107.37450   86.48640   40.08830    9.45900
 10247.50000   28.92710   -9999.25   50.80750   38.18150    0.00720    2.65650    3.67300    0.03230    0.13130   61.63130  106.85330   84.98810   40.08830    9.45740
 10248.00000   29.00180   -9999.25   51.25030   38.26550    0.00690    2.65200    3.59820    0.03370    0.13220   61.50870  106.21620   84.38330   40.08830    9.45120
 10248.50000   29.07640   -9999.25   51.72510   38.34970    0.00670    2.66150    3.58750    0.02670    0.13210   61.42860  106.21620   84.50600   40.08830    9.44500
 10249.00000   29.15110   -9999.25   52.20440   38.43400    0.00710    2.67030    3.57850    0.02160    0.12960   61.42860  106.76450   84.88390   40.08830    9.44180
 10249.50000   29.22570   -9999.25   52.69390   38.51860    0.00760    2.67530    3.56950    0.01970    0.12860   61.42860  107.74520   85.26190   40.08830    9.43870
 10250.00000   29.30040   -9999.25   52.69390   38.60330    0.00490    2.67670    3.49140    0.02030    0.12840   61.42860  108.53280   86.66670   40.08830    9.43510
 10250.50000   29.37510   -9999.25   51.39820   38.65320    0.00180    2.67170    3.45530    0.02320    0.13310   61.42860  107.99310   88.78330   40.08830    9.43160
 10251.00000   29.44970   -9999.25   50.80750   38.97670   -0.00130    2.66510    3.38420    0.02660    0.13470   61.42860  107.54220   89.58330   40.08830    9.42810
 10251.50000   29.52440   -9999.25   50.80750   39.49770   -0.00180    2.66190    3.23520    0.02810    0.13070   61.42860  107.09130   87.69050   40.32920    9.42450
 10252.00000   29.59910   -9999.25   52.40650   40.02580    0.00140    2.66580    3.16390    0.02510    0.12550   60.80310  106.64040   86.15920   40.86830    9.43250
 10252.50000   29.67370   -9999.25   53.66320   40.56090    0.00460    2.67870    3.31190    0.02010    0.12120   59.82620  106.21620   86.72620   41.41470    9.42760
 10253.00000   29.74840   -9999.25   52.57880   41.10310    0.00780    2.68160    3.60430    0.01600    0.11610   58.72590  105.92060   87.29320   41.96830    9.40780
 10253.50000   29.82300   -9999.25   51.74210   41.57670    0.01170    2.68230    3.74630    0.01620    0.10880   59.74980  105.64150   87.79760   42.52940    9.40950
 10254.00000   29.89770   -9999.25   53.99680   41.09120    0.01590    2.68260    3.61920    0.01670    0.10620   61.04250  105.44400   85.27980   43.12040    9.41940
 10254.50000   29.97240   -9999.25   60.93290   40.66900    0.01980    2.68440    3.42510    0.01520    0.10990   59.28960  104.78670   83.01190   42.84620    9.42930
