~Version ---------------------------------------------------
VERS.   2.0 : CWLS log ASCII Standard -VERSION 2.0
WRAP.    NO : One line per depth step
DLM . SPACE : Column Data Section Delimiter
~Well ------------------------------------------------------
STRT .F                4184.0 : START DEPTH
STOP .F               12644.0 : STOP DEPTH
STEP .F                   0.5 : STEP
NULL .               -9999.25 : NULL VALUE
COMP .                        : COMPANY
WELL .                        : WELL
FLD  .                        : FIELD
LOC  .                        : LOCATION
PROV .                        : PROVINCE
CNTY .                        : COUNTY
STAT .                        : STATE
CTRY .                        : COUNTRY
SRVC .                        : SERVICE COMPANY
DATE .                        : DATE
UWI  .                        : UNIQUE WELL ID
API  .                        : API NUMBER
SLAT .WGS84 5.507655973853105 : SURFACE LATITUDE
SLON .WGS84 3.878737303608915 : SURFACE LONGITUDE
DATUM.F                1842.0 : DEPTH DATUM ELEV
~Curve Information -----------------------------------------
DEPT.F     : 
SPR .MV    : SPONTANEOUS POTENTIAL FROM RES.
CILD.MMHO  : CONDUCTIVITY INDUCTION LOG DEEP
SFLU.OHMM  : SPHERICALLY FOCUSED LOG UNAVERAGED RESISTIVITY
ILM .OHMM  : INDUCTION LOG MEDIUM
DRHO.G/C3  : DENSITY CORRECTION
RHOB.G/C3  : BULK DENSITY
PEF .B/E   : PHOTOELECTRIC FACTOR
DPHI.DEC   : DENSITY POROSITY LIMESTONE
NPHI.DEC   : NEUTRON POROSITY LIMESTONE
DTCO.US/F  : COMPRESSIONAL-WAVE INTERVAL TRANSIT TIME ACOUSTIC SLOWNESS
DTSM.US/F  : SHEAR-WAVE INTERVAL TRANSIT TIME DELTA-T
GRR .GAPI  : GAMMA RAY FROM RES. LOG.
ILD .OHMM  : INDUCTION LOG DEEP
CALD.IN    : CALIPER FDC LOG
~Params ----------------------------------------------------
~Other -----------------------------------------------------
~ASCII -----------------------------------------------------
# ...
 12103.00000   81.66670   -9999.25   54.38730   26.56910    0.00780    2.66920    4.22100    0.02460    0.16130   63.35910  114.32430  127.08330   26.56590    8.02610
 12103.50000   81.66670   -9999.25   44.27340   25.56740    0.00840    2.66490    4.82560    0.02530    0.16560   63.03940  113.55210  124.39290   24.98160    8.03930
 12104.00000   81.66670   -9999.25   35.28620   24.60350    0.00530    2.60870    6.16800    0.05220    0.16360   62.58690  111.21360  119.94050   24.17820    8.05260
 12104.50000   81.53180   -9999.25   35.28620   23.67600   -0.00750    2.38610    8.36620    0.16140    0.16480   62.58690  107.49870  119.94050   23.08860    8.10300
 12105.00000   81.27980   -9999.25   36.16530   22.78340   -0.02790    2.15160    9.99510    0.27620    0.17470   63.82240  104.67180  120.74400   22.04800    8.36210
 12105.50000   81.02780   -9999.25   37.26950   22.37180   -0.05270    2.00070   12.72050    0.30000    0.19160   66.61780  104.67180  123.19560   21.05430    8.88960
 12106.00000   80.77580   -9999.25   36.59630   19.71150   -0.06470    1.87510   14.27940    0.30000    0.19910   70.49420  105.39000  125.78740   19.45100    9.61150
 12106.50000   80.52380   -9999.25   31.95780   17.62300   -0.06700    1.90970   14.25960    0.30000    0.21050   72.62550  108.29730  128.86900   16.85120   10.07030
 12107.00000   80.27180   -9999.25   27.68650   14.75720   -0.07050    1.96580   13.36960    0.29990    0.23170   70.54500  109.30500  128.86900   14.59900   10.40360
 12107.50000   80.07940   -9999.25   23.98610   11.01940   -0.07630    2.00050   10.08390    0.29980    0.28830   67.36070  106.53800  128.09520   12.64780   10.69180
 12108.00000   80.20000   -9999.25   18.37420    8.20940   -0.07310    2.05680   10.14310    0.29980    0.30890   63.74520  105.44400  127.33930   12.25940   10.67630
 12108.50000   80.46880   -9999.25   10.59600    9.78890   -0.05680    2.17330    6.17240    0.29970    0.25720   64.37360  108.79540  126.48810   12.48490   10.17730
 12109.00000   80.73760   -9999.25   10.79090   11.68870   -0.02860    2.35850    4.44100    0.29960    0.18450   64.27340  112.00770  122.30360   13.41310    9.05620
 12109.50000   81.00630   -9999.25   15.53740   13.95710   -0.00140    2.50890    4.05230    0.29950    0.13630   61.94750  111.20370  117.51590   14.66070    8.14000
 12110.00000   81.27510   -9999.25   22.92920   16.66580    0.01010    2.62240    4.08430    0.29940    0.13080   60.27030  109.50770  113.98810   16.02430    7.93890
 12110.50000   81.54390   -9999.25   33.93320   20.42310    0.01220    2.66190    4.07080    0.02810    0.12480   61.12360  107.81180  111.01190   17.51480    7.90330
 12111.00000   82.76190   -9999.25   48.98870   20.79870    0.01130    2.66290    4.02110    0.02750    0.11880   60.26640  106.60230  111.01190   19.14390    7.90330
 12111.50000   84.04760   -9999.25   44.86010   20.79870    0.01030    2.66070    3.93300    0.02830    0.11500   58.72590  106.60230  115.17260   20.79870    7.90330
 12112.00000   84.19780   -9999.25   30.38740   20.42310    0.01040    2.66060    3.82260    0.02860    0.12610   60.65640  110.22390  120.08630   20.79870    7.90330
 12112.50000   84.35290   -9999.25   18.30730   18.66110    0.01360    2.66540    3.83000    0.02640    0.14510   66.73740  113.77740  137.59920   20.74200    7.90330
 12113.00000   84.50790   -9999.25   17.70860   17.33310    0.01650    2.66780    3.85900    0.02500    0.16930   68.08490  117.28190  152.67860   20.55150    7.90330
 12113.50000   84.66300   -9999.25   17.02000   17.02000    0.01340    2.66290    3.87460    0.02660    0.17900   67.11580  118.95750  153.27380   20.42310    7.90330
 12114.00000   84.81810   -9999.25   17.02000   18.39230    0.01060    2.64870    3.80500    0.03300    0.17460   66.69650  116.90540  143.15480   20.42310    7.90330
 12114.50000   84.97310   -9999.25   21.96780   20.57200    0.00790    2.63530    3.74630    0.04300    0.14370   66.50270  112.78670  132.44050   20.42310    7.90330
 12115.00000   85.12820   -9999.25   34.02300   23.00990    0.00470    2.62450    3.64860    0.04970    0.12010   65.75290  110.92660  134.27380   20.42310    7.89710
 12115.50000   85.28330   -9999.25   45.54400   24.13330    0.00370    2.62160    3.66590    0.05220    0.10950   64.78380  110.07720  140.92620   20.42310    7.87450
 12116.00000   85.43830   -9999.25   46.38180   24.81040    0.00640    2.62580    3.69690    0.04970    0.11060   63.74520  108.55290  145.53570   20.42310    7.85200
 12116.50000   85.59340   -9999.25   37.64670   26.28470    0.00860    2.62900    3.65400    0.04710    0.10950   63.94510  107.37450  139.13780   21.55920    7.82940
 12117.00000   85.74850   -9999.25   31.05930   28.07460    0.00790    2.62380    3.49520    0.05010    0.10370   64.16050  107.92280  126.82650   25.41640    7.80470
 12117.50000   85.90350   -9999.25   31.05930   29.94750    0.00710    2.60760    3.29160    0.05760    0.09930   64.37580  108.40730  114.51530   27.90520    7.79350
 12118.00000   86.05860   -9999.25   34.51860   29.94750    0.00620    2.59530    3.16390    0.06680    0.10330   64.48420  107.57530  111.01190   30.49830    7.75380
 12118.50000   86.21370   -9999.25   42.85400   29.94750    0.00540    2.58760    3.24550    0.07110    0.11420   64.38730  104.07910  119.75600   30.49830    7.72510
 12119.00000   86.36870   -9999.25   58.78370   29.94750    0.00450    2.59170    3.40270    0.06970    0.11990   64.29040  102.74130  133.63100   30.49830    7.72400
 12119.50000   86.56120   -9999.25   63.62280   29.94750    0.00370    2.59920    3.53900    0.06500    0.12370   64.19340  102.74130  135.30060   29.31550    7.72290
 12120.00000   86.77720   -9999.25   65.57740   29.94750    0.00280    2.60350    3.49420    0.06230    0.12260   64.40930  106.10040  135.11160   28.87540    7.72180
 12120.50000   86.99320   -9999.25   56.28810   29.94750    0.00200    2.60000    3.38110    0.06330    0.11970   65.18460  109.30500  134.92260   28.87540    7.72070
 12121.00000   87.20920   -9999.25   41.57670   30.23710    0.00110    2.59760    3.37920    0.06530    0.11800   65.76450  106.21620  135.72450   29.40850    7.71970
 12121.50000   87.42520   -9999.25   37.71830   30.65830    0.00120    2.59660    3.34340    0.06550    0.11840   66.00680  106.49230  137.66840   29.90580    7.71860
 12122.00000   87.64120   -9999.25   35.99430   31.08540    0.00240    2.59390    3.26260    0.06740    0.11420   65.99940  106.98840  139.61220   30.41150    7.71750
 12122.50000   87.85710   -9999.25   35.28620   31.51840    0.00360    2.58260    3.11450    0.07370    0.09170   65.91860  106.60230  133.48210   30.92580    7.71640
 12123.00000   88.07310   -9999.25   37.78940   33.51090    0.00470    2.57250    3.03160    0.08060    0.07060   65.83780  104.69750  124.03270   33.45320    7.71540
 12123.50000   88.28910   -9999.25   47.12310   39.56280    0.00590    2.56290    2.99020    0.08570    0.05580   65.75710  103.08240  114.58330   36.96840    7.71430
 12124.00000   88.50510   -9999.25   62.81620   45.75700    0.00670    2.55320    2.95660    0.09190    0.05310   65.67570  101.22010  108.72620   40.85310    7.71320
 12124.50000   88.72110   -9999.25  105.43130   51.11220    0.00670    2.54400    2.98540    0.09800    0.05500   64.90660   98.88030  108.42460   45.14590    7.71210
 12125.00000   88.80950   -9999.25  160.19340   57.09410    0.00670    2.53820    3.02200    0.10010    0.05690   64.13130   98.88030  110.11900   49.88980    7.71110
 12125.50000   88.80950   -9999.25  156.21990   63.77610    0.00620    2.53900    3.05860    0.10010    0.05820   62.67760  101.96910  111.91670   55.13220    7.71000
 12126.00000   88.80950   -9999.25  138.56830   70.01210    0.00580    2.54080    3.09480    0.09930    0.05840   61.68340  101.96910  111.49700   60.92550    7.70890
 12126.50000   88.80950   -9999.25  126.39650   75.02650    0.00440    2.53960    3.10910    0.10000    0.05920   61.36040  101.73040  110.41670   63.22980    7.70780
