~Version ---------------------------------------------------
VERS.   2.0 : CWLS log ASCII Standard -VERSION 2.0
WRAP.    NO : One line per depth step
DLM . SPACE : Column Data Section Delimiter
~Well ------------------------------------------------------
STRT .F                4184.0 : START DEPTH
STOP .F               12644.0 : STOP DEPTH
STEP .F                   0.5 : STEP
NULL .               -9999.25 : NULL VALUE
COMP .                        : COMPANY
WELL .                        : WELL
FLD  .                        : FIELD
LOC  .                        : LOCATION
PROV .                        : PROVINCE
CNTY .                        : COUNTY
STAT .                        : STATE
CTRY .                        : COUNTRY
SRVC .                        : SERVICE COMPANY
DATE .                        : DATE
UWI  .                        : UNIQUE WELL ID
API  .                        : API NUMBER
SLAT .WGS84 5.507655973853105 : SURFACE LATITUDE
SLON .WGS84 3.878737303608915 : SURFACE LONGITUDE
DATUM.F                1842.0 : DEPTH DATUM ELEV
~Curve Information -----------------------------------------
DEPT.F     : 
SPR .MV    : SPONTANEOUS POTENTIAL FROM RES.
CILD.MMHO  : CONDUCTIVITY INDUCTION LOG DEEP
SFLU.OHMM  : SPHERICALLY FOCUSED LOG UNAVERAGED RESISTIVITY
ILM .OHMM  : INDUCTION LOG MEDIUM
DRHO.G/C3  : DENSITY CORRECTION
RHOB.G/C3  : BULK DENSITY
PEF .B/E   : PHOTOELECTRIC FACTOR
DPHI.DEC   : DENSITY POROSITY LIMESTONE
NPHI.DEC   : NEUTRON POROSITY LIMESTONE
DTCO.US/F  : COMPRESSIONAL-WAVE INTERVAL TRANSIT TIME ACOUSTIC SLOWNESS
DTSM.US/F  : SHEAR-WAVE INTERVAL TRANSIT TIME DELTA-T
GRR .GAPI  : GAMMA RAY FROM RES. LOG.
ILD .OHMM  : INDUCTION LOG DEEP
CALD.IN    : CALIPER FDC LOG
~Params ----------------------------------------------------
~Other -----------------------------------------------------
~ASCII -----------------------------------------------------
# ...
 12607.00000  131.55750   -9999.25   43.91360   27.25170    0.00620    2.70550    4.11260    0.00130    0.09420   62.58690  108.05920   85.69640   26.84500    7.34360
 12607.50000  131.73750   -9999.25   51.50260   28.87540    0.00580    2.70590    4.20200    0.00150    0.09490   61.42860  106.98840   84.82140   27.34880    7.33740
 12608.00000  131.91750   -9999.25   60.18130   30.59580    0.00640    2.70250    4.13730    0.00310    0.09310   59.12740  103.82430   85.79080   29.58830    7.33140
 12608.50000  132.09750   -9999.25   70.32250   32.41870    0.00820    2.70530    4.10170    0.00200    0.08990   57.17380  101.13800   87.95070   32.01120    7.33140
 12609.00000  132.27750   -9999.25   82.17260   34.35020    0.00990    2.71390    4.15100   -0.00390    0.08660   56.22390   98.49420   90.11050   34.63250    7.33140
 12609.50000  132.45750   -9999.25   89.39810   36.59630    0.01160    2.72230    4.11960   -0.00820    0.08710   55.95460   97.72200   90.77380   36.59630    7.33140
 12610.00000  132.63750   -9999.25   99.97250   36.59630    0.01340    2.72410    4.00340   -0.00880    0.08850   55.25100   97.33590   90.77380   36.59630    7.33140
 12610.50000  132.81750   -9999.25   91.46390   35.11840    0.01440    2.72330    3.94370   -0.00780    0.09180   55.63710   97.33590   -9999.25   34.77540    7.34640
 12611.00000  132.99750   -9999.25   77.18340   31.00280    0.01530    2.72010    3.95360   -0.00600    0.09390   54.80310   97.33590   -9999.25   31.49100    7.36060
 12611.50000  133.17740   -9999.25   65.31490   27.36950    0.01600    2.71020    4.05910   -0.00080    0.09610   54.67390   97.86870   -9999.25   28.51670    7.37480
 12612.00000  133.25400   -9999.25   49.27520   24.16200    0.01680    2.70020    4.37830    0.00650    0.09540   56.80520   99.65250   -9999.25   25.82340    7.38900
 12612.50000  133.25400   -9999.25   34.02300   21.33040    0.01890    2.68600    5.27910    0.01630    0.09450   58.93650  104.65800   -9999.25   23.38440    7.30180
 12613.00000  133.25400   -9999.25   24.92100   19.33630    0.03040    2.64910    6.08180    0.03360    0.09450   61.06770  109.26310   -9999.25   20.79870    7.11800
 12613.50000  133.25400   -9999.25   22.78340   19.25500    0.04760    2.59510    6.72690    0.06450    0.09730   63.35910  112.77990   -9999.25   20.79870    6.74250
 12614.00000  133.25400   -9999.25   22.78340   19.15620    0.08660    2.52760    6.89960    0.09470    0.10040   63.35910  113.42470   -9999.25   20.79870    6.34250
 12614.50000  133.25400   -9999.25   26.40820   19.00890    0.12310    2.53600    7.00880    0.10510    0.10320   63.74520  113.55210   -9999.25   20.59500    6.23240
 12615.00000  133.25400   -9999.25   30.17760   19.03550    0.16320    2.57310    7.02380    0.08170    0.10260   63.02440  113.55210   -9999.25   20.35800    6.24000
 12615.50000  133.25400   -9999.25   31.02770   19.21260   -9999.25   -9999.25   -9999.25   -9999.25   -9999.25   62.26470  112.42090   -9999.25   20.12380   -9999.25
 12616.00000  133.25400   -9999.25   32.23600   19.39130   -9999.25   -9999.25   -9999.25   -9999.25   -9999.25   61.50490  111.62160   -9999.25   20.05420   -9999.25
 12616.50000  133.25400   -9999.25   34.02300   19.69190   -9999.25   -9999.25   -9999.25   -9999.25   -9999.25   61.42860  109.60130   -9999.25   20.05420   -9999.25
 12617.00000  133.25400   -9999.25   31.30030   19.46180   -9999.25   -9999.25   -9999.25   -9999.25   -9999.25   62.07720  109.23120   -9999.25   19.68770   -9999.25
 12617.50000  133.25400   -9999.25   29.40650   18.79760   -9999.25   -9999.25   -9999.25   -9999.25   -9999.25   62.72840  110.75070   -9999.25   18.64410   -9999.25
 12618.00000  133.25400   -9999.25   23.94580   17.89050   -9999.25   -9999.25   -9999.25   -9999.25   -9999.25   63.37970  112.27030   -9999.25   17.65570   -9999.25
 12618.50000  133.25400   -9999.25   20.05170   16.94980   -9999.25   -9999.25   -9999.25   -9999.25   -9999.25   63.74520  113.78980   -9999.25   16.71970   -9999.25
 12619.00000  133.25400   -9999.25   19.33630   16.05860   -9999.25   -9999.25   -9999.25   -9999.25   -9999.25   63.74520  114.36550   -9999.25   15.83340   -9999.25
 12619.50000  133.25400   -9999.25   19.46830   15.21420   -9999.25   -9999.25   -9999.25   -9999.25   -9999.25   63.97100  114.52830   -9999.25   14.99410   -9999.25
 12620.00000  133.25400   -9999.25   20.05420   14.44490   -9999.25   -9999.25   -9999.25   -9999.25   -9999.25   64.45950  114.71040   -9999.25   14.19920   -9999.25
 12620.50000  133.25400   -9999.25   20.05420   14.07070   -9999.25   -9999.25   -9999.25   -9999.25   -9999.25   64.90350  114.71040   -9999.25   13.87790   -9999.25
 12621.00000  133.25400   -9999.25   18.76910   13.71980   -9999.25   -9999.25   -9999.25   -9999.25   -9999.25   64.61520  116.57530   -9999.25   13.68160   -9999.25
 12621.50000  133.25400   -9999.25   16.31920   13.37770   -9999.25   -9999.25   -9999.25   -9999.25   -9999.25   64.90350  118.28480   -9999.25   13.48810   -9999.25
 12622.00000  133.25400   -9999.25   14.71060   13.04410   -9999.25   -9999.25   -9999.25   -9999.25   -9999.25   65.55680  120.11580   -9999.25   13.29730   -9999.25
 12622.50000  133.25400   -9999.25   15.48090   12.94840   -9999.25   -9999.25   -9999.25   -9999.25   -9999.25   66.06180  120.11580   -9999.25   13.10920   -9999.25
 12623.00000  133.25400   -9999.25   16.11430   12.94840   -9999.25   -9999.25   -9999.25   -9999.25   -9999.25   68.06490  120.11580   -9999.25   12.94840   -9999.25
 12623.50000  133.25400   -9999.25   15.97390   12.94840   -9999.25   -9999.25   -9999.25   -9999.25   -9999.25   68.16260  120.11580   -9999.25   12.71460   -9999.25
 12624.00000  133.25400   -9999.25   15.85110   12.94840   -9999.25   -9999.25   -9999.25   -9999.25   -9999.25   68.26020  120.11580   -9999.25   12.84450   -9999.25
 12624.50000  133.25400   -9999.25   15.82320   13.03940   -9999.25   -9999.25   -9999.25   -9999.25   -9999.25   68.35790  120.11580   -9999.25   13.08030   -9999.25
 12625.00000  133.29370   -9999.25   16.06540   13.28310   -9999.25   -9999.25   -9999.25   -9999.25   -9999.25   67.60620  120.11580   -9999.25   13.32040   -9999.25
 12625.50000  133.36090   -9999.25   16.48400   13.53140   -9999.25   -9999.25   -9999.25   -9999.25   -9999.25   66.62930  120.11580   -9999.25   13.56480   -9999.25
 12626.00000  133.42800   -9999.25   16.91350   13.78430   -9999.25   -9999.25   -9999.25   -9999.25   -9999.25   65.65250  120.11580   -9999.25   13.81380   -9999.25
 12626.50000  133.49520   -9999.25   17.33310   14.04200   -9999.25   -9999.25   -9999.25   -9999.25   -9999.25   65.28960  120.11580   -9999.25   14.06740   -9999.25
 12627.00000  133.56240   -9999.25   17.54290   14.30450   -9999.25   -9999.25   -9999.25   -9999.25   -9999.25   65.28960  120.11580   -9999.25   14.32560   -9999.25
 12627.50000  133.62960   -9999.25   18.37420   14.57180   -9999.25   -9999.25   -9999.25   -9999.25   -9999.25   65.28960  119.12480   -9999.25   14.58850   -9999.25
 12628.00000  133.69680   -9999.25   19.24480   14.84420   -9999.25   -9999.25   -9999.25   -9999.25   -9999.25   64.90990  117.60530   -9999.25   14.85630   -9999.25
 12628.50000  133.76400   -9999.25   20.05420   15.12170   -9999.25   -9999.25   -9999.25   -9999.25   -9999.25   64.09590  116.08580   -9999.25   15.12900   -9999.25
 12629.00000  133.83120   -9999.25   19.91840   15.53740   -9999.25   -9999.25   -9999.25   -9999.25   -9999.25   63.35910  114.71040   -9999.25   15.53740   -9999.25
 12629.50000  133.89840   -9999.25   19.50360   15.49800   -9999.25   -9999.25   -9999.25   -9999.25   -9999.25   64.16120  114.71040   -9999.25   15.50140   -9999.25
 12630.00000  133.96560   -9999.25   19.09740   15.42460   -9999.25   -9999.25   -9999.25   -9999.25   -9999.25   64.60100  115.14060   -9999.25   15.43420   -9999.25
 12630.50000  134.03280   -9999.25   18.69980   15.35150   -9999.25   -9999.25   -9999.25   -9999.25   -9999.25   64.76380  115.97790   -9999.25   15.36740   -9999.25
