~Version ---------------------------------------------------
VERS.   2.0 : CWLS log ASCII Standard -VERSION 2.0
WRAP.    NO : One line per depth step
DLM . SPACE : Column Data Section Delimiter
~Well ------------------------------------------------------
STRT .F                4184.0 : START DEPTH
STOP .F               12644.0 : STOP DEPTH
STEP .F                   0.5 : STEP
NULL .               -9999.25 : NULL VALUE
COMP .                        : COMPANY
WELL .                        : WELL
FLD  .                        : FIELD
LOC  .                        : LOCATION
PROV .                        : PROVINCE
CNTY .                        : COUNTY
STAT .                        : STATE
CTRY .                        : COUNTRY
SRVC .                        : SERVICE COMPANY
DATE .                        : DATE
UWI  .                        : UNIQUE WELL ID
API  .                        : API NUMBER
SLAT .WGS84 5.507655973853105 : SURFACE LATITUDE
SLON .WGS84 3.878737303608915 : SURFACE LONGITUDE
DATUM.F                1842.0 : DEPTH DATUM ELEV
~Curve Information -----------------------------------------
DEPT.F     : 
SPR .MV    : SPONTANEOUS POTENTIAL FROM RES.
CILD.MMHO  : CONDUCTIVITY INDUCTION LOG DEEP
SFLU.OHMM  : SPHERICALLY FOCUSED LOG UNAVERAGED RESISTIVITY
ILM .OHMM  : INDUCTION LOG MEDIUM
DRHO.G/C3  : DENSITY CORRECTION
RHOB.G/C3  : BULK DENSITY
PEF .B/E   : PHOTOELECTRIC FACTOR
DPHI.DEC   : DENSITY POROSITY LIMESTONE
NPHI.DEC   : NEUTRON POROSITY LIMESTONE
DTCO.US/F  : COMPRESSIONAL-WAVE INTERVAL TRANSIT TIME ACOUSTIC SLOWNESS
DTSM.US/F  : SHEAR-WAVE INTERVAL TRANSIT TIME DELTA-T
GRR .GAPI  : GAMMA RAY FROM RES. LOG.
ILD .OHMM  : INDUCTION LOG DEEP
CALD.IN    : CALIPER FDC LOG
~Params ----------------------------------------------------
~Other -----------------------------------------------------
~ASCII -----------------------------------------------------
# ...
 11239.00000    1.09520   -9999.25   42.54780   17.98970    0.00410    2.42310    2.56170    0.17150    0.09700   71.31710  112.38300   86.01190   18.10820    9.58050
 11239.50000   -5.74410   -9999.25   45.54400   18.93340    0.00440    2.40490    2.55700    0.18180    0.09520   70.47660  112.97140   89.86900   18.96970    9.63000
 11240.00000  -13.57140   -9999.25   39.00710   19.92660    0.00460    2.39540    2.61460    0.18370    0.08870   69.53670  112.07210  101.83040   19.87220    9.67950
 11240.50000  -15.15870   -9999.25   33.40850   20.97200    0.00630    2.41180    2.70020    0.17170    0.07880   66.50970  108.84170  113.39290   20.79870    9.72900
 11241.00000  -15.15870   -9999.25   34.14730   22.07210    0.00890    2.43730    2.74870    0.15400    0.06600   63.62930  103.51350  114.27980   20.62550    9.78450
 11241.50000  -15.15870   -9999.25   37.47390   23.62930    0.01140    2.46310    2.70300    0.13950    0.06290   62.20080  101.19690  114.58330   20.45700    9.84820
 11242.00000  -13.96030   -9999.25   41.12450   23.11800    0.01400    2.46840    2.65730    0.14350    0.07300   63.09850  101.19690  112.41910   20.28990    9.91180
 11242.50000  -12.95640   -9999.25   43.12040   21.34750    0.01660    2.45260    2.61360    0.15410    0.08440   64.13130  103.74520  109.70830   20.12420    9.99230
 11243.00000  -11.95240   -9999.25   39.71980   19.71250    0.01750    2.42860    2.57540    0.16670    0.09580   67.21240  107.51820  106.99760   19.95980   10.08230
 11243.50000  -10.94840   -9999.25   34.33660   18.20270    0.01650    2.40340    2.58530    0.17900    0.10880   69.87420  111.24480  103.86900   19.79670   10.14200
 11244.00000  -10.51750   -9999.25   29.68300   16.80860    0.01260    2.37830    2.60560    0.19600    0.12370   72.17610  114.97140  103.27380   19.07870   10.16400
 11244.50000  -10.78520   -9999.25   25.66000   15.52120    0.00980    2.34080    2.62330    0.21600    0.13280   73.94130  119.34360  106.09920   17.44290   10.19750
 11245.00000  -11.05290   -9999.25   22.18240   14.47420    0.00710    2.32410    2.64100    0.22990    0.14170   75.22520  122.64090  108.77650   15.94730   10.25990
 11245.50000  -11.32060   -9999.25   19.17600   13.53430    0.00640    2.32110    2.66630    0.22710    0.15020   75.87900  124.01390  111.45370   14.58000   10.38820
 11246.00000  -11.58840   -9999.25   16.42270   12.65550    0.00810    2.33490    2.70040    0.21970    0.15970   76.53280  125.38690  114.52260   13.32990   10.52530
 11246.50000  -11.85610   -9999.25   13.89230   11.85290    0.00960    2.34890    2.73440    0.21020    0.16650   77.18660  126.75980  117.98630   12.03800   10.66240
 11247.00000  -11.98410   -9999.25   12.28920   11.15390    0.00890    2.36180    2.78350    0.20380    0.17020   77.84040  127.93820  121.45000   11.28990   10.79950
 11247.50000  -11.56250   -9999.25   11.43200   10.49610    0.00830    2.36890    2.87190    0.19870    0.17110   78.03090  128.91890  124.91370   10.40460   10.93660
 11248.00000  -10.30750   -9999.25   10.63470    9.87720    0.00770    2.37700    2.96040    0.19410    0.16840   78.03090  129.38220  127.80240    9.97740   11.03550
 11248.50000   -9.05260   -9999.25    9.85090    9.29470    0.00770    2.38450    3.03000    0.18980    0.16440   78.03090  129.38220  130.21190    9.52430   11.11650
 11249.00000   -8.01590   -9999.25    9.85090    8.83040    0.00770    2.38680    2.97970    0.18810    0.16080   78.03090  128.98410  132.62140    9.09170   11.16740
 11249.50000   -3.52140   -9999.25    9.85090    8.64460    0.00800    2.38580    2.86570    0.18910    0.16240   78.03090  128.27210  135.03090    8.79230   11.20040
 11250.00000    0.30720   -9999.25   10.19240    8.40740    0.00930    2.38350    2.78990    0.18710    0.16650   77.30930  127.56000  136.57350    8.69110   11.24510
 11250.50000    4.13570   -9999.25   10.55300    8.17680    0.01060    2.40030    2.77170    0.18030    0.17060   76.08730  126.84790  137.52080    8.59100   11.30130
 11251.00000    7.22220   -9999.25   10.98940    7.95260    0.01200    2.41560    2.79860    0.16900    0.17500   74.86540  126.29340  138.46800    8.49200   11.35410
 11251.50000    7.89680   -9999.25   10.98940    7.73440    0.01260    2.42960    2.83720    0.16160    0.17280   74.16990  126.38310  138.98810    8.39420   11.40690
 11252.00000    8.57140   -9999.25   10.05470    7.49430    0.01260    2.43380    2.87930    0.16160    0.17030   74.46910  126.49160  137.65480    8.29750   11.46890
 11252.50000    9.24600   -9999.25    9.23650    7.50460    0.01240    2.42930    2.90030    0.16550    0.16240   75.69010  126.60020  132.79760    8.20940   11.53990
 11253.00000    9.92060   -9999.25    8.83630    7.52630    0.01070    2.42270    2.85050    0.16990    0.15920   76.10040  126.33820  129.34520    8.16850   11.55630
 11253.50000   11.19050   -9999.25    8.85680    7.54820    0.00900    2.41510    2.83810    0.17210    0.15840   75.07640  125.06830  128.96580    8.13080   11.59170
 11254.00000   12.98940   -9999.25    8.87730    7.57000    0.00890    2.41810    2.89520    0.16880    0.15840   73.78380  123.79850  130.45240    8.09330   11.63190
 11254.50000   14.78840   -9999.25    8.89790    7.59200    0.00930    2.43160    2.95660    0.15890    0.16370   74.07590  122.52860  132.57740    8.06120   11.67530
 11255.00000   16.58730   -9999.25    8.91850    7.61400    0.00970    2.44760    2.97630    0.14970    0.16750   73.82240  121.66020  131.69640    8.06120   11.71860
 11255.50000   16.99210   -9999.25    8.93920    7.63600    0.01030    2.44730    2.92150    0.15450    0.16670   73.39770  122.79000  128.28120    8.06120   11.72980
 11256.00000   17.39680   -9999.25    8.95990    7.65820    0.01050    2.43520    2.82750    0.16230    0.16620   74.16990  124.93900  124.86610    8.06120   11.72980
 11256.50000   17.80160   -9999.25    8.98070    7.68030    0.01010    2.42180    2.78200    0.16790    0.16870   73.61620  125.90730  121.72620    8.06120   11.72980
 11257.00000   18.20640   -9999.25    8.99280    7.70260    0.00970    2.42100    2.74930    0.16790    0.16810   73.03010  124.42470  121.72620    8.06120   11.72980
 11257.50000   18.61110   -9999.25    8.99280    7.72490    0.01300    2.43780    2.83020    0.15620    0.16430   72.44400  122.47100  124.85120    8.06120   11.73550
 11258.00000   18.96830   -9999.25    8.83040    7.74730    0.01710    2.45870    2.92970    0.14430    0.16000   71.85790  120.51740  131.88100    8.06120   11.74320
 11258.50000   20.47620   -9999.25    8.51270    7.77260    0.02100    2.47730    2.99780    0.13630    0.15650   71.27180  119.72970  141.29170    8.02130   11.75360
 11259.00000   21.82540   -9999.25    8.32950    7.68060    0.02460    2.48110    3.04760    0.13340    0.15530   70.69500  119.72970  147.75790    7.87410   11.76620
 11259.50000   23.17460   -9999.25    8.26550    7.57670    0.02810    2.48000    3.11010    0.13550    0.15680   71.35650  119.72970  150.29760    7.72960   11.75790
 11260.00000   24.52380   -9999.25    8.20940    7.47430    0.02730    2.47530    3.18360    0.14200    0.15810   72.00770  120.28190  155.05950    7.58780   11.74950
 11260.50000   25.07940   -9999.25    7.99970    7.37320    0.02410    2.45060    3.12140    0.15200    0.16140   72.23940  121.55170  152.55950    7.44860   11.74200
 11261.00000   24.50110   -9999.25    7.81660    7.27350    0.02190    2.43470    2.98750    0.16090    0.16420   72.23940  122.82160  150.29760    7.31190   11.73440
 11261.50000   23.92290   -9999.25    7.63780    7.17510    0.02060    2.42780    2.85350    0.16480    0.16630   72.37260  124.09150  143.12500    7.17770   11.72980
 11262.00000   23.34470   -9999.25    7.46300    7.09550    0.01950    2.43140    2.83980    0.16230    0.16810   72.58270  124.74900  136.60710    7.04600   11.72980
 11262.50000   22.76640   -9999.25    7.35900    7.06690    0.02090    2.44080    2.87960    0.15730    0.16950   72.49390  123.78380  133.63100    6.96740   11.70610
