~Version ---------------------------------------------------
VERS.   2.0 : CWLS log ASCII Standard -VERSION 2.0
WRAP.    NO : One line per depth step
DLM . SPACE : Column Data Section Delimiter
~Well ------------------------------------------------------
STRT .F                4184.0 : START DEPTH
STOP .F               12644.0 : STOP DEPTH
STEP .F                   0.5 : STEP
NULL .               -9999.25 : NULL VALUE
COMP .                        : COMPANY
WELL .                        : WELL
FLD  .                        : FIELD
LOC  .                        : LOCATION
PROV .                        : PROVINCE
CNTY .                        : COUNTY
STAT .                        : STATE
CTRY .                        : COUNTRY
SRVC .                        : SERVICE COMPANY
DATE .                        : DATE
UWI  .                        : UNIQUE WELL ID
API  .                        : API NUMBER
SLAT .WGS84 5.507655973853105 : SURFACE LATITUDE
SLON .WGS84 3.878737303608915 : SURFACE LONGITUDE
DATUM.F                1842.0 : DEPTH DATUM ELEV
~Curve Information -----------------------------------------
DEPT.F     : 
SPR .MV    : SPONTANEOUS POTENTIAL FROM RES.
CILD.MMHO  : CONDUCTIVITY INDUCTION LOG DEEP
SFLU.OHMM  : SPHERICALLY FOCUSED LOG UNAVERAGED RESISTIVITY
ILM .OHMM  : INDUCTION LOG MEDIUM
DRHO.G/C3  : DENSITY CORRECTION
RHOB.G/C3  : BULK DENSITY
PEF .B/E   : PHOTOELECTRIC FACTOR
DPHI.DEC   : DENSITY POROSITY LIMESTONE
NPHI.DEC   : NEUTRON POROSITY LIMESTONE
DTCO.US/F  : COMPRESSIONAL-WAVE INTERVAL TRANSIT TIME ACOUSTIC SLOWNESS
DTSM.US/F  : SHEAR-WAVE INTERVAL TRANSIT TIME DELTA-T
GRR .GAPI  : GAMMA RAY FROM RES. LOG.
ILD .OHMM  : INDUCTION LOG DEEP
CALD.IN    : CALIPER FDC LOG
~Params ----------------------------------------------------
~Other -----------------------------------------------------
~ASCII -----------------------------------------------------
# ...
 10735.00000   30.87300   -9999.25   82.50820   62.08770    0.01910    2.68880    3.45020    0.01080    0.10470   56.61990   98.62290  109.31220   69.62480    9.10650
 10735.50000   30.87300   -9999.25   88.87820   57.45950    0.00770    2.67270    3.51180    0.01760    0.09680   57.56760  100.03860  104.44050   64.29230    9.12010
 10736.00000   30.87300   -9999.25   92.71720   53.17630    0.00750    2.67470    3.63770    0.02180    0.10090   57.56760  100.03860  100.29760   57.72190    9.16180
 10736.50000   30.87300   -9999.25   84.17920   50.80750    0.00640    2.68070    3.86260    0.01690    0.11500   56.71820   98.50390   95.51790   58.78370    9.20360
 10737.00000   30.87300   -9999.25   77.26790   50.80750    0.00460    2.68760    4.04320    0.01310    0.12290   56.64090   97.02700   89.03230   59.97430    9.24540
 10737.50000   30.87300   -9999.25   86.59150   53.81010    0.00160    2.68420    4.10170    0.01410    0.11710   57.16940   95.40540   80.82480   62.08770    9.26920
 10738.00000   30.87300   -9999.25  102.22770   58.50580   -0.00150    2.68240    3.86830    0.01590    0.10990   55.81560   95.54880   71.13100   61.46040    9.30380
 10738.50000   30.87300   -9999.25  121.87160   59.86500   -0.00220    2.68190    3.61800    0.01590    0.10990   54.46190   95.83010   71.13100   60.24820    9.34260
 10739.00000   30.87300   -9999.25  126.39650   58.78370   -0.00220    2.68060    3.43560    0.01660    0.11160   53.32050   96.11140   73.25240   59.05990    9.38320
 10739.50000   30.87300   -9999.25  124.11340   52.06140   -0.00110    2.67870    3.37120    0.01770    0.11430   54.83910   98.54390   76.57860   54.10520    9.42370
 10740.00000   30.87300   -9999.25   96.23270   44.41670    0.00180    2.68070    3.39090    0.01720    0.11910   56.40930  101.63820   85.60520   48.54420    9.46430
 10740.50000   30.87300   -9999.25   74.23640   37.89460    0.00470    2.68680    3.40860    0.01390    0.13690   57.99230  104.67180   97.44840   43.55490    9.47300
 10741.00000   30.87300   -9999.25   57.26780   32.33020    0.00710    2.69120    3.42670    0.01090    0.16200   59.96140  109.69110  106.25000   39.37730    9.47030
 10741.50000   30.87300   -9999.25   44.17780   27.84170    0.00960    2.68910    3.50910    0.01210    0.18710   61.93050  109.69110  112.87860   36.49340    9.51610
 10742.00000   30.87300   -9999.25   35.93530   27.84170    0.02150    2.66570    3.66730    0.02200    0.20270   62.45560  109.69110  120.53570   33.82070    9.56190
 10742.50000   30.87300   -9999.25   35.93530   31.05930    0.03970    2.59290    3.80030    0.05540    0.19450   62.25870  109.69110  120.53570   31.34370    9.61710
 10743.00000   30.87300   -9999.25   38.93610   28.87540    0.05810    2.50750    3.79450    0.10770    0.17410   63.31270  116.89830  120.53570   28.87540    9.67850
 10743.50000   30.87300   -9999.25   41.88640   22.88740    0.07700    2.42520    3.72000    0.16060    0.15730   64.88800  123.46200  122.88490   25.75850    9.74000
 10744.00000   30.87300   -9999.25   43.91360   18.14120    0.09260    2.34800    3.62520    0.22100    0.16500   65.77860  130.54050  133.63100   22.75570    9.80140
 10744.50000   30.87300   -9999.25   34.09550   14.37920    0.07260    2.16240    3.30870    0.28940    0.20410   69.60750  139.33720  155.43250   20.10300    9.87430
 10745.00000   30.87300   -9999.25   26.20040   13.67620    0.04100    2.07850    3.14930    0.29910    0.25510   74.81340  148.68730  173.32340   18.64410    9.96250
 10745.50000   30.87300   -9999.25   20.13350   14.88590    0.01460    2.14230    3.19870    0.29930    0.29310   78.09600  147.67240  193.75000   18.64410   10.17250
 10746.00000   30.87300   -9999.25   17.33310   16.11430    0.01460    2.22750    3.36630    0.28000    0.29110   80.18820  146.54720  211.59230   18.64410   10.27020
 10746.50000   30.92500   -9999.25   18.39090   17.74870    0.03320    2.41970    3.46620    0.18340    0.27040   82.28040  145.42200  226.48810   19.80440    9.95460
 10747.00000   31.10820   -9999.25   23.20250   19.47780    0.03820    2.46150    3.54890    0.14140    0.26670   84.20850  142.81850  226.48810   22.92980    9.67850
 10747.50000   31.29150   -9999.25   30.96010   21.37530    0.03150    2.49210    3.82960    0.13040    0.25800   81.11970  137.82130  196.48810   29.32530    9.65210
 10748.00000   31.47480   -9999.25   42.38360   24.34750    0.02560    2.52760    4.03260    0.11970    0.21810   75.49550  131.07010  169.27380   37.50470    9.63900
 10748.50000   31.65800   -9999.25   58.02200   28.74410    0.02190    2.58370    4.15100    0.08300    0.17650   69.26000  124.31880  150.89290   47.96550    9.63900
 10749.00000   31.84130   -9999.25   79.43050   33.93460    0.01620    2.61790    3.85960    0.05870    0.15210   65.63710  117.72200  115.77380   61.34400    9.63290
 10749.50000   32.02450   -9999.25  108.73820   42.77280    0.01030    2.63130    3.49950    0.04750    0.13420   64.16020  111.25210  110.41670   78.45400    9.62380
 10750.00000   32.20780   -9999.25  148.85970   55.00990    0.01030    2.63360    3.32100    0.04430    0.12820   62.97300  103.51350  111.01190  105.33520    9.61480
 10750.50000   32.39100   -9999.25  203.02730   70.53720    0.01160    2.62980    3.21320    0.04570    0.11490   57.95370   98.88030  119.34520  105.33520    9.60580
 10751.00000   32.57430   -9999.25  150.62190   62.38260    0.01290    2.62480    3.18360    0.04850    0.09840   59.88420   99.26640  131.28570  100.28000    9.60480
 10751.50000   32.75760   -9999.25   94.42280   38.88470    0.01560    2.61640    3.19350    0.05360    0.06880   59.88420  103.08620  143.53570   80.30020    9.62080
 10752.00000   32.94080   -9999.25   64.95480   27.20950    0.01960    2.58890    3.27250    0.07260    0.05540   60.45750  111.72200  177.22020   64.30120    9.63250
 10752.50000   33.12410   -9999.25   45.26120   23.20250    0.02010    2.53700    3.38510    0.10590    0.08910   62.66410  118.53830  200.65480   51.48980    9.64420
 10753.00000   33.30740   -9999.25   36.41000   23.56040    0.01610    2.47930    3.45650    0.15050    0.13570   64.87070  120.92000  208.72620   40.08830    9.65590
 10753.50000   33.49060   -9999.25   31.49750   24.06390    0.01680    2.45360    3.46990    0.14140    0.17060   66.83400  123.30170  209.73410   34.89460    9.65880
 10754.00000   33.67390   -9999.25   26.84500   21.99500    0.02600    2.52370    3.48430    0.11130    0.17740   67.03480  125.13510  213.26390   29.76970    9.65880
 10754.50000   33.85710   -9999.25   26.84500   20.42310    0.03520    2.59840    3.50940    0.07190    0.17030   67.31490  120.70270  222.08330   25.39740    9.65880
 10755.00000   34.04040   -9999.25   27.46090   20.05420    0.03620    2.62020    3.50300    0.05220    0.17070   67.60620  115.30890  231.25000   22.78340    9.66010
 10755.50000   34.22370   -9999.25   28.02950   20.05420    0.02990    2.61980    3.41000    0.05200    0.18290   66.38300  109.91510  231.25000   22.78340    9.66780
 10756.00000   34.40690   -9999.25   28.60990   20.93010    0.02880    2.62220    3.25660    0.05130    0.18290   64.22550  104.52120  231.25000   22.78340    9.67540
 10756.50000   34.59020   -9999.25   32.94170   23.73520    0.03100    2.63660    3.12290    0.04410    0.15010   62.28310   99.42090  213.58330   23.62930    9.60700
 10757.00000   34.77340   -9999.25   41.86880   26.91630    0.03230    2.64650    3.06700    0.03770    0.11500   60.48520   92.70270  195.77650   27.57300    9.52570
 10757.50000   34.95670   -9999.25   56.73750   30.52360    0.03100    2.64610    3.05630    0.03790    0.08430   59.66790   95.79150  177.96960   31.51840    9.48130
 10758.00000   35.14000   -9999.25   80.64590   34.64890    0.02760    2.62240    3.17580    0.05160    0.07160   62.02160  100.69500  167.55950   36.02840    9.48770
 10758.50000   35.32320   -9999.25  141.00410   34.64890    0.02430    2.52470    3.33170    0.10030    0.12360   63.74520  105.27030  166.96430   40.08830    9.54920
