~Version ---------------------------------------------------
VERS.   2.0 : CWLS log ASCII Standard -VERSION 2.0
WRAP.    NO : One line per depth step
DLM . SPACE : Column Data Section Delimiter
~Well ------------------------------------------------------
STRT .F                4184.0 : START DEPTH
STOP .F               12644.0 : STOP DEPTH
STEP .F                   0.5 : STEP
NULL .               -9999.25 : NULL VALUE
COMP .                        : COMPANY
WELL .                        : WELL
FLD  .                        : FIELD
LOC  .                        : LOCATION
PROV .                        : PROVINCE
CNTY .                        : COUNTY
STAT .                        : STATE
CTRY .                        : COUNTRY
SRVC .                        : SERVICE COMPANY
DATE .                        : DATE
UWI  .                        : UNIQUE WELL ID
API  .                        : API NUMBER
SLAT .WGS84 5.507655973853105 : SURFACE LATITUDE
SLON .WGS84 3.878737303608915 : SURFACE LONGITUDE
DATUM.F                1842.0 : DEPTH DATUM ELEV
~Curve Information -----------------------------------------
DEPT.F     : 
SPR .MV    : SPONTANEOUS POTENTIAL FROM RES.
CILD.MMHO  : CONDUCTIVITY INDUCTION LOG DEEP
SFLU.OHMM  : SPHERICALLY FOCUSED LOG UNAVERAGED RESISTIVITY
ILM .OHMM  : INDUCTION LOG MEDIUM
DRHO.G/C3  : DENSITY CORRECTION
RHOB.G/C3  : BULK DENSITY
PEF .B/E   : PHOTOELECTRIC FACTOR
DPHI.DEC   : DENSITY POROSITY LIMESTONE
NPHI.DEC   : NEUTRON POROSITY LIMESTONE
DTCO.US/F  : COMPRESSIONAL-WAVE INTERVAL TRANSIT TIME ACOUSTIC SLOWNESS
DTSM.US/F  : SHEAR-WAVE INTERVAL TRANSIT TIME DELTA-T
GRR .GAPI  : GAMMA RAY FROM RES. LOG.
ILD .OHMM  : INDUCTION LOG DEEP
CALD.IN    : CALIPER FDC LOG
~Params ----------------------------------------------------
~Other -----------------------------------------------------
~ASCII -----------------------------------------------------
# ...
 10399.00000   10.14910   -9999.25   29.94750   21.03870    0.03250    2.60310    3.11170    0.06190    0.12680   62.20080  111.02030   95.48810   21.16760   10.16750
 10399.50000   10.87100   -9999.25   29.94750   21.96780    0.02350    2.59210    3.08290    0.06810    0.12840   62.35210  109.42660   89.01970   22.04980   10.14890
 10400.00000   11.59280   -9999.25   27.96000   22.28020    0.01490    2.58590    3.01580    0.07140    0.13460   62.58690  108.14670   84.50900   22.78340   10.13210
 10400.50000   12.31470   -9999.25   26.09010   22.59960    0.01260    2.58390    2.83810    0.07300    0.14030   62.32660  108.14670   81.84520   22.78340   10.14780
 10401.00000   13.03660   -9999.25   24.83750   22.92360    0.01260    2.57940    2.89490    0.07540    0.14600   62.00240  109.01840   81.84520   22.78340   10.11240
 10401.50000   13.75840   -9999.25   23.93440   23.25220    0.01260    2.57600    2.95310    0.07760    0.15170   62.01930  109.88330   84.72960   22.78340   10.08510
 10402.00000   14.48030   -9999.25   23.20250   23.58560    0.01490    2.57800    2.96830    0.07760    0.15330   62.50580  110.74820   88.18540   22.78340   10.05530
 10402.50000   15.20210   -9999.25   23.62930   23.92370    0.01810    2.58290    2.95340    0.07390    0.14710   62.97300  111.23550   91.36900   22.78340   10.02540
 10403.00000   15.92400   -9999.25   24.17730   24.26670    0.02150    2.59530    2.97430    0.06880    0.13840   62.88100  111.23550   94.63100   22.78340    9.99410
 10403.50000   16.64590   -9999.25   26.15720   24.61460    0.02030    2.60840    3.07340    0.06020    0.13130   62.79260  110.54390   97.65480   23.42340    9.99410
 10404.00000   17.36770   -9999.25   28.29910   24.96750    0.01860    2.62040    3.14410    0.05100    0.12530   62.70410  109.01490   99.07480   24.15770    9.99410
 10404.50000   18.08960   -9999.25   30.61640   25.32540    0.01610    2.63030    3.19300    0.04680    0.12650   62.61570  107.48590   97.13100   24.91490    9.99410
 10405.00000   18.81140   -9999.25   32.21250   25.58380    0.01360    2.62820    3.13760    0.04750    0.12890   62.47880  107.28010   95.18710   25.69590    9.99090
 10405.50000   19.53330   -9999.25   31.63070   26.06200    0.01110    2.62050    3.11670    0.05200    0.13160   62.08960  107.71260   93.27380   26.50140    9.97280
 10406.00000   20.25520   -9999.25   29.94750   26.75070    0.00890    2.61750    3.15500    0.05340    0.13240   62.00510  108.14500   91.36900   27.33210    9.95460
 10406.50000   20.97700   -9999.25   29.94750   27.79040    0.00700    2.62340    3.22560    0.04980    0.12550   62.58690  108.53280   87.61900   28.18890    9.88610
 10407.00000   21.69890   -9999.25   30.49830   28.87040    0.00560    2.63710    3.28330    0.04360    0.11970   61.66690  108.13350   83.83930   29.07250    9.81730
 10407.50000   22.42070   -9999.25   33.89920   29.99240    0.00420    2.65230    3.32960    0.03340    0.11620   60.83290  107.02150   79.46430   29.98390    9.77860
 10408.00000   23.14260   -9999.25   38.95030   31.15810    0.00370    2.66640    3.46730    0.02500    0.11770   60.09760  105.83010   77.93570   30.92380    9.78220
 10408.50000   23.86450   -9999.25   45.54400   32.36900    0.00370    2.67060    3.73640    0.02300    0.12150   59.56690  105.52900   75.89290   31.89310    9.78570
 10409.00000   24.52380   -9999.25   45.54400   33.62700    0.00540    2.66600    3.91810    0.02600    0.12680   59.03620  105.20460   75.89290   32.89290    9.78930
 10409.50000   24.84610   -9999.25   43.96800   34.02300    0.00700    2.65990    3.93510    0.02900    0.13780   58.50540  105.23550   75.14460   34.02300    9.79280
 10410.00000   25.31140   -9999.25   42.56590   34.02300    0.00850    2.66090    3.91410    0.02730    0.14940   57.95370  106.13900   74.06460   34.02300    9.79630
 10410.50000   25.77660   -9999.25   41.20850   34.02300    0.01010    2.67050    3.90390    0.02180    0.16030   58.38490  107.76060   72.91670   34.02300    9.79680
 10411.00000   26.24180   -9999.25   40.08830   34.02300    0.01160    2.67630    3.87070    0.01930    0.16240   58.83400  107.19300   72.32140   34.02300    9.79680
 10411.50000   26.70700   -9999.25   39.36430   34.02300    0.01350    2.67660    3.71880    0.01960    0.15600   59.28300  107.17630   74.22620   34.02300    9.79680
 10412.00000   26.90480   -9999.25   39.36430   34.02300    0.01610    2.67620    3.48960    0.01950    0.14900   59.73210  107.37450   76.74600   34.02300    9.79680
 10412.50000   26.90480   -9999.25   40.57850   34.02300    0.01880    2.67950    3.38470    0.01750    0.14320   60.18120  107.45730   79.26590   34.02300    9.79680
 10413.00000   26.90480   -9999.25   42.17460   34.02300    0.01630    2.67940    3.38300    0.01750    0.14040   59.72430  107.59630   81.25000   34.02300    9.79680
 10413.50000   26.90480   -9999.25   43.29050   34.54800    0.00960    2.67010    3.45780    0.02340    0.13760   59.04320  107.76060   81.25000   34.02300    9.78130
 10414.00000   26.90480   -9999.25   43.69320   35.81470    0.00340    2.66040    3.57550    0.02870    0.13530   58.36220  107.76060   79.59690   35.07290    9.73160
 10414.50000   26.90480   -9999.25   44.38030   37.12790    0.00120    2.65940    3.73130    0.02930    0.13310   57.56760  106.56520   77.00510   36.12160    9.67850
 10415.00000   26.90480   -9999.25   45.54400   38.65320    0.00200    2.66020    3.85740    0.02880    0.13240   58.07430  105.44400   74.10710   37.20160    9.66130
 10415.50000   27.05290   -9999.25   47.83100   38.77970    0.00280    2.65750    3.84430    0.02990    0.13370   58.68240  105.44400   74.10710   38.31400    9.66470
 10416.00000   27.22090   -9999.25   50.80750   38.92360    0.00360    2.65350    3.73690    0.03420    0.13570   59.29050  105.44400   76.22620   38.65320    9.66810
 10416.50000   27.38890   -9999.25   50.80750   39.06800    0.00740    2.65190    3.51920    0.03450    0.13760   59.24170  105.44400   78.86900   38.65320    9.67160
 10417.00000   27.55690   -9999.25   50.45480   39.21300    0.01190    2.65690    3.35790    0.03060    0.13910   58.85250  105.44400   79.77140   38.65320    9.67500
 10417.50000   27.72490   -9999.25   49.42720   39.35850    0.01440    2.66570    3.28230    0.02640    0.14350   58.72590  105.44400   80.67860   38.65320    9.67850
 10418.00000   27.89290   -9999.25   48.42050   39.50460    0.01650    2.67450    3.36720    0.02220    0.15070   58.72590  106.30120   82.55560   38.65320    9.66580
 10418.50000   28.06090   -9999.25   47.43430   39.65110    0.01450    2.67870    3.55280    0.01910    0.15410   58.72590  106.26640   85.41670   38.65320    9.65280
 10419.00000   28.22880   -9999.25   47.23500   39.79830    0.01210    2.67780    3.72460    0.01950    0.15210   59.79240  105.83010   82.49660   38.65320    9.63990
 10419.50000   28.39680   -9999.25   48.12490   39.94600    0.00970    2.67430    3.77590    0.02080    0.14970   60.98150  106.36680   78.82480   38.65320    9.62690
 10420.00000   28.52890   -9999.25   48.98870   40.08830    0.00740    2.67080    3.72660    0.02310    0.15230   62.17070  106.85330   75.29760   38.65320    9.60550
 10420.50000   28.61410   -9999.25   50.99310   40.24450    0.00710    2.66780    3.56490    0.02460    0.15730   62.55080  106.80750   77.45830   39.35280    9.58200
 10421.00000   28.69930   -9999.25   52.99890   40.87040    0.00780    2.66850    3.44030    0.02460    0.15630   61.25350  106.25150   79.53720   40.46130    9.59150
 10421.50000   28.78450   -9999.25   55.08370   41.50610    0.00840    2.67080    3.36800    0.02410    0.15090   59.88420  105.69550   81.84520   41.60100    9.60100
 10422.00000   28.86970   -9999.25   58.78370   42.15160    0.00910    2.66980    3.40510    0.02340    0.14460   59.88420  105.44400   81.30710   42.77280    9.61040
 10422.50000   28.95480   -9999.25   58.49870   42.80720    0.00860    2.66780    3.53160    0.02460    0.14270   59.88420  105.48260   80.65480   43.12040    9.61930
