~Version ---------------------------------------------------
VERS.   2.0 : CWLS log ASCII Standard -VERSION 2.0
WRAP.    NO : One line per depth step
DLM . SPACE : Column Data Section Delimiter
~Well ------------------------------------------------------
STRT .F                4184.0 : START DEPTH
STOP .F               12644.0 : STOP DEPTH
STEP .F                   0.5 : STEP
NULL .               -9999.25 : NULL VALUE
COMP .                        : COMPANY
WELL .                        : WELL
FLD  .                        : FIELD
LOC  .                        : LOCATION
PROV .                        : PROVINCE
CNTY .                        : COUNTY
STAT .                        : STATE
CTRY .                        : COUNTRY
SRVC .                        : SERVICE COMPANY
DATE .                        : DATE
UWI  .                        : UNIQUE WELL ID
API  .                        : API NUMBER
SLAT .WGS84 5.507655973853105 : SURFACE LATITUDE
SLON .WGS84 3.878737303608915 : SURFACE LONGITUDE
DATUM.F                1842.0 : DEPTH DATUM ELEV
~Curve Information -----------------------------------------
DEPT.F     : 
SPR .MV    : SPONTANEOUS POTENTIAL FROM RES.
CILD.MMHO  : CONDUCTIVITY INDUCTION LOG DEEP
SFLU.OHMM  : SPHERICALLY FOCUSED LOG UNAVERAGED RESISTIVITY
ILM .OHMM  : INDUCTION LOG MEDIUM
DRHO.G/C3  : DENSITY CORRECTION
RHOB.G/C3  : BULK DENSITY
PEF .B/E   : PHOTOELECTRIC FACTOR
DPHI.DEC   : DENSITY POROSITY LIMESTONE
NPHI.DEC   : NEUTRON POROSITY LIMESTONE
DTCO.US/F  : COMPRESSIONAL-WAVE INTERVAL TRANSIT TIME ACOUSTIC SLOWNESS
DTSM.US/F  : SHEAR-WAVE INTERVAL TRANSIT TIME DELTA-T
GRR .GAPI  : GAMMA RAY FROM RES. LOG.
ILD .OHMM  : INDUCTION LOG DEEP
CALD.IN    : CALIPER FDC LOG
~Params ----------------------------------------------------
~Other -----------------------------------------------------
~ASCII -----------------------------------------------------
# ...
 11071.00000   32.68710   -9999.25   34.56480   23.93890    0.02260    2.51380    2.37710    0.07530    0.08610   63.43630  111.77610  107.38100   30.46660    9.30380
 11071.50000   34.13260   -9999.25   33.40850   22.40100    0.01140    2.27380    2.18140    0.18430    0.09920   72.23940  120.63710  108.76790   29.40650    9.37580
 11072.00000   35.57820   -9999.25   33.40850   20.79870   -0.00620    2.06860    2.06810    0.29980    0.16630   78.41700  127.31020  109.07140   29.55700    9.44180
 11072.50000   37.02380   -9999.25   34.02300   20.79870   -0.01240    1.93930    2.20630    0.29980    0.26820   86.52510  130.54050  112.45040   30.49830    9.54630
 11073.00000   39.60320   -9999.25   39.46880   22.20930   -0.00880    1.96990    2.55410    0.29980    0.35310   93.47490  130.54050  120.53570   30.05680    9.55400
 11073.50000   41.98410   -9999.25   45.18320   25.83090    0.00170    1.95970    2.74930    0.29980    0.39290   90.86870  128.72100  144.78180   28.69170    9.54690
 11074.00000   41.98410   -9999.25   51.72500   22.31750    0.00160    1.91260    2.74930    0.29980    0.43070   84.98070  125.90730  163.17460   27.33880    9.54040
 11074.50000   42.77780   -9999.25   59.21390   20.05420    0.00120    1.70730    2.47240    0.29980    0.46080   70.69500  120.07400  178.85910   27.33880    9.77020
 11075.00000   42.67860   -9999.25   60.96620   20.05420    0.00070    1.72610    2.45310    0.29980    0.46840   66.93050  114.00260  190.07940   28.20650   10.09270
 11075.50000   42.55210   -9999.25   55.80790   27.12780    0.00060    1.90400    2.66770    0.29980    0.37120   66.03480  110.90350  194.38000   29.40650   10.28990
 11076.00000   42.42560   -9999.25   40.30820   40.82580    0.00930    2.00050    2.95270    0.29980    0.28360   66.62550  109.72200  198.51190   28.74040    9.79970
 11076.50000   42.29910   -9999.25   31.63070   37.07980    0.02380    2.41900    3.10460    0.21540    0.16660   66.19690  108.03090  194.34520   27.25350    9.47290
 11077.00000   42.17260   -9999.25   33.14560   31.95520    0.03400    2.55570    3.09490    0.11180    0.12840   65.21240  106.21620  188.39290   25.84360    9.28400
 11077.50000   42.04610   -9999.25   34.99270   27.53880    0.03180    2.57450    3.06390    0.07790    0.12650   64.13130  107.54340  183.63100   25.41640    9.28400
 11078.00000   41.98410   -9999.25   35.93530   23.73290    0.02940    2.56910    3.08130    0.08030    0.12490   64.13130  108.56500  177.12800   26.50460    9.28400
 11078.50000   41.98410   -9999.25   35.03790   22.78340    0.02520    2.55490    3.16180    0.08500    0.12700   64.90350  109.38550  169.91820   27.76570    9.28400
 11079.00000   41.98410   -9999.25   33.83750   23.06990    0.02070    2.54090    3.17310    0.09360    0.13180   64.28570  110.07720  162.70830   29.08670    9.28400
 11079.50000   41.98410   -9999.25   32.67820   23.37830    0.02110    2.52700    3.15330    0.10240    0.13630   65.44880  113.03860  161.01190   27.93490    9.28400
 11080.00000   41.98410   -9999.25   32.21250   24.06390    0.02410    2.50940    3.18250    0.11110    0.13790   66.83400  115.09650  167.77600   26.12100    9.28400
 11080.50000   41.98410   -9999.25   32.21250   23.04970    0.02770    2.48460    3.30210    0.12380    0.13950   65.67570  122.04630  174.67530   24.42480    9.28400
 11081.00000   41.98410   -9999.25   30.00210   20.42310    0.03190    2.45980    3.28300    0.14000    0.15110   67.05600  122.04630  181.57470   23.06750    9.27760
 11081.50000   41.98410   -9999.25   25.89580   20.42310    0.03630    2.44270    3.22790    0.15450    0.16110   68.40980  122.04630  188.47400   22.50270    9.24440
 11082.00000   41.98410   -9999.25   21.96780   20.52880    0.03980    2.46680    3.20340    0.14870    0.16240   69.16990  120.82740  193.00000   21.95170    9.20050
 11082.50000   41.98410   -9999.25   21.96780   20.79870    0.04220    2.51030    3.33090    0.12370    0.15480   68.18530  118.99890  196.33930   21.41430    9.14080
 11083.00000   41.98410   -9999.25   22.82490   20.73150    0.03680    2.55320    3.36430    0.09870    0.14970   66.06180  117.02700  203.10710   20.88990    9.10650
 11083.50000   41.98410   -9999.25   23.45760   20.51840    0.02850    2.56420    3.32240    0.08500    0.15180   65.65850  117.16220  213.39290   20.37850    9.10650
 11084.00000   41.98410   -9999.25   23.94720   20.30760    0.01790    2.56180    3.28050    0.08540    0.14760   65.22090  117.41310  209.28570   20.05420    9.05350
 11084.50000   41.98410   -9999.25   24.44710   20.09890    0.01550    2.56950    3.26260    0.08620    0.13790   64.78330  117.02700  199.70240   20.73720    8.99030
 11085.00000   41.98410   -9999.25   24.95730   20.05420    0.01700    2.58720    3.36900    0.07600    0.13920   64.22780  115.09650  199.70240   21.47290    8.96840
 11085.50000   41.98410   -9999.25   24.95730   20.05420    0.01880    2.60400    3.47980    0.06490    0.15210   63.48940  110.37070  200.84080   22.37180    8.96840
 11086.00000   41.98410   -9999.25   24.95730   20.42310    0.02030    2.60560    3.47980    0.06010    0.15710   62.75100  105.83010  201.48810   23.58950    8.96840
 11086.50000   41.98410   -9999.25   24.95730   22.49450    0.02190    2.58470    3.16080    0.06670    0.14340   62.01260  102.36490  183.46090   25.15760    8.96840
 11087.00000   41.98410   -9999.25   29.56180   24.68590    0.02350    2.56100    2.93070    0.08070    0.11880   61.27410  100.88800  166.11400   26.82990    8.96840
 11087.50000   41.78570   -9999.25   35.97170   27.09080    0.02440    2.54340    2.77890    0.09440    0.09350   60.36680  100.67810  145.53570   28.61340    8.96840
 11088.00000   41.49660   -9999.25   49.88980   29.72990    0.02250    2.55040    2.82520    0.09610    0.08460   59.38220  101.53960  141.96430   30.51540    8.96820
 11088.50000   41.19050   -9999.25   48.58220   31.63070    0.02000    2.56190    2.90230    0.08860    0.08870   58.33980  102.40110  145.26790   31.81650    8.96640
 11089.00000   41.19050   -9999.25   44.86130   31.63070    0.02050    2.57320    2.94670    0.08190    0.09210   59.38220  103.12740  149.10710   32.89060    8.96460
 11089.50000   40.80030   -9999.25   41.42540   31.31920    0.02220    2.58290    2.95660    0.07570    0.09280   60.48990  103.12740  157.45750   34.02300    8.96270
 11090.00000   40.46300   -9999.25   38.65320   30.49830    0.02430    2.58960    2.82460    0.07090    0.09520   61.81470  103.12740  165.26360   34.02300    8.96090
 11090.50000   40.12570   -9999.25   37.07470   29.69890    0.02810    2.58430    2.64190    0.07040    0.10120   62.09940  103.12740  172.91670   30.66440    8.95900
 11091.00000   39.78840   -9999.25   34.02300   27.82140    0.03190    2.57230    2.46300    0.07720    0.10430   61.81470  104.13130  166.33930   28.11220    8.95720
 11091.50000   38.04620   -9999.25   28.80310   25.46980    0.03430    2.55540    2.42350    0.08760    0.10390   61.81470  105.05790  159.88840   25.77240    8.95540
 11092.00000   34.59380   -9999.25   24.22530   23.31690    0.03430    2.52560    2.39790    0.10430    0.10360   62.30120  104.28570  152.67860   23.62740    8.95350
 11092.50000   31.14150   -9999.25   21.73540   21.34610    0.02810    2.49020    2.37320    0.12330    0.10780   64.07340  105.69740  136.01190   21.66090    8.95170
 11093.00000   27.68910   -9999.25   19.33630   19.54180    0.02060    2.46790    2.35950    0.13760    0.11230   65.28960  107.29730  125.70580   19.85810    8.94980
 11093.50000   24.23670   -9999.25   18.26290   17.89000    0.01510    2.45930    2.38030    0.14620    0.11390   65.28960  108.89720  119.41750   18.20530    8.94930
 11094.00000   20.78430   -9999.25   17.16540   16.37780    0.01200    2.45590    2.40120    0.14780    0.11420   65.28960  109.30500  113.12920   16.69010    8.95090
 11094.50000   17.33190   -9999.25   16.13390   14.99350    0.00990    2.45710    2.42210    0.14780    0.11420   65.28960  109.30500  109.82140   15.53740    8.95250
