~Version ---------------------------------------------------
VERS.   2.0 : CWLS log ASCII Standard -VERSION 2.0
WRAP.    NO : One line per depth step
DLM . SPACE : Column Data Section Delimiter
~Well ------------------------------------------------------
STRT .F                4184.0 : START DEPTH
STOP .F               12644.0 : STOP DEPTH
STEP .F                   0.5 : STEP
NULL .               -9999.25 : NULL VALUE
COMP .                        : COMPANY
WELL .                        : WELL
FLD  .                        : FIELD
LOC  .                        : LOCATION
PROV .                        : PROVINCE
CNTY .                        : COUNTY
STAT .                        : STATE
CTRY .                        : COUNTRY
SRVC .                        : SERVICE COMPANY
DATE .                        : DATE
UWI  .                        : UNIQUE WELL ID
API  .                        : API NUMBER
SLAT .WGS84 5.507655973853105 : SURFACE LATITUDE
SLON .WGS84 3.878737303608915 : SURFACE LONGITUDE
DATUM.F                1842.0 : DEPTH DATUM ELEV
~Curve Information -----------------------------------------
DEPT.F     : 
SPR .MV    : SPONTANEOUS POTENTIAL FROM RES.
CILD.MMHO  : CONDUCTIVITY INDUCTION LOG DEEP
SFLU.OHMM  : SPHERICALLY FOCUSED LOG UNAVERAGED RESISTIVITY
ILM .OHMM  : INDUCTION LOG MEDIUM
DRHO.G/C3  : DENSITY CORRECTION
RHOB.G/C3  : BULK DENSITY
PEF .B/E   : PHOTOELECTRIC FACTOR
DPHI.DEC   : DENSITY POROSITY LIMESTONE
NPHI.DEC   : NEUTRON POROSITY LIMESTONE
DTCO.US/F  : COMPRESSIONAL-WAVE INTERVAL TRANSIT TIME ACOUSTIC SLOWNESS
DTSM.US/F  : SHEAR-WAVE INTERVAL TRANSIT TIME DELTA-T
GRR .GAPI  : GAMMA RAY FROM RES. LOG.
ILD .OHMM  : INDUCTION LOG DEEP
CALD.IN    : CALIPER FDC LOG
~Params ----------------------------------------------------
~Other -----------------------------------------------------
~ASCII -----------------------------------------------------
# ...
 12439.00000  108.15990   -9999.25   19.48840   15.22790    0.01370    2.69330    4.33820    0.00950    0.13900   68.37840  120.50190  115.53790   13.92780    7.49950
 12439.50000  108.20230   -9999.25   20.88990   15.53740    0.01460    2.68900    4.04030    0.01300    0.13800   67.64870  120.11580  111.68940   13.92780    7.48920
 12440.00000  108.24480   -9999.25   23.20250   15.28830    0.01550    2.68320    3.80800    0.01550    0.15020   66.79050  120.11580  110.41670   13.92780    7.48920
 12440.50000  108.28720   -9999.25   21.92770   14.41750    0.01260    2.68190    3.75200    0.01580    0.16430   65.93240  120.11580  110.41670   13.63850    7.48920
 12441.00000  108.32970   -9999.25   19.89490   13.59630    0.00950    2.68250    3.76690    0.01560    0.17590   65.97020  120.11580  115.10520   13.06460    7.48920
 12441.50000  108.37210   -9999.25   17.21500   12.82190    0.00720    2.68260    3.76810    0.01520    0.18130   66.39050  120.11580  119.38890   12.51480    7.48920
 12442.00000  108.41450   -9999.25   14.89610   12.09160    0.00470    2.68700    3.80600    0.01330    0.17810   66.83400  121.44400  122.56550   11.98820    7.48920
 12442.50000  108.45700   -9999.25   13.18660   11.40290    0.00280    2.69050    3.96240    0.01110    0.17220   67.99230  125.36680  125.33730   11.48380    7.48920
 12443.00000  108.49940   -9999.25   13.18660   10.98940    0.00320    2.68850    4.13370    0.01210    0.16830   69.21810  126.29340  127.64290   10.98940    7.48920
 12443.50000  108.54180   -9999.25   13.18660   10.98940    0.00360    2.68080    4.17640    0.01840    0.16810   70.44400  126.10190  129.15480   10.98940    7.48920
 12444.00000  108.58430   -9999.25   13.68120   11.03440    0.00470    2.66390    4.11260    0.02660    0.17280   70.69500  125.90580  129.34410   10.98940    7.49580
 12444.50000  108.62670   -9999.25   14.32950   11.09130    0.00620    2.65300    4.01020    0.03430    0.17860   69.97220  125.70960  129.19290   11.10360    7.51040
 12445.00000  108.65080   -9999.25   15.00850   11.14850    0.00770    2.64850    3.90420    0.03600    0.18770   68.79540  125.52120  129.04170   11.29210    7.52510
 12445.50000  108.65080   -9999.25   15.25680   11.28990    0.00770    2.65160    3.75450    0.03270    0.19280   68.83070  125.88310  128.86900   11.48380    7.53980
 12446.00000  108.65080   -9999.25   15.47710   11.68880    0.00640    2.66120    3.61800    0.02820    0.19240   69.53120  126.44350  129.42520   11.67880    7.55440
 12446.50000  108.65080   -9999.25   16.09550   12.10180    0.00360    2.66430    3.63070    0.02550    0.18980   70.30890  127.06560  130.07310   11.96360    7.56800
 12447.00000  108.65080   -9999.25   17.09400   12.52940    0.00080    2.66350    3.71960    0.02690    0.18000   69.87260  127.06560  130.65480   12.48230    7.56800
 12447.50000  108.65080   -9999.25   18.15440   12.97210   -0.00080    2.66060    3.84500    0.02800    0.16940   69.76830  126.79110  129.82140   13.02340    7.56800
 12448.00000  108.65080   -9999.25   19.28070   13.51270    0.00070    2.66290    3.81490    0.02670    0.15710   70.50390  125.91930  128.26790   13.58800    7.56800
 12448.50000  108.65080   -9999.25   20.37850   14.15300    0.00220    2.66910    3.72830    0.02380    0.15310   70.27030  125.04760  126.00000   14.17710    7.56800
 12449.00000  108.65080   -9999.25   21.34410   15.21230    0.00370    2.67340    3.67720    0.02120    0.15010   69.04440  124.17590  124.10710   15.06630    7.54380
 12449.50000  108.65080   -9999.25   22.35550   16.68820    0.00520    2.67760    3.72130    0.01890    0.14740   68.00770  122.41320  123.51190   16.24520    7.49430
 12450.00000  108.65080   -9999.25   23.20250   17.33310    0.00570    2.67850    3.76600    0.01790    0.12830   67.22010  120.38690  123.80830   17.51640    7.48770
 12450.50000  108.65080   -9999.25   23.20250   19.18080    0.00570    2.67470    3.93350    0.01940    0.10870   66.31400  118.36060  124.10710   18.88710    7.48300
 12451.00000  108.65080   -9999.25   27.74920   20.87480    0.00570    2.66920    4.01310    0.02280    0.09540   65.55690  116.33430  119.92620   20.36500    7.47830
 12451.50000  109.16170   -9999.25   37.18980   22.71830    0.00640    2.66660    4.10730    0.02520    0.09040   64.79980  114.30800  111.52620   21.95850    7.47360
 12452.00000  109.78670   -9999.25   58.78370   24.72470    0.00700    2.67010    4.19050    0.02380    0.09270   63.66330  111.92530  102.08330   23.67680    7.44970
 12452.50000  110.41170   -9999.25   58.31420   26.90830    0.00760    2.67700    4.15660    0.01980    0.09170   62.30120  109.33080  103.39290   25.52950    7.43030
 12453.00000  111.03670   -9999.25   57.25250   29.28480    0.00820    2.67870    3.98080    0.01880    0.08840   61.81470  106.73620  105.65480   27.84170    7.40900
 12453.50000  111.66170   -9999.25   56.67930   31.87110    0.00900    2.68160    3.80110    0.01650    0.07820   61.28650  104.28570  100.55950   27.33880    7.39050
 12454.00000  112.28670   -9999.25   60.58070   32.80500    0.01030    2.68710    3.65980    0.01360    0.06890   60.11890  103.25870   94.55950   25.19100    7.39050
 12454.50000  112.61900   -9999.25   69.26320   32.21250    0.01160    2.68850    3.58840    0.01230    0.06410   56.02320  102.35520   88.55950   23.31210    7.39050
 12455.00000  112.61900   -9999.25   63.11460   28.87540    0.01200    2.68410    3.60830    0.01550    0.06570   56.94210  102.52410   87.20240   21.57340    7.39050
 12455.50000  112.61900   -9999.25   49.75360   25.57440    0.01240    2.67870    3.67100    0.01920    0.08150   58.30420  103.13220   92.15770   19.96440    7.40490
 12456.00000  112.61900   -9999.25   34.02300   22.28230    0.01480    2.68080    3.74630    0.01830    0.09450   58.72590  103.74030   99.06750   18.47530    7.42010
 12456.50000  112.61900   -9999.25   26.57240   19.41400    0.01870    2.68860    3.82070    0.01330    0.11170   60.18530  104.28570  108.03570   17.09730    7.44300
 12457.00000  112.61900   -9999.25   21.20060   16.91490    0.02150    2.69390    3.89920    0.01040    0.12230   61.04250  107.82780  109.34230   16.48180    7.48010
 12457.50000  112.61900   -9999.25   19.69190   14.73740    0.02200    2.68780    3.90280    0.01180    0.13400   61.87900  111.03860  109.71730   16.16050    7.51730
 12458.00000  112.61900   -9999.25   19.69190   14.02800    0.02230    2.67870    3.84500    0.01720    0.14750   63.46230  114.24940  110.68810   15.82320    7.54890
 12458.50000  112.61900   -9999.25   20.38340   13.92780    0.02110    2.67230    3.61780    0.02170    0.15810   64.96600  117.02700  111.88810   15.16250    7.55220
 12459.00000  112.61900   -9999.25   20.79870   13.92780    0.02000    2.67570    3.51920    0.02060    0.16040   66.46960  119.41960  112.47920   14.48180    7.55550
 12459.50000  112.61900   -9999.25   20.79870   13.92780    0.01920    2.68360    3.51920    0.01580    0.16100   67.97330  121.52770  112.79760   13.92780    7.55880
 12460.00000  112.61900   -9999.25   20.79870   14.43170    0.01880    2.69170    3.55570    0.01130    0.16010   69.53670  122.04630  112.10710   13.92780    7.56210
 12460.50000  112.61900   -9999.25   20.79870   14.76700    0.01940    2.69350    3.75890    0.01000    0.15830   69.53670  121.57910  111.60710   14.18400    7.56540
 12461.00000  112.68120   -9999.25   20.79870   15.11010    0.02170    2.69350    3.98890    0.00960    0.15590   68.68530  121.09270  112.30710   14.60200    7.56250
 12461.50000  112.84790   -9999.25   20.79870   15.46110    0.02400    2.69670    4.15780    0.00810    0.15130   68.37840  120.60620  112.79760   15.16350    7.53280
 12462.00000  113.01450   -9999.25   20.79870   15.82320    0.02480    2.69670    4.27940    0.00780    0.14500   68.37840  120.11970  111.91070   15.74660    7.50310
 12462.50000  113.18120   -9999.25   22.78340   16.52950    0.02520    2.69140    4.30900    0.01090    0.14160   67.22010  119.61390  111.16070   16.35210    7.47340
