~Version ---------------------------------------------------
VERS.   2.0 : CWLS log ASCII Standard -VERSION 2.0
WRAP.    NO : One line per depth step
DLM . SPACE : Column Data Section Delimiter
~Well ------------------------------------------------------
STRT .F                4184.0 : START DEPTH
STOP .F               12644.0 : STOP DEPTH
STEP .F                   0.5 : STEP
NULL .               -9999.25 : NULL VALUE
COMP .                        : COMPANY
WELL .                        : WELL
FLD  .                        : FIELD
LOC  .                        : LOCATION
PROV .                        : PROVINCE
CNTY .                        : COUNTY
STAT .                        : STATE
CTRY .                        : COUNTRY
SRVC .                        : SERVICE COMPANY
DATE .                        : DATE
UWI  .                        : UNIQUE WELL ID
API  .                        : API NUMBER
SLAT .WGS84 5.507655973853105 : SURFACE LATITUDE
SLON .WGS84 3.878737303608915 : SURFACE LONGITUDE
DATUM.F                1842.0 : DEPTH DATUM ELEV
~Curve Information -----------------------------------------
DEPT.F     : 
SPR .MV    : SPONTANEOUS POTENTIAL FROM RES.
CILD.MMHO  : CONDUCTIVITY INDUCTION LOG DEEP
SFLU.OHMM  : SPHERICALLY FOCUSED LOG UNAVERAGED RESISTIVITY
ILM .OHMM  : INDUCTION LOG MEDIUM
DRHO.G/C3  : DENSITY CORRECTION
RHOB.G/C3  : BULK DENSITY
PEF .B/E   : PHOTOELECTRIC FACTOR
DPHI.DEC   : DENSITY POROSITY LIMESTONE
NPHI.DEC   : NEUTRON POROSITY LIMESTONE
DTCO.US/F  : COMPRESSIONAL-WAVE INTERVAL TRANSIT TIME ACOUSTIC SLOWNESS
DTSM.US/F  : SHEAR-WAVE INTERVAL TRANSIT TIME DELTA-T
GRR .GAPI  : GAMMA RAY FROM RES. LOG.
ILD .OHMM  : INDUCTION LOG DEEP
CALD.IN    : CALIPER FDC LOG
~Params ----------------------------------------------------
~Other -----------------------------------------------------
~ASCII -----------------------------------------------------
# ...
 11431.00000   40.39680   -9999.25   40.55710   26.44890    0.01630    2.65400    3.72660    0.03400    0.13750   64.39130  115.54440  158.82140   26.61600    8.94060
 11431.50000   42.77780   -9999.25   33.52780   24.63060    0.01180    2.65700    3.71110    0.03060    0.16280   64.10620  114.70380  184.22620   25.83280    8.93330
 11432.00000   44.13650   -9999.25   27.84170   23.62930    0.00740    2.65990    3.68710    0.02930    0.15570   63.98360  113.86320  171.78570   25.74750    8.91040
 11432.50000   45.95240   -9999.25   24.95730   23.75880    0.00820    2.67070    3.71250    0.02320    0.14580   63.86100  112.24800  151.48810   25.66250    8.88960
 11433.00000   45.95240   -9999.25   28.42280   24.31520    0.01010    2.67940    3.67400    0.01780    0.12040   63.74520  110.17760  131.05950   25.57780    8.87980
 11433.50000   45.95240   -9999.25   33.16580   24.95730    0.01140    2.68260    3.60640    0.01600    0.10840   62.50350  108.10720  113.18450   25.49330    8.84680
 11434.00000   45.95240   -9999.25   36.56220   25.89920    0.01070    2.68010    3.56860    0.01720    0.10400   61.42860  106.21620  109.22620   25.41640    8.81060
 11434.50000   45.95240   -9999.25   37.90280   26.93400    0.01000    2.67500    3.63760    0.02020    0.09960   58.76450  104.28570  106.18390   27.17980    8.82650
 11435.00000   45.57140   -9999.25   39.29260   28.01000    0.00930    2.66880    3.66730    0.02390    0.09360   57.94400  103.48650  103.34520   28.91050    8.82090
 11435.50000   44.77460   -9999.25   40.82580   29.12910    0.00860    2.66080    3.61980    0.02860    0.08390   58.72590  102.60390  100.50660   30.75140    8.81540
 11436.00000   43.97780   -9999.25   46.90550   30.29290    0.00790    2.64890    3.54560    0.03450    0.08380   58.72590  101.72120   97.91670   32.70950    8.81500
 11436.50000   43.18100   -9999.25   54.65030   31.71730    0.00720    2.63490    3.44180    0.04320    0.08610   58.72590  100.81080   98.51190   34.02300    8.85010
 11437.00000   42.38410   -9999.25   54.65030   33.60700    0.00650    2.62070    3.32170    0.05180    0.08580   59.48570   99.86100  101.17860   35.28620    8.81910
 11437.50000   41.58730   -9999.25   49.52740   35.60930    0.00580    2.61060    3.20160    0.06050    0.07870   60.27030   98.88030  104.16670   34.23040    8.82540
 11438.00000   40.31350   -9999.25   46.38180   37.26950    0.00510    2.59670    3.18960    0.06580    0.07390   60.27030   98.49420  107.15480   30.96890    8.84760
 11438.50000   40.14750   -9999.25   50.18170   32.63950    0.00460    2.57900    3.18360    0.07740    0.08810   62.25100  101.97430  111.60710   25.07940    8.87050
 11439.00000   39.98150   -9999.25   53.66320   24.93860    0.00440    2.53630    3.02080    0.10750    0.11420   67.60620  107.68340  127.89290   19.61530    8.89880
 11439.50000   39.81550   -9999.25   44.50990   19.05460    0.00420    2.46560    2.83640    0.14170    0.14040   70.70380  114.22140  147.32140   15.34170    8.95390
 11440.00000   39.64950   -9999.25   30.86750   14.55890    0.00400    2.42990    2.68190    0.17690    0.15650   74.34640  120.57910  147.32140   11.99920    8.98170
 11440.50000   34.47280   -9999.25   14.58030   11.12390    0.00380    2.35980    2.63080    0.20580    0.15050   77.64480  125.90730  139.54370    9.38490    8.96440
 11441.00000   27.35830   -9999.25    8.15280    8.49930    0.00490    2.36670    2.62090    0.20210    0.13440   76.58110  125.90730  129.58330    7.91560    8.94710
 11441.50000   19.76190   -9999.25    6.84150    6.71790    0.00770    2.38250    2.67570    0.18750    0.12010   74.37450  124.58220  122.91670    7.91560    8.92990
 11442.00000   16.51190   -9999.25    6.84150    7.04140    0.01000    2.42100    2.81200    0.16390    0.11110   73.35290  122.03240  127.67860    8.45580    8.91260
 11442.50000   14.20640   -9999.25    8.89500    8.09060    0.01150    2.47320    3.12150    0.13690    0.11250   72.76450  118.54570  140.23210    9.25360    8.88530
 11443.00000   15.50160   -9999.25   11.74320    9.29610    0.01180    2.51090    3.28070    0.11290    0.12290   69.37970  115.28800  149.70240   10.12670    8.85550
 11443.50000   17.89210   -9999.25   15.50350   10.68130    0.00890    2.54200    3.37020    0.09800    0.13830   67.89190  113.71890  162.50070   11.08210    8.85010
 11444.00000   21.03700   -9999.25   17.23650   11.99360    0.00600    2.55430    3.40970    0.09220    0.15010   68.37840  112.25480  166.79610   12.12770    8.85010
 11444.50000   24.79980   -9999.25   17.65190   13.38760    0.00570    2.55800    3.46340    0.08950    0.15020   67.62550  111.23550  171.09150   13.27190    8.82660
 11445.00000   28.56260   -9999.25   17.65190   14.94370    0.00570    2.55920    3.45210    0.08870    0.14710   66.44790  111.23550  174.70240   14.52410    8.79830
 11445.50000   32.46030   -9999.25   18.34470   15.82320    0.00570    2.55290    3.36130    0.09210    0.14230   66.69500  111.87260  168.87570   15.59800    8.77120
 11446.00000   34.06080   -9999.25   18.98700   15.48650    0.00570    2.53360    3.15560    0.10510    0.13630   67.67570  112.48550  161.21880   15.82320    8.77120
 11446.50000   35.72090   -9999.25   18.54370   14.78590    0.00570    2.49900    2.95160    0.12390    0.12760   68.37840  113.16600  153.56180   14.93390    8.77120
 11447.00000   35.28570   -9999.25   17.06100   14.11690    0.00630    2.47340    2.86770    0.13840    0.11850   67.98920  113.55210  147.01980   13.92780    8.77120
 11447.50000   33.29370   -9999.25   15.69680   13.67620    0.00710    2.46430    2.90620    0.14450    0.11540   67.20460  113.55210  143.03570   13.96480    8.71840
 11448.00000   31.30160   -9999.25   14.44170   13.67620    0.00780    2.46850    2.97950    0.14000    0.11610   66.83400  112.77990  141.36900   14.08280    8.66880
 11448.50000   29.28570   -9999.25   13.67620   13.67620    0.00820    2.50220    3.20040    0.12290    0.11770   66.15440  109.87640  146.85420   14.20190    8.61920
 11449.00000   29.28570   -9999.25   15.82320   14.23900    0.00860    2.53960    3.22310    0.10150    0.12000   64.19300  107.78120  157.83840   14.32190    8.60780
 11449.50000   29.28570   -9999.25   15.53740   14.85460    0.00720    2.55530    3.04540    0.09050    0.12210   64.80420  107.49810  166.58930   14.44490    8.60140
 11450.00000   29.96810   -9999.25   18.97950   15.49680    0.00550    2.55920    2.84720    0.08890    0.12210   66.44790  107.76060  175.34010   15.19200    8.59500
 11450.50000   31.11000   -9999.25   23.20250   16.16680    0.00430    2.50870    2.65050    0.11910    0.11610   66.44790  106.81950  177.08330   16.04340    8.58860
 11451.00000   32.46030   -9999.25   23.20250   16.86570    0.00360    2.47240    2.55180    0.13750    0.11060   66.23170  105.44400  150.29760   16.94260    8.58220
 11451.50000   32.66470   -9999.25   21.50030   17.59490    0.00290    2.46840    2.56610    0.14270    0.10510   65.25480  105.72460  147.91670   17.89210    8.57580
 11452.00000   32.91470   -9999.25   19.33630   18.35560    0.00330    2.48030    2.59330    0.13440    0.10100   64.27800  105.49810  152.08330   18.74970    8.52040
 11452.50000   33.16470   -9999.25   20.26730   19.14910    0.00410    2.50310    2.63480    0.12070    0.09760   63.30120  101.58300  159.58330   19.18700    8.45200
 11453.00000   33.41470   -9999.25   21.57100   19.97700    0.00540    2.52530    2.70340    0.10600    0.09860   62.88030  102.36140  168.58330   19.69190    8.42360
 11453.50000   33.66470   -9999.25   24.14650   20.42310    0.00730    2.54170    2.74240    0.09860    0.10050   62.74080  103.53360  177.58330   20.06880    8.41320
 11454.00000   33.91470   -9999.25   27.84170   20.74430    0.00920    2.54520    2.73600    0.09720    0.10410   62.58690  103.89960  180.65480   20.50910    8.40930
 11454.50000   33.62190   -9999.25   29.94750   21.04540    0.00960    2.52640    2.71300    0.10700    0.10790   62.58690  102.52230  175.31670   20.95900    8.40530
