~Version ---------------------------------------------------
VERS.   2.0 : CWLS log ASCII Standard -VERSION 2.0
WRAP.    NO : One line per depth step
DLM . SPACE : Column Data Section Delimiter
~Well ------------------------------------------------------
STRT .F                 184.0 : START DEPTH
STOP .F                9150.0 : STOP DEPTH
STEP .F                   0.5 : STEP
NULL .               -9999.25 : NULL VALUE
COMP .                        : COMPANY
WELL .                        : WELL
FLD  .                        : FIELD
LOC  .                        : LOCATION
PROV .                        : PROVINCE
CNTY .                        : COUNTY
STAT .                        : STATE
CTRY .                        : COUNTRY
SRVC .                        : SERVICE COMPANY
DATE .                        : DATE
UWI  .                        : UNIQUE WELL ID
API  .                        : API NUMBER
SLAT .WGS84 2.400688191902802 : SURFACE LATITUDE
SLON .WGS84 8.544721229597002 : SURFACE LONGITUDE
DATUM.F               3190.61 : DEPTH DATUM ELEV
~Curve Information -----------------------------------------
DEPT.F     : 
GRS .GAPI  : GAMMA RAY FROM SONIC LOG
DTCO.US/F  : COMPRESSIONAL-WAVE INTERVAL TRANSIT TIME ACAUSTIC SLOWNESS
DTSM.US/F  : SHEAR-WAVE INTERVAL TRANSIT TIME DELTA-T
TNPH.DEC   : THERMAL NEUTRON POROSITY
~Params ----------------------------------------------------
~Other -----------------------------------------------------
~ASCII -----------------------------------------------------
# ...
 3616.00000   46.95100   83.12620  161.14910    0.22050
 3616.50000   46.65380   83.30800  163.25730    0.22410
 3617.00000   47.26450   83.44470  165.36550    0.22230
 3617.50000   47.41980   83.35580  166.57150    0.21600
 3618.00000   48.63380   83.35710  167.62710    0.21150
 3618.50000   50.29890   83.31300  167.78040    0.21070
 3619.00000   51.05900   83.17930  167.93370    0.21370
 3619.50000   51.51740   83.00000  167.18560    0.21670
 3620.00000   50.27710   83.40770  166.73740    0.22030
 3620.50000   48.42630   84.26610  166.28850    0.22670
 3621.00000   46.71010   84.71860  165.84030    0.23370
 3621.50000   46.11270   84.90040  163.88910    0.23990
 3622.00000   49.28600   84.58590  160.88450    0.24230
 3622.50000   53.36430   83.86540  158.33110    0.23990
 3623.00000   57.59350   82.85990  155.62730    0.22940
 3623.50000   58.95540   81.34600  153.22420    0.21500
 3624.00000   53.98540   79.80960  151.42270    0.20600
 3624.50000   50.97470   78.86350  150.52340    0.20510
 3625.00000   49.47230   77.96260  150.07520    0.20780
 3625.50000   49.14940   77.28730  149.62710    0.20960
 3626.00000   52.50080   77.01760  149.32920    0.21050
 3626.50000   54.04310   77.92150  150.08480    0.19940
 3627.00000   55.07690   79.18600  151.44110    0.18950
 3627.50000   55.23490   79.90910  152.49670    0.18770
 3628.00000   55.08860   80.18110  153.25150    0.19300
 3628.50000   55.09600   80.04710  154.30710    0.19780
 3629.00000   55.85600   79.73270  155.06200    0.19950
 3629.50000   56.91770   79.37310  153.86190    0.19560
 3630.00000   58.43200   79.01060  150.85730    0.19170
 3630.50000   60.70030   78.78300  146.64980    0.19290
 3631.00000   63.27040   78.92630  142.59260    0.19410
 3631.50000   63.12540   80.10050  140.63340    0.19300
 3632.00000   58.90810   81.54550  143.84340    0.19900
 3632.50000   53.18250   83.03550  151.82230    0.21130
 3633.00000   48.92810   84.25490  159.58230    0.22240
 3633.50000   46.77680   84.75250  165.61560    0.23650
 3634.00000   44.75530   84.88910  169.52830    0.25220
 3634.50000   44.15790   84.52960  171.93730    0.26680
 3635.00000   43.56050   84.03520  170.73720    0.27600
 3635.50000   44.92390   83.58500  167.73270    0.26780
 3636.00000   46.43810   83.72160  164.42740    0.24290
 3636.50000   47.95230   83.63270  161.87390    0.23060
 3637.00000   49.01410   83.09270  159.92200    0.22700
 3637.50000   49.32160   82.32710  157.97780    0.22370
 3638.00000   49.62920   81.42620  155.82930    0.21860
 3638.50000   52.35010   80.43500  153.68090    0.21140
 3639.00000   54.76930   79.74520  151.51320    0.20060
 3639.50000   56.45180   78.45770  148.95980    0.19160
 3640.00000   57.53650   77.23640  145.05300    0.18260
 3640.50000   58.40840   76.69630  141.89800    0.17720
 3641.00000   58.86680   76.87810  139.94610    0.17390
 3641.50000   57.81690   77.82680  140.55060    0.17370
 3642.00000   55.71120   79.36200  142.95950    0.18620
 3642.50000   53.60550   80.13020  145.81960    0.19710
 3643.00000   51.65070   80.76310  149.28120    0.20160
 3643.50000   49.69580   82.07270  154.17520    0.20310
 3644.00000   47.89180   83.29210  158.04550    0.20350
 3644.50000   46.99270   83.83490  160.26830    0.20650
 3645.00000   46.24450   83.97160  160.87270    0.21040
 3645.50000   46.09950   84.01770  161.62750    0.20980
 3646.00000   49.00380   83.74870  162.68320    0.20590
 3646.50000   50.48550   83.20860  164.34020    0.21130
 3647.00000   48.83380   82.30770  165.99730    0.22730
 3647.50000   47.63300   81.31660  166.60180    0.24170
 3648.00000   48.39310   80.72960  166.00320    0.24070
 3648.50000   50.51060   80.59740  164.20170    0.23270
 3649.00000   51.57240   80.68930  163.00160    0.22130
 3649.50000   52.02930   81.00640  162.40310    0.21770
 3650.00000   51.40300   81.42630  162.55640    0.21650
 3650.50000   50.68150   82.18050  162.70840    0.21890
 3651.00000   52.49510   82.94740  161.20610    0.23060
 3651.50000   54.76050   83.30830  161.80910    0.23810
 3652.00000   56.12100   83.62410  162.42010    0.23420
 3652.50000   57.02890   83.08270  160.44670    0.22310
 3653.00000   58.23850   82.39530  157.52410    0.21860
 3653.50000   60.50400   81.33830  152.90430    0.21560
 3654.00000   62.76940   80.38210  147.98220    0.20780
 3654.50000   65.03480   79.42860  146.17920    0.19970
 3655.00000   66.24440   78.93230  145.57880    0.18500
 3655.50000   65.19160   78.79700  146.78370    0.16970
 3656.00000   59.35020   78.75190  148.74000    0.16600
 3656.50000   53.23100   78.61650  151.59860    0.16690
 3657.00000   50.94380   78.39100  153.85580    0.17820
 3657.50000   52.08200   78.34590  154.30840    0.19340
 3658.00000   54.95080   78.79700  153.70830    0.18740
 3658.50000   55.85870   79.11280  152.65720    0.18320
 3659.00000   54.80590   79.42860  151.75640    0.18050
 3659.50000   52.99890   79.47370  150.70530    0.18380
 3660.00000   49.98530   79.56390  148.56090    0.19130
 3660.50000   51.64740   79.83460  146.73660    0.19460
 3661.00000   55.87360   79.74170  144.99580    0.19070
 3661.50000   59.04400   79.46810  144.39580    0.18620
 3662.00000   58.29280   79.06770  143.04390    0.19070
 3662.50000   54.37420   78.75190  141.39120    0.19990
 3663.00000   50.75720   78.88720  140.18970    0.20270
 3663.50000   48.64880   79.38350  139.28890    0.18530
 3664.00000   49.40600   80.10530  138.98920    0.18020
 3664.50000   51.52060   81.54890  140.34450    0.18590
 3665.00000   52.42850   82.72180  143.80460    0.20150
 3665.50000   52.45260   83.84960  152.67830    0.21260
 3666.00000   52.28360   84.12030  160.04820    0.21470
 3666.50000   52.43740   84.03010  165.01200    0.21710
 3667.00000   53.50820   83.71430  167.73410    0.22250
 3667.50000   54.57030   83.44360  169.10990    0.22910
 3668.00000   55.36070   83.26320  169.97890    0.23690
 3668.50000   54.71250   83.12780  166.82280    0.24740
 3669.00000   54.11140   83.12780  163.51600    0.24950
 3669.50000   55.17090   83.17290  160.20920    0.23660
 3670.00000   55.92800   83.21800  157.95510    0.22480
 3670.50000   55.93100   83.03760  156.45280    0.22070
 3671.00000   56.08480   82.49620  155.85280    0.22170
 3671.50000   57.14360   81.95490  154.95200    0.22340
 3672.00000   57.74990   81.36840  152.99860    0.22010
 3672.50000   57.30040   80.73680  150.44370    0.21770
 3673.00000   56.09670   80.33080  147.73840    0.21470
 3673.50000   55.04390   80.06020  146.23610    0.21170
 3674.00000   54.74510   79.92480  147.30580    0.20770
 3674.50000   54.14480   79.78950  149.28970    0.20370
 3675.00000   52.94120   79.74440  150.47620    0.19970
 3675.50000   52.19000   79.74440  149.40030    0.20250
 3676.00000   52.66350   79.78950  147.44690    0.20880
 3676.50000   52.41690   79.92590  145.79420    0.21080
 3677.00000   50.23890   80.06400  145.04340    0.19730
 3677.50000   48.88440   80.35100  146.69940    0.18410
 3678.00000   48.58500   80.96240  149.85880    0.18020
 3678.50000   48.89030   81.68420  154.07080    0.19550
 3679.00000   49.79830   82.81200  160.83920    0.20480
 3679.50000   51.15870   82.99250  164.29930    0.21050
 3680.00000   52.36830   83.03760  167.00760    0.21440
 3680.50000   53.87960   83.08270  169.11430    0.21800
 3681.00000   55.54170   83.17290  170.61960    0.22160
 3681.50000   57.50540   83.12780  169.66050    0.22610
 3682.00000   59.31840   83.03760  166.15100    0.22910
 3682.50000   61.73460   82.85710  162.50410    0.22310
 3683.00000   65.05580   82.72180  159.94910    0.21320
 3683.50000   66.41630   82.54140  157.69500    0.20660
 3684.00000   65.18820   82.13530  156.34310    0.20850
 3684.50000   63.79460   81.58720  155.89340    0.21180
 3685.00000   63.25780   80.90360  155.89490    0.21470
 3685.50000   66.12730   80.40640  154.99410    0.21470
 3686.00000   65.07440   80.06020  153.04070    0.21530
 3686.50000   58.74250   79.87970  150.78660    0.21770
 3687.00000   56.03060   79.69920  148.53240    0.21770
