~Version ---------------------------------------------------
VERS.   2.0 : CWLS log ASCII Standard -VERSION 2.0
WRAP.    NO : One line per depth step
DLM . SPACE : Column Data Section Delimiter
~Well ------------------------------------------------------
STRT .F                 184.0 : START DEPTH
STOP .F                9150.0 : STOP DEPTH
STEP .F                   0.5 : STEP
NULL .               -9999.25 : NULL VALUE
COMP .                        : COMPANY
WELL .                        : WELL
FLD  .                        : FIELD
LOC  .                        : LOCATION
PROV .                        : PROVINCE
CNTY .                        : COUNTY
STAT .                        : STATE
CTRY .                        : COUNTRY
SRVC .                        : SERVICE COMPANY
DATE .                        : DATE
UWI  .                        : UNIQUE WELL ID
API  .                        : API NUMBER
SLAT .WGS84 2.400688191902802 : SURFACE LATITUDE
SLON .WGS84 8.544721229597002 : SURFACE LONGITUDE
DATUM.F               3190.61 : DEPTH DATUM ELEV
~Curve Information -----------------------------------------
DEPT.F     : 
GRS .GAPI  : GAMMA RAY FROM SONIC LOG
DTCO.US/F  : COMPRESSIONAL-WAVE INTERVAL TRANSIT TIME ACAUSTIC SLOWNESS
DTSM.US/F  : SHEAR-WAVE INTERVAL TRANSIT TIME DELTA-T
TNPH.DEC   : THERMAL NEUTRON POROSITY
~Params ----------------------------------------------------
~Other -----------------------------------------------------
~ASCII -----------------------------------------------------
# ...
 7977.50000   84.11500   91.32070  148.26750    0.23470
 7978.00000   87.74580   92.08790  149.92110    0.23730
 7978.50000   90.84750   92.85500  150.22010    0.24910
 7979.00000   93.57060   93.93850  150.36770    0.26440
 7979.50000   94.25110   94.61540  149.76160    0.27290
 7980.00000   89.71260   94.10530  149.00560    0.27530
 7980.50000   85.93040   92.76100  147.79780    0.27010
 7981.00000   84.11500   90.81730  145.98760    0.25810
 7981.50000   82.14830   89.59650  144.62920    0.24000
 7982.00000   78.82000   89.09870  144.17440    0.22740
 7982.50000   77.91230   88.87190  144.32200    0.22560
 7983.00000   78.36610   88.96130  144.77080    0.22680
 7983.50000   80.33280   89.68330  145.67140    0.22980
 7984.00000   84.41750   90.26980  147.32510    0.23550
 7984.50000   89.63720   91.66950  148.22570    0.23890
 7985.00000   92.46100   92.66260  148.37410    0.24600
 7985.50000   91.98180   93.47500  148.37040    0.28120
 7986.00000   90.62030   94.01620  148.21680    0.29260
 7986.50000   88.95610   94.19810  147.76200    0.29620
 7987.00000   89.41000   94.01180  147.15660    0.29680
 7987.50000   90.31770   92.89910  146.09940    0.29560
 7988.00000   90.01510   91.47460  144.87970    0.28810
 7988.50000   86.38430   88.58990  143.96110    0.27150
 7989.00000   80.93800   85.87820  143.04260    0.24810
 7989.50000   77.76100   84.97360  141.67230    0.23420
 7990.00000   75.34040   84.52100  140.51140    0.21520
 7990.50000   75.18910   84.61040  140.05670    0.22340
 7991.00000   75.51700   85.10650  140.35490    0.23900
 7991.50000   76.55070   86.14480  141.40610    0.24540
 7992.00000   77.30710   86.95720  142.30670    0.24680
 7992.50000   78.21480   86.73040  143.05680    0.24770
 7993.00000   79.27380   86.77470  143.65620    0.25190
 7993.50000   80.33280   86.99970  143.50260    0.26280
 7994.00000   81.08930   86.68250  142.14420    0.25310
 7994.50000   81.08930   86.54610  140.78580    0.23630
 7995.00000   80.18150   86.68220  139.42740    0.21220
 7995.50000   78.97130   86.67090  137.61720    0.20800
 7996.00000   78.82000   86.34060  135.80700    0.20760
 7996.50000   79.74030   84.41880  133.39440    0.20790
 7997.00000   79.52520   82.74620  131.13240    0.20730
 7997.50000   70.04540   80.84770  129.77390    0.20190
 7998.00000   60.36310   79.71730  130.37340    0.19650
 7998.50000   58.24510   79.35520  132.02700    0.19560
 7999.00000   61.57340   80.43850  133.53010    0.19870
 7999.50000   70.49920   81.97370  135.78610    0.23140
 8000.00000   82.90470   83.96080  137.59040    0.24850
 8000.50000   85.77910   86.17960  139.39420    0.25300
 8001.00000   85.98100   85.99400  138.48760    0.24520
 8001.50000   83.96370   83.82530  135.62320    0.24340
 8002.00000   81.99700   81.38550  132.15640    0.23230
 8002.50000   79.62640   79.71390  127.48480    0.22330
 8003.00000   75.57910   79.08130  125.67470    0.21450
 8003.50000   70.66130   78.40360  124.00300    0.19620
 8004.00000   68.69610   78.08730  123.10780    0.17220
 8004.50000   67.18470   78.08370  122.95500    0.16580
 8005.00000   67.18620   78.55450  124.00560    0.16940
 8005.50000   67.18770   79.36800  125.50870    0.17510
 8006.00000   66.88660   79.44280  127.16240    0.18320
 8006.50000   65.67650   79.08130  128.21360    0.18860
 8007.00000   65.22540   79.12650  128.66250    0.19130
 8007.50000   65.68110   79.35240  128.20780    0.18290
 8008.00000   66.28770   79.08130  126.68060    0.17570
 8008.50000   66.28920   77.99700  124.67260    0.17270
 8009.00000   64.92910   75.15060  122.77660    0.17030
 8009.50000   60.84580   70.56220  120.21340    0.16420
 8010.00000   51.31630   68.01200  117.49960    0.14630
 8010.50000   42.69450   74.74400  117.04560    0.09380
 8011.00000   42.84720   79.80420  120.20460    0.08540
 8011.50000   47.33630   79.93980  124.11730    0.09410
 8012.00000   65.44100   78.90060  127.57820    0.13390
 8012.50000   78.70680   78.35840  130.43680    0.19320
 8013.00000   77.80050   78.53920  133.09160    0.19650
 8013.50000   71.75060   78.86080  136.45420    0.17150
 8014.00000   69.93620   78.31330  140.36700    0.16850
 8014.50000   75.83820   79.88700  143.07490    0.17210
 8015.00000   81.13470   87.48490  145.78280    0.18410
 8015.50000   89.00310   89.65360  149.39430    0.23160
 8016.00000   94.60210   94.57830  151.80100    0.26990
 8016.50000   96.73320   95.30120  152.55120    0.28370
 8017.00000   96.42090   95.39160  151.19270    0.27260
 8017.50000   94.30440   93.99100  149.66320    0.25150
 8018.00000   95.06220   92.95180  148.12170    0.23950
 8018.50000   99.90480   92.45480  146.81570    0.23620
 8019.00000  106.41150   92.18370  146.05980    0.24160
 8019.50000  112.03480   92.18370  145.75560    0.24400
 8020.00000  113.07110   92.18370  145.30090    0.23020
 8020.50000  108.68560   91.95780  144.99680    0.22810
 8021.00000  107.32550   91.23490  144.69260    0.23210
 8021.50000  106.57050   90.15060  144.38850    0.23560
 8022.00000   99.91560   88.47890  144.08070    0.23260
 8022.50000   85.09100   87.25900  143.45900    0.21540
 8023.00000   73.29220   86.49100  142.87290    0.20310
 8023.50000   72.08300   84.63860  142.56880    0.19190
 8024.00000   77.53120   85.37230  142.41530    0.19010
 8024.50000   79.34810   85.72290  142.56370    0.19040
 8025.00000   80.40850   85.67770  142.71130    0.19160
 8025.50000   83.58700   85.54220  143.00960    0.19470
 8026.00000   88.45990   89.78920  143.60840    0.20430
 8026.50000   90.39780   91.59640  144.20780    0.21720
 8027.00000   89.03810   97.40520  169.58280    0.22450
 8027.50000   88.58530  109.75900  197.96630    0.22540
 8028.00000   90.85650  115.31630  234.55970    0.22570
 8028.50000   94.79140  116.17470  235.31050    0.22810
 8029.00000  100.08790  116.67170  235.30690    0.23560
 8029.50000  109.46910  109.08130  225.36420    0.25120
 8030.00000  113.85780  103.65960  181.23470    0.25670
 8030.50000  116.12860  105.37650  156.38240    0.25670
 8031.00000  121.10250  103.43370  149.30120    0.25300
 8031.50000  129.68540   95.47090  147.03920    0.25370
 8032.00000  132.47190   92.50000  167.20480    0.25820
 8032.50000  123.69920   96.47590  209.53260    0.24940
 8033.00000  102.52060   95.48190  232.87300    0.18080
 8033.50000   50.93370   94.93980  230.91230    0.10920
 8034.00000   35.05020   98.14760  230.30690    0.06490
 8034.50000   26.42830   98.46390  231.35820    0.05110
 8035.00000   25.67300   98.73490  231.05410    0.04960
 8035.50000   25.82610   99.77410  231.35230    0.05140
 8036.00000   26.58400  100.00000  233.46750    0.05530
 8036.50000   28.55220  100.00000  234.05730    0.06190
 8037.00000   30.82300  100.18070  231.19220    0.06760
 8037.50000   32.67810  101.58130  229.53260    0.07230
 8038.00000   33.70040  102.40410  229.83090    0.07640
 8038.50000   30.67650  101.31020  230.88220    0.07580
 8039.00000   30.07250   95.79820  231.33180    0.07550
 8039.50000   30.83070   88.07230  229.82210    0.07700
 8040.00000   32.64770   89.33730  229.79880    0.07400
 8040.50000   33.55680   95.70780  230.11740    0.06950
 8041.00000   33.70960  100.15720  231.05440    0.06700
 8041.50000   34.16490  101.21990  232.67110    0.07190
 8042.00000   34.77340   94.30720  232.97010    0.08330
 8042.50000   35.54710   96.43070  231.76160    0.08750
 8043.00000   36.74160   99.63860  230.40320    0.08620
 8043.50000   37.95340  100.72290  229.19550    0.07990
 8044.00000   38.56000   97.65060  229.04270    0.06950
 8044.50000   36.74600   97.78610  229.34030    0.05800
 8045.00000   34.62950   98.96080  229.78910    0.04870
 8045.50000   33.11810  100.23860  230.39460    0.04150
 8046.00000   32.06060  100.94880  230.68680    0.03630
 8046.50000   32.51590  100.63250  229.93020    0.03330
 8047.00000   34.19490   99.63860  229.02360    0.03120
 8047.50000   34.63690   98.82530  228.41830    0.02910
 8048.00000   30.40270   99.05120  228.56670    0.02670
 8048.50000   25.56300  100.13550  229.31600    0.02210
