~Version ---------------------------------------------------
VERS.   2.0 : CWLS log ASCII Standard -VERSION 2.0
WRAP.    NO : One line per depth step
DLM . SPACE : Column Data Section Delimiter
~Well ------------------------------------------------------
STRT .F                 184.0 : START DEPTH
STOP .F                9150.0 : STOP DEPTH
STEP .F                   0.5 : STEP
NULL .               -9999.25 : NULL VALUE
COMP .                        : COMPANY
WELL .                        : WELL
FLD  .                        : FIELD
LOC  .                        : LOCATION
PROV .                        : PROVINCE
CNTY .                        : COUNTY
STAT .                        : STATE
CTRY .                        : COUNTRY
SRVC .                        : SERVICE COMPANY
DATE .                        : DATE
UWI  .                        : UNIQUE WELL ID
API  .                        : API NUMBER
SLAT .WGS84 2.400688191902802 : SURFACE LATITUDE
SLON .WGS84 8.544721229597002 : SURFACE LONGITUDE
DATUM.F               3190.61 : DEPTH DATUM ELEV
~Curve Information -----------------------------------------
DEPT.F     : 
GRS .GAPI  : GAMMA RAY FROM SONIC LOG
DTCO.US/F  : COMPRESSIONAL-WAVE INTERVAL TRANSIT TIME ACAUSTIC SLOWNESS
DTSM.US/F  : SHEAR-WAVE INTERVAL TRANSIT TIME DELTA-T
TNPH.DEC   : THERMAL NEUTRON POROSITY
~Params ----------------------------------------------------
~Other -----------------------------------------------------
~ASCII -----------------------------------------------------
# ...
 6905.00000   44.19080   -9999.25  103.80740    0.08460
 6905.50000   45.40260   -9999.25  103.50640    0.08520
 6906.00000   45.10150   -9999.25  103.65690    0.08670
 6906.50000   43.28750   -9999.25  103.81340    0.09360
 6907.00000   41.62490   -9999.25  104.59580    0.10110
 6907.50000   40.11350   -9999.25  105.31230    0.10080
 6908.00000   39.81240   65.31570  105.61320    0.09780
 6908.50000   40.59570   65.45210  106.21520    0.09360
 6909.00000   41.80750   65.31750  106.96760    0.09240
 6909.50000   42.69170   65.22800  108.02110    0.09390
 6910.00000   43.75210   65.32230  109.07450    0.09580
 6910.50000   46.77930   65.59830  109.37550    0.09790
 6911.00000   50.41170   65.72790  109.07450    0.09940
 6911.50000   52.37990   65.63840  107.87060    0.09850
 6912.00000   51.77620   65.50370  106.66670    0.09610
 6912.50000   51.02090   65.36910  106.21520    0.09430
 6913.00000   52.83820   65.41510  106.38970    0.09640
 6913.50000   52.89030   65.68710  107.14210    0.09850
 6914.00000   46.18460   65.77840  108.02110    0.10210
 6914.50000   41.88680   65.73410  108.62300    0.10880
 6915.00000   39.48040   66.32230  109.07450    0.12020
 6915.50000   41.04570   66.41360  109.22500    0.12380
 6916.00000   43.77030   66.22400  109.07450    0.12440
 6916.50000   46.64620   65.91830  108.92400    0.12620
 6917.00000   48.91700   66.23570  109.07450    0.13140
 6917.50000   50.73390   66.91430  109.82690    0.13150
 6918.00000   51.64310   67.14110  110.42890    0.12530
 6918.50000   51.94680   67.41310  111.63280    0.12080
 6919.00000   49.83060   67.68500  113.75160    0.12050
 6919.50000   46.80640   67.77600  114.82900    0.13230
 6920.00000   46.50530   67.55120  115.09410    0.14100
 6920.50000   49.98700   67.86840  114.49210    0.14190
 6921.00000   54.47640   68.63740  114.04060    0.13830
 6921.50000   56.79760   68.77380  113.43870    0.13140
 6922.00000   58.31190   67.83110  112.38530    0.12540
 6922.50000   61.94420   66.74260  111.48230    0.12060
 6923.00000   64.66890   66.29170  110.42890    0.12750
 6923.50000   66.48540   65.97630  109.67640    0.13030
 6924.00000   63.00770   65.88660  109.22500    0.12390
 6924.50000   61.34470   65.88770  109.22500    0.11720
 6925.00000   62.40550   65.97900  109.22500    0.11330
 6925.50000   64.82760   66.11540  109.83890    0.11220
 6926.00000   66.03930   66.07110  110.27840    0.11130
 6926.50000   66.01550   65.80090  109.97740    0.10890
 6927.00000   64.12570   65.62110  109.67640    0.10860
 6927.50000   60.74910   65.53160  109.52600    0.10890
 6928.00000   57.27100   65.53270  109.37550    0.11010
 6928.50000   53.49040   65.62400  109.82690    0.11130
 6929.00000   49.70970   65.71520  110.88040    0.11370
 6929.50000   47.74450   65.71610  111.93380    0.11770
 6930.00000   48.35110   65.58140  111.03090    0.12100
 6930.50000   54.25270   65.40160  109.67640    0.12190
 6931.00000   60.15440   65.31190  108.47250    0.11860
 6931.50000   63.18160   65.31300  107.86460    0.11410
 6932.00000   64.39330   65.31390  107.01620    0.11080
 6932.50000   58.82200   65.22440  106.06470    0.10840
 6933.00000   54.96600   65.13260  105.61320    0.10570
 6933.50000   54.56420   65.09060  105.01130    0.10090
 6934.00000   52.59930   65.27250  105.01130    0.09090
 6934.50000   52.44920   65.36370  105.91420    0.08370
 6935.00000   53.66130   65.54530  107.26860    0.08250
 6935.50000   54.72180   65.72690  108.78070    0.09360
 6936.00000   55.32800   65.77300  111.35940    0.10410
 6936.50000   53.81700   65.63830  111.30600    0.10960
 6937.00000   53.51590   65.54860  111.63280    0.10810
 6937.50000   53.97130   65.50450  112.68620    0.10570
 6938.00000   54.12410   65.55060  112.08430    0.10480
 6938.50000   51.93160   65.55150  110.27840    0.10480
 6939.00000   49.00810   65.46200  109.07450    0.10360
 6939.50000   46.41330   65.32740  108.92400    0.09820
 6940.00000   45.96050   68.58150  109.52600    0.09310
 6940.50000   46.26500   75.85650  112.98720    0.09220
 6941.00000   47.47670   85.70670  118.74540    0.09530
 6941.50000   50.80650   89.72870  123.52140    0.10420
 6942.00000   54.59010   90.49770  123.82240    0.12110
 6942.50000   56.86090   90.63410  124.14380    0.13260
 6943.00000   57.77010   90.67990  129.08950    0.13140
 6943.50000   55.04840   90.59070  155.53510    0.12480
 6944.00000   51.11650   90.90780  198.84940    0.12050
 6944.50000   48.50820   91.40970  237.95240    0.11870
 6945.00000   46.85820   91.72290  245.84600    0.11810
 6945.50000   47.18790   91.49810  252.94210    0.11910
 6946.00000   51.27410   91.22790  255.04890    0.12660
 6946.50000   54.30130   91.04800  256.85480    0.13320
 6947.00000   55.96690   91.04890  257.90820    0.13350
 6947.50000   56.11970   91.00440  250.23970    0.12840
 6948.00000   55.96950   91.05070  243.76220    0.12420
 6948.50000   54.76110   91.59370  239.39800    0.12600
 6949.00000   53.40100   92.58860  239.39800    0.12870
 6949.50000   52.19220   93.26720  239.54850    0.13080
 6950.00000   49.01660   93.94580  239.69900    0.13300
 6950.50000   47.80780   94.26290  239.55000    0.13180
 6951.00000   47.80940   94.25610  239.25050    0.12760
 6951.50000   47.81120   93.94870  239.25210    0.12720
 6952.00000   48.42060   93.76880  239.25390    0.13540
 6952.50000   49.76540   93.31790  237.29900    0.14160
 6953.00000   51.73060   92.95730  234.59170    0.14320
 6953.50000   52.48590   92.82250  232.48630    0.13840
 6954.00000   50.97120   92.95910  230.83240    0.13780
 6954.50000   49.45690   93.59250  230.23160    0.13750
 6955.00000   52.02720   94.67770  231.58780    0.13450
 6955.50000   56.60510   97.77970  233.09420    0.13090
 6956.00000   58.87290   99.19780  234.29960    0.13720
 6956.50000   58.67900   99.37940  234.90300    0.14750
 6957.00000   56.40820   99.19950  234.90450    0.15920
 6957.50000   53.07840   98.56790  232.79910    0.16370
 6958.00000   49.44610   96.85190  229.79080    0.16150
 6958.50000   48.08300   95.76850  228.43790    0.14810
 6959.00000   47.77890   95.13690  229.64330    0.13910
 6959.50000   47.62620   94.68590  227.49620    0.13100
 6960.00000   47.47380   94.77720  227.08800    0.13040
 6960.50000   48.07710   95.41060  226.78880    0.13490
 6961.00000   49.13460   96.04400  209.69800    0.13940
 6961.50000   50.19210   96.22570  165.93660    0.14030
 6962.00000   50.79580   95.77470  131.83450    0.13760
 6962.50000   49.58400   95.18830  130.33110    0.13940
 6963.00000   46.84000   94.78260  129.12870    0.13760
 6963.50000   46.25270   94.51240  128.67870    0.13640
 6964.00000   51.69710   94.33250  136.96700    0.13490
 6964.50000   55.32650   94.42560  178.03430    0.13460
 6965.00000   56.68660   94.88260  221.08360    0.13580
 6965.50000   54.56710   95.62100  235.53200    0.13860
 6966.00000   53.20400   96.14340  235.53350    0.14410
 6966.50000   55.32060   95.42160  238.24380    0.14880
 6967.00000   57.43710   94.51880  240.35810    0.14820
 6967.50000   59.55360   93.84200  240.35360    0.14610
 6968.00000   61.06500   93.34590  240.35520    0.14310
 6968.50000   60.45830   93.25620  240.20650    0.13920
 6969.00000   58.03630   93.61880  221.91000    0.13470
 6969.50000   55.16030   93.61970  186.32630    0.13170
 6970.00000   53.49470   93.30430  130.80530    0.13350
 6970.50000   55.53130   92.98890  127.04460    0.13770
 6971.00000   58.71700   92.49290  126.29360    0.13710
 6971.50000   61.20550   92.31280  125.39220    0.13410
 6972.00000   61.35560   92.72050  124.64120    0.12920
 6972.50000   60.44600   93.53470  125.39510    0.12620
 6973.00000   58.93170   94.84580  128.10540    0.12600
 6973.50000   56.66090   96.33770  130.36430    0.13900
 6974.00000   54.08760   96.79040  131.56960    0.14770
 6974.50000   52.72450   95.97800  130.96920    0.15220
 6975.00000   55.29490   94.75900  129.91720    0.15400
 6975.50000   58.92430   93.70580  161.94670    0.14500
 6976.00000   61.64590   93.03970  203.97160    0.12910
