~Version ---------------------------------------------------
VERS.   2.0 : CWLS log ASCII Standard -VERSION 2.0
WRAP.    NO : One line per depth step
DLM . SPACE : Column Data Section Delimiter
~Well ------------------------------------------------------
STRT .F                 184.0 : START DEPTH
STOP .F                9150.0 : STOP DEPTH
STEP .F                   0.5 : STEP
NULL .               -9999.25 : NULL VALUE
COMP .                        : COMPANY
WELL .                        : WELL
FLD  .                        : FIELD
LOC  .                        : LOCATION
PROV .                        : PROVINCE
CNTY .                        : COUNTY
STAT .                        : STATE
CTRY .                        : COUNTRY
SRVC .                        : SERVICE COMPANY
DATE .                        : DATE
UWI  .                        : UNIQUE WELL ID
API  .                        : API NUMBER
SLAT .WGS84 2.400688191902802 : SURFACE LATITUDE
SLON .WGS84 8.544721229597002 : SURFACE LONGITUDE
DATUM.F               3190.61 : DEPTH DATUM ELEV
~Curve Information -----------------------------------------
DEPT.F     : 
GRS .GAPI  : GAMMA RAY FROM SONIC LOG
DTCO.US/F  : COMPRESSIONAL-WAVE INTERVAL TRANSIT TIME ACAUSTIC SLOWNESS
DTSM.US/F  : SHEAR-WAVE INTERVAL TRANSIT TIME DELTA-T
TNPH.DEC   : THERMAL NEUTRON POROSITY
~Params ----------------------------------------------------
~Other -----------------------------------------------------
~ASCII -----------------------------------------------------
# ...
 6333.00000   69.89390   87.56000  227.50940    0.10890
 6333.50000   65.72360   87.42480  226.60650    0.10640
 6334.00000   61.02960   87.47040  226.45600    0.10170
 6334.50000   58.61650   87.19980  226.67990    0.09720
 6335.00000   56.50600   91.17620  233.52900    0.09420
 6335.50000   53.07550   99.85140  239.24760    0.08940
 6336.00000   45.77960  107.44210  238.79610    0.06830
 6336.50000   40.94590  105.86140  239.39800    0.05080
 6337.00000   38.53280  105.45510  240.23140    0.04060
 6337.50000   37.93490  106.44950  242.10680    0.03700
 6338.00000   37.94260  103.69400  242.40780    0.03910
 6338.50000   38.40810   94.83910  241.35440    0.04910
 6339.00000   39.49680   91.27020  242.70880    0.05930
 6339.50000   41.05550   91.81290  243.31080    0.06960
 6340.00000   42.66410   93.25910  241.65540    0.07920
 6340.50000   43.73060   93.93720  240.30100    0.08730
 6341.00000   44.64580   93.80210  241.20390    0.09130
 6341.50000   44.95580   93.21520  241.65540    0.09250
 6342.00000   44.81200   92.58320  241.05340    0.09280
 6342.50000   43.91170   92.08660  240.00000    0.09030
 6343.00000   42.25500   91.90630  236.68920    0.08860
 6343.50000   41.05220   92.17790  233.82990    0.09220
 6344.00000   40.75520   92.40550  233.67950    0.09520
 6344.50000   43.03380   92.21680  234.88340    0.09760
 6345.00000   46.11640   91.86290  237.29120    0.09920
 6345.50000   48.78260   92.01580  239.09710    0.10010
 6346.00000   49.86410   91.90910  239.24760    0.10130
 6346.50000   47.90480   91.45780  238.64560    0.10340
 6347.00000   44.43270   91.18710  237.14070    0.10460
 6347.50000   41.86830   90.78090  235.93680    0.10370
 6348.00000   41.92460   90.46510  236.55430    0.10190
 6348.50000   43.62300   90.28470  237.74270    0.10040
 6349.00000   45.37210   90.55640  238.19410    0.09980
 6349.50000   45.98470   90.82790  238.04360    0.10160
 6350.00000   44.86950   90.78320  237.74270    0.10410
 6350.50000   44.11650   90.69310  237.29120    0.10470
 6351.00000   43.42800   90.60240  236.53880    0.10280
 6351.50000   44.34120   90.49760  235.63580    0.09930
 6352.00000   44.64820   90.19760  234.73290    0.09900
 6352.50000   45.25780   89.88180  233.82990    0.10200
 6353.00000   47.98540   89.56020  232.77650    0.10890
 6353.50000   55.36220   89.18060  231.87360    0.11730
 6354.00000   62.66870   88.57300  231.27160    0.12010
 6354.50000   60.44630   88.66380  230.51920    0.11500
 6355.00000   52.73190   88.84480  230.06290    0.10800
 6355.50000   42.25950   88.48390  229.45020    0.10170
 6356.00000   41.35520   88.12290  228.83750    0.10110
 6356.50000   44.08390   87.98770  228.26190    0.10530
 6357.00000   45.14730   88.07870  228.11140    0.10630
 6357.50000   46.21080   88.25980  228.35310    0.10040
 6358.00000   45.76130   88.57650  229.86390    0.09560
 6358.50000   41.98360   88.93840  231.22420    0.09450
 6359.00000   39.41620   89.48100  233.33690    0.09570
 6359.50000   38.81540   91.06280  236.65360    0.10270
 6360.00000   41.08930   92.10240  242.98980    0.11200
 6360.50000   44.35940   92.28360  241.07790    0.11620
 6361.00000   48.30810   91.62710  239.38020    0.11290
 6361.50000   50.93660   90.65810  236.67730    0.11050
 6362.00000   52.75640   90.29710  235.77790    0.11020
 6362.50000   52.72300   90.38790  235.33470    0.10930
 6363.00000   49.94110   90.38830  235.49130    0.10300
 6363.50000   46.71940   90.20800  236.10050    0.09520
 6364.00000   46.11760   90.11800  236.55780    0.08850
 6364.50000   47.93860   90.48000  237.01520    0.08620
 6365.00000   48.54820   91.56480  236.56970    0.09550
 6365.50000   48.09880   92.33330  235.52070    0.10210
 6366.00000   46.43910   92.65000  236.28050    0.10910
 6366.50000   44.93070   93.19260  235.08260    0.11330
 6367.00000   45.54030   93.69010  231.62720    0.11720
 6367.50000   47.20890   93.96160  229.52480    0.12200
 6368.00000   48.57490   93.72700  232.24100    0.12600
 6368.50000   48.54150   93.36300  235.55770    0.12720
 6369.00000   46.54130   93.10450  235.11210    0.12510
 6369.50000   44.95850   93.01460  236.21950    0.11870
 6370.00000   44.50790   82.53320  236.77930    0.11030
 6370.50000   46.78280   79.77760  235.13140    0.10550
 6371.00000   48.75400   82.94070  234.53380    0.10220
 6371.50000   49.81740   91.97730  234.84220    0.10320
 6372.00000   49.97310   91.48080  235.60060    0.10580
 6372.50000   49.37240   90.08060  236.65990    0.10190
 6373.00000   48.62050   92.65640  238.32120    0.09470
 6373.50000   48.46090  104.44900  238.02610    0.08210
 6374.00000   49.83960  111.00060  236.52720    0.07460
 6374.50000   52.21470  112.53720  235.02820    0.07030
 6375.00000   56.80800  112.80870  233.83020    0.07340
 6375.50000   58.77920  107.29720  234.88950    0.08270
 6376.00000   57.87590   99.93320  239.25960    0.09170
 6376.50000   56.19100   91.57520  238.06160    0.09350
 6377.00000   55.46430   91.03340  239.57240    0.09360
 6377.50000   55.31740   90.85320  238.14180    0.09540
 6378.00000   57.13840   90.66680  236.42550    0.09930
 6378.50000   58.50440   90.34520  235.37800    0.10280
 6379.00000   59.11290   89.99620  234.33050    0.10560
 6379.50000   58.51330   89.86110  234.18440    0.10650
 6380.00000   60.18190   89.77120  234.49280    0.10710
 6380.50000   65.02750   89.77160  234.04720    0.11140
 6381.00000   66.69610   89.81710  233.45120    0.10990
 6381.50000   67.00310   89.50140  232.70470    0.10870
 6382.00000   68.67170   89.05000  231.50670    0.11350
 6382.50000   74.59900   88.50830  229.85720    0.12040
 6383.00000   76.24490   88.28290  228.05730    0.12430
 6383.50000   74.58630   87.65080  226.40070    0.12440
 6384.00000   73.98450   87.06390  225.01810    0.12070
 6384.50000   79.13380   86.61250  223.36110    0.12070
 6385.00000   82.16360   86.29670  222.21330    0.12010
 6385.50000   81.56290   86.07120  222.52020    0.11470
 6386.00000   74.75950   86.30940  223.42910    0.10960
 6386.50000   70.06150   86.70480  225.54180    0.10690
 6387.00000   68.94370   87.24740  230.06240    0.10870
 6387.50000   65.92030   88.69360  232.47620    0.10300
 6388.00000   59.63540   89.95910  234.28790    0.09520
 6388.50000   53.35060   90.54690  234.89580    0.09100
 6389.00000   48.79270   91.13470  239.71790    0.09850
 6389.50000   52.25050   91.04480  245.74190    0.11090
 6390.00000   54.07030   90.68380  244.39340    0.11780
 6390.50000   53.31830   89.78060  247.10960    0.11750
 6391.00000   49.71610   88.78710  248.77090    0.10000
 6391.50000   45.25600   88.06460  248.92730    0.08280
 6392.00000   42.74200   88.01680  248.63220    0.06860
 6392.50000   43.50290   88.38180  248.03620    0.07000
 6393.00000   45.17150   88.75280  247.43420    0.08410
 6393.50000   47.38070   89.21380  246.51580    0.09440
 6394.00000   48.96220   90.05490  244.97240    0.10040
 6394.50000   50.02570   90.73310  242.79420    0.09290
 6395.00000   49.34920   91.14010  240.39230    0.08740
 6395.50000   46.85860   90.91470  239.91240    0.08350
 6396.00000   45.80300   90.82460  239.86100    0.08420
 6396.50000   47.62390   91.32220  239.80760    0.08600
 6397.00000   48.08110   90.59970  237.40570    0.08660
 6397.50000   47.02770   89.78690  237.11060    0.08600
 6398.00000   45.97310   89.42590  236.19820    0.07810
 6398.50000   45.67390   89.69750  234.35830    0.07200
 6399.00000   45.67950   90.14970  233.21570    0.06970
 6399.50000   45.83520   90.78270  233.82500    0.07250
 6400.00000   47.20120   91.73190  234.43290    0.08570
 6400.50000   53.07630   91.91310  233.38540    0.10320
 6401.00000   60.67530   91.49500  231.73590    0.11970
 6401.50000   65.81900   91.28150  230.53790    0.12600
 6402.00000   65.97250   91.59830  230.09090    0.12880
 6402.50000   65.21980   91.23730  231.60320    0.12610
 6403.00000   63.25610   89.88490  233.11400    0.11970
 6403.50000   60.21880   89.52440  232.51800    0.11370
 6404.00000   59.61870   89.87060  230.86850    0.10980
