~Version ---------------------------------------------------
VERS.   2.0 : CWLS log ASCII Standard -VERSION 2.0
WRAP.    NO : One line per depth step
DLM . SPACE : Column Data Section Delimiter
~Well ------------------------------------------------------
STRT .F                 184.0 : START DEPTH
STOP .F                9150.0 : STOP DEPTH
STEP .F                   0.5 : STEP
NULL .               -9999.25 : NULL VALUE
COMP .                        : COMPANY
WELL .                        : WELL
FLD  .                        : FIELD
LOC  .                        : LOCATION
PROV .                        : PROVINCE
CNTY .                        : COUNTY
STAT .                        : STATE
CTRY .                        : COUNTRY
SRVC .                        : SERVICE COMPANY
DATE .                        : DATE
UWI  .                        : UNIQUE WELL ID
API  .                        : API NUMBER
SLAT .WGS84 2.400688191902802 : SURFACE LATITUDE
SLON .WGS84 8.544721229597002 : SURFACE LONGITUDE
DATUM.F               3190.61 : DEPTH DATUM ELEV
~Curve Information -----------------------------------------
DEPT.F     : 
GRS .GAPI  : GAMMA RAY FROM SONIC LOG
DTCO.US/F  : COMPRESSIONAL-WAVE INTERVAL TRANSIT TIME ACAUSTIC SLOWNESS
DTSM.US/F  : SHEAR-WAVE INTERVAL TRANSIT TIME DELTA-T
TNPH.DEC   : THERMAL NEUTRON POROSITY
~Params ----------------------------------------------------
~Other -----------------------------------------------------
~ASCII -----------------------------------------------------
# ...
 1328.00000   16.67470   -9999.25   -9999.25    0.06190
 1328.50000   17.59720   -9999.25   -9999.25    0.16070
 1329.00000   18.21680   -9999.25   -9999.25    0.25960
 1329.50000   19.29090   -9999.25   -9999.25    0.22010
 1330.00000   19.75890   -9999.25   -9999.25    0.14200
 1330.50000   19.16640   -9999.25   -9999.25    0.07910
 1331.00000   17.81620   -9999.25   -9999.25    0.03870
 1331.50000   16.46610   -9999.25   -9999.25    0.01240
 1332.00000   15.57050   -9999.25   -9999.25   -0.00020
 1332.50000   14.82640   -9999.25   -9999.25   -0.01020
 1333.00000   14.23330   -9999.25   -9999.25   -0.01570
 1333.50000   13.33820   -9999.25   -9999.25   -0.01930
 1334.00000   13.65470   -9999.25   -9999.25   -0.02110
 1334.50000   14.72880   -9999.25   -9999.25   -0.02160
 1335.00000   15.65150   -9999.25   -9999.25   -0.02160
 1335.50000   15.50200   -9999.25   -9999.25   -0.02130
 1336.00000   14.59990   -9999.25   -9999.25   -0.02040
 1336.50000   14.15260   -9999.25   -9999.25   -0.01800
 1337.00000   14.49660   -9999.25   -9999.25   -0.01290
 1337.50000   15.11620   -9999.25   -9999.25    0.00280
 1338.00000   15.88720   -9999.25   -9999.25    0.03080
 1338.50000   17.41500   -9999.25   -9999.25    0.06340
 1339.00000   18.81200   -9999.25   -9999.25    0.07510
 1339.50000   19.87880   -9999.25   -9999.25    0.06880
 1340.00000   20.02990   -9999.25   -9999.25    0.05550
 1340.50000   19.35760   -9999.25   -9999.25    0.04800
 1341.00000   17.48440   -9999.25   -9999.25    0.04890
 1341.50000   15.07370   -9999.25   -9999.25    0.04980
 1342.00000   13.11750   -9999.25   -9999.25    0.04170
 1342.50000   14.04010   -9999.25   -9999.25    0.02750
 1343.00000   14.50810   -9999.25   -9999.25    0.01480
 1343.50000   14.21520   -9999.25   -9999.25    0.00190
 1344.00000   14.53510   -9999.25   -9999.25   -0.00810
 1344.50000   15.00310   -9999.25   -9999.25   -0.01440
 1345.00000   15.46780   -9999.25   -9999.25   -0.01770
 1345.50000   13.96950   -9999.25   -9999.25   -0.01950
 1346.00000   13.07390   -9999.25   -9999.25   -0.02040
 1346.50000   12.78100   -9999.25   -9999.25   -0.01890
 1347.00000   13.55540   -9999.25   -9999.25   -0.01370
 1347.50000   13.71710   -9999.25   -9999.25   -0.00640
 1348.00000   12.67330   -9999.25   -9999.25   -0.00290
 1348.50000   12.51510   -9999.25   -9999.25   -0.00470
 1349.00000   13.00330   -9999.25   -9999.25   -0.01200
 1349.50000   12.86520   -9999.25   -9999.25   -0.01560
 1350.00000   12.87880   -9999.25   -9999.25   -0.01440
 1350.50000   13.95160   -9999.25   -9999.25   -0.00500
 1351.00000   16.68940   -9999.25   -9999.25    0.00730
 1351.50000   17.45480   -9999.25   -9999.25    0.02720
 1352.00000   17.16220   -9999.25   -9999.25    0.05370
 1352.50000   17.47840   -9999.25   -9999.25    0.07940
 1353.00000   18.54940   -9999.25   -9999.25    0.10320
 1353.50000   22.19630   -9999.25   -9999.25    0.11140
 1354.00000   25.69160   -9999.25   -9999.25    0.10990
 1354.50000   26.30550   -9999.25   -9999.25    0.11040
 1355.00000   24.50040   -9999.25   -9999.25    0.11340
 1355.50000   24.05610   -9999.25   -9999.25    0.11250
 1356.00000   24.22840   -9999.25   -9999.25    0.10800
 1356.50000   23.47130   -9999.25   -9999.25    0.10530
 1357.00000   21.03780   -9999.25   -9999.25    0.10770
 1357.50000   20.15890   -9999.25   -9999.25    0.10890
 1358.00000   21.09900   -9999.25   -9999.25    0.10980
 1358.50000   21.54390   -9999.25   -9999.25    0.11040
 1359.00000   21.70810   -9999.25   -9999.25    0.11130
 1359.50000   22.17310   -9999.25   -9999.25    0.11130
 1360.00000   23.24420   -9999.25   -9999.25    0.11120
 1360.50000   24.76980   -9999.25   -9999.25    0.11120
 1361.00000   27.50750   -9999.25   -9999.25    0.11120
 1361.50000   29.03320   -9999.25   -9999.25    0.11150
 1362.00000   28.88950   -9999.25   -9999.25    0.11220
 1362.50000   29.05410   -9999.25   -9999.25    0.11340
 1363.00000   29.51910   -9999.25   -9999.25    0.11690
 1363.50000   29.22660   -9999.25   -9999.25    0.12410
 1364.00000   27.57040   -9999.25   -9999.25    0.12920
 1364.50000   25.00510   -9999.25   -9999.25    0.13010
 1365.00000   22.59130   -9999.25   -9999.25    0.12890
 1365.50000   21.84390   -9999.25   -9999.25    0.12860
 1366.00000   22.91530   -9999.25   -9999.25    0.14120
 1366.50000   25.65310   -9999.25   -9999.25    0.16140
 1367.00000   29.16380   -9999.25   -9999.25    0.16860
 1367.50000   30.67420   -9999.25   -9999.25    0.17220
 1368.00000   28.00800   -9999.25   -9999.25    0.15170
 1368.50000   25.76380   -9999.25   -9999.25    0.14270
 1369.00000   24.79640   -9999.25   -9999.25    0.13940
 1369.50000   25.41550   -9999.25   -9999.25    0.14240
 1370.00000   25.27450   -9999.25   -9999.25    0.14750
 1370.50000   24.52740   -9999.25   -9999.25    0.15170
 1371.00000   23.62880   -9999.25   -9999.25    0.15560
 1371.50000   23.03060   -9999.25   -9999.25    0.16370
 1372.00000   22.28610   -9999.25   -9999.25    0.16790
 1372.50000   21.99090   -9999.25   -9999.25    0.17120
 1373.00000   23.36760   -9999.25   -9999.25    0.16640
 1373.50000   24.59020   -9999.25   -9999.25    0.16330
 1374.00000   25.35830   -9999.25   -9999.25    0.16090
 1374.50000   25.52030   -9999.25   -9999.25    0.17470
 1375.00000   26.13680   -9999.25   -9999.25    0.18710
 1375.50000   27.20790   -9999.25   -9999.25    0.19040
 1376.00000   27.67290   -9999.25   -9999.25    0.18190
 1376.50000   27.38030   -9999.25   -9999.25    0.17470
 1377.00000   27.08780   -9999.25   -9999.25    0.17020
 1377.50000   27.56560   -9999.25   -9999.25    0.17140
 1378.00000   27.71480   -9999.25   -9999.25    0.17020
 1378.50000   26.96770   -9999.25   -9999.25    0.15960
 1379.00000   27.58690   -9999.25   -9999.25    0.15060
 1379.50000   28.05190   -9999.25   -9999.25    0.14130
 1380.00000   29.12300   -9999.25   -9999.25    0.13770
 1380.50000   29.58540   -9999.25   -9999.25    0.13580
 1381.00000   27.93180   -9999.25   -9999.25    0.13340
 1381.50000   26.87900   -9999.25   -9999.25    0.12950
 1382.00000   25.98300   -9999.25   -9999.25    0.10780
 1382.50000   24.62990   -9999.25   -9999.25    0.09150
 1383.00000   22.97370   -9999.25   -9999.25    0.07250
 1383.50000   19.34780   -9999.25   -9999.25    0.05100
 1384.00000   16.32800   -9999.25   -9999.25    0.02130
 1384.50000   14.97480   -9999.25   -9999.25   -0.00710
 1385.00000   15.28830   -9999.25   -9999.25   -0.01670
 1385.50000   15.60180   -9999.25   -9999.25   -0.02180
 1386.00000   16.21840   -9999.25   -9999.25   -0.02520
 1386.50000   14.86520   -9999.25   -9999.25   -0.02580
 1387.00000   14.11310   -9999.25   -9999.25   -0.02610
 1387.50000   14.91150   -9999.25   -9999.25   -0.02520
 1388.00000   15.82630   -9999.25   -9999.25   -0.02430
 1388.50000   16.11920   -9999.25   -9999.25   -0.02400
 1389.00000   15.67510   -9999.25   -9999.25   -0.02430
 1389.50000   15.08220   -9999.25   -9999.25   -0.02470
 1390.00000   14.33510   -9999.25   -9999.25   -0.02520
 1390.50000   12.98190   -9999.25   -9999.25   -0.02550
 1391.00000    9.96210   -9999.25   -9999.25   -0.02400
 1391.50000    8.90930   -9999.25   -9999.25   -0.02320
 1392.00000    9.98300   -9999.25   -9999.25   -0.02140
 1392.50000   10.14500   -9999.25   -9999.25   -0.01750
 1393.00000   10.76160   -9999.25   -9999.25   -0.01330
 1393.50000   11.83260   -9999.25   -9999.25   -0.01000
 1394.00000   13.35830   -9999.25   -9999.25   -0.01150
 1394.50000   14.42940   -9999.25   -9999.25   -0.01330
 1395.00000   14.59130   -9999.25   -9999.25   -0.01480
 1395.50000   15.51090   -9999.25   -9999.25   -0.01630
 1396.00000   15.82440   -9999.25   -9999.25   -0.01750
 1396.50000   16.59250   -9999.25   -9999.25   -0.01780
 1397.00000   15.83530   -9999.25   -9999.25   -0.01780
 1397.50000   14.47980   -9999.25   -9999.25   -0.01570
 1398.00000   13.70530   -9999.25   -9999.25   -0.01030
 1398.50000   13.30100   -9999.25   -9999.25    0.00950
 1399.00000   14.22320   -9999.25   -9999.25    0.02030
