~Version ---------------------------------------------------
VERS.   2.0 : CWLS log ASCII Standard -VERSION 2.0
WRAP.    NO : One line per depth step
DLM . SPACE : Column Data Section Delimiter
~Well ------------------------------------------------------
STRT .F                 184.0 : START DEPTH
STOP .F                9150.0 : STOP DEPTH
STEP .F                   0.5 : STEP
NULL .               -9999.25 : NULL VALUE
COMP .                        : COMPANY
WELL .                        : WELL
FLD  .                        : FIELD
LOC  .                        : LOCATION
PROV .                        : PROVINCE
CNTY .                        : COUNTY
STAT .                        : STATE
CTRY .                        : COUNTRY
SRVC .                        : SERVICE COMPANY
DATE .                        : DATE
UWI  .                        : UNIQUE WELL ID
API  .                        : API NUMBER
SLAT .WGS84 2.400688191902802 : SURFACE LATITUDE
SLON .WGS84 8.544721229597002 : SURFACE LONGITUDE
DATUM.F               3190.61 : DEPTH DATUM ELEV
~Curve Information -----------------------------------------
DEPT.F     : 
GRS .GAPI  : GAMMA RAY FROM SONIC LOG
DTCO.US/F  : COMPRESSIONAL-WAVE INTERVAL TRANSIT TIME ACAUSTIC SLOWNESS
DTSM.US/F  : SHEAR-WAVE INTERVAL TRANSIT TIME DELTA-T
TNPH.DEC   : THERMAL NEUTRON POROSITY
~Params ----------------------------------------------------
~Other -----------------------------------------------------
~ASCII -----------------------------------------------------
# ...
 5260.50000   43.14420   70.32530  122.52480    0.12680
 5261.00000   41.79590   71.76940  123.73530    0.12410
 5261.50000   41.49980   73.16830  125.87500    0.12770
 5262.00000   42.86650   73.93570  127.94160    0.14840
 5262.50000   45.13640   74.16170  131.69150    0.16550
 5263.00000   48.16040   73.21480  126.87790    0.16970
 5263.50000   50.73180   72.08740  122.96670    0.17340
 5264.00000   52.70000   71.58920  121.22120    0.17310
 5264.50000   54.21570   71.73880  119.95660    0.16910
 5265.00000   54.67570   72.49480  121.60890    0.16640
 5265.50000   53.38770   73.75840  125.36680    0.16440
 5266.00000   50.92150   75.56340  130.62850    0.17070
 5266.50000   49.26980   77.09770  136.49170    0.17550
 5267.00000   46.41140   78.18080  141.15190    0.17580
 5267.50000   43.70390   78.81280  142.80930    0.17490
 5268.00000   43.40770   78.63280  143.41890    0.17880
 5268.50000   44.32200   77.23480  143.85420    0.19620
 5269.00000   45.98850   75.56600  140.69450    0.21240
 5269.50000   48.86160   73.80710  135.12910    0.22110
 5270.00000   52.03640   72.49930  131.21780    0.21780
 5270.50000   54.90960   71.77720  127.90810    0.20060
 5271.00000   57.95470   71.05300  125.19980    0.17750
 5271.50000   61.49140   70.81780  123.54420    0.17370
 5272.00000   63.22930   70.60640  122.79090    0.17310
 5272.50000   63.53830   70.56160  122.48860    0.16500
 5273.00000   62.48990   70.51700  122.33680    0.15960
 5273.50000   59.63150   71.05890  122.33530    0.15480
 5274.00000   58.58130   71.55550  122.78970    0.15480
 5274.50000   57.68550   71.69120  123.86360    0.16190
 5275.00000   56.33550   71.60140  125.56420    0.16890
 5275.50000   53.77880   72.32380  127.74260    0.17280
 5276.00000   49.71370   72.82050  128.79370    0.17370
 5276.50000   45.04540   72.68560  129.09340    0.17310
 5277.00000   42.03620   72.23490  127.28700    0.16650
 5277.50000   41.74200   71.46270  125.33070    0.15900
 5278.00000   42.69910   70.62880  123.82540    0.14940
 5278.50000   43.56860   69.53340  122.32020    0.14070
 5279.00000   44.48090   68.89840  121.11570    0.13710
 5279.50000   45.54410   68.58310  120.06160    0.13620
 5280.00000   46.15480   67.99710  119.30830    0.13590
 5280.50000   45.55890   67.45620  118.85200    0.13010
 5281.00000   43.75640   67.05060  118.07590    0.12500
 5281.50000   41.65210   66.78030  117.64960    0.11760
 5282.00000   41.35600   66.73560  117.34710    0.11400
 5282.50000   43.62770   67.00680  117.04490    0.11190
 5283.00000   45.89750   67.45840  116.89300    0.11070
 5283.50000   47.42170   67.68440  117.19230    0.11040
 5284.00000   47.23750   67.82020  117.49190    0.11490
 5284.50000   44.71490   67.31290  116.88860    0.12120
 5285.00000   43.66650   66.72000  116.73670    0.12420
 5285.50000   43.37220   66.33290  116.88560    0.12030
 5286.00000   42.32380   66.24300  117.33530    0.11190
 5286.50000   40.06880   66.60440  117.18340    0.10770
 5287.00000   38.86770   67.28790  117.33350    0.10800
 5287.50000   40.38520   67.94980  118.73450    0.11160
 5288.00000   42.50420   70.03430  120.90780    0.12490
 5288.50000   43.41660   71.79410  124.24480    0.14050
 5289.00000   43.58850   72.70690  126.79970    0.14600
 5289.50000   43.12970   73.06970  128.00130    0.15250
 5290.00000   44.88830   72.33690  127.84940    0.15970
 5290.50000   49.80990   71.07420  125.14120    0.16490
 5291.00000   56.27470   70.12730  122.28260    0.16760
 5291.50000   59.29870   69.63150  119.72470    0.16300
 5292.00000   60.06030   69.31610  117.61800    0.15700
 5292.50000   58.09930   69.40680  116.56390    0.15280
 5293.00000   51.17790   70.62530  117.91580    0.15130
 5293.50000   42.58800   72.02420  121.37650    0.15280
 5294.00000   39.72970   72.97210  125.06430    0.15100
 5294.50000   39.13190   73.69430  129.35660    0.15340
 5295.00000   40.64940   74.55190  133.99970    0.16420
 5295.50000   41.71260   75.50190  138.81030    0.17200
 5296.00000   42.02170   76.46550  141.66590    0.17570
 5296.50000   41.87830   77.39120  144.07050    0.17720
 5297.00000   41.13150   78.02750  145.57280    0.18090
 5297.50000   40.98790   77.57680  146.32320    0.19870
 5298.00000   41.44980   76.17870  143.91570    0.21050
 5298.50000   42.71740   74.41980  135.34280    0.20600
 5299.00000   46.73130   72.34500  129.17590    0.19430
 5299.50000   57.91240   70.45070  123.13390    0.18560
 5300.00000   65.11600   69.33670  117.71070    0.17620
 5300.50000   68.93040   68.59610  115.60080    0.16600
 5301.00000   65.31230   68.24150  114.84630    0.16210
 5301.50000   64.40850   69.16770  115.14600    0.15870
 5302.00000   66.97440   70.07820  116.04810    0.15510
 5302.50000   66.67430   70.81440  116.79970    0.15770
 5303.00000   64.11160   70.95020  117.55120    0.16850
 5303.50000   59.28660   71.22130  118.75450    0.18050
 5304.00000   54.61240   71.44730  121.47640    0.18470
 5304.50000   50.36570   71.40250  124.66950    0.18050
 5305.00000   46.88270   72.07980  128.19150    0.17480
 5305.50000   44.91570   73.02760  131.63540    0.16850
 5306.00000   43.43500   74.06560  133.59000    0.17120
 5306.50000   43.78810   73.88560  134.70940    0.17360
 5307.00000   44.51610   73.38980  134.10520    0.17600
 5307.50000   44.21600   72.93910  133.35060    0.16970
 5308.00000   42.70920   73.02980  133.49980    0.16400
 5308.50000   42.25780   72.66930  133.49830    0.15920
 5309.00000   42.71210   71.90290  133.19560    0.15840
 5309.50000   44.67440   71.58750  132.74230    0.16730
 5310.00000   47.54170   71.45260  131.83720    0.17510
 5310.50000   51.91720   70.86660  129.57660    0.17870
 5311.00000   57.49940   69.82950  126.86430    0.17030
 5311.50000   62.32750   69.73880  121.74230    0.15900
 5312.00000   63.98810   70.37890  119.93360    0.15200
 5312.50000   60.97300   70.92100  119.63130    0.15020
 5313.00000   57.05290   71.00420  120.38250    0.15620
 5313.50000   55.69690   70.90680  120.83280    0.15920
 5314.00000   55.84930   70.77960  121.28310    0.16220
 5314.50000   56.75570   70.68990  121.73340    0.16040
 5315.00000   56.79750   70.64510  122.48490    0.15920
 5315.50000   55.85370   71.14190  123.23880    0.16140
 5316.00000   55.40270   71.99950  124.75640    0.16380
 5316.50000   55.10260   72.36080  126.45540    0.16580
 5317.00000   53.28170   72.54170  128.26610    0.17130
 5317.50000   51.00290   72.63240  129.76110    0.18270
 5318.00000   49.17660   72.36220  130.90930    0.18000
 5318.50000   48.12650   72.00170  131.20940    0.16440
 5319.00000   47.23910   71.86670  131.20760    0.15600
 5319.50000   48.62620   72.31840  131.05550    0.15990
 5320.00000   52.24760   72.63460  131.05400    0.16890
 5320.50000   51.64580   71.77790  130.60070    0.16770
 5321.00000   48.78150   71.05660  129.54500    0.15270
 5321.50000   46.82230   70.38030  129.09170    0.14220
 5322.00000   45.46630   69.97480  128.48780    0.13110
 5322.50000   44.26110   69.93000  127.88390    0.12270
 5323.00000   43.96060   70.24640  127.12940    0.12190
 5323.50000   44.26410   70.65280  125.92310    0.12720
 5324.00000   44.56730   70.20210  124.71680    0.13950
 5324.50000   43.51300   68.57850  123.05870    0.14130
 5325.00000   42.15700   67.36090  120.34630    0.13440
 5325.50000   41.10270   66.91020  117.93520    0.11880
 5326.00000   40.80210   66.82040  116.72890    0.10230
 5326.50000   40.80400   66.86600  116.87800    0.08960
 5327.00000   41.10720   67.27570  119.44150    0.08910
 5327.50000   41.71200   69.50200  121.11510    0.10620
 5328.00000   42.76930   70.34530  122.00770    0.13230
 5328.50000   43.37410   70.57330  123.10890    0.14460
 5329.00000   43.97890   70.74800  124.57860    0.14970
 5329.50000   44.60030   70.92900  124.70040    0.15150
 5330.00000   47.03890   71.01960  124.39730    0.13500
 5330.50000   49.31050   70.79450  123.94400    0.13080
 5331.00000   51.44150   70.79500  123.34010    0.13650
 5331.50000   53.72360   70.97590  122.88680    0.14870
