~Version ---------------------------------------------------
VERS.   2.0 : CWLS log ASCII Standard -VERSION 2.0
WRAP.    NO : One line per depth step
DLM . SPACE : Column Data Section Delimiter
~Well ------------------------------------------------------
STRT .F                 184.0 : START DEPTH
STOP .F                9150.0 : STOP DEPTH
STEP .F                   0.5 : STEP
NULL .               -9999.25 : NULL VALUE
COMP .                        : COMPANY
WELL .                        : WELL
FLD  .                        : FIELD
LOC  .                        : LOCATION
PROV .                        : PROVINCE
CNTY .                        : COUNTY
STAT .                        : STATE
CTRY .                        : COUNTRY
SRVC .                        : SERVICE COMPANY
DATE .                        : DATE
UWI  .                        : UNIQUE WELL ID
API  .                        : API NUMBER
SLAT .WGS84 2.400688191902802 : SURFACE LATITUDE
SLON .WGS84 8.544721229597002 : SURFACE LONGITUDE
DATUM.F               3190.61 : DEPTH DATUM ELEV
~Curve Information -----------------------------------------
DEPT.F     : 
GRS .GAPI  : GAMMA RAY FROM SONIC LOG
DTCO.US/F  : COMPRESSIONAL-WAVE INTERVAL TRANSIT TIME ACAUSTIC SLOWNESS
DTSM.US/F  : SHEAR-WAVE INTERVAL TRANSIT TIME DELTA-T
TNPH.DEC   : THERMAL NEUTRON POROSITY
~Params ----------------------------------------------------
~Other -----------------------------------------------------
~ASCII -----------------------------------------------------
# ...
 3044.00000   16.69300   -9999.25  119.32220   -0.02380
 3044.50000   16.85230   -9999.25  119.47210   -0.02200
 3045.00000   15.95630   -9999.25  119.32040   -0.02080
 3045.50000   15.66110   -9999.25  118.71700   -0.02050
 3046.00000   15.21960   -9999.25  117.96310   -0.02110
 3046.50000   14.92440   -9999.25  117.51040   -0.02200
 3047.00000   14.78330   -9999.25  116.90700   -0.02300
 3047.50000   14.79630   -9999.25  116.60490   -0.02420
 3048.00000   14.80680   -9999.25  116.62630   -0.02450
 3048.50000   14.81720   -9999.25  117.65700   -0.02510
 3049.00000   14.37310   -9999.25  118.86090   -0.02570
 3049.50000   13.32290   -9999.25  120.36600   -0.02570
 3050.00000   11.96970   -9999.25  120.36510   -0.02540
 3050.50000   12.44600   -9999.25  119.91230   -0.02480
 3051.00000   13.67950   -9999.25  118.70660   -0.02360
 3051.50000   13.97980   -9999.25  117.65140   -0.02240
 3052.00000   13.84170   -9999.25  116.59630   -0.02150
 3052.50000   14.16160   -9999.25  116.14360   -0.02150
 3053.00000   14.62960   -9999.25  115.99200   -0.02180
 3053.50000   15.40060   -9999.25  115.84050   -0.02240
 3054.00000   16.02010   -9999.25  115.53840   -0.02130
 3054.50000   16.48470   -9999.25  115.23620   -0.01980
 3055.00000   14.98640   -9999.25  115.53650   -0.01860
 3055.50000   13.78780   -9999.25  116.74040   -0.01860
 3056.00000   13.49480   -9999.25  118.41930   -0.01860
 3056.50000   14.72380   -9999.25  120.25070   -0.01800
 3057.00000   14.43420   -9999.25  121.10510   -0.01710
 3057.50000   14.14130   -9999.25  120.35090   -0.01650
 3058.00000   14.76410   -9999.25  118.69340   -0.01650
 3058.50000   15.23210   -9999.25  117.33700   -0.01620
 3059.00000   14.94260   -9999.25  116.28190   -0.01560
 3059.50000   14.95610   -9999.25  115.82940   -0.01500
 3060.00000   15.13110   -9999.25  117.03300   -0.01440
 3060.50000   15.45610   -9999.25  118.08630   -0.01500
 3061.00000   14.79270   -9999.25  119.13960   -0.01530
 3061.50000   13.49810   -9999.25  119.59050   -0.01350
 3062.00000   12.75060   -9999.25  118.68590   -0.01290
 3062.50000   13.07040   -9999.25  117.78140   -0.01200
 3063.00000   13.99300   -9999.25  117.17800   -0.01110
 3063.50000   15.06700   -9999.25  116.72530   -0.00990
 3064.00000   15.68660   -9999.25  117.17620   -0.00780
 3064.50000   16.76060   -9999.25  118.38190   -0.00570
 3065.00000   17.07370   -9999.25  120.37390   -0.00180
 3065.50000   15.42390   -9999.25  122.66660    0.00330
 3066.00000   15.13100   -9999.25  123.94960    0.00780
 3066.50000   14.99630   -9999.25  123.79780    0.00900
 3067.00000   14.40370   -9999.25  122.44150    0.00550
 3067.50000   13.91580   -9999.25  120.63330    0.00230
 3068.00000   13.06920   -9999.25  119.27700   -0.00070
 3068.50000   12.77620   -9999.25  118.22180   -0.00410
 3069.00000   13.70220   -9999.25  117.61850   -0.00580
 3069.50000   14.32170   -9999.25  117.31640   -0.00890
 3070.00000   14.63820   -9999.25  117.31540   -0.01100
 3070.50000   14.49670   -9999.25  117.61570   -0.01220
 3071.00000   14.66510   -9999.25  118.81960   -0.01270
 3071.50000   14.83000   -9999.25  120.47530   -0.01300
 3072.00000   15.29800   -9999.25  121.67920   -0.01150
 3072.50000   14.55060   -9999.25  122.73250   -0.01150
 3073.00000   13.96130   -9999.25  123.18330   -0.01190
 3073.50000   13.36870   -9999.25  123.02910   -0.01250
 3074.00000   12.77610   -9999.25  122.26650   -0.01280
 3074.50000   12.18350   -9999.25  121.65460   -0.01130
 3075.00000   11.89390   -9999.25  121.37240   -0.01040
 3075.50000   12.21870   -9999.25  121.22060   -0.01070
 3076.00000   13.30110   -9999.25  120.91850   -0.01130
 3076.50000   14.25620   -9999.25  120.46580   -0.01220
 3077.00000   15.43600   -9999.25  120.16370   -0.01280
 3077.50000   13.63130   -9999.25  119.71090   -0.01130
 3078.00000   12.58410   -9999.25  119.10760   -0.01040
 3078.50000   11.99150   -9999.25  118.35360   -0.01010
 3079.00000   12.00500   -9999.25  117.75030   -0.01100
 3079.50000   12.01840   -9999.25  117.14690   -0.01160
 3080.00000   12.03190   -9999.25  116.69420   -0.01190
 3080.50000   12.19680   -9999.25  116.99450   -0.01160
 3081.00000   13.27090   -9999.25  117.59600   -0.01170
 3081.50000   14.49650   -9999.25  118.04690   -0.01200
 3082.00000   16.02510   -9999.25  118.49770   -0.01050
 3082.50000   17.09920   -9999.25  118.64740   -0.00960
 3083.00000   16.35500   -9999.25  118.64650   -0.00870
 3083.50000   15.76240   -9999.25  118.34430   -0.00750
 3084.00000   14.86680   -9999.25  118.04200   -0.00840
 3084.50000   13.96760   -9999.25  117.58920   -0.01170
 3085.00000   12.90390   -9999.25  117.43770   -0.01320
 3085.50000   12.01050   -9999.25  118.03920   -0.01470
 3086.00000   11.41000   -9999.25  119.09250   -0.01530
 3086.50000   11.14620   -9999.25  120.29640   -0.01620
 3087.00000   11.31450   -9999.25  121.04850   -0.01770
 3087.50000   12.23710   -9999.25  121.19840   -0.02020
 3088.00000   12.85660   -9999.25  121.19720   -0.02050
 3088.50000   12.87010   -9999.25  121.04570   -0.02080
 3089.00000   13.03500   -9999.25  120.74350   -0.02110
 3089.50000   13.20000   -9999.25  120.44140   -0.02140
 3090.00000   13.21350   -9999.25  120.13930   -0.02200
 3090.50000   12.62090   -9999.25  119.83710   -0.02260
 3091.00000   12.02490   -9999.25  119.53500   -0.02200
 3091.50000   12.34470   -9999.25  119.38350   -0.02050
 3092.00000   13.41880   -9999.25  119.38250   -0.02020
 3092.50000   14.49290   -9999.25  119.38160   -0.02050
 3093.00000   14.20330   -9999.25  119.53110   -0.02110
 3093.50000   13.76210   -9999.25  119.68100   -0.02260
 3094.00000   13.32110   -9999.25  119.98100   -0.02380
 3094.50000   13.95320   -9999.25  120.28130   -0.02410
 3095.00000   14.88370   -9999.25  120.28040   -0.02480
 3095.50000   15.63480   -9999.25  120.12880   -0.02270
 3096.00000   15.04500   -9999.25  119.82670   -0.02150
 3096.50000   13.84630   -9999.25  119.37400   -0.02030
 3097.00000   13.25370   -9999.25  119.07180   -0.01940
 3097.50000   13.11230   -9999.25  119.52270   -0.01750
 3098.00000   13.12910   -9999.25  120.27480   -0.01570
 3098.50000   13.28850   -9999.25  120.87630   -0.01540
 3099.00000   13.44100   -9999.25  121.17660   -0.01570
 3099.50000   12.83860   -9999.25  121.18400   -0.01690
 3100.00000   11.93380   -9999.25  120.87350   -0.01810
 3100.50000   11.33100   -9999.25  120.26150   -0.01900
 3101.00000   11.48360   -9999.25  119.66680   -0.01810
 3101.50000   11.78720   -9999.25  119.66580   -0.01620
 3102.00000   11.93970   -9999.25  120.71890   -0.01500
 3102.50000   11.48810   -9999.25  124.63370   -0.01440
 3103.00000   11.33810   -9999.25  179.45200   -0.01350
 3103.50000   11.79320   -9999.25  252.37220   -0.01290
 3104.00000   11.79470   -9999.25  320.89180   -0.01200
 3104.50000   10.88980   -9999.25  318.93620   -0.01070
 3105.00000   10.28710   -9999.25  317.88370   -0.00830
 3105.50000   10.43960   -9999.25  321.80210   -0.00470
 3106.00000   10.74320   -9999.25  324.06340   -0.00110
 3106.50000   11.50840   -9999.25  326.47530    0.00310
 3107.00000   13.03600   -9999.25  329.48950    0.00890
 3107.50000   14.71530   -9999.25  327.83510    0.01070
 3108.00000   16.06460   -9999.25  321.79650    0.01160
 3108.50000   15.58490   76.00130  318.05040    0.01130
 3109.00000   14.83110   76.54560  319.70930    0.00590
 3109.50000   14.53010   75.44250  310.67590   -0.00280
 3110.00000   15.43830   74.94480  303.90100   -0.01000
 3110.50000   18.15880   74.76320  299.23460   -0.01610
 3111.00000   22.84310   79.26890  296.07420   -0.01880
 3111.50000   29.03790   82.15210  294.11850   -0.02030
 3112.00000   35.68590   82.60160  295.17500   -0.02110
 3112.50000   43.39140   79.44380  298.64110   -0.02200
 3113.00000   59.55600   80.29860  302.55890   -0.02260
 3113.50000   77.08010   81.28850  307.07920   -0.02350
 3114.00000   99.28720   80.83600  311.14770   -0.02470
 3114.50000  159.56070   80.65390  314.01140   -0.02560
 3115.00000  199.59240   81.55370  314.91720   -0.02740
