~Version ---------------------------------------------------
VERS.   2.0 : CWLS log ASCII Standard -VERSION 2.0
WRAP.    NO : One line per depth step
DLM . SPACE : Column Data Section Delimiter
~Well ------------------------------------------------------
STRT .F                 184.0 : START DEPTH
STOP .F                9150.0 : STOP DEPTH
STEP .F                   0.5 : STEP
NULL .               -9999.25 : NULL VALUE
COMP .                        : COMPANY
WELL .                        : WELL
FLD  .                        : FIELD
LOC  .                        : LOCATION
PROV .                        : PROVINCE
CNTY .                        : COUNTY
STAT .                        : STATE
CTRY .                        : COUNTRY
SRVC .                        : SERVICE COMPANY
DATE .                        : DATE
UWI  .                        : UNIQUE WELL ID
API  .                        : API NUMBER
SLAT .WGS84 2.400688191902802 : SURFACE LATITUDE
SLON .WGS84 8.544721229597002 : SURFACE LONGITUDE
DATUM.F               3190.61 : DEPTH DATUM ELEV
~Curve Information -----------------------------------------
DEPT.F     : 
GRS .GAPI  : GAMMA RAY FROM SONIC LOG
DTCO.US/F  : COMPRESSIONAL-WAVE INTERVAL TRANSIT TIME ACAUSTIC SLOWNESS
DTSM.US/F  : SHEAR-WAVE INTERVAL TRANSIT TIME DELTA-T
TNPH.DEC   : THERMAL NEUTRON POROSITY
~Params ----------------------------------------------------
~Other -----------------------------------------------------
~ASCII -----------------------------------------------------
# ...
 4688.50000   54.41480   77.02720  143.49310    0.20120
 4689.00000   55.32130   76.93740  144.09310    0.20060
 4689.50000   55.79440   77.11840  144.99390    0.20090
 4690.00000   56.07870   77.47970  145.59390    0.20210
 4690.50000   56.83440   77.75390  146.34430    0.20580
 4691.00000   57.43920   77.89270  146.64360    0.20940
 4691.50000   57.74230   77.66160  146.79250    0.21380
 4692.00000   57.14010   77.12070  146.14070    0.21920
 4692.50000   56.23700   77.07590  144.83430    0.22460
 4693.00000   56.08720   77.79830  144.23130    0.22670
 4693.50000   55.63660   78.43030  143.92910    0.22820
 4694.00000   54.73310   78.38560  143.92760    0.22940
 4694.50000   54.28200   78.11540  144.37730    0.22580
 4695.00000   53.98190   77.75490  146.18030    0.21950
 4695.50000   54.73880   77.80050  148.73520    0.20810
 4696.00000   55.34240   78.02650  150.23750    0.20030
 4696.50000   54.37040   78.20740  149.18340    0.19960
 4697.00000   52.89420   77.98230  147.22700    0.20900
 4697.50000   52.33010   77.57670  145.57140    0.21470
 4698.00000   54.59440   77.48690  144.36090    0.22020
 4698.50000   56.70750   77.58370  143.61350    0.22380
 4699.00000   57.91560   77.44280  143.01020    0.22400
 4699.50000   56.86130   77.26270  142.10650    0.21740
 4700.00000   55.05280   77.35340  140.35970    0.21440
 4700.50000   55.22760   77.30230  137.37490    0.21650
 4701.00000   57.71870   77.12870  138.27330    0.21830
 4701.50000   59.82740   77.62550  142.40120    0.21800
 4702.00000   60.35560   77.94170  144.80570    0.21590
 4702.50000   57.64810   78.16770  147.51100    0.21230
 4703.00000   56.74910   78.34860  150.21630    0.20980
 4703.50000   56.60270   78.48440  152.92160    0.20690
 4704.00000   56.00680   78.39460  153.82280    0.21290
 4704.50000   54.65530   78.16950  152.46750    0.21770
 4705.00000   52.39880   77.94440  150.51120    0.22130
 4705.50000   51.19810   77.67420  149.00590    0.22370
 4706.00000   51.35490   77.26860  147.65110    0.22400
 4706.50000   53.77410   76.72770  146.44660    0.22160
 4707.00000   56.49500   76.77320  145.39250    0.21710
 4707.50000   57.85840   76.91800  144.48870    0.20750
 4708.00000   58.46760   77.18020  143.57480    0.19820
 4708.50000   59.07990   76.63930  142.96220    0.19070
 4709.00000   60.01190   75.96310  142.37870    0.19820
 4709.50000   61.09290   75.60260  142.07640    0.20660
 4710.00000   62.41450   75.46770  141.77420    0.21600
 4710.50000   62.11870   75.33270  141.17120    0.21410
 4711.00000   60.61640   75.28810  140.26750    0.20180
 4711.50000   59.11400   75.33370  139.21340    0.19190
 4712.00000   60.02500   74.97330  137.55770    0.18440
 4712.50000   63.04750   74.43240  135.45100    0.18140
 4713.00000   65.16510   73.44030  133.04350    0.18050
 4713.50000   66.83010   72.44830  130.48560    0.17330
 4714.00000   70.00350   71.53710  127.92780    0.16160
 4714.50000   72.87520   70.99410  126.12180    0.15410
 4715.00000   73.63530   70.87070  124.76690    0.15290
 4715.50000   71.37880   71.95390  124.16390    0.16190
 4716.00000   67.01070   73.48820  124.63380    0.17120
 4716.50000   61.43590   75.06760  126.71700    0.17870
 4717.00000   56.76620   75.92520  129.12150    0.17990
 4717.50000   56.30480   76.01570  135.28550    0.18430
 4718.00000   55.52380   75.52000  137.99080    0.19310
 4718.50000   54.07050   76.01670  140.24490    0.20090
 4719.00000   54.52900   77.32540  142.04800    0.20180
 4719.50000   56.49570   77.64170  143.24950    0.20240
 4720.00000   58.31160   77.59700  144.15030    0.20370
 4720.50000   59.22250   77.32660  145.35180    0.20450
 4721.00000   59.37930   77.09810  146.40290    0.20240
 4721.50000   60.13940   77.01190  147.00300    0.19310
 4722.00000   61.50280   77.19290  146.09920    0.18330
 4722.50000   62.86620   77.32870  145.04510    0.17420
 4723.00000   63.92800   77.01330  143.52070    0.17030
 4723.50000   63.02890   76.65280  142.59570    0.17780
 4724.00000   61.52660   76.56300  141.58160    0.18530
 4724.50000   57.61100   77.15000  140.22680    0.18800
 4725.00000   56.56110   77.55640  137.96970    0.18740
 4725.50000   56.71790   77.51170  138.41930    0.18860
 4726.00000   57.04360   77.91820  140.97420    0.19190
 4726.50000   57.83970   78.55020  142.47650    0.19310
 4727.00000   58.84880   79.18230  143.37730    0.19130
 4727.50000   59.75970   79.27290  144.42850    0.18710
 4728.00000   59.91650   78.76780  144.72810    0.18350
 4728.50000   59.16830   78.78580  143.67360    0.18260
 4729.00000   56.30850   78.10140  142.61950    0.18920
 4729.50000   55.56030   77.15450  141.41500    0.19860
 4730.00000   55.86790   76.25270  140.66170    0.20330
 4730.50000   57.68380   75.66670  140.50980    0.20090
 4731.00000   57.53890   75.17090  140.82880    0.19490
 4731.50000   56.79070   74.94580  143.21320    0.19040
 4732.00000   56.94740   74.81070  146.21930    0.19190
 4732.50000   57.55670   74.85640  149.37570    0.19880
 4733.00000   58.46760   75.35310  151.62990    0.20300
 4733.50000   59.68620   75.40660  149.22240    0.19570
 4734.00000   60.77800   74.85770  145.46150    0.18880
 4734.50000   62.44930   74.81310  143.80590    0.18910
 4735.00000   64.67690   75.84880  143.05250    0.20000
 4735.50000   64.83220   77.70130  142.59990    0.20570
 4736.00000   61.21970   78.37840  142.29770    0.19490
 4736.50000   59.56650   76.98040  142.29620    0.18200
 4737.00000   58.66750   75.71770  142.14430    0.17930
 4737.50000   59.12590   74.59030  141.69170    0.18500
 4738.00000   62.29930   73.59820  140.92820    0.19040
 4738.50000   65.32180   72.83180  139.84360    0.18920
 4739.00000   67.89190   72.65160  137.77710    0.18080
 4739.50000   68.34880   72.60700  136.27190    0.17420
 4740.00000   66.69710   71.75040  134.61630    0.16880
 4740.50000   64.89310   70.66810  132.96070    0.16880
 4741.00000   65.50240   69.76350  131.30510    0.17090
 4741.50000   66.71500   68.93890  129.34870    0.16960
 4742.00000   67.17350   68.25650  127.39230    0.16670
 4742.50000   67.52600   67.69260  125.58630    0.16550
 4743.00000   69.39490   68.18920  124.53220    0.16460
 4743.50000   72.17010   70.12950  124.23000    0.16460
 4744.00000   73.98600   72.16010  124.52930    0.16580
 4744.50000   75.04770   74.28080  125.73080    0.16880
 4745.00000   75.35390   75.50150  127.68420    0.17180
 4745.50000   71.59050   76.65680  131.19890    0.17510
 4746.00000   64.35670   77.48510  135.49180    0.17870
 4746.50000   58.93280   77.71120  142.26590    0.18380
 4747.00000   55.46960   77.98230  146.17420    0.18950
 4747.50000   53.06230   78.25340  148.57870    0.19670
 4748.00000   52.16320   78.52630  150.68250    0.20460
 4748.50000   51.99120   78.66550  151.73360    0.20870
 4749.00000   53.08010   78.79620  152.33370    0.20780
 4749.50000   53.99100   79.02210  152.48290    0.20270
 4750.00000   56.25940   78.43610  152.42410    0.19690
 4750.50000   57.32010   77.88750  152.07440    0.19610
 4751.00000   56.41950   77.12970  151.57890    0.20390
 4751.50000   55.36820   76.49910  149.77440    0.21050
 4752.00000   56.27760   76.27420  146.16540    0.21350
 4752.50000   59.00420   76.22990  142.08740    0.21260
 4753.00000   61.00180   76.27620  139.20860    0.20250
 4753.50000   62.32410   76.41240  138.34590    0.19410
 4754.00000   56.29650   77.54110  141.35340    0.18980
 4754.50000   51.62520   79.21120  145.86470    0.19280
 4755.00000   46.35060   80.52030  155.03760    0.20630
 4755.50000   41.07600   81.60390  158.79700    0.22700
 4756.00000   40.17440   82.37670  166.01500    0.23600
 4756.50000   41.68830   82.46280  168.57140    0.24200
 4757.00000   42.44680   81.65750  166.31580    0.24050
 4757.50000   41.99770   80.57010  161.65410    0.23420
 4758.00000   45.01980   80.11990  155.18800    0.22610
 4758.50000   47.58840   80.03030  151.87970    0.21800
 4759.00000   49.70450   80.43740  150.82710    0.20720
 4759.50000   48.95480   80.84430  154.28570    0.19880
