~Version ---------------------------------------------------
VERS.   2.0 : CWLS log ASCII Standard -VERSION 2.0
WRAP.    NO : One line per depth step
DLM . SPACE : Column Data Section Delimiter
~Well ------------------------------------------------------
STRT .F                 184.0 : START DEPTH
STOP .F                9150.0 : STOP DEPTH
STEP .F                   0.5 : STEP
NULL .               -9999.25 : NULL VALUE
COMP .                        : COMPANY
WELL .                        : WELL
FLD  .                        : FIELD
LOC  .                        : LOCATION
PROV .                        : PROVINCE
CNTY .                        : COUNTY
STAT .                        : STATE
CTRY .                        : COUNTRY
SRVC .                        : SERVICE COMPANY
DATE .                        : DATE
UWI  .                        : UNIQUE WELL ID
API  .                        : API NUMBER
SLAT .WGS84 2.400688191902802 : SURFACE LATITUDE
SLON .WGS84 8.544721229597002 : SURFACE LONGITUDE
DATUM.F               3190.61 : DEPTH DATUM ELEV
~Curve Information -----------------------------------------
DEPT.F     : 
GRS .GAPI  : GAMMA RAY FROM SONIC LOG
DTCO.US/F  : COMPRESSIONAL-WAVE INTERVAL TRANSIT TIME ACAUSTIC SLOWNESS
DTSM.US/F  : SHEAR-WAVE INTERVAL TRANSIT TIME DELTA-T
TNPH.DEC   : THERMAL NEUTRON POROSITY
~Params ----------------------------------------------------
~Other -----------------------------------------------------
~ASCII -----------------------------------------------------
# ...
 9050.00000   68.76660  109.73360  225.21970    0.11820
 9050.50000   64.45430  109.95340  224.79580    0.11730
 9051.00000   63.09720  111.13890  229.15550    0.11430
 9051.50000   67.49190  112.04710  231.70940    0.11120
 9052.00000   69.01070  112.18090  232.47410    0.11120
 9052.50000   69.62180  111.72660  230.19560    0.11270
 9053.00000   69.46930  111.13750  229.13650    0.11240
 9053.50000   68.72600  110.90950  228.82260    0.10930
 9054.00000   69.13960  110.99820  228.67720    0.10630
 9054.50000   73.42930  110.54390  228.97390    0.10750
 9055.00000   77.97380  109.50330  229.72070    0.11350
 9055.50000   79.64240  107.78550  230.61920    0.11590
 9056.00000   70.87530  106.11280  231.51770    0.09270
 9056.50000   56.66040  104.80130  231.81540    0.07710
 9057.00000   48.04300  103.89330  230.90680    0.06350
 9057.50000   43.35910  103.34430  230.45200    0.05480
 9058.00000   42.45590  102.98270  231.50100    0.04990
 9058.50000   43.97620  102.98660  230.89350    0.05140
 9059.00000   44.13190  102.84830  229.38410    0.05410
 9059.50000   38.99570  102.62040  228.32630    0.05200
 9060.00000   36.10770  104.33370  227.87150    0.04750
 9060.50000   39.46140  106.13740  229.52130    0.04390
 9061.00000   44.71600  107.76040  230.41980    0.04320
 9061.50000   53.42810  108.88680  230.26480    0.06360
 9062.00000   70.51340  109.87780  230.25680    0.08570
 9062.50000   73.67740  111.18490  229.95480    0.09920
 9063.00000   76.40650  112.58220  229.62800    0.10580
 9063.50000   82.61510  113.93440  229.04200    0.11270
 9064.00000   89.42900  114.78990  228.43560    0.12260
 9064.50000   92.46070  114.96830  228.28180    0.14430
 9065.00000   91.71020  114.78550  229.02860    0.14820
 9065.50000   85.05960  113.65460  228.42220    0.13790
 9066.00000   75.38320  112.43340  226.61190    0.11710
 9066.50000   64.64790  111.16700  225.25310    0.09780
 9067.00000   63.33680  112.30340  226.15150    0.08970
 9067.50000   68.59320  113.25000  228.10350    0.08750
 9068.00000   72.53260  113.68860  229.45340    0.10290
 9068.50000   74.20510  111.06420  229.60050    0.12280
 9069.00000   73.97100  107.49840  230.64840    0.12760
 9069.50000   68.00610  104.96800  233.20230    0.11940
 9070.00000   55.61390  102.79870  234.25120    0.08810
 9070.50000   45.18110  100.94550  234.09630    0.06670
 9071.00000   38.68180   99.36330  234.39990    0.05560
 9071.50000   36.26570   99.01220  234.53890    0.04890
 9072.00000   37.18080  100.39700  234.38370    0.04770
 9072.50000   36.43040  100.57590  233.77640    0.04650
 9073.00000   34.77220  100.88920  233.01950    0.04530
 9073.50000   34.47410  101.51900  231.81110    0.04410
 9074.00000   35.84310  101.65280  230.30180    0.04340
 9074.50000   38.42090  100.97330  229.09340    0.04370
 9075.00000   40.09100  101.28660  228.03560    0.04460
 9075.50000   40.29490  101.01350  226.97770    0.04490
 9076.00000   38.13620  100.95010  226.67340    0.04460
 9076.50000   37.53700  101.91190  227.26970    0.04310
 9077.00000   38.02340  102.40770  227.71680    0.04220
 9077.50000   40.75740  102.68210  227.71230    0.04630
 9078.00000   44.81810  103.09710  227.25640    0.05420
 9078.50000   46.63950  103.83180  226.65000    0.05960
 9079.00000   46.94650  104.60910  228.60190    0.06020
 9079.50000   46.34740  104.83260  229.95300    0.05860
 9080.00000   49.68310  104.64970  229.30690    0.05920
 9080.50000   52.71480  104.91840  226.86080    0.06610
 9081.00000   55.14130  105.14190  226.02580    0.07270
 9081.50000   58.77810  105.23000  227.22410    0.07690
 9082.00000   61.96110  105.36320  226.46720    0.08170
 9082.50000   63.63120  106.03810  225.55980    0.08590
 9083.00000   62.88070  106.84850  224.95340    0.08860
 9083.50000   62.13020  108.24590  225.70140    0.09220
 9084.00000   62.13620  109.73350  228.85720    0.09730
 9084.50000   62.29950  110.63420  229.60530    0.09910
 9085.00000   62.48210  111.26400  229.14930    0.10000
 9085.50000   64.09480  111.80350  227.64000    0.09770
 9086.00000   67.30520  112.02710  225.82970    0.09450
 9086.50000   69.58050  112.16030  224.32030    0.09480
 9087.00000   70.79670  112.24830  222.81100    0.09600
 9087.50000   70.34880  112.34000  225.36480    0.09600
 9088.00000   69.59840  112.47560  228.52060    0.09630
 9088.50000   69.60430  112.70120  229.26870    0.09720
 9089.00000   70.36670  113.27720  228.66220    0.09900
 9089.50000   71.28040  113.81670  228.67910    0.10110
 9090.00000   71.74020  114.22080  229.10480    0.10320
 9090.50000   71.74610  114.35410  228.64780    0.10560
 9091.00000   70.99570  114.26150  228.34240    0.10790
 9091.50000   69.48880  113.71750  228.64000    0.10880
 9092.00000   67.83060  112.85750  229.23640    0.10910
 9092.50000   65.55290  111.45570  230.28540    0.10540
 9093.00000   64.04370  109.69280  232.08680    0.10080
 9093.50000   64.11940  108.29100  234.94160    0.09630
 9094.00000   64.67890  106.75380  236.44200    0.09400
 9094.50000   63.02070  105.84860  237.19000    0.09520
 9095.00000   60.45480  105.21440  236.88460    0.09370
 9095.50000   58.04020  105.10590  235.52580    0.09100
 9096.00000   57.28970  106.56430  234.16690    0.08850
 9096.50000   57.74950  108.05190  233.39360    0.08640
 9097.00000   60.02480  110.23680  232.59700    0.08430
 9097.50000   65.62830  112.85280  231.80040    0.08370
 9098.00000   73.34980  116.04330  231.00370    0.09570
 9098.50000   80.01240  119.07550  230.07850    0.11610
 9099.00000   85.91850  122.03570  229.47280    0.14410
 9099.50000   87.73990  124.06510  228.71670    0.16760
 9100.00000   87.89710  124.59500  228.11110    0.16940
 9100.50000   89.17110  124.73920  227.65680    0.16910
 9101.00000   91.74900  123.51860  228.70560    0.16690
 9101.50000   93.51410  122.25310  228.71880    0.16250
 9102.00000   93.82110  119.76870  228.24680    0.15370
 9102.50000   87.77710  117.01340  227.78560    0.13740
 9103.00000   81.73160  114.21300  227.31840    0.11730
 9103.50000   70.51010  111.77370  226.57940    0.10370
 9104.00000   66.72940  110.59860  226.12420    0.09380
 9104.50000   66.27670  109.87490  227.02350    0.08840
 9105.00000   67.18630  110.32500  228.52470    0.09080
 9105.50000   69.15450  112.08440  228.97340    0.09920
 9106.00000   71.57660  114.61980  228.21630    0.10520
 9106.50000   75.96530  117.00870  227.15920    0.11090
 9107.00000   81.11060  119.79550  226.70500    0.11900
 9107.50000   85.19680  121.05930  227.00220    0.12840
 9108.00000   87.77010  121.42310  226.84710    0.14070
 9108.50000   91.09990  119.07380  226.54250    0.14940
 9109.00000   94.58100  116.99570  226.08730    0.15030
 9109.50000   95.82610  115.23370  225.91990    0.13960
 9110.00000   90.65060  113.56190  225.62830    0.12770
 9110.50000   79.15430  112.61250  225.32280    0.11950
 9111.00000   70.35600  111.97910  225.16870    0.11270
 9111.50000   69.77760  112.15830  226.36890    0.11450
 9112.00000   71.96920  112.42790  229.37500    0.12020
 9112.50000   73.26020  112.20080  232.08010    0.12080
 9113.00000   73.26200  110.79990  232.52880    0.11740
 9113.50000   72.96090  109.12820  230.56780    0.11440
 9114.00000   71.60090  107.72730  228.45730    0.10870
 9114.50000   68.42540  107.22930  232.96820    0.10090
 9115.00000   66.46010  107.96470  238.53270    0.09460
 9115.50000   66.15870  109.34670  239.43190    0.09120
 9116.00000   71.30430  111.39810  237.66680    0.09880
 9116.50000   78.87010  114.35680  230.65150    0.12070
 9117.00000   86.88970  116.07110  224.52150    0.14300
 9117.50000   91.27850  117.19840  221.05650    0.17010
 9118.00000   92.03640  117.37800  222.40720    0.17820
 9118.50000   88.40710  116.74430  234.44270    0.16970
 9119.00000   82.35710  115.97540  245.72770    0.15560
 9119.50000   73.58400  115.47750  246.77610    0.14750
 9120.00000   68.44180  115.11500  247.52360    0.14360
 9120.50000   68.89720  115.02340  247.97140    0.14440
 9121.00000   69.95760  115.02200  248.56710    0.14230
