~Version ---------------------------------------------------
VERS.   2.0 : CWLS log ASCII Standard -VERSION 2.0
WRAP.    NO : One line per depth step
DLM . SPACE : Column Data Section Delimiter
~Well ------------------------------------------------------
STRT .F                 184.0 : START DEPTH
STOP .F                9150.0 : STOP DEPTH
STEP .F                   0.5 : STEP
NULL .               -9999.25 : NULL VALUE
COMP .                        : COMPANY
WELL .                        : WELL
FLD  .                        : FIELD
LOC  .                        : LOCATION
PROV .                        : PROVINCE
CNTY .                        : COUNTY
STAT .                        : STATE
CTRY .                        : COUNTRY
SRVC .                        : SERVICE COMPANY
DATE .                        : DATE
UWI  .                        : UNIQUE WELL ID
API  .                        : API NUMBER
SLAT .WGS84 2.400688191902802 : SURFACE LATITUDE
SLON .WGS84 8.544721229597002 : SURFACE LONGITUDE
DATUM.F               3190.61 : DEPTH DATUM ELEV
~Curve Information -----------------------------------------
DEPT.F     : 
GRS .GAPI  : GAMMA RAY FROM SONIC LOG
DTCO.US/F  : COMPRESSIONAL-WAVE INTERVAL TRANSIT TIME ACAUSTIC SLOWNESS
DTSM.US/F  : SHEAR-WAVE INTERVAL TRANSIT TIME DELTA-T
TNPH.DEC   : THERMAL NEUTRON POROSITY
~Params ----------------------------------------------------
~Other -----------------------------------------------------
~ASCII -----------------------------------------------------
# ...
  613.00000   19.75050   -9999.25   -9999.25    0.69980
  613.50000   20.52150   -9999.25   -9999.25    0.69980
  614.00000   20.23190   -9999.25   -9999.25    0.69990
  614.50000   18.12410   -9999.25   -9999.25    0.69990
  615.00000   16.77380   -9999.25   -9999.25    0.69990
  615.50000   16.93880   -9999.25   -9999.25    0.69990
  616.00000   18.61890   -9999.25   -9999.25    0.69990
  616.50000   20.60200   -9999.25   -9999.25    0.67880
  617.00000   24.55480   -9999.25   -9999.25    0.57560
  617.50000   27.29550   -9999.25   -9999.25    0.53130
  618.00000   30.82440   -9999.25   -9999.25    0.57190
  618.50000   31.71670   -9999.25   -9999.25    0.68720
  619.00000   30.06630   -9999.25   -9999.25    0.70000
  619.50000   26.29190   -9999.25   -9999.25    0.70000
  620.00000   24.03250   -9999.25   -9999.25    0.70000
  620.50000   23.13350   -9999.25   -9999.25    0.70000
  621.00000   24.36240   -9999.25   -9999.25    0.70000
  621.50000   25.43640   -9999.25   -9999.25    0.70000
  622.00000   24.84380   -9999.25   -9999.25    0.70000
  622.50000   22.88750   -9999.25   -9999.25    0.70000
  623.00000   20.77970   -9999.25   -9999.25    0.69990
  623.50000   19.88060   -9999.25   -9999.25    0.69570
  624.00000   21.56410   -9999.25   -9999.25    0.69990
  624.50000   22.48660   -9999.25   -9999.25    0.69960
  625.00000   22.65150   -9999.25   -9999.25    0.69940
  625.50000   21.73590   -9999.25   -9999.25    0.63150
  626.00000   20.86020   -9999.25   -9999.25    0.53850
  626.50000   21.33150   -9999.25   -9999.25    0.58060
  627.00000   21.79940   -9999.25   -9999.25    0.66940
  627.50000   21.35830   -9999.25   -9999.25    0.69970
  628.00000   20.61410   -9999.25   -9999.25    0.69970
  628.50000   20.02150   -9999.25   -9999.25    0.69970
  629.00000   18.97430   -9999.25   -9999.25    0.69460
  629.50000   17.47260   -9999.25   -9999.25    0.64920
  630.00000   15.97080   -9999.25   -9999.25    0.70000
  630.50000   15.82940   -9999.25   -9999.25    0.69950
  631.00000   16.60370   -9999.25   -9999.25    0.69950
  631.50000   17.82920   -9999.25   -9999.25    0.69940
  632.00000   18.44870   -9999.25   -9999.25    0.69920
  632.50000   18.46210   -9999.25   -9999.25    0.68570
  633.00000   18.48580   -9999.25   -9999.25    0.69910
  633.50000   19.11570   -9999.25   -9999.25    0.69930
  634.00000   20.32390   -9999.25   -9999.25    0.69950
  634.50000   20.94340   -9999.25   -9999.25    0.69970
  635.00000   21.56280   -9999.25   -9999.25    0.65220
  635.50000   22.18230   -9999.25   -9999.25    0.62120
  636.00000   24.46850   -9999.25   -9999.25    0.51310
  636.50000   30.54250   -9999.25   -9999.25    0.46250
  637.00000   34.49530   -9999.25   -9999.25    0.43030
  637.50000   36.32690   -9999.25   -9999.25    0.44620
  638.00000   37.85540   -9999.25   -9999.25    0.51960
  638.50000   38.62640   -9999.25   -9999.25    0.56930
  639.00000   39.09440   -9999.25   -9999.25    0.58980
  639.50000   39.41080   -9999.25   -9999.25    0.51960
  640.00000   38.66670   -9999.25   -9999.25    0.41510
  640.50000   38.21560   -9999.25   -9999.25    0.42090
  641.00000   37.91610   -9999.25   -9999.25    0.43080
  641.50000   37.64630   -9999.25   -9999.25    0.43190
  642.00000   37.66310   -9999.25   -9999.25    0.41740
  642.50000   37.52500   -9999.25   -9999.25    0.40900
  643.00000   33.29600   -9999.25   -9999.25    0.40770
  643.50000   30.73360   -9999.25   -9999.25    0.42100
  644.00000   30.13760   -9999.25   -9999.25    0.45190
  644.50000   31.66950   -9999.25   -9999.25    0.49440
  645.00000   33.34960   -9999.25   -9999.25    0.50430
  645.50000   34.72670   -9999.25   -9999.25    0.48830
  646.00000   35.34610   -9999.25   -9999.25    0.49550
  646.50000   35.66260   -9999.25   -9999.25    0.50270
  647.00000   35.37300   -9999.25   -9999.25    0.47200
  647.50000   34.62880   -9999.25   -9999.25    0.43130
  648.00000   34.03610   -9999.25   -9999.25    0.44430
  648.50000   35.94880   -9999.25   -9999.25    0.49210
  649.00000   38.75760   -9999.25   -9999.25    0.50740
  649.50000   36.80440   -9999.25   -9999.25    0.45200
  650.00000   35.45730   -9999.25   -9999.25    0.37340
  650.50000   35.47380   -9999.25   -9999.25    0.36140
  651.00000   35.64180   -9999.25   -9999.25    0.37580
  651.50000   36.26430   -9999.25   -9999.25    0.38960
  652.00000   36.88690   -9999.25   -9999.25    0.41040
  652.50000   37.66090   -9999.25   -9999.25    0.42300
  653.00000   37.37440   -9999.25   -9999.25    0.44230
  653.50000   36.17880   -9999.25   -9999.25    0.45430
  654.00000   35.13470   -9999.25   -9999.25    0.48070
  654.50000   35.45420   -9999.25   -9999.25    0.50580
  655.00000   37.13730   -9999.25   -9999.25    0.51660
  655.50000   38.97200   -9999.25   -9999.25    0.52810
  656.00000   40.65520   -9999.25   -9999.25    0.55140
  656.50000   38.39890   -9999.25   -9999.25    0.62270
  657.00000   36.44570   -9999.25   -9999.25    0.69160
  657.50000   36.46220   -9999.25   -9999.25    0.69760
  658.00000   35.56570   -9999.25   -9999.25    0.65670
  658.50000   35.28300   -9999.25   -9999.25    0.57660
  659.00000   36.58090   -9999.25   -9999.25    0.50160
  659.50000   38.69750   -9999.25   -9999.25    0.44530
  660.00000   39.42340   -9999.25   -9999.25    0.41070
  660.50000   35.95920   -9999.25   -9999.25    0.40850
  661.00000   34.60790   -9999.25   -9999.25    0.46290
  661.50000   35.84060   -9999.25   -9999.25    0.52740
  662.00000   37.22080   -9999.25   -9999.25    0.55720
  662.50000   39.05540   -9999.25   -9999.25    0.52980
  663.00000   39.82540   -9999.25   -9999.25    0.48070
  663.50000   37.42170   -9999.25   -9999.25    0.44220
  664.00000   35.31700   -9999.25   -9999.25    0.41480
  664.50000   34.42030   -9999.25   -9999.25    0.44700
  665.00000   34.44090   -9999.25   -9999.25    0.47190
  665.50000   33.85130   -9999.25   -9999.25    0.47940
  666.00000   32.65570   -9999.25   -9999.25    0.47370
  666.50000   32.36500   -9999.25   -9999.25    0.44900
  667.00000   33.14320   -9999.25   -9999.25    0.42340
  667.50000   34.52330   -9999.25   -9999.25    0.43020
  668.00000   36.35800   -9999.25   -9999.25    0.47210
  668.50000   38.49570   -9999.25   -9999.25    0.58180
  669.00000   37.60310   -9999.25   -9999.25    0.67370
  669.50000   34.12080   -9999.25   -9999.25    0.64750
  670.00000   30.78790   -9999.25   -9999.25    0.49910
  670.50000   31.50760   -9999.25   -9999.25    0.54430
  671.00000   34.53440   -9999.25   -9999.25    0.60530
  671.50000   36.47760   -9999.25   -9999.25    0.68000
  672.00000   36.94450   -9999.25   -9999.25    0.69890
  672.50000   36.35490   -9999.25   -9999.25    0.67600
  673.00000   38.64820   -9999.25   -9999.25    0.69800
  673.50000   42.60410   -9999.25   -9999.25    0.69950
  674.00000   44.28730   -9999.25   -9999.25    0.69940
  674.50000   42.48560   -9999.25   -9999.25    0.69900
  675.00000   39.32020   -9999.25   -9999.25    0.65390
  675.50000   36.91250   -9999.25   -9999.25    0.53780
  676.00000   36.16730   -9999.25   -9999.25    0.53020
  676.50000   37.09700   -9999.25   -9999.25    0.53530
  677.00000   37.71950   -9999.25   -9999.25    0.53500
  677.50000   38.34210   -9999.25   -9999.25    0.52800
  678.00000   39.26770   -9999.25   -9999.25    0.50210
  678.50000   39.88610   -9999.25   -9999.25    0.46060
  679.00000   37.78550   -9999.25   -9999.25    0.40790
  679.50000   35.52920   -9999.25   -9999.25    0.43410
  680.00000   33.57600   -9999.25   -9999.25    0.47110
  680.50000   34.35010   -9999.25   -9999.25    0.51350
  681.00000   37.25770   -9999.25   -9999.25    0.63800
  681.50000   39.72500   -9999.25   -9999.25    0.69990
  682.00000   40.91470   -9999.25   -9999.25    0.70000
  682.50000   38.87120   -9999.25   -9999.25    0.64710
  683.00000   35.04270   -9999.25   -9999.25    0.52180
  683.50000   34.75210   -9999.25   -9999.25    0.46130
  684.00000   35.68180   -9999.25   -9999.25    0.40590
