~Version ---------------------------------------------------
VERS.   2.0 : CWLS log ASCII Standard -VERSION 2.0
WRAP.    NO : One line per depth step
DLM . SPACE : Column Data Section Delimiter
~Well ------------------------------------------------------
STRT .F                 184.0 : START DEPTH
STOP .F                9150.0 : STOP DEPTH
STEP .F                   0.5 : STEP
NULL .               -9999.25 : NULL VALUE
COMP .                        : COMPANY
WELL .                        : WELL
FLD  .                        : FIELD
LOC  .                        : LOCATION
PROV .                        : PROVINCE
CNTY .                        : COUNTY
STAT .                        : STATE
CTRY .                        : COUNTRY
SRVC .                        : SERVICE COMPANY
DATE .                        : DATE
UWI  .                        : UNIQUE WELL ID
API  .                        : API NUMBER
SLAT .WGS84 2.400688191902802 : SURFACE LATITUDE
SLON .WGS84 8.544721229597002 : SURFACE LONGITUDE
DATUM.F               3190.61 : DEPTH DATUM ELEV
~Curve Information -----------------------------------------
DEPT.F     : 
GRS .GAPI  : GAMMA RAY FROM SONIC LOG
DTCO.US/F  : COMPRESSIONAL-WAVE INTERVAL TRANSIT TIME ACAUSTIC SLOWNESS
DTSM.US/F  : SHEAR-WAVE INTERVAL TRANSIT TIME DELTA-T
TNPH.DEC   : THERMAL NEUTRON POROSITY
~Params ----------------------------------------------------
~Other -----------------------------------------------------
~ASCII -----------------------------------------------------
# ...
 4188.00000   54.94440   76.61000  146.08680    0.19650
 4188.50000   60.07710   75.05360  141.43060    0.18620
 4189.00000   68.07550   72.86750  136.06740    0.17710
 4189.50000   76.97890   72.64260  131.04030    0.16900
 4190.00000   80.60330   74.08730  129.68470    0.16310
 4190.50000   77.90780   76.65970  135.69600    0.16940
 4191.00000   63.77310   79.45750  142.15920    0.19280
 4191.50000   54.26640   81.80430  148.47200    0.21660
 4192.00000   43.81990   83.83530  154.56400    0.24150
 4192.50000   42.46580   84.55800  162.90170    0.25230
 4193.00000   43.67800   84.87460  171.01900    0.25650
 4193.50000   44.43660   84.92060  174.77550    0.24870
 4194.00000   43.98860   84.47040  175.07400    0.24150
 4194.50000   42.03230   84.60660  174.76950    0.23610
 4195.00000   40.22680   84.83310  174.46580    0.23490
 4195.50000   42.79540   84.92420  173.71090    0.23700
 4196.00000   46.26890   84.92510  173.55760    0.23820
 4196.50000   48.38500   84.74310  174.30730    0.23660
 4197.00000   49.29330   84.28570  171.59680    0.23480
 4197.50000   46.28230   83.78400  169.03740    0.23520
 4198.00000   44.62770   83.39490  166.02690    0.23770
 4198.50000   44.78300   83.66660  163.01640    0.24450
 4199.00000   44.80220   83.53220  160.45710    0.24660
 4199.50000   44.03780   83.57820  158.95030    0.24620
 4200.00000   42.83560   84.00460  158.04510    0.24560
 4200.50000   42.40660   84.24550  158.23320    0.24960
 4201.00000   41.79260   84.57140  160.57690    0.24510
 4201.50000   41.49680   84.93230  164.21050    0.24330
 4202.00000   41.65360   85.29580  166.61650    0.24270
 4202.50000   41.95970   85.57760  168.42110    0.24630
 4203.00000   41.21290   85.74440  170.22560    0.24960
 4203.50000   40.76630   85.38350  170.67670    0.25110
 4204.00000   41.08840   85.02260  170.82710    0.24480
 4204.50000   43.07440   84.93230  169.92480    0.23760
 4205.00000   43.65130   84.93230  169.62410    0.23340
 4205.50000   42.75220   84.93230  170.07520    0.23850
 4206.00000   41.55150   84.88720  170.07520    0.24250
 4206.50000   40.65240   84.48120  168.85960    0.24120
 4207.00000   40.05500   83.57170  168.42110    0.23490
 4207.50000   39.75770   82.18230  167.06770    0.22140
 4208.00000   39.46200   80.28570  163.45860    0.21030
 4208.50000   40.97770   78.61650  156.68700    0.19760
 4209.00000   42.79350   77.17290  152.19830    0.19580
 4209.50000   45.21270   76.27070  147.70960    0.19410
 4210.00000   47.67060   75.50380  142.85710    0.19080
 4210.50000   49.79530   75.09770  140.90230    0.18960
 4211.00000   50.05840   74.82710  139.54890    0.18680
 4211.50000   50.81850   74.64660  138.34590    0.18210
 4212.00000   51.88020   74.46620  137.29320    0.19080
 4212.50000   52.33860   74.56360  136.36580    0.19470
 4213.00000   52.04140   74.93350  135.61390    0.19620
 4213.50000   52.04870   75.09770  135.33830    0.19110
 4214.00000   52.35630   75.14290  135.78950    0.18870
 4214.50000   52.51310   75.81950  136.99250    0.18750
 4215.00000   51.91560   76.67670  139.54890    0.19080
 4215.50000   50.74420   77.48870  142.25560    0.19110
 4216.00000   49.81680   77.80450  144.36090    0.18900
 4216.50000   50.72770   78.07520  145.56390    0.19000
 4217.00000   52.69440   78.21050  146.16540    0.19140
 4217.50000   53.90690   78.25560  146.46620    0.18840
 4218.00000   52.55540   78.06870  146.76690    0.18960
 4218.50000   50.75130   77.93980  146.76690    0.19590
 4219.00000   49.55060   78.34590  146.61650    0.19800
 4219.50000   48.64490   78.61650  146.61650    0.19650
 4220.00000   48.89020   78.75190  146.31580    0.19530
 4220.50000   50.92720   78.43610  146.16540    0.20370
 4221.00000   52.29060   78.03010  146.31580    0.20670
 4221.50000   52.74900   77.62410  148.12030    0.20070
 4222.00000   52.45330   77.17290  151.12780    0.19150
 4222.50000   50.80000   77.08270  153.98500    0.18750
 4223.00000   48.99600   76.97730  156.09020    0.19080
 4223.50000   47.34280   75.90980  156.99250    0.19170
 4224.00000   45.38790   74.99260  155.93980    0.18960
 4224.50000   44.92800   74.18380  150.72640    0.18360
 4225.00000   46.00300   73.29320  145.96410    0.17340
 4225.50000   47.07750   72.61650  141.05260    0.16140
 4226.00000   47.22170   72.16540  137.44360    0.14880
 4226.50000   47.68130   71.71430  135.18800    0.14250
 4227.00000   51.30710   71.35340  133.53380    0.14280
 4227.50000   58.85450   71.17220  132.33080    0.14930
 4228.00000   66.85440   71.77020  130.90610    0.17700
 4228.50000   79.98250   72.29530  129.31860    0.19870
 4229.00000   90.84810   73.06770  127.73120    0.21730
 4229.50000   98.69720   73.15790  126.14370    0.22210
 4230.00000  100.08080   73.02260  124.55620    0.18820
 4230.50000   90.56420   72.43610  122.25560    0.16290
 4231.00000   80.99580   71.89470  121.05260    0.14760
 4231.50000   71.28990   71.66920  120.75190    0.13680
 4232.00000   69.01470   72.30080  123.30830    0.14670
 4232.50000   70.22730   72.66170  125.41350    0.15830
 4233.00000   71.28900   72.84430  126.46620    0.16380
 4233.50000   68.12750   72.97740  127.06770    0.16570
 4234.00000   62.55270   73.20300  126.91730    0.15520
 4234.50000   54.26300   73.29320  127.85730    0.14290
 4235.00000   49.44230   73.33830  130.35140    0.13560
 4235.50000   47.90970   73.92480  133.38350    0.14890
 4236.00000   47.03990   74.91730  135.93980    0.16450
 4236.50000   49.91300   75.72930  137.89470    0.17350
 4237.00000   50.82240   76.13530  139.84960    0.17050
 4237.50000   49.77400   76.22560  141.80450    0.16510
 4238.00000   49.17650   76.40760  143.45860    0.16800
 4238.50000   50.99730   76.81710  144.21050    0.17560
 4239.00000   52.53450   76.94740  144.96240    0.17890
 4239.50000   52.48570   76.99250  145.56390    0.17650
 4240.00000   50.86080   77.17290  146.16540    0.17500
 4240.50000   49.20760   77.44360  145.70170    0.18130
 4241.00000   48.30850   77.80450  144.96240    0.18380
 4241.50000   48.46530   78.07520  144.36090    0.18530
 4242.00000   49.82860   78.30080  144.36090    0.18740
 4242.50000   50.58870   78.66170  144.96240    0.18850
 4243.00000   49.53880   79.11280  146.16540    0.18970
 4243.50000   48.03640   79.38690  147.51880    0.18550
 4244.00000   47.43900   79.51880  148.88480    0.18130
 4244.50000   47.90460   78.97740  149.47370    0.18680
 4245.00000   48.20490   78.61650  148.87220    0.19310
 4245.50000   46.70400   78.30080  146.91730    0.19670
 4246.00000   46.25600   78.25560  144.66170    0.19730
 4246.50000   50.48660   78.48120  143.30830    0.19700
 4247.00000   52.45330   78.88720  143.50900    0.19630
 4247.50000   53.66580   79.33830  144.96240    0.19490
 4248.00000   54.27500   79.69920  146.31580    0.21950
 4248.50000   54.43180   79.97190  147.36840    0.22310
 4249.00000   53.68350   79.91850  147.96990    0.21740
 4249.50000   51.87950   79.60900  148.12030    0.20960
 4250.00000   47.51130   79.42510  148.09900    0.20550
 4250.50000   46.15710   79.38020  147.97140    0.20420
 4251.00000   45.85760   79.29320  147.19900    0.20830
 4251.50000   46.46460   79.29320  147.07210    0.21270
 4252.00000   46.47540   79.42860  148.57770    0.21480
 4252.50000   44.95750   79.60900  150.98520    0.21450
 4253.00000   44.06630   79.87970  153.24230    0.21300
 4253.50000   42.96410   80.10530  155.19870    0.21150
 4254.00000   42.25600   80.33080  156.25280    0.21720
 4254.50000   43.31550   80.55640  156.70540    0.22020
 4255.00000   45.27930   80.73680  156.55610    0.21510
 4255.50000   48.90210   80.82710  156.40720    0.19890
 4256.00000   51.01670   80.69170  155.80760    0.19320
 4256.50000   49.05890   80.60150  155.35070    0.19720
 4257.00000   46.49780   80.69420  155.96930    0.20170
 4257.50000   44.06580   80.78200  156.56390    0.20050
 4258.00000   42.84790   80.94050  156.71580    0.20450
 4258.50000   42.13260   81.32330  156.71760    0.21310
 4259.00000   43.34290   81.27820  156.41790    0.21490
