~Version ---------------------------------------------------
VERS.   2.0 : CWLS log ASCII Standard -VERSION 2.0
WRAP.    NO : One line per depth step
DLM . SPACE : Column Data Section Delimiter
~Well ------------------------------------------------------
STRT .F                 184.0 : START DEPTH
STOP .F                9150.0 : STOP DEPTH
STEP .F                   0.5 : STEP
NULL .               -9999.25 : NULL VALUE
COMP .                        : COMPANY
WELL .                        : WELL
FLD  .                        : FIELD
LOC  .                        : LOCATION
PROV .                        : PROVINCE
CNTY .                        : COUNTY
STAT .                        : STATE
CTRY .                        : COUNTRY
SRVC .                        : SERVICE COMPANY
DATE .                        : DATE
UWI  .                        : UNIQUE WELL ID
API  .                        : API NUMBER
SLAT .WGS84 2.400688191902802 : SURFACE LATITUDE
SLON .WGS84 8.544721229597002 : SURFACE LONGITUDE
DATUM.F               3190.61 : DEPTH DATUM ELEV
~Curve Information -----------------------------------------
DEPT.F     : 
GRS .GAPI  : GAMMA RAY FROM SONIC LOG
DTCO.US/F  : COMPRESSIONAL-WAVE INTERVAL TRANSIT TIME ACAUSTIC SLOWNESS
DTSM.US/F  : SHEAR-WAVE INTERVAL TRANSIT TIME DELTA-T
TNPH.DEC   : THERMAL NEUTRON POROSITY
~Params ----------------------------------------------------
~Other -----------------------------------------------------
~ASCII -----------------------------------------------------
# ...
 5761.00000   52.97460   68.54640  114.10230    0.13600
 5761.50000   49.80870   67.23770  110.79220    0.12850
 5762.00000   46.34110   65.83870  107.93360    0.11110
 5762.50000   42.57180   65.29690  105.37570    0.08200
 5763.00000   38.19930   65.52210  104.32160    0.06520
 5763.50000   35.63660   66.19830  106.27500    0.05530
 5764.00000   34.88360   66.87450  108.98030    0.05920
 5764.50000   39.86280   67.59590  111.38480    0.08680
 5765.00000   46.80250   68.31730  113.93970    0.12430
 5765.50000   53.28960   68.72280  116.04350    0.15110
 5766.00000   61.30310   68.85770  115.59090    0.16220
 5766.50000   65.86410   68.24720  113.93530    0.15910
 5767.00000   67.62290   67.34660  112.12930    0.14630
 5767.50000   64.00480   67.09700  110.92480    0.12730
 5768.00000   57.97310   67.95360  109.07820    0.11140
 5768.50000   49.52810   68.53960  106.95300    0.09880
 5769.00000   45.60800   67.59180  105.65680    0.08800
 5769.50000   43.79960   66.50870  106.10650    0.07780
 5770.00000   42.89610   66.23750  108.05990    0.07840
 5770.50000   43.50090   66.55290  112.26900    0.09280
 5771.00000   45.16150   67.59000  115.57570    0.10920
 5771.50000   47.12370   68.53700  118.13070    0.12080
 5772.00000   48.93520   68.94250  119.93370    0.13270
 5772.50000   49.84160   69.07740  120.98480    0.13780
 5773.00000   46.64570   68.75760  121.28450    0.13970
 5773.50000   43.46780   68.33960  119.77890    0.14110
 5774.00000   41.93330   67.69750  118.27360    0.13210
 5774.50000   40.49610   67.18080  116.46760    0.11440
 5775.00000   42.30790   66.68410  114.06020    0.09700
 5775.50000   42.46030   66.09720  111.62390    0.07780
 5776.00000   41.40590   65.46520  110.44820    0.07030
 5776.50000   41.25620   67.40460  113.00270    0.07690
 5777.00000   43.06800   68.71240  115.40720    0.09490
 5777.50000   45.33190   69.07290  117.21030    0.11620
 5778.00000   48.80250   69.07250  117.65990    0.13120
 5778.50000   50.91560   68.26000  117.80920    0.13450
 5779.00000   52.42540   67.08660  115.55170    0.13000
 5779.50000   48.95780   66.22900  112.84350    0.11920
 5780.00000   45.90200   65.77140  110.43600    0.10700
 5780.50000   43.94130   65.50630  108.47960    0.09280
 5781.00000   44.73940   65.82160  107.57590    0.07900
 5781.50000   47.30490   66.85870  107.57440    0.07690
 5782.00000   49.71970   67.30940  109.07670    0.08980
 5782.50000   50.17370   67.53450  112.08270    0.09960
 5783.00000   49.87310   67.44390  113.73540    0.11260
 5783.50000   51.53410   67.12760  113.09180    0.12550
 5784.00000   52.89300   66.72120  110.87490    0.12790
 5784.50000   53.19580   66.35980  108.91850    0.12280
 5785.00000   50.63360   65.95340  107.26290    0.11020
 5785.50000   45.35600   65.59200  106.50960    0.09280
 5786.00000   41.13430   65.41110  105.90660    0.06880
 5786.50000   40.38160   65.36560  105.90510    0.05790
 5787.00000   41.64500   65.90780  106.80590    0.05500
 5787.50000   45.68880   66.41610  108.15780    0.07290
 5788.00000   50.34120   66.85300  108.75780    0.09370
 5788.50000   52.00180   66.53670  107.70370    0.10990
 5789.00000   50.04250   66.22040  106.34880    0.10900
 5789.50000   46.27320   66.35540  104.84360    0.09820
 5790.00000   42.80560   -9999.25  103.78950    0.07720
 5790.50000   41.90210   -9999.25  103.63760    0.06340
 5791.00000   41.75240   -9999.25  103.80680    0.05980
 5791.50000   42.65920   -9999.25  104.83730    0.06910
 5792.00000   43.56570   -9999.25  106.49000    0.07720
 5792.50000   43.56720   66.35260  107.99220    0.08290
 5793.00000   43.56860   66.30700  106.93810    0.08410
 5793.50000   43.57010   65.99080  105.58330    0.08010
 5794.00000   43.74040   65.67460  104.37880    0.07610
 5794.50000   44.47840   65.62900  103.77580    0.06940
 5795.00000   44.78120   65.44810  103.47360    0.06490
 5795.50000   42.82230   65.26690  103.62280    0.06400
 5796.00000   41.91880   65.17660  104.52320    0.07060
 5796.50000   43.42850   65.97720  106.62700    0.07930
 5797.00000   44.78750   66.52900  109.18190    0.08710
 5797.50000   45.39230   65.62620  110.51040    0.09340
 5798.00000   45.54460   65.03930  111.43450    0.09640
 5798.50000   47.20520   64.99380  111.88450    0.09700
 5799.00000   48.11170   64.94820  111.73230    0.09430
 5799.50000   46.29350   65.17330  110.67820    0.09220
 5800.00000   45.53710   -9999.25  109.02260    0.09160
 5800.50000   45.53710   -9999.25  106.82430    0.09190
 5801.00000   45.68840   -9999.25  104.62600    0.08840
 5801.50000   43.57030   -9999.25  102.56120    0.08100
 5802.00000   40.69590   -9999.25  101.20930    0.06460
 5802.50000   38.42660   -9999.25  101.96270    0.05640
 5803.00000   37.67020   -9999.25  103.46790    0.06000
 5803.50000   40.69590   65.66600  104.52200    0.07780
 5804.00000   43.26780   65.30470  105.42580    0.09130
 5804.50000   45.23450   65.25900  105.42720    0.10090
 5805.00000   44.17550   65.48410  105.72950    0.09940
 5805.50000   41.42340   66.20550  106.78360    0.08770
 5806.00000   40.84720   67.10730  109.19110    0.07890
 5806.50000   43.11650   68.14440  112.50080    0.09010
 5807.00000   44.93190   69.54250  117.31430    0.10270
 5807.50000   43.41910   70.21880  121.07520    0.11800
 5808.00000   42.05750   70.35380  122.73080    0.13330
 5808.50000   43.72160   69.22540  121.95780    0.13930
 5809.00000   47.35250   68.36780  120.73720    0.14320
 5809.50000   51.89110   67.82600  118.82590    0.14350
 5810.00000   57.33740   67.55490  117.32360    0.13660
 5810.50000   60.06050   67.41910  116.12210    0.13300
 5811.00000   62.17850   67.05770  115.37170    0.13180
 5811.50000   65.05290   66.87680  114.62130    0.13300
 5812.00000   69.13770   67.12120  114.32160    0.13570
 5812.50000   73.07110   67.79320  114.32350    0.13780
 5813.00000   73.67620   68.04830  114.77610    0.13900
 5813.50000   70.79400   67.64190  115.67980    0.13930
 5814.00000   64.29650   66.82940  115.53090    0.13410
 5814.50000   61.42210   66.24250  114.32940    0.12930
 5815.00000   63.69140   65.92630  112.07520    0.12240
 5815.50000   67.47350   65.61000  109.67070    0.11790
 5816.00000   70.34800   65.97050  108.46920    0.12360
 5816.50000   67.32220   66.73700  108.93550    0.12990
 5817.00000   60.96820   67.05230  110.02250    0.13440
 5817.50000   58.54770   67.23240  111.33110    0.13200
 5818.00000   57.03480   67.14160  112.08450    0.13050
 5818.50000   57.63990   66.96070  112.83780    0.13380
 5819.00000   58.69890   66.68960  113.59120    0.13620
 5819.50000   60.21180   66.50870  114.19420    0.13770
 5820.00000   61.42210   66.69180  114.49640    0.13830
 5820.50000   61.87590   66.87450  114.79860    0.13650
 5821.00000   60.62480   66.91340  114.04820    0.13080
 5821.50000   59.15280   66.86770  112.69630    0.12480
 5822.00000   58.85020   66.64170  111.04370    0.11700
 5822.50000   59.75790   66.55110  109.69180    0.10990
 5823.00000   61.72470   66.77620  108.03910    0.10360
 5823.50000   65.35550   66.91120  106.53680    0.09450
 5824.00000   69.74280   66.45950  105.41020    0.09320
 5824.50000   70.95310   65.82750  104.27690    0.09050
 5825.00000   66.26320   65.46610  103.14360    0.08180
 5825.50000   57.33740   65.37550  101.88150    0.06900
 5826.00000   52.04240   65.32990  101.28150    0.05740
 5826.50000   47.95760   65.23920  101.13220    0.05090
 5827.00000   45.83960   65.14860  101.73560    0.05600
 5827.50000   46.14220   65.05790  103.84230    0.06410
 5828.00000   48.90390   64.96600  107.00170    0.07580
 5828.50000   51.80080   64.96680  108.65730    0.08220
 5829.00000   49.77310   65.05660  110.01220    0.08610
 5829.50000   46.74740   65.10660  110.46480    0.08930
 5830.00000   47.65510   65.12450  110.61660    0.10070
 5830.50000   50.83210   65.14530  110.46770    0.10700
 5831.00000   53.10140   65.09980  109.71730    0.10850
 5831.50000   51.89110   65.09930  108.51580    0.10730
 5832.00000   50.07560   65.18910  107.90800    0.10490
