~Version ---------------------------------------------------
VERS.   2.0 : CWLS log ASCII Standard -VERSION 2.0
WRAP.    NO : One line per depth step
DLM . SPACE : Column Data Section Delimiter
~Well ------------------------------------------------------
STRT .F                 184.0 : START DEPTH
STOP .F                9150.0 : STOP DEPTH
STEP .F                   0.5 : STEP
NULL .               -9999.25 : NULL VALUE
COMP .                        : COMPANY
WELL .                        : WELL
FLD  .                        : FIELD
LOC  .                        : LOCATION
PROV .                        : PROVINCE
CNTY .                        : COUNTY
STAT .                        : STATE
CTRY .                        : COUNTRY
SRVC .                        : SERVICE COMPANY
DATE .                        : DATE
UWI  .                        : UNIQUE WELL ID
API  .                        : API NUMBER
SLAT .WGS84 2.400688191902802 : SURFACE LATITUDE
SLON .WGS84 8.544721229597002 : SURFACE LONGITUDE
DATUM.F               3190.61 : DEPTH DATUM ELEV
~Curve Information -----------------------------------------
DEPT.F     : 
GRS .GAPI  : GAMMA RAY FROM SONIC LOG
DTCO.US/F  : COMPRESSIONAL-WAVE INTERVAL TRANSIT TIME ACAUSTIC SLOWNESS
DTSM.US/F  : SHEAR-WAVE INTERVAL TRANSIT TIME DELTA-T
TNPH.DEC   : THERMAL NEUTRON POROSITY
~Params ----------------------------------------------------
~Other -----------------------------------------------------
~ASCII -----------------------------------------------------
# ...
 8478.00000   69.82750   -9999.25  101.94520    0.07570
 8478.50000   72.55250   -9999.25  102.84430    0.07150
 8479.00000   75.27710   -9999.25  105.55070    0.07480
 8479.50000   81.02750   -9999.25  108.85950    0.09770
 8480.00000   86.17270   -9999.25  110.96350    0.12600
 8480.50000   87.98960   -9999.25  111.11070    0.13620
 8481.00000   88.29330   -9999.25  110.20150    0.14100
 8481.50000   83.45400   -9999.25  108.54050    0.14100
 8482.00000   77.25280   -9999.25  107.18060    0.13020
 8482.50000   72.11050   -9999.25  106.27250    0.09990
 8483.00000   68.02730   -9999.25  106.11740    0.09100
 8483.50000   68.93650   -9999.25  106.11300    0.09370
 8484.00000   75.74590   -9999.25  106.42030    0.10430
 8484.50000   78.77310   -9999.25  107.02530    0.11360
 8485.00000   79.08680   -9999.25  107.15380    0.11420
 8485.50000   76.78420   -9999.25  106.24460    0.11060
 8486.00000   73.28370   -9999.25  105.48710    0.10420
 8486.50000   71.49700   -9999.25  105.03090    0.09760
 8487.00000   71.82180   -9999.25  105.17700    0.09070
 8487.50000   74.54640   -9999.25  106.07620    0.08770
 8488.00000   81.65830   -9999.25  107.72830    0.09010
 8488.50000   92.55240   -9999.25  109.53110    0.10030
 8489.00000  100.11820   -9999.25  110.88200    0.11320
 8489.50000  107.07890   -9999.25  112.38360    0.12680
 8490.00000  105.71880   -9999.25  114.18640    0.14120
 8490.50000   98.30710   -9999.25  115.68790    0.16020
 8491.00000  100.02140   -9999.25  116.58710    0.16560
 8491.50000  104.81550   -9999.25  117.18520    0.16430
 8492.00000  113.89420   -9999.25  117.20090    0.16030
 8492.50000  116.61880   -9999.25  116.57370    0.15860
 8493.00000  109.35860   -9999.25  115.81620    0.16070
 8493.50000   91.05450   -9999.25  114.75280    0.16160
 8494.00000   68.96820   -9999.25  113.83030    0.14390
 8494.50000   52.55820   -9999.25  112.58670    0.12070
 8495.00000   45.96140   -9999.25  109.04720    0.11100
 8495.50000   44.89430   -9999.25  106.30480    0.10590
 8496.00000   43.25600   -9999.25  105.39680    0.09990
 8496.50000   40.53430   -9999.25  104.63930    0.09480
 8497.00000   39.32550   -9999.25  104.18300    0.09120
 8497.50000   39.02410   -9999.25  103.57620    0.08810
 8498.00000   40.53880   -9999.25  103.87290    0.08750
 8498.50000   41.90190   -9999.25  104.62150    0.09230
 8499.00000   43.11360   -9999.25  105.52060    0.09720
 8499.50000   43.87120   -9999.25  105.96910    0.09830
 8500.00000   43.11660   -9999.25  106.26580    0.10380
 8500.50000   43.26940   -9999.25  105.34890    0.10230
 8501.00000   44.48120   -9999.25  105.37570    0.10070
 8501.50000   46.29810   -9999.25  106.40600    0.09950
 8502.00000   47.50990   -9999.25  107.30670    0.10010
 8502.50000   47.81390   -9999.25  108.65910    0.10370
 8503.00000   46.60270   -9999.25  110.01160    0.10730
 8503.50000   46.30410   -9999.25  111.06290    0.11000
 8504.00000   48.39840   -9999.25  110.75870    0.11240
 8504.50000   53.18290   -9999.25  110.45450    0.11480
 8505.00000   58.93030   -9999.25  110.30090    0.11690
 8505.50000   64.33020   -9999.25  110.14740    0.11810
 8506.00000   64.18190   -9999.25  110.14440    0.11810
 8506.50000   64.48750   -9999.25  110.14150    0.11710
 8507.00000   64.94360   -9999.25  110.59030    0.11390
 8507.50000   64.34210   -9999.25  111.18980    0.11090
 8508.00000   63.13480   -9999.25  111.79880    0.10940
 8508.50000   62.23010   -9999.25  112.87890    0.11390
 8509.00000   61.32530   -9999.25  114.64400    0.12110
 8509.50000   58.90770   -9999.25  116.14700    0.12680
 8510.00000   57.24650   -9999.25  118.10190    0.13040
 8510.50000   57.59330   -9999.25  119.30380    0.13340
 8511.00000   58.61480   -9999.25  120.80680    0.13580
 8511.50000   59.52550   -9999.25  122.46050    0.14150
 8512.00000   60.58750   -9999.25  123.51170    0.15180
 8512.50000   61.49820   -9999.25  124.41240    0.16200
 8513.00000   61.65240   -9999.25  124.56080    0.16440
 8513.50000   61.35210   -9999.25  123.35230    0.16370
 8514.00000   58.63270   -9999.25  121.54210    0.15490
 8514.50000   55.00480   -9999.25  118.07530    0.13210
 8515.00000   50.31790   -9999.25  113.55420    0.10810
 8515.50000   44.72330   -9999.25  110.36720    0.08730
 8516.00000   42.45700   -9999.25  109.33140    0.07110
 8516.50000   44.57790   -9999.25  110.83370    0.06290
 8517.00000   49.32120   -9999.25  113.99340    0.06680
 8517.50000   52.82540   -9999.25  117.90610    0.08790
 8518.00000   55.76550   -9999.25  121.96940    0.11800
 8518.50000   66.22450   -9999.25  126.93640    0.14000
 8519.00000   79.38930   -9999.25  127.98840    0.15920
 8519.50000   96.48760   -9999.25  125.42440    0.17340
 8520.00000  111.92150   -9999.25  122.10820    0.17730
 8520.50000  116.00920   -9999.25  118.49080    0.17610
 8521.00000  119.18910   -9999.25  115.62640    0.17060
 8521.50000  122.83150   -9999.25  112.91260    0.15630
 8522.00000  125.70040   -9999.25  110.19870    0.15060
 8522.50000  120.08910   -9999.25  107.93670    0.13060
 8523.00000  105.73730   -9999.25  106.24820    0.11190
 8523.50000   89.70400   -9999.25  104.72950    0.09930
 8524.00000   81.84010   -9999.25  103.40900    0.09620
 8524.50000   73.67370   -9999.25  102.20130    0.09350
 8525.00000   65.96100   -9999.25  101.29470    0.09110
 8525.50000   58.55100   -9999.25  101.44230    0.08750
 8526.00000   53.71280   -9999.25  101.59070    0.07760
 8526.50000   50.53880   -9999.25  100.98460    0.06970
 8527.00000   49.18020   -9999.25   99.92740    0.06640
 8527.50000   48.12420   -9999.25   99.17140    0.06550
 8528.00000   47.52190   -9999.25   98.86730    0.06580
 8528.50000   47.52500   -9999.25   98.71440    0.06640
 8529.00000   48.31830   -9999.25   99.61440    0.06820
 8529.50000   51.27810   -9999.25  100.96680    0.07030
 8530.00000   56.15790   -9999.25  102.46990    0.07620
 8530.50000   62.06110   -9999.25  103.54260    0.08770
 8531.00000   67.35900   -9999.25  104.44200    0.09500
 8531.50000   70.69030   -9999.25  104.56940    0.09890
 8532.00000   71.60100   -9999.25  103.51150    0.09520
 8532.50000   68.88080   -9999.25  102.90610    0.08770
 8533.00000   65.55550   -9999.25  102.60270    0.07990
 8533.50000   65.86110   -9999.25  103.20140    0.07930
 8534.00000   71.46160   -9999.25  103.95150    0.08890
 8534.50000   75.39800   -9999.25  105.60510    0.10240
 8535.00000   77.97280   -9999.25  107.40940    0.11270
 8535.50000   82.51440   -9999.25  109.21370    0.11150
 8536.00000   99.61290   -9999.25  110.56610    0.11000
 8536.50000  117.16510   -9999.25  111.46680    0.12350
 8537.00000  141.97890   -9999.25  112.21680    0.13400
 8537.50000  145.31020   -9999.25  111.46080    0.13210
 8538.00000  137.74890   -9999.25  110.08330    0.12270
 8538.50000  116.67270   -9999.25  109.17560    0.11110
 8539.00000  102.20030   -9999.25  108.58980    0.11380
 8539.50000   96.15490   -9999.25  108.13500    0.11890
 8540.00000   92.52700   -9999.25  107.52960    0.12010
 8540.50000   85.87340   -9999.25  106.77370    0.11170
 8541.00000   76.95050   -9999.25  106.01770    0.10660
 8541.50000   71.50720   -9999.25  105.11110    0.10270
 8542.00000   67.57600   -9999.25  104.95830    0.09720
 8542.50000   69.84900   -9999.25  106.61120    0.09570
 8543.00000   77.26500   -9999.25  107.96370    0.10260
 8543.50000   88.91700   -9999.25  109.61730    0.11200
 8544.00000   94.36620   -9999.25  111.57220    0.12040
 8544.50000   97.24360   -9999.25  112.47280    0.12430
 8545.00000   97.41230   -9999.25  112.77110    0.12700
 8545.50000   89.45070   -9999.25  112.45610    0.13010
 8546.00000   83.27140   -9999.25  112.31330    0.13440
 8546.50000   83.95560   -9999.25  112.46100    0.13930
 8547.00000   88.33340   -9999.25  112.00550    0.14110
 8547.50000   91.36210   -9999.25  110.64710    0.14050
 8548.00000   89.54960   67.11400  107.93330    0.13570
 8548.50000   79.71900   67.02350  105.67130    0.12300
 8549.00000   67.46780   67.24870  103.40930    0.10380
