~Version ---------------------------------------------------
VERS.   2.0 : CWLS log ASCII Standard -VERSION 2.0
WRAP.    NO : One line per depth step
DLM . SPACE : Column Data Section Delimiter
~Well ------------------------------------------------------
STRT .F                 184.0 : START DEPTH
STOP .F                9150.0 : STOP DEPTH
STEP .F                   0.5 : STEP
NULL .               -9999.25 : NULL VALUE
COMP .                        : COMPANY
WELL .                        : WELL
FLD  .                        : FIELD
LOC  .                        : LOCATION
PROV .                        : PROVINCE
CNTY .                        : COUNTY
STAT .                        : STATE
CTRY .                        : COUNTRY
SRVC .                        : SERVICE COMPANY
DATE .                        : DATE
UWI  .                        : UNIQUE WELL ID
API  .                        : API NUMBER
SLAT .WGS84 2.400688191902802 : SURFACE LATITUDE
SLON .WGS84 8.544721229597002 : SURFACE LONGITUDE
DATUM.F               3190.61 : DEPTH DATUM ELEV
~Curve Information -----------------------------------------
DEPT.F     : 
GRS .GAPI  : GAMMA RAY FROM SONIC LOG
DTCO.US/F  : COMPRESSIONAL-WAVE INTERVAL TRANSIT TIME ACAUSTIC SLOWNESS
DTSM.US/F  : SHEAR-WAVE INTERVAL TRANSIT TIME DELTA-T
TNPH.DEC   : THERMAL NEUTRON POROSITY
~Params ----------------------------------------------------
~Other -----------------------------------------------------
~ASCII -----------------------------------------------------
# ...
 7405.50000   89.89580   66.20480  107.69370    0.12790
 7406.00000   65.42620   66.11190  107.99720    0.11100
 7406.50000   54.40040   66.34040  108.60100    0.10140
 7407.00000   51.07860   66.33310  109.50540    0.09600
 7407.50000   50.47580   66.20480  110.40990    0.09360
 7408.00000   58.03050   66.52110  111.91590    0.09420
 7408.50000   65.28270   66.88250  113.12110    0.09720
 7409.00000   66.94580   67.24400  113.57440    0.10800
 7409.50000   66.34310   67.42470  112.80680    0.11860
 7410.00000   62.26600   68.37350  110.96320    0.11920
 7410.50000   59.24630   68.50900  109.07040    0.11290
 7411.00000   56.22660   68.50900  108.32070    0.10320
 7411.50000   52.33470   68.45840  107.42070    0.08640
 7412.00000   47.58330   68.19280  106.97170    0.07670
 7412.50000   42.83180   68.01200  107.27470    0.07490
 7413.00000   39.89900   67.69580  108.47990    0.07530
 7413.50000   38.56040   67.42470  110.13630    0.07890
 7414.00000   44.60450   67.28920  111.34150    0.08850
 7414.50000   50.40440   67.60540  112.39640    0.09900
 7415.00000   56.08770   67.92170  112.69930    0.10810
 7415.50000   59.11030   67.42470  112.55110    0.10870
 7416.00000   59.41390   68.14760  111.95190    0.10660
 7416.50000   57.60300   73.61450  112.29440    0.10480
 7417.00000   55.64070   80.39160  114.93330    0.10510
 7417.50000   53.22530   83.64460  120.53050    0.10570
 7418.00000   50.80980   84.27710  150.37360    0.10390
 7418.50000   49.45180   84.77410  209.40690    0.10020
 7419.00000   48.99970   84.81930  228.05580    0.09640
 7419.50000   50.81420   84.72890  236.47900    0.09450
 7420.00000   50.81570   84.59340  240.39140    0.09430
 7420.50000   49.42240   84.59340  240.39360    0.09430
 7421.00000   48.70420   85.74960  240.24490    0.09370
 7421.50000   50.97150   86.26510  238.74390    0.09220
 7422.00000   56.78490   83.82530  232.58070    0.09040
 7422.50000   72.08940   78.44880  221.75580    0.09250
 7423.00000   87.39390   77.99700  218.60020    0.10180
 7423.50000  102.53580   84.54820  217.24900    0.11590
 7424.00000  122.27810   83.37350  217.25120    0.13680
 7424.50000  122.73270   78.13250  217.25340    0.14300
 7425.00000  117.59830   76.46080  217.85710    0.14180
 7425.50000  109.36540   79.54140  218.47220    0.13940
 7426.00000  101.20780   86.58130  218.61350    0.13850
 7426.50000   93.28280   85.13550  218.46530    0.13820
 7427.00000   82.55920   84.63860  218.16730    0.13100
 7427.50000   76.36600   86.71690  218.01860    0.11870
 7428.00000   73.64950   92.40960  218.02140    0.11170
 7428.50000   77.88070  100.00000  218.32430    0.12410
 7429.00000   77.82150  109.57830  218.77770    0.12740
 7429.50000   72.89910  109.39760  219.38140    0.11870
 7430.00000   69.00030  105.91870  219.68440    0.09070
 7430.50000   67.46350   93.85900  219.68660    0.08890
 7431.00000   76.67980   86.98800  219.68880    0.09850
 7431.50000   85.41890   86.71690  219.54060    0.13100
 7432.00000   91.78870   98.28310  219.54640    0.14190
 7432.50000   91.18600   99.18670  219.69550    0.14070
 7433.00000   85.90040   99.45780  219.69770    0.12800
 7433.50000   81.67230  101.53610  219.85080    0.11120
 7434.00000   75.48040   98.01200  220.00340    0.09400
 7434.50000   60.52730   96.29520  220.00560    0.08170
 7435.00000   46.54870   97.01810  220.30860    0.06910
 7435.50000   36.81450   99.63860  220.16040    0.06240
 7436.00000   34.09690  100.45180  219.56110    0.05820
 7436.50000   33.94690  100.04520  218.66110    0.05580
 7437.00000   34.09980  100.18070  218.36250    0.05520
 7437.50000   35.30980  100.09040  218.45120    0.05580
 7438.00000   42.28900  100.18070  218.51770    0.06820
 7438.50000   51.68910  101.76200  219.87330    0.08110
 7439.00000   59.33250  102.57530  225.58980    0.09350
 7439.50000   59.78680  103.73060  231.24440    0.09120
 7440.00000   49.00990  105.73800  234.91760    0.07350
 7440.50000   37.29640  105.42170  235.67160    0.05860
 7441.00000   27.91860  102.80120  235.07240    0.05160
 7441.50000   27.01330   96.65660  234.92360    0.04770
 7442.00000   27.31730   96.11450  235.52790    0.04680
 7442.50000   27.46980   99.18670  236.13160    0.04710
 7443.00000   27.93420  106.44460  236.73540    0.04890
 7443.50000   28.53020  104.33730  237.18870    0.05260
 7444.00000   28.53200  100.31630  234.84280    0.05350
 7444.50000   27.62710   99.78630  229.60710    0.04800
 7445.00000   26.57120   95.66270  223.81240    0.04470
 7445.50000   25.96840   93.04220  221.10790    0.04250
 7446.00000   26.72520   91.23490  220.35820    0.04080
 7446.50000   26.87770   91.50600  220.51080    0.04110
 7447.00000   26.57700   94.08130  220.66340    0.04290
 7447.50000   26.94440   96.38550  220.51470    0.04570
 7448.00000   33.22690   97.92170  219.91600    0.05050
 7448.50000   39.47370   98.19280  219.76720    0.05740
 7449.00000   47.22730   97.09750  220.07080    0.06640
 7449.50000   50.90490   97.28920  220.37370    0.07460
 7450.00000   45.16620   98.55420  220.07520    0.06550
 7450.50000   37.46550   99.00600  219.75510    0.05270
 7451.00000   32.93870   96.83730  218.98290    0.04690
 7451.50000   37.77820   95.48190  218.27790    0.05050
 7452.00000   45.78870   95.30120  218.12920    0.06160
 7452.50000   56.88200   94.39760  218.43270    0.08570
 7453.00000   65.88840   90.74350  218.73570    0.10690
 7453.50000   71.78410   88.75640  218.73790    0.12240
 7454.00000   74.96080   87.98920  205.09070    0.12880
 7454.50000   76.62690   88.03530  126.71220    0.15140
 7455.00000   74.93230   88.35250  117.84190    0.15460
 7455.50000   69.43990   88.71480  152.33420    0.14960
 7456.00000   63.82320   89.21270  186.97120    0.12330
 7456.50000   59.27460   89.75570  214.99190    0.11310
 7457.00000   55.69620   90.47950  218.60320    0.11000
 7457.50000   51.12630   91.16300  218.60540    0.10100
 7458.00000   44.46350   91.99020  218.15640    0.06910
 7458.50000   36.20370   93.19360  218.00830    0.05680
 7459.00000   31.95470   95.75950  218.46170    0.05100
 7459.50000   36.42080   97.84870  218.76470    0.05220
 7460.00000   55.89990   97.39780  218.76690    0.06880
 7460.50000   77.05310   94.86850  218.61870    0.11000
 7461.00000   98.84560   92.70070  218.16980    0.13260
 7461.50000   98.35120   92.11410  218.62370    0.13680
 7462.00000   79.86720   93.06400  218.92660    0.12540
 7462.50000   73.67830   93.78780  219.07870    0.11390
 7463.00000   79.87620   94.24050  218.62980    0.11180
 7463.50000   88.53000   94.87390  218.03050    0.11960
 7464.00000   98.61700   95.14590  217.73190    0.13530
 7464.50000  100.71040   94.96600  218.18580    0.14410
 7465.00000  105.42320   93.70190  218.03770    0.15410
 7465.50000  105.87980   91.89550  214.58120    0.16210
 7466.00000  101.50470   90.81210  201.92650    0.15890
 7466.50000   88.06510   90.36120  183.61820    0.13950
 7467.00000   78.55300   90.35850  161.05420    0.12890
 7467.50000   73.58040   91.04070  126.62070    0.12230
 7468.00000   69.04620   92.44360  126.02090    0.11780
 7468.50000   63.15900   92.66900  126.17400    0.11540
 7469.00000   61.19930   92.37950  127.68000    0.11480
 7469.50000   65.69880   91.70810  132.04310    0.11900
 7470.00000   71.51200   91.85860  152.89820    0.13070
 7470.50000   76.80860   92.22100  187.68660    0.14010
 7471.00000   81.76220   92.35740  210.54600    0.14550
 7471.50000   85.23730   92.90040  216.56330    0.14730
 7472.00000   89.32330   93.75980  218.97150    0.15690
 7472.50000   89.49790   94.34800  218.67300    0.16500
 7473.00000   85.24490   93.67120  218.37440    0.16830
 7473.50000   83.73940   92.36180  218.82780    0.16110
 7474.00000   83.58750   91.77540  218.68020    0.15330
 7474.50000   82.96230   92.13770  216.87790    0.14390
 7475.00000   82.40160   91.82240  215.37630    0.13850
 7475.50000   85.42840   91.14550  215.98000    0.13700
 7476.00000   97.66780   90.69440  218.98980    0.14440
 7476.50000  107.03780   91.01180  220.19500    0.16000
