~Version ---------------------------------------------------
VERS.   2.0 : CWLS log ASCII Standard -VERSION 2.0
WRAP.    NO : One line per depth step
DLM . SPACE : Column Data Section Delimiter
~Well ------------------------------------------------------
STRT .F                 184.0 : START DEPTH
STOP .F                9150.0 : STOP DEPTH
STEP .F                   0.5 : STEP
NULL .               -9999.25 : NULL VALUE
COMP .                        : COMPANY
WELL .                        : WELL
FLD  .                        : FIELD
LOC  .                        : LOCATION
PROV .                        : PROVINCE
CNTY .                        : COUNTY
STAT .                        : STATE
CTRY .                        : COUNTRY
SRVC .                        : SERVICE COMPANY
DATE .                        : DATE
UWI  .                        : UNIQUE WELL ID
API  .                        : API NUMBER
SLAT .WGS84 2.400688191902802 : SURFACE LATITUDE
SLON .WGS84 8.544721229597002 : SURFACE LONGITUDE
DATUM.F               3190.61 : DEPTH DATUM ELEV
~Curve Information -----------------------------------------
DEPT.F     : 
GRS .GAPI  : GAMMA RAY FROM SONIC LOG
DTCO.US/F  : COMPRESSIONAL-WAVE INTERVAL TRANSIT TIME ACAUSTIC SLOWNESS
DTSM.US/F  : SHEAR-WAVE INTERVAL TRANSIT TIME DELTA-T
TNPH.DEC   : THERMAL NEUTRON POROSITY
~Params ----------------------------------------------------
~Other -----------------------------------------------------
~ASCII -----------------------------------------------------
# ...
 2543.50000   11.55020   -9999.25   -9999.25    0.08470
 2544.00000   10.19550   -9999.25   -9999.25    0.08230
 2544.50000   10.81060   -9999.25   -9999.25    0.08080
 2545.00000   12.03160   -9999.25   -9999.25    0.08260
 2545.50000   12.64670   -9999.25   -9999.25    0.08560
 2546.00000   12.04960   -9999.25   -9999.25    0.08710
 2546.50000   11.14720   -9999.25   -9999.25    0.08530
 2547.00000   11.46140   -9999.25   -9999.25    0.08290
 2547.50000   12.22790   -9999.25   -9999.25    0.07990
 2548.00000   11.47930   -9999.25   -9999.25    0.07780
 2548.50000   11.18480   -9999.25   -9999.25    0.07570
 2549.00000   11.04240   -9999.25   -9999.25    0.07380
 2549.50000   11.20320   -9999.25   -9999.25    0.07260
 2550.00000   11.96970   -9999.25   -9999.25    0.07200
 2550.50000   13.19310   -9999.25   -9999.25    0.07050
 2551.00000   13.80970   -9999.25   -9999.25    0.06930
 2551.50000   14.27470   -9999.25   -9999.25    0.07590
 2552.00000   14.73970   -9999.25   -9999.25    0.08070
 2552.50000   14.75780   -9999.25   -9999.25    0.08340
 2553.00000   14.30600   -9999.25   -9999.25    0.08550
 2553.50000   13.99440   -9999.25   -9999.25    0.08700
 2554.00000   12.90870   -9999.25   -9999.25    0.08700
 2554.50000   12.06470   -9999.25   -9999.25    0.08710
 2555.00000   11.77470   -9999.25   -9999.25    0.08940
 2555.50000   11.63370   -9999.25   -9999.25    0.09300
 2556.00000   11.94720   -9999.25   -9999.25    0.09240
 2556.50000   12.71520   -9999.25   -9999.25    0.08820
 2557.00000   13.18020   -9999.25   -9999.25    0.08340
 2557.50000   13.79670   -9999.25   -9999.25    0.07860
 2558.00000   13.04960   -9999.25   -9999.25    0.07550
 2558.50000   11.84790   -9999.25   -9999.25    0.07250
 2559.00000   11.55540   -9999.25   -9999.25    0.07550
 2559.50000   11.41170   -9999.25   -9999.25    0.07730
 2560.00000   10.06110   -9999.25   -9999.25    0.07910
 2560.50000   10.22310   -9999.25   -9999.25    0.08000
 2561.00000   11.29420   -9999.25   -9999.25    0.07970
 2561.50000   12.97130   -9999.25   -9999.25    0.07850
 2562.00000   12.98180   -9999.25   -9999.25    0.07760
 2562.50000   11.91920   -9999.25   -9999.25    0.08060
 2563.00000   11.12090   -9999.25   -9999.25    0.08520
 2563.50000    9.07630   -9999.25   -9999.25    0.08970
 2564.00000    8.17770   -9999.25   -9999.25    0.08890
 2564.50000    8.33970   -9999.25   -9999.25    0.08210
 2565.00000    9.10770   -9999.25   -9999.25    0.07580
 2565.50000   10.78480   -9999.25   -9999.25    0.07240
 2566.00000   11.09570   -9999.25   -9999.25    0.07090
 2566.50000   10.80310   -9999.25   -9999.25    0.07000
 2567.00000   10.51320   -9999.25   -9999.25    0.06880
 2567.50000   10.97820   -9999.25   -9999.25    0.07480
 2568.00000   12.04930   -9999.25   -9999.25    0.07720
 2568.50000   12.66580   -9999.25   -9999.25    0.07450
 2569.00000   13.13080   -9999.25   -9999.25    0.07390
 2569.50000   12.83790   -9999.25   -9999.25    0.07660
 2570.00000   12.84870   -9999.25   -9999.25    0.08080
 2570.50000   12.85910   -9999.25   -9999.25    0.08230
 2571.00000   12.71810   -9999.25   -9999.25    0.08140
 2571.50000   12.57700   -9999.25   -9999.25    0.07900
 2572.00000   12.58790   -9999.25   -9999.25    0.07780
 2572.50000   12.60050   -9999.25   -9999.25    0.07660
 2573.00000   12.75990   -9999.25   -9999.25    0.07570
 2573.50000   12.31840   -9999.25   -9999.25    0.07660
 2574.00000   11.11680   -9999.25   -9999.25    0.07720
 2574.50000   10.52120   -9999.25   -9999.25    0.07750
 2575.00000   10.07710   -9999.25   -9999.25    0.07710
 2575.50000   10.54210   -9999.25   -9999.25    0.07770
 2576.00000   10.70140   -9999.25   -9999.25    0.07680
 2576.50000   10.25730   -9999.25   -9999.25    0.07440
 2577.00000   10.42190   -9999.25   -9999.25    0.07290
 2577.50000   10.73540   -9999.25   -9999.25    0.07050
 2578.00000   10.89740   -9999.25   -9999.25    0.07320
 2578.50000    9.99880   -9999.25   -9999.25    0.07320
 2579.00000   10.76680   -9999.25   -9999.25    0.07260
 2579.50000   11.38480   -9999.25   -9999.25    0.07200
 2580.00000   11.54550   -9999.25   -9999.25    0.07110
 2580.50000   11.10120   -9999.25   -9999.25    0.06900
 2581.00000   11.13940   -9999.25   -9999.25    0.06740
 2581.50000   11.73080   -9999.25   -9999.25    0.06830
 2582.00000   11.58710   -9999.25   -9999.25    0.06370
 2582.50000   11.14300   -9999.25   -9999.25    0.06110
 2583.00000   10.85310   -9999.25   -9999.25    0.06470
 2583.50000   10.86350   -9999.25   -9999.25    0.07130
 2584.00000   10.87400   -9999.25   -9999.25    0.07640
 2584.50000   11.64200   -9999.25   -9999.25    0.06890
 2585.00000   13.01610   -9999.25   -9999.25    0.06020
 2585.50000   14.39020   -9999.25   -9999.25    0.05510
 2586.00000   15.30980   -9999.25   -9999.25    0.05170
 2586.50000   14.25960   -9999.25   -9999.25    0.05660
 2587.00000   13.36100   -9999.25   -9999.25    0.05900
 2587.50000   12.31080   -9999.25   -9999.25    0.06140
 2588.00000   12.01400   -9999.25   -9999.25    0.06350
 2588.50000   13.09840   -9999.25   -9999.25    0.06130
 2589.00000   14.02230   -9999.25   -9999.25    0.05950
 2589.50000   14.17120   -9999.25   -9999.25    0.05800
 2590.00000   13.72680   -9999.25   -9999.25    0.05910
 2590.50000   13.13110   -9999.25   -9999.25    0.06040
 2591.00000   12.53820   -9999.25   -9999.25    0.06040
 2591.50000   12.39450   -9999.25   -9999.25    0.06140
 2592.00000   13.01360   -9999.25   -9999.25    0.06380
 2592.50000   13.17560   -9999.25   -9999.25    0.06760
 2593.00000   12.58000   -9999.25   -9999.25    0.06790
 2593.50000   12.13590   -9999.25   -9999.25    0.06580
 2594.00000   11.23730   -9999.25   -9999.25    0.06400
 2594.50000   10.33860   -9999.25   -9999.25    0.06310
 2595.00000   10.80360   -9999.25   -9999.25    0.06340
 2595.50000   11.42020   -9999.25   -9999.25    0.06450
 2596.00000   12.03670   -9999.25   -9999.25    0.06670
 2596.50000   12.65320   -9999.25   -9999.25    0.06760
 2597.00000   13.26970   -9999.25   -9999.25    0.06480
 2597.50000   13.12870   -9999.25   -9999.25    0.06060
 2598.00000   12.66860   -9999.25   -9999.25    0.05670
 2598.50000   12.08900   -9999.25   -9999.25    0.05580
 2599.00000   11.49340   -9999.25   -9999.25    0.05700
 2599.50000   11.04930   -9999.25   -9999.25    0.05850
 2600.00000   10.58460   -9999.25   -9999.25    0.06050
 2600.50000   10.92870   -9999.25   -9999.25    0.06180
 2601.00000   11.40290   -9999.25   -9999.25    0.06430
 2601.50000   12.01060   -9999.25   -9999.25    0.06360
 2602.00000   11.36980   -9999.25   -9999.25    0.06240
 2602.50000   10.07090   -9999.25   -9999.25    0.06090
 2603.00000    9.02380   -9999.25   -9999.25    0.05960
 2603.50000    8.73090   -9999.25   -9999.25    0.05990
 2604.00000   10.11140   -9999.25   -9999.25    0.06200
 2604.50000   11.48850   -9999.25   -9999.25    0.06380
 2605.00000   12.10810   -9999.25   -9999.25    0.06710
 2605.50000   11.51550   -9999.25   -9999.25    0.07100
 2606.00000   10.92300   -9999.25   -9999.25    0.06890
 2606.50000   10.33040   -9999.25   -9999.25    0.06440
 2607.00000    9.73780   -9999.25   -9999.25    0.06040
 2607.50000   10.50890   -9999.25   -9999.25    0.05840
 2608.00000   11.12850   -9999.25   -9999.25    0.05990
 2608.50000   11.59320   -9999.25   -9999.25    0.06230
 2609.00000   10.70090   -9999.25   -9999.25    0.06220
 2609.50000   10.10840   -9999.25   -9999.25    0.06190
 2610.00000    9.81890   -9999.25   -9999.25    0.06310
 2610.50000   11.19600   -9999.25   -9999.25    0.06520
 2611.00000   12.42160   -9999.25   -9999.25    0.06700
 2611.50000   12.90160   -9999.25   -9999.25    0.06790
 2612.00000   12.14560   -9999.25   -9999.25    0.06790
 2612.50000   11.85610   -9999.25   -9999.25    0.06730
 2613.00000   12.02120   -9999.25   -9999.25    0.06640
 2613.50000   12.35010   -9999.25   -9999.25    0.06290
 2614.00000   13.29710   -9999.25   -9999.25    0.05790
 2614.50000   14.68630   -9999.25   -9999.25    0.05520
