~Version ---------------------------------------------------
VERS.   2.0 : CWLS log ASCII Standard -VERSION 2.0
WRAP.    NO : One line per depth step
DLM . SPACE : Column Data Section Delimiter
~Well ------------------------------------------------------
STRT .F                 184.0 : START DEPTH
STOP .F                9150.0 : STOP DEPTH
STEP .F                   0.5 : STEP
NULL .               -9999.25 : NULL VALUE
COMP .                        : COMPANY
WELL .                        : WELL
FLD  .                        : FIELD
LOC  .                        : LOCATION
PROV .                        : PROVINCE
CNTY .                        : COUNTY
STAT .                        : STATE
CTRY .                        : COUNTRY
SRVC .                        : SERVICE COMPANY
DATE .                        : DATE
UWI  .                        : UNIQUE WELL ID
API  .                        : API NUMBER
SLAT .WGS84 2.400688191902802 : SURFACE LATITUDE
SLON .WGS84 8.544721229597002 : SURFACE LONGITUDE
DATUM.F               3190.61 : DEPTH DATUM ELEV
~Curve Information -----------------------------------------
DEPT.F     : 
GRS .GAPI  : GAMMA RAY FROM SONIC LOG
DTCO.US/F  : COMPRESSIONAL-WAVE INTERVAL TRANSIT TIME ACAUSTIC SLOWNESS
DTSM.US/F  : SHEAR-WAVE INTERVAL TRANSIT TIME DELTA-T
TNPH.DEC   : THERMAL NEUTRON POROSITY
~Params ----------------------------------------------------
~Other -----------------------------------------------------
~ASCII -----------------------------------------------------
# ...
 1971.50000   24.54620   -9999.25   -9999.25    0.33890
 1972.00000   24.25360   -9999.25   -9999.25    0.35750
 1972.50000   25.47880   -9999.25   -9999.25    0.33280
 1973.00000   26.09280   -9999.25   -9999.25    0.32170
 1973.50000   24.89370   -9999.25   -9999.25    0.31270
 1974.00000   23.99510   -9999.25   -9999.25    0.32650
 1974.50000   23.85140   -9999.25   -9999.25    0.34090
 1975.00000   24.92510   -9999.25   -9999.25    0.36350
 1975.50000   24.17800   -9999.25   -9999.25    0.37850
 1976.00000   22.21880   -9999.25   -9999.25    0.37920
 1976.50000   21.08940   -9999.25   -9999.25    0.36580
 1977.00000   22.69430   -9999.25   -9999.25    0.33950
 1977.50000   24.97740   -9999.25   -9999.25    0.31050
 1978.00000   26.04850   -9999.25   -9999.25    0.31940
 1978.50000   25.45290   -9999.25   -9999.25    0.36070
 1979.00000   25.80930   -9999.25   -9999.25    0.38200
 1979.50000   27.31460   -9999.25   -9999.25    0.38410
 1980.00000   26.85060   -9999.25   -9999.25    0.38440
 1980.50000   25.34590   -9999.25   -9999.25    0.40180
 1981.00000   24.44730   -9999.25   -9999.25    0.42500
 1981.50000   23.24560   -9999.25   -9999.25    0.43130
 1982.00000   22.79890   -9999.25   -9999.25    0.42010
 1982.50000   23.72110   -9999.25   -9999.25    0.36780
 1983.00000   24.33760   -9999.25   -9999.25    0.30310
 1983.50000   24.49960   -9999.25   -9999.25    0.29680
 1984.00000   24.66160   -9999.25   -9999.25    0.30970
 1984.50000   24.67210   -9999.25   -9999.25    0.31510
 1985.00000   24.37690   -9999.25   -9999.25    0.30100
 1985.50000   23.78130   -9999.25   -9999.25    0.26170
 1986.00000   23.33940   -9999.25   -9999.25    0.24890
 1986.50000   24.56240   -9999.25   -9999.25    0.26880
 1987.00000   25.78500   -9999.25   -9999.25    0.29160
 1987.50000   26.70450   -9999.25   -9999.25    0.31740
 1988.00000   28.08670   -9999.25   -9999.25    0.32980
 1988.50000   28.99820   -9999.25   -9999.25    0.32190
 1989.00000   28.70560   -9999.25   -9999.25    0.31020
 1989.50000   29.02180   -9999.25   -9999.25    0.30420
 1990.00000   29.48680   -9999.25   -9999.25    0.30320
 1990.50000   29.95180   -9999.25   -9999.25    0.30530
 1991.00000   27.68950   -9999.25   -9999.25    0.30440
 1991.50000   23.30600   -9999.25   -9999.25    0.29420
 1992.00000   22.10180   -9999.25   -9999.25    0.25270
 1992.50000   22.87240   -9999.25   -9999.25    0.21750
 1993.00000   24.39810   -9999.25   -9999.25    0.20480
 1993.50000   26.07520   -9999.25   -9999.25    0.21380
 1994.00000   26.69170   -9999.25   -9999.25    0.21800
 1994.50000   25.79310   -9999.25   -9999.25    0.21950
 1995.00000   26.10660   -9999.25   -9999.25    0.22190
 1995.50000   26.57160   -9999.25   -9999.25    0.22700
 1996.00000   27.18810   -9999.25   -9999.25    0.21680
 1996.50000   27.04710   -9999.25   -9999.25    0.18850
 1997.00000   24.93250   -9999.25   -9999.25    0.14520
 1997.50000   24.03770   -9999.25   -9999.25    0.12940
 1998.00000   23.25460   -9999.25   -9999.25    0.12800
 1998.50000   22.18840   -9999.25   -9999.25    0.13930
 1999.00000   20.37560   -9999.25   -9999.25    0.15360
 1999.50000   18.47490   -9999.25   -9999.25    0.17550
 2000.00000   18.02930   -9999.25   -9999.25    0.20410
 2000.50000   20.92310   -9999.25   -9999.25    0.23890
 2001.00000   22.29870   -9999.25   -9999.25    0.24980
 2001.50000   22.91370   -9999.25   -9999.25    0.24830
 2002.00000   21.41360   -9999.25   -9999.25    0.23200
 2002.50000   19.30430   -9999.25   -9999.25    0.19710
 2003.00000   16.89210   -9999.25   -9999.25    0.15900
 2003.50000   15.69190   -9999.25   -9999.25    0.13180
 2004.00000   15.09780   -9999.25   -9999.25    0.08190
 2004.50000   14.50380   -9999.25   -9999.25    0.06930
 2005.00000   14.36120   -9999.25   -9999.25    0.06260
 2005.50000   14.52770   -9999.25   -9999.25    0.05750
 2006.00000   14.53970   -9999.25   -9999.25    0.05510
 2006.50000   13.94560   -9999.25   -9999.25    0.05480
 2007.00000   13.50090   -9999.25   -9999.25    0.05630
 2007.50000   14.42420   -9999.25   -9999.25    0.05870
 2008.00000   14.90300   -9999.25   -9999.25    0.05930
 2008.50000   15.20570   -9999.25   -9999.25    0.05660
 2009.00000   13.77590   -9999.25   -9999.25    0.05510
 2009.50000   12.65390   -9999.25   -9999.25    0.05510
 2010.00000   13.42640   -9999.25   -9999.25    0.05450
 2010.50000   14.19600   -9999.25   -9999.25    0.05260
 2011.00000   14.96560   -9999.25   -9999.25    0.05050
 2011.50000   16.34120   -9999.25   -9999.25    0.04660
 2012.00000   17.56530   -9999.25   -9999.25    0.04270
 2012.50000   18.33480   -9999.25   -9999.25    0.03880
 2013.00000   16.83170   -9999.25   -9999.25    0.03640
 2013.50000   15.78300   -9999.25   -9999.25    0.03730
 2014.00000   15.64050   -9999.25   -9999.25    0.03640
 2014.50000   15.95850   -9999.25   -9999.25    0.03550
 2015.00000   15.06140   -9999.25   -9999.25    0.03430
 2015.50000   14.16430   -9999.25   -9999.25    0.03360
 2016.00000   15.23690   -9999.25   -9999.25    0.03300
 2016.50000   16.15800   -9999.25   -9999.25    0.03330
 2017.00000   16.19400   -9999.25   -9999.25    0.03510
 2017.50000   15.27280   -9999.25   -9999.25    0.03780
 2018.00000   14.22210   -9999.25   -9999.25    0.03900
 2018.50000   13.47860   -9999.25   -9999.25    0.03770
 2019.00000   13.79390   -9999.25   -9999.25    0.03510
 2019.50000   14.10910   -9999.25   -9999.25    0.03390
 2020.00000   14.57820   -9999.25   -9999.25    0.03570
 2020.50000   14.89320   -9999.25   -9999.25    0.03870
 2021.00000   15.05670   -9999.25   -9999.25    0.04350
 2021.50000   16.12920   -9999.25   -9999.25    0.04830
 2022.00000   17.35340   -9999.25   -9999.25    0.05340
 2022.50000   17.81990   -9999.25   -9999.25    0.06420
 2023.00000   16.77130   -9999.25   -9999.25    0.07870
 2023.50000   16.02570   -9999.25   -9999.25    0.08920
 2024.00000   16.49220   -9999.25   -9999.25    0.10000
 2024.50000   17.11020   -9999.25   -9999.25    0.10660
 2025.00000   17.72830   -9999.25   -9999.25    0.11050
 2025.50000   16.37660   -9999.25   -9999.25    0.11350
 2026.00000   15.78250   -9999.25   -9999.25    0.10560
 2026.50000   15.64000   -9999.25   -9999.25    0.10270
 2027.00000   15.65500   -9999.25   -9999.25    0.10360
 2027.50000   15.66700   -9999.25   -9999.25    0.11140
 2028.00000   16.13350   -9999.25   -9999.25    0.12130
 2028.50000   17.35760   -9999.25   -9999.25    0.12850
 2029.00000   19.94630   -9999.25   -9999.25    0.13150
 2029.50000   20.86440   -9999.25   -9999.25    0.13210
 2030.00000   19.96730   -9999.25   -9999.25    0.13450
 2030.50000   19.98230   -9999.25   -9999.25    0.14260
 2031.00000   20.75180   -9999.25   -9999.25    0.16670
 2031.50000   22.12750   -9999.25   -9999.25    0.18710
 2032.00000   23.50310   -9999.25   -9999.25    0.21330
 2032.50000   25.04050   -9999.25   -9999.25    0.23160
 2033.00000   26.11520   -9999.25   -9999.25    0.23580
 2033.50000   25.45160   -9999.25   -9999.25    0.22490
 2034.00000   24.25670   -9999.25   -9999.25    0.20060
 2034.50000   22.65690   -9999.25   -9999.25    0.15640
 2035.00000   21.75980   -9999.25   -9999.25    0.11100
 2035.50000   20.86270   -9999.25   -9999.25    0.09360
 2036.00000   20.26860   -9999.25   -9999.25    0.08300
 2036.50000   19.52300   -9999.25   -9999.25    0.06710
 2037.00000   18.77740   -9999.25   -9999.25    0.05470
 2037.50000   17.88030   -9999.25   -9999.25    0.04750
 2038.00000   17.28620   -9999.25   -9999.25    0.04510
 2038.50000   17.14370   -9999.25   -9999.25    0.04240
 2039.00000   17.00410   -9999.25   -9999.25    0.04030
 2039.50000   16.41310   -9999.25   -9999.25    0.03580
 2040.00000   15.36440   -9999.25   -9999.25    0.03060
 2040.50000   14.61880   -9999.25   -9999.25    0.03190
 2041.00000   14.17580   -9999.25   -9999.25    0.03400
 2041.50000   14.18830   -9999.25   -9999.25    0.03510
 2042.00000   14.65480   -9999.25   -9999.25    0.03060
 2042.50000   14.81830   -9999.25   -9999.25    0.02880
