~Version ---------------------------------------------------
VERS.   2.0 : CWLS log ASCII Standard -VERSION 2.0
WRAP.    NO : One line per depth step
DLM . SPACE : Column Data Section Delimiter
~Well ------------------------------------------------------
STRT .F                 180.0 : START DEPTH
STOP .F                7174.0 : STOP DEPTH
STEP .F                   0.5 : STEP
NULL .               -9999.25 : NULL VALUE
COMP .                        : COMPANY
WELL .                        : WELL
FLD  .                        : FIELD
LOC  .                        : LOCATION
PROV .                        : PROVINCE
CNTY .                        : COUNTY
STAT .                        : STATE
CTRY .                        : COUNTRY
SRVC .                        : SERVICE COMPANY
DATE .                        : DATE
UWI  .                        : UNIQUE WELL ID
API  .                        : API NUMBER
SLAT .WGS84 3.063333872257701 : SURFACE LATITUDE
SLON .WGS84 8.393341535545005 : SURFACE LONGITUDE
DATUM.F                   nan : DEPTH DATUM ELEV
~Curve Information -----------------------------------------
DEPT   .F     : 1 MEASURED DEPTH
DTCO   .US/F  : DELTA-T COMPRESSIONAL
DTSH   .US/F  : DELTA-T SHEAR BOREHOLE COMPENSATED (DEPTH DERIVED)
DTSM   .US/F  : DELTA-T SHEAR
HSGRD  .GAPI  : HNGS STANDARD GAMMA RAY FROM DENSITY LOG
TNPH_LS.DEC   : THERMAL NEUTRON POROSITY [LIMESTONE]
PEFZ   .B/E   : HRDD STANDARD RESOLUTION FORMATION PHOTOELECTRIC FACTOR
DPHZ_LS.DEC   : HGRD STANDARD RESOLUTION DENSITY POROSITY
HDRA   .G/C3  : HRDD SPINE AND RIBS DENSITY CORRECTION
RHOZ   .G/C3  : HRDD STANDARD RESOLUTION FORMATION DENSITY
RLA3   .OHMM  : APPARENT RESISTIVITY FROM COMPUTED FOCUSING MODE 3
RLA5   .OHMM  : APPARENT RESISTIVITY FROM COMPUTED FOCUSING MODE 5
RXOZ   .OHMM  : INVADED FORMATION RESISTIVITY FILTERED AT 18 INCHES
HCALR  .IN    : HRCC CALIPER CALIBRATED FROM RESISTIVITY LOG
~Params ----------------------------------------------------
~Other -----------------------------------------------------
~ASCII -----------------------------------------------------
# ...
 2936.00000   55.89430  104.09090  185.37620   11.82430    0.02060    5.35400   -0.14430    0.00700    2.94580  313.93850  389.56480   93.89200    8.97530
 2936.50000   55.95920  103.40720  186.49130   11.64260    0.01980    5.35140   -0.14800    0.00700    2.95140  395.87820  476.09520  166.19490    8.92790
 2937.00000   55.75710  103.45610  186.27870   11.63830    0.01900    5.33270   -0.15020    0.00660    2.95280  114.63770  130.33530  158.77280    8.91870
 2937.50000   54.67550  102.62150  185.54510   11.05020    0.01680    5.29250   -0.15460    0.00610    2.95430  126.32870  173.69970  153.30900    8.91090
 2938.00000   53.82980  101.02250  184.79660   10.19010    0.01430    5.26680   -0.15200    0.00560    2.95570  338.28340  368.61980  179.08240    8.90300
 2938.50000   52.76050  100.32070  184.18060    9.39410    0.00930    5.36410   -0.15130    0.00520    2.96480  532.88240  621.07660  209.00910    8.87620
 2939.00000   52.95710  100.30600  184.07670    9.09300    0.00760    5.37950   -0.15270    0.00510    2.97630  976.68640 1291.16700  353.20690    8.87010
 2939.50000   54.05010  101.79870  184.26330    9.39770    0.00300    5.24940   -0.16030    0.00520    2.98390  919.18620 1961.25730  451.40050    8.88670
 2940.00000   54.72450  103.29510  185.29070   10.86340    0.00590    4.97560   -0.16610    0.00520    2.97160  281.07490  419.45160  122.89530    8.90330
 2940.50000   54.94510  104.73040  186.04280   11.35790    0.00870    4.80000   -0.17100    0.00520    2.96270  216.65640  333.04630  180.64200    8.90310
 2941.00000   55.19840  106.61100  186.35400   10.35780    0.01080    4.93680   -0.16210    0.00520    2.96160  332.34400  472.44940  231.17050    8.91870
 2941.50000   56.28380  109.64190  187.07000    9.51360    0.01220    5.20420   -0.15800    0.00520    2.95980  241.83550  279.53680  194.35390    8.94070
 2942.00000   61.12340  114.10400  189.14560    9.36890    0.01530    5.26680   -0.15740    0.00520    2.94700  135.07660  156.81430  116.47430    8.96830
 2942.50000   66.99660  119.06790  192.74430   12.38920    0.03270    5.24890   -0.14750    0.00520    2.87850   74.82960   72.35990   49.71140    8.99400
 2943.00000   69.54500  125.88720  195.93320   17.72530    0.05770    5.15280   -0.09070    0.00520    2.83250   34.80710   25.21920   21.21690    9.01970
 2943.50000   69.21540  131.21000  194.85900   22.38880    0.08530    5.07150   -0.07280    0.00510    2.83830   18.05740   10.77100   13.75300    9.03340
 2944.00000   62.90960  124.15210  190.73020   22.09690    0.09340    5.00100   -0.07720    0.00450    2.86890   27.37230   38.20480   16.67530    9.00570
 2944.50000   56.84040  120.01670  186.56740   17.85340    0.07630    4.93060   -0.09280    0.00390    2.88280  125.21080  187.37060   41.40690    8.95960
 2945.00000   54.39850  105.66070  184.09610   13.47100    0.04240    4.82740   -0.10840    0.00330    2.88390  157.74470  299.18560  121.92970    8.94330
 2945.50000   53.39340   97.13340  184.44450   12.51230    0.03860    4.72080   -0.10770    0.00400    2.88860  126.74500  164.18230  104.72620    8.96730
 2946.00000   53.18720   97.93040  185.62610   11.87700    0.03540    4.71660   -0.10800    0.00610    2.91100  158.27420  227.46800  113.24590    8.98920
 2946.50000   52.87110   99.88740  184.85650   10.48980    0.02420    4.93490   -0.12990    0.01110    2.94800  456.82590  527.53230  271.72870    8.89630
 2947.00000   52.87870  101.80970  183.86630    9.35320    0.01550    5.15910   -0.15450    0.01560    2.96440  699.30550  784.37260  302.66540    8.81540
 2947.50000   53.30250  102.25570  184.07340    9.33990    0.00830    5.25310   -0.16020    0.01470    2.97110  940.64780 1280.49460  274.34910    8.79970
 2948.00000   54.51570  102.88430  185.08110   10.13410    0.00920    5.29700   -0.16340    0.01160    2.97780  606.95820 1373.73500  314.16690    8.80530
 2948.50000   56.17360  106.57970  186.00350   11.23140    0.01470    5.26800   -0.16860    0.00850    2.97950  227.97140  316.08630  161.35220    8.81090
 2949.00000   57.82820  111.14790  187.05140   12.10230    0.02220    5.23400   -0.16590    0.00730    2.97470  125.76890  137.83050  103.80820    8.81640
 2949.50000   59.96020  115.37110  188.27380   14.07730    0.03460    5.19920   -0.15150    0.00730    2.96990   93.94410  101.21440   76.00920    8.82400
 2950.00000   64.04930  119.59430  190.15880   16.26130    0.05130    5.17330   -0.13370    0.00660    2.91490   74.58990   79.04100   19.07510    8.83830
 2950.50000   65.41560  121.84560  191.89560   17.84060    0.07320    5.12890   -0.11090    0.00530    2.87520   16.74110   24.57460   12.97420    8.85020
 2951.00000   64.73400  120.23100  191.99370   17.34180    0.07480    5.08760   -0.10230    0.00410    2.88750   20.59520   27.65530   13.15000    8.82100
 2951.50000   59.79950  115.95050  189.35120   14.56870    0.05960    5.00020   -0.11310    0.00300    2.91740   54.60680  151.21540   37.89060    8.79080
 2952.00000   55.93170  110.94790  185.71520   11.77440    0.03930    4.71230   -0.14890    0.00300    2.95860  530.89690 1220.04930  234.27730    8.75660
 2952.50000   53.65200  105.96810  183.75260   12.27060    0.03160    4.31000   -0.16260    0.00300    2.97060  502.31750  824.15730  347.27420    8.74530
 2953.00000   53.28240  101.21860  183.84870   14.44990    0.03630    3.86020   -0.16120    0.00390    2.96030   33.06900  181.27160   73.21600    8.73910
 2953.50000   53.32010   97.93180  183.96170   15.34830    0.03930    3.79210   -0.15300    0.00640    2.95310   62.38670   82.47970   64.61460    8.73150
 2954.00000   53.44490   97.93180  184.74410   13.04590    0.02870    4.06540   -0.15400    0.00720    2.97020  158.79850  297.24790   98.72480    8.72510
 2954.50000   53.36070   99.84020  185.35920   10.40670    0.01610    4.68840   -0.16100    0.00720    2.99080  391.17730  441.33240  307.18230    8.71870
 2955.00000   52.98940  101.39930  184.51210    9.80460    0.01260    4.98700   -0.17170    0.00720    2.98590  441.78740  469.21040  406.52450    8.71100
 2955.50000   52.31570  101.49910  184.22140   11.86540    0.01830    4.91160   -0.17530    0.00720    2.97340  338.53330  438.58270  235.89500    8.69700
 2956.00000   52.40130  102.15200  184.01180   14.06440    0.03290    4.92220   -0.16090    0.00720    2.94490   78.82920  125.86320   43.41440    8.70300
 2956.50000   53.04020  103.34880  183.99380   15.66160    0.04110    4.93560   -0.14350    0.00720    2.92270   50.59820   52.83070   33.85920    8.70910
 2957.00000   54.35510  103.98550  184.37760   15.92830    0.04420    5.07180   -0.12940    0.00720    2.90930   57.53530   61.57730   31.67980    8.71520
 2957.50000   56.38760  106.53540  186.22230   16.09090    0.04710    5.18630   -0.12280    0.00720    2.89260   61.91670   67.23530   42.40830    8.72120
 2958.00000   58.39050  109.30220  187.52730   17.13350    0.05290    5.19860   -0.11630    0.00720    2.87780   56.32530   61.14400   47.32480    8.72730
 2958.50000   59.13420  112.07660  187.90660   18.24980    0.06020    5.19540   -0.10340    0.00720    2.87530   38.24350   44.33960   28.98160    8.73330
 2959.00000   61.01350  116.67360  188.26450   18.42280    0.06510    5.19430   -0.10070    0.00730    2.88170   22.38750   26.51980   17.21750    8.73550
 2959.50000   61.44420  117.81880  188.36510   17.05770    0.05970    5.23840   -0.11060    0.00730    2.89190   34.23310   55.32060   18.13510    8.74380
 2960.00000   59.85420  116.38640  188.26510   14.30080    0.04310    5.29990   -0.12270    0.00730    2.92050   60.92470   79.53640   50.07210    8.73960
 2960.50000   61.73380  117.40590  188.37900   12.92510    0.03210    5.34980   -0.13100    0.00680    2.93740   82.44030  109.59890   48.90450    8.73530
 2961.00000   63.99640  119.18130  190.31470   13.20540    0.03420    5.34980   -0.13770    0.00630    2.92850   68.47020   87.77860   41.77070    8.73610
 2961.50000   63.71400  121.28080  190.96090   13.98330    0.03950    5.31370   -0.14130    0.00570    2.91800   48.84980   58.98700   32.27930    8.74580
