~Version ---------------------------------------------------
VERS.   2.0 : CWLS log ASCII Standard -VERSION 2.0
WRAP.    NO : One line per depth step
DLM . SPACE : Column Data Section Delimiter
~Well ------------------------------------------------------
STRT .F                 180.0 : START DEPTH
STOP .F                7174.0 : STOP DEPTH
STEP .F                   0.5 : STEP
NULL .               -9999.25 : NULL VALUE
COMP .                        : COMPANY
WELL .                        : WELL
FLD  .                        : FIELD
LOC  .                        : LOCATION
PROV .                        : PROVINCE
CNTY .                        : COUNTY
STAT .                        : STATE
CTRY .                        : COUNTRY
SRVC .                        : SERVICE COMPANY
DATE .                        : DATE
UWI  .                        : UNIQUE WELL ID
API  .                        : API NUMBER
SLAT .WGS84 3.063333872257701 : SURFACE LATITUDE
SLON .WGS84 8.393341535545005 : SURFACE LONGITUDE
DATUM.F                   nan : DEPTH DATUM ELEV
~Curve Information -----------------------------------------
DEPT   .F     : 1 MEASURED DEPTH
DTCO   .US/F  : DELTA-T COMPRESSIONAL
DTSH   .US/F  : DELTA-T SHEAR BOREHOLE COMPENSATED (DEPTH DERIVED)
DTSM   .US/F  : DELTA-T SHEAR
HSGRD  .GAPI  : HNGS STANDARD GAMMA RAY FROM DENSITY LOG
TNPH_LS.DEC   : THERMAL NEUTRON POROSITY [LIMESTONE]
PEFZ   .B/E   : HRDD STANDARD RESOLUTION FORMATION PHOTOELECTRIC FACTOR
DPHZ_LS.DEC   : HGRD STANDARD RESOLUTION DENSITY POROSITY
HDRA   .G/C3  : HRDD SPINE AND RIBS DENSITY CORRECTION
RHOZ   .G/C3  : HRDD STANDARD RESOLUTION FORMATION DENSITY
RLA3   .OHMM  : APPARENT RESISTIVITY FROM COMPUTED FOCUSING MODE 3
RLA5   .OHMM  : APPARENT RESISTIVITY FROM COMPUTED FOCUSING MODE 5
RXOZ   .OHMM  : INVADED FORMATION RESISTIVITY FILTERED AT 18 INCHES
HCALR  .IN    : HRCC CALIPER CALIBRATED FROM RESISTIVITY LOG
~Params ----------------------------------------------------
~Other -----------------------------------------------------
~ASCII -----------------------------------------------------
# ...
 4184.00000   51.14720   94.87690  184.33420   11.15170    0.12930    3.26170    0.02170    0.00150    2.69310   26.74440   35.63010   20.83890    8.27750
 4184.50000   52.61070   96.16470  185.65530    9.96560    0.13040    3.41740    0.01950    0.00150    2.67830   14.71840   18.17160   10.20930    8.28110
 4185.00000   54.22280   94.90540  186.76180    9.50380    0.12280    3.55290    0.00250    0.00150    2.68040   11.11850   12.08610    6.36660    8.28730
 4185.50000   55.19580   95.23060  187.28910    9.51780    0.09910    3.67950   -0.02420    0.00150    2.69800    9.48890   10.54540    5.69300    8.29440
 4186.00000   54.91200   97.05180  186.96270   10.47870    0.07680    3.69400   -0.03790    0.00150    2.72620   13.94810   17.94220    6.72730    8.30150
 4186.50000   53.96500   99.09890  186.03250   11.51390    0.07580    3.59060   -0.04470    0.00150    2.76000   27.96040   39.96880   13.01090    8.30830
 4187.00000   52.58260   99.85120  184.94210   11.83430    0.07250    3.47710   -0.04990    0.00150    2.77310   42.16150   48.19580   24.01420    8.30030
 4187.50000   51.17400   97.11780  184.26590   11.73920    0.06620    3.34830   -0.06540    0.00150    2.78180   32.98630   39.54010   31.09160    8.29170
 4188.00000   49.64370   92.32300  183.93940   11.91120    0.05200    3.25780   -0.07950    0.00150    2.78890   40.75280   44.23770   33.62520    8.28320
 4188.50000   48.70170   90.97300  183.71250   12.24260    0.03820    3.20100   -0.09600    0.00150    2.81080   51.71990   66.66210   47.41880    8.27470
 4189.00000   47.90830   90.03070  183.46780   12.38190    0.03070    3.23260   -0.09900    0.00150    2.84690   65.84230   69.19500   57.86330    8.26610
 4189.50000   47.04360   89.47490  183.22320   11.97660    0.02390    3.28730   -0.09830    0.00150    2.86330   62.58370   70.83880   50.91120    8.25760
 4190.00000   45.76540   88.23150  183.09910   11.71460    0.01970    3.34740   -0.09450    0.00150    2.87290   72.33600   76.04120   64.13500    8.24910
 4190.50000   45.16380   86.52100  183.00910   11.84260    0.01860    3.39870   -0.09510    0.00670    2.86770   81.62020  102.54190   79.18400    8.24050
 4191.00000   44.60200   85.55780  182.92240   13.11230    0.01810    3.40230   -0.09640    0.01260    2.86350   89.63710  121.31370   97.76400    8.23310
 4191.50000   44.36740   86.04010  182.88700   16.12110    0.02180    3.36040   -0.09710    0.01190    2.86450   94.04590  126.70160  109.86880    8.23170
 4192.00000   44.18800   85.11550  182.85160   19.01970    0.02880    3.32600   -0.09500    0.00690    2.86590  105.10630  164.28820  115.63670    8.22620
 4192.50000   44.90230   86.19170  182.12230   21.83070    0.03350    3.33720   -0.09390    0.00190    2.86730  174.81220  230.07790  130.02650    8.21660
 4193.00000   45.75570   88.75830  181.75380   23.43320    0.03690    3.34980   -0.09710    0.00090    2.86790  172.37270  224.27010  123.21170    8.20700
 4193.50000   45.93140   88.41380  182.31340   24.55780    0.03680    3.35970   -0.09360    0.00030    2.86520  233.10910  300.31810   70.69850    8.19370
 4194.00000   46.08360   88.84410  182.85300   25.63570    0.03680    3.31920   -0.09150   -0.00030    2.86140  160.63730  185.97960   63.56150    8.16880
 4194.50000   47.11440   88.33040  183.17510   25.73200    0.03680    3.32020   -0.09040   -0.00040    2.85750  121.32650  136.08890   84.25380    8.18410
 4195.00000   47.41260   89.17280  183.17230   25.81660    0.03740    3.32140   -0.08870   -0.00040    2.84900   81.68210  100.49050  120.52840    8.20470
 4195.50000   48.11530   91.63250  183.58460   26.58780    0.04130    3.33500   -0.08040   -0.00040    2.83130   75.99960  102.81020  154.32610    8.22520
 4196.00000   49.99730   94.12590  183.71780   26.96760    0.04720    3.38220   -0.06630   -0.00040    2.81350   61.80200   92.04190  104.86980    8.22430
 4196.50000   50.49540   94.20130  183.61500   22.81570    0.05020    3.38370   -0.06540    0.00030    2.81920   31.48000   47.70200   30.23270    8.21230
 4197.00000   49.98170   91.18540  183.09210   17.59290    0.05020    3.35060   -0.07200    0.00110    2.83260   46.52500   80.13240   26.99130    8.17520
 4197.50000   48.36670   89.55290  182.18670   13.16550    0.03890    3.31190   -0.08680    0.00340    2.84590  169.40760  283.19460   54.61690    8.14450
 4198.00000   46.61010   86.59950  181.78360   11.70130    0.02740    3.29440   -0.09410    0.00520    2.85850  297.83270  370.96690   96.30600    8.16900
 4198.50000   46.71020   84.19010  182.84990   11.45070    0.01890    3.31250   -0.08990    0.00380    2.85540  240.63490  294.13280  116.92770    8.21040
 4199.00000   46.79630   84.19030  182.88060   11.65180    0.01600    3.31170   -0.08180    0.00230    2.84910  187.18200  211.26800  125.37010    8.27160
 4199.50000   45.93080   85.92190  182.53300   11.12140    0.01790    3.31080   -0.07810    0.00150    2.84270  167.76590  202.62980  151.81600    8.23580
 4200.00000   44.75970   88.04900  182.24620   10.06040    0.02350    3.29670   -0.07430    0.00150    2.82890  125.91730  162.15790  143.53030    8.22240
 4200.50000   45.19240   89.75490  182.16520    9.94040    0.03490    3.25440   -0.06810    0.00150    2.80430   68.76490  107.23280   91.43750    8.23730
 4201.00000   46.85920   92.33020  183.33070   10.30190    0.04620    3.29350   -0.05070    0.00150    2.75740   39.24990   51.14650   37.88210    8.25220
 4201.50000   49.22820   93.06960  184.09270   10.67990    0.05700    3.31680   -0.05890    0.00150    2.73670   24.16000   28.39350   18.59480    8.26700
 4202.00000   51.11430   91.65440  184.14190   10.71680    0.06010    3.32270   -0.04610    0.00150    2.71770   22.11630   28.09950   13.01340    8.29160
 4202.50000   51.44110   91.67170  184.26010   10.61910    0.07630    3.34670   -0.01900    0.00010    2.70750   28.00850   30.80740   14.21140    8.30650
 4203.00000   51.06830   92.82260  184.15150    9.95380    0.09390    3.38110   -0.00170   -0.00180    2.72670   33.03210   35.86120   15.43520    8.30690
 4203.50000   50.31930   94.38350  184.09010    9.52550    0.09720    3.36080    0.00140   -0.00220    2.74790   39.80290   44.13930   20.90590    8.29720
 4204.00000   50.09720   94.16710  184.23020    9.47730    0.09110    3.28510   -0.01210   -0.00150    2.74800   45.45510   48.82700   36.49820    8.28590
 4204.50000   49.88380   93.00630  184.37030    9.45380    0.08820    3.21280   -0.02320    0.00020    2.73430   42.77420   45.77390   40.61910    8.27460
 4205.00000   49.78190   91.75260  184.57050    9.67870    0.09330    3.18690   -0.02190    0.00160    2.72420   40.56580   42.37570   28.64740    8.30490
 4205.50000   49.51100   91.36410  184.64090   10.12890    0.10100    3.20620   -0.01270    0.00170    2.73080   46.20940   56.78300   26.82490    8.30640
 4206.00000   48.70060   90.95220  183.89250   10.44840    0.10460    3.26600   -0.00690    0.00190    2.76960   84.70090  118.95410   32.29500    8.29430
 4206.50000   47.65990   89.94590  182.87270   11.36630    0.08750    3.32090   -0.01560    0.00200    2.82940  170.76990  258.62690   76.94760    8.28550
 4207.00000   46.74240   88.42150  181.85280   12.21130    0.06800    3.33330   -0.04980    0.00210    2.85420  219.63020  251.91580  137.74120    8.28480
 4207.50000   46.08830   85.23970  181.21990   12.72610    0.05060    3.34360   -0.07380    0.00220    2.85940  207.09260  313.63480  164.82980    8.28420
 4208.00000   46.17170   85.63780  181.36280   12.74620    0.03740    3.34770   -0.08980    0.00230    2.86560  342.00230  468.59750  170.65550    8.27510
 4208.50000   46.24540   87.22180  181.53360   12.51420    0.03000    3.38440   -0.09300    0.00250    2.86990  291.14970  375.16580  172.67020    8.27480
 4209.00000   46.22070   87.36750  181.70450   12.43230    0.02560    3.39730   -0.10090    0.00260    2.87050  264.52400  285.15990  204.78670    8.28530
 4209.50000   46.31460   87.89740  181.71550   12.88990    0.02420    3.38760   -0.10080    0.00270    2.87050  223.56630  314.04740  197.37430    8.26740
