~Version ---------------------------------------------------
VERS.   2.0 : CWLS log ASCII Standard -VERSION 2.0
WRAP.    NO : One line per depth step
DLM . SPACE : Column Data Section Delimiter
~Well ------------------------------------------------------
STRT .F                 180.0 : START DEPTH
STOP .F                7174.0 : STOP DEPTH
STEP .F                   0.5 : STEP
NULL .               -9999.25 : NULL VALUE
COMP .                        : COMPANY
WELL .                        : WELL
FLD  .                        : FIELD
LOC  .                        : LOCATION
PROV .                        : PROVINCE
CNTY .                        : COUNTY
STAT .                        : STATE
CTRY .                        : COUNTRY
SRVC .                        : SERVICE COMPANY
DATE .                        : DATE
UWI  .                        : UNIQUE WELL ID
API  .                        : API NUMBER
SLAT .WGS84 3.063333872257701 : SURFACE LATITUDE
SLON .WGS84 8.393341535545005 : SURFACE LONGITUDE
DATUM.F                   nan : DEPTH DATUM ELEV
~Curve Information -----------------------------------------
DEPT   .F     : 1 MEASURED DEPTH
DTCO   .US/F  : DELTA-T COMPRESSIONAL
DTSH   .US/F  : DELTA-T SHEAR BOREHOLE COMPENSATED (DEPTH DERIVED)
DTSM   .US/F  : DELTA-T SHEAR
HSGRD  .GAPI  : HNGS STANDARD GAMMA RAY FROM DENSITY LOG
TNPH_LS.DEC   : THERMAL NEUTRON POROSITY [LIMESTONE]
PEFZ   .B/E   : HRDD STANDARD RESOLUTION FORMATION PHOTOELECTRIC FACTOR
DPHZ_LS.DEC   : HGRD STANDARD RESOLUTION DENSITY POROSITY
HDRA   .G/C3  : HRDD SPINE AND RIBS DENSITY CORRECTION
RHOZ   .G/C3  : HRDD STANDARD RESOLUTION FORMATION DENSITY
RLA3   .OHMM  : APPARENT RESISTIVITY FROM COMPUTED FOCUSING MODE 3
RLA5   .OHMM  : APPARENT RESISTIVITY FROM COMPUTED FOCUSING MODE 5
RXOZ   .OHMM  : INVADED FORMATION RESISTIVITY FILTERED AT 18 INCHES
HCALR  .IN    : HRCC CALIPER CALIBRATED FROM RESISTIVITY LOG
~Params ----------------------------------------------------
~Other -----------------------------------------------------
~ASCII -----------------------------------------------------
# ...
 5874.00000   49.18520   87.50270  180.83690   26.84750    0.02210    3.84020   -0.08450   -0.00290    2.81080  240.91120  375.65470  150.51780    8.27410
 5874.50000   48.67700   86.19860  180.42700   26.54020    0.01670    3.77230   -0.09530   -0.00250    2.83610  453.46720 1083.47080  225.29830    8.27400
 5875.00000   47.92350   87.62430  179.87570   28.25380    0.01710    3.70440   -0.08840   -0.00100    2.85830  538.57090 1530.03780  299.11600    8.27440
 5875.50000   47.66590   88.81270  180.00880   32.65500    0.02040    3.56060   -0.07540    0.00060    2.86240  309.73020  363.92330  187.64170    8.27610
 5876.00000   48.04510   88.26200  180.22370   37.03710    0.02360    3.50790   -0.06410    0.00210    2.84870  200.85990  258.97530  173.50830    8.27780
 5876.50000   48.61580   86.93780  180.46220   39.55310    0.02530    3.51120   -0.06280    0.00260    2.81970  178.44470  277.01940  158.17820    8.27770
 5877.00000   49.29640   86.10950  181.17380   40.30270    0.02460    3.51590   -0.06660    0.00250    2.80890  181.00650  285.06860  153.21370    8.27380
 5877.50000   49.81410   87.30550  181.18890   42.92190    0.02320    3.43970   -0.05600    0.00250    2.81340  204.34310  242.18540  176.73680    8.27630
 5878.00000   50.87430   92.10570  181.66530   47.36440    0.02400    3.23210   -0.03530    0.00250    2.81670  234.25880  357.92650  205.92290    8.27800
 5878.50000   52.27420   93.22830  182.59320   53.68580    0.03140    3.06360   -0.00950    0.00250    2.80210  214.64660  368.87260  174.90980    8.27370
 5879.00000   54.39760   93.47650  183.52120   58.50250    0.04290    2.91140    0.00790    0.00250    2.76020   54.42490  107.04220   42.54450    8.27390
 5879.50000   56.15000   93.27190  184.04260   59.35470    0.04690    2.81040    0.01800    0.00240    2.73020   33.72710   44.36690   26.59780    8.27400
 5880.00000   56.33000   95.98130  184.04060   57.29030    0.04860    2.80720    0.01590    0.00240    2.70620   29.45730   35.04820   20.76160    8.27410
 5880.50000   55.83720   98.58470  183.94250   55.41300    0.04980    2.82470    0.01580    0.00240    2.68430   33.22820   36.55890   19.92880    8.27490
 5881.00000   55.65340   97.79620  183.84440   55.43600    0.05000    2.82830    0.01890    0.00240    2.68430   37.99440   41.13340   23.44220    8.28240
 5881.50000   56.09800   96.50300  183.76440   57.89190    0.05170    2.84110    0.02990    0.00240    2.68380   43.65340   46.28030   26.66340    8.28500
 5882.00000   57.52750   96.50300  184.42840   62.38530    0.05330    2.90420    0.03460    0.00230    2.67760   45.96650   47.63810   26.82080    8.29260
 5882.50000   59.12010   98.22590  186.53790   62.78060    0.05420    2.96890    0.02770    0.00230    2.65770   47.88050   48.76260   26.82540    8.30030
 5883.00000   60.11030  100.11330  186.67730   61.05920    0.05130    3.03300    0.01820    0.00230    2.65490   46.28560   49.36260   26.82540    8.30790
 5883.50000   59.45490  100.80940  185.44180   55.74190    0.05020    3.10500    0.00300    0.00230    2.67300   40.42710   48.30320   26.04030    8.31550
 5884.00000   56.32950   97.86930  183.02390   49.68650    0.04920    3.17700   -0.01460    0.00220    2.69780   27.01930   31.92470   17.12860    8.32320
 5884.50000   53.37770   93.40640  181.52610   43.72190    0.04760    3.25840   -0.03740    0.00220    2.72970   21.45760   25.27440   14.58150    8.33080
 5885.00000   50.72790   90.55290  180.72820   39.50080    0.04570    3.31820   -0.06290    0.00220    2.76320   25.16970   31.78920   16.23310    8.33850
 5885.50000   49.43700   90.25850  180.27940   39.35630    0.04570    3.31830   -0.04050    0.00220    2.81020   47.91770   81.10330   28.41830    8.34380
 5886.00000   48.73840   88.60200  180.46850   41.27270    0.04560    3.31880   -0.05980    0.00220    2.84960   82.04960   90.58080   45.85920    8.34130
 5886.50000   48.72780   87.24520  180.94190   38.25770    0.04340    3.32830   -0.07210    0.00210    2.84720   89.61950  131.91060   59.71750    8.35570
 5887.00000   48.79740   87.97010  181.14020   36.67440    0.03680    3.39330   -0.08530    0.00210    2.84190  217.01530  548.28850   95.06790    8.36120
 5887.50000   48.62000   88.83820  180.41440   37.47900    0.03580    3.49540   -0.08280    0.00210    2.84040  169.81420  287.18910  123.91530    8.36160
 5888.00000   48.18430   88.72960  179.76070   37.54110    0.03470    3.58680   -0.07950    0.00210    2.85150  120.53300  178.45610   97.33200    8.37020
 5888.50000   47.89040   87.97110  180.77530   36.48170    0.03240    3.67060   -0.08070    0.00210    2.86490  163.95160  354.51040  113.77820    8.37920
 5889.00000   47.94590   87.36780  181.82030   33.41110    0.02950    3.67730   -0.09550    0.00200    2.86110  259.81400  491.19150  152.39280    8.37930
 5889.50000   48.14290   87.31550  181.71640   31.18310    0.02900    3.65170   -0.09560    0.00200    2.84310  271.29640  520.93100  192.19960    8.36810
 5890.00000   48.68390   88.83370  180.29310   31.10430    0.02850    3.62660   -0.09000    0.00200    2.82170  262.72440  522.49420  183.47820    8.35730
 5890.50000   49.14740   89.08760  180.34950   31.93890    0.02890    3.60570   -0.07950    0.00200    2.81080  218.71730  424.18270  165.66680    8.34650
 5891.00000   49.94490   88.60230  180.92820   34.13200    0.02770    3.63410   -0.06470    0.00190    2.80830  203.72240  366.20620  152.94960    8.33940
 5891.50000   51.36460   91.14620  181.45870   38.05260    0.02660    3.61620   -0.06210    0.00190    2.79200  250.38080  451.41530  158.89060    8.34810
 5892.00000   53.05170   92.09910  183.01370   43.25570    0.02450    3.51840   -0.05820    0.00190    2.75850  313.66350  544.30820  168.71910    8.34820
 5892.50000   55.20860   92.41260  183.32460   54.41240    0.02290    3.37480   -0.04950    0.00190    2.72430  146.73750  280.31860  108.64940    8.34090
 5893.00000   56.43940   96.11310  183.55240   70.01770    0.03040    3.06740   -0.00970    0.00190    2.69710   45.99150   85.25050   29.22080    8.35330
 5893.50000   56.17830   96.61160  183.77080   79.39600    0.03800    2.98450    0.00940    0.00180    2.68040   30.77120   37.04510   20.35550    8.36580
 5894.00000   55.72430   96.60470  183.77310   81.14550    0.04560    2.90150    0.01830    0.00180    2.68510   32.39490   36.42120   18.49620    8.36070
 5894.50000   55.57010   96.19330  183.77970   76.22610    0.04840    2.85090    0.01730    0.00180    2.69400   40.70100   45.90630   24.34070    8.35930
 5895.00000   56.10590   95.17180  183.80690   70.19670    0.04710    2.93950    0.00990    0.00180    2.68920   49.16510   55.14760   29.12570    8.37460
 5895.50000   57.27290   97.44580  183.83410   69.84970    0.04450    2.99060    0.00990    0.00180    2.68050   45.59640   48.44920   29.56130    8.38730
 5896.00000   58.20910   96.64840  183.99980   70.40930    0.04370    2.97930    0.01800    0.00170    2.67480   31.81620   41.80790   25.98200    8.38370
 5896.50000   57.41650   94.97900  184.08150   69.62560    0.04610    2.95220    0.02430    0.00170    2.68210   25.95600   30.95190   22.62480    8.38060
 5897.00000   54.79300   94.04730  183.46180   63.71870    0.05020    2.95420    0.01840    0.00170    2.69820   23.98010   27.17250   20.91370    8.38190
 5897.50000   51.69920   94.03680  182.00250   53.29450    0.05200    3.00150   -0.00390    0.00170    2.72560   27.95400   33.85420   22.42590    8.38470
 5898.00000   49.51870   94.08850  180.50010   42.29450    0.04890    3.07470   -0.03030    0.00160    2.77650   42.32240   68.09410   33.64980    8.39980
 5898.50000   47.98720   91.40890  180.03070   32.63870    0.03530    3.50080   -0.06120    0.00160    2.80560  182.86310  646.03530   66.82810    8.39540
 5899.00000   47.37610   88.08100  180.03010   29.46370    0.02700    3.64540   -0.07400    0.00030    2.81930  431.99520  806.61760  252.20640    8.39090
 5899.50000   47.16730   85.57990  180.02940   29.47630    0.02130    3.73830   -0.07850   -0.00210    2.83090  444.08870  784.23570  313.62990    8.38650
