~Version ---------------------------------------------------
VERS.   2.0 : CWLS log ASCII Standard -VERSION 2.0
WRAP.    NO : One line per depth step
DLM . SPACE : Column Data Section Delimiter
~Well ------------------------------------------------------
STRT .F                 180.0 : START DEPTH
STOP .F                7174.0 : STOP DEPTH
STEP .F                   0.5 : STEP
NULL .               -9999.25 : NULL VALUE
COMP .                        : COMPANY
WELL .                        : WELL
FLD  .                        : FIELD
LOC  .                        : LOCATION
PROV .                        : PROVINCE
CNTY .                        : COUNTY
STAT .                        : STATE
CTRY .                        : COUNTRY
SRVC .                        : SERVICE COMPANY
DATE .                        : DATE
UWI  .                        : UNIQUE WELL ID
API  .                        : API NUMBER
SLAT .WGS84 3.063333872257701 : SURFACE LATITUDE
SLON .WGS84 8.393341535545005 : SURFACE LONGITUDE
DATUM.F                   nan : DEPTH DATUM ELEV
~Curve Information -----------------------------------------
DEPT   .F     : 1 MEASURED DEPTH
DTCO   .US/F  : DELTA-T COMPRESSIONAL
DTSH   .US/F  : DELTA-T SHEAR BOREHOLE COMPENSATED (DEPTH DERIVED)
DTSM   .US/F  : DELTA-T SHEAR
HSGRD  .GAPI  : HNGS STANDARD GAMMA RAY FROM DENSITY LOG
TNPH_LS.DEC   : THERMAL NEUTRON POROSITY [LIMESTONE]
PEFZ   .B/E   : HRDD STANDARD RESOLUTION FORMATION PHOTOELECTRIC FACTOR
DPHZ_LS.DEC   : HGRD STANDARD RESOLUTION DENSITY POROSITY
HDRA   .G/C3  : HRDD SPINE AND RIBS DENSITY CORRECTION
RHOZ   .G/C3  : HRDD STANDARD RESOLUTION FORMATION DENSITY
RLA3   .OHMM  : APPARENT RESISTIVITY FROM COMPUTED FOCUSING MODE 3
RLA5   .OHMM  : APPARENT RESISTIVITY FROM COMPUTED FOCUSING MODE 5
RXOZ   .OHMM  : INVADED FORMATION RESISTIVITY FILTERED AT 18 INCHES
HCALR  .IN    : HRCC CALIPER CALIBRATED FROM RESISTIVITY LOG
~Params ----------------------------------------------------
~Other -----------------------------------------------------
~ASCII -----------------------------------------------------
# ...
 3768.00000   46.42270   85.26940  180.87630   20.07200    0.01690    3.34710   -0.07310    0.00080    2.83700 1022.18300 1903.39160  244.40450    8.25010
 3768.50000   46.47920   84.14640  180.64470   19.69770    0.01620    3.30150   -0.07470    0.00110    2.83280  925.68160 1832.38280  229.17020    8.26260
 3769.00000   46.82760   84.74850  181.39090   19.82130    0.01580    3.25190   -0.08110    0.00140    2.83720  795.75210 1988.32520  185.22830    8.27740
 3769.50000   48.00590   86.53630  182.35510   22.45450    0.01580    3.25420   -0.06910    0.00170    2.84080  678.95610 1130.76140  164.31860    8.28000
 3770.00000   49.23890   88.05100  183.05890   25.64420    0.01580    3.34550   -0.03840    0.00180    2.81200  589.64750  999.23280  162.36200    8.25600
 3770.50000   50.35010   87.00530  183.76260   27.84280    0.01540    3.39500   -0.02750    0.00180    2.75170  595.95730 1003.42930  185.42250    8.22210
 3771.00000   50.59790   88.25580  183.86240   29.24660    0.01500    3.40110   -0.02630    0.00180    2.75170  576.15210  970.14500  234.85470    8.18560
 3771.50000   50.66340   90.79400  183.79010   30.64970    0.01450    3.38790   -0.02770    0.00260    2.76500  517.20180  822.82280  298.71800    8.14970
 3772.00000   52.19450   93.32440  184.11820   31.55060    0.01450    3.38010   -0.02880    0.00360    2.77630  584.29650  715.88600  262.43090    8.16950
 3772.50000   55.38440   96.80240  186.32040   29.61390    0.01450    3.37770   -0.02910    0.00460    2.77820  515.56490  780.24160  226.73530    8.18000
 3773.00000   60.59170  101.29010  188.95830   31.35980    0.01540    3.31580   -0.03520    0.00530    2.69800  768.81790 1149.00780  190.24710    8.19180
 3773.50000   66.69330  106.73220  192.76370   33.51530    0.02360    3.17770   -0.04190    0.00420    2.62320  601.06720  792.89460  155.30380    8.20770
 3774.00000   68.89290  113.05150  194.50650   37.69270    0.03760    3.02450   -0.01240    0.00300    2.56770  262.81880  308.89490  101.08540    8.21750
 3774.50000   68.28980  113.72380  193.37530   42.23630    0.05150    2.78800    0.02960    0.00170    2.49350  115.26200  161.71970   53.88880    8.19910
 3775.00000   65.79620  110.01350  190.93370   44.67860    0.07720    2.57120    0.07840    0.00040    2.46120   84.60150   94.43410   35.45000    8.18850
 3775.50000   61.13820  105.78640  186.23270   46.07310    0.09680    2.41620    0.12730   -0.00080    2.44260  105.86640  204.50860   40.39690    8.18610
 3776.00000   55.43480  102.14770  184.04330   46.58860    0.10830    2.38480    0.15170   -0.00210    2.50140  286.80060  289.39870   91.34920    8.18930
 3776.50000   50.14590   98.29870  183.10490   46.12240    0.10780    2.43090    0.16700   -0.00310    2.63520  284.78940  287.54430  111.03250    8.19250
 3777.00000   47.78960   93.98580  181.66490   44.94320    0.09400    2.54840    0.14970   -0.00380    2.76270  278.00600  280.97580  120.11090    8.19550
 3777.50000   46.34650   85.19200  181.19960   42.43310    0.07630    2.67710    0.10350   -0.00380    2.84310  164.84060  179.36680  102.75000    8.20920
 3778.00000   46.42000   83.19940  181.10860   37.21970    0.05460    2.89480    0.04540   -0.00320    2.88430  237.75960  278.77550  100.33230    8.23570
 3778.50000   46.58280   83.00590  181.13610   29.82030    0.03290    3.06710   -0.01870   -0.00190    2.89620  482.65380  725.46140  108.36570    8.21650
 3779.00000   46.62070   83.93190  181.55050   20.86990    0.01950    3.30840   -0.08750   -0.00060    2.89320  727.10450 1994.49930  168.79030    8.16950
 3779.50000   46.31180   84.66360  181.63240   13.44130    0.01270    3.49750   -0.10230    0.00070    2.88560 1001.27220 3263.53710  264.20720    8.12240
 3780.00000   45.69100   84.44070  181.56410    9.23270    0.01210    3.68100   -0.11370    0.00180    2.87800 1453.12180 9834.49510  367.62630    8.07010
 3780.50000   45.95320   83.98410  181.53620    6.97510    0.01370    3.84170   -0.11370    0.00180    2.87990 1769.32750 10290.78030  262.86850    8.03990
 3781.00000   45.56040   83.92350  181.32660    6.31900    0.01610    3.89380   -0.10930    0.00090    2.88920 1696.92320 8284.48140  180.74000    8.06930
 3781.50000   45.20160   83.92430  180.57460    6.24340    0.01770    3.81020   -0.10330   -0.00010    2.89860 1501.91310 3957.34570  137.43480    8.06650
 3782.00000   45.05040   84.68010  180.21430    7.40830    0.01730    3.68320   -0.10650    0.00050    2.90150  628.00640  779.58390  127.83570    8.05540
 3782.50000   45.00190   85.47830  180.22920    9.26480    0.01700    3.57050   -0.11210    0.00110    2.89680  304.75400  430.62360  132.22220    8.04200
 3783.00000   44.83050   83.98500  180.24420    9.95430    0.01690    3.49890   -0.11860    0.00170    2.89050  566.38170  736.20650  164.02290    8.02860
 3783.50000   45.30480   83.26080  180.90820    8.87950    0.01780    3.50380   -0.11960    0.00230    2.87750 1020.71880 2429.60400  277.33330    8.02450
 3784.00000   45.54750   85.15980  181.83840    6.89810    0.01940    3.54440   -0.11630    0.00280    2.85970 1223.12410 3088.83690  311.94480    8.03700
 3784.50000   45.34110   81.99520  182.44780    6.36290    0.02100    3.58040   -0.10660    0.00340    2.85260 1414.78450 4175.15140  278.56190    8.05410
 3785.00000   45.24610   86.24470  180.61880    7.15010    0.02090    3.59710   -0.09370    0.00330    2.85510 1414.78450 3130.32030  270.01570    8.07120
 3785.50000   45.40930   87.49040  180.10930    8.86030    0.01860    3.57980   -0.08930    0.00280    2.85920 1200.74180 2701.83450  308.37000    8.10030
 3786.00000   45.68980   86.68330  180.55570    9.64340    0.01550    3.59890   -0.09200    0.00230    2.86300 1102.30350 2699.87740  341.80560    8.11890
 3786.50000   46.45060   83.70220  181.30190   10.10650    0.01170    3.62690   -0.09500    0.00190    2.86590 1113.96780 2815.19310  333.20120    8.11270
 3787.00000   47.05530   82.99870  181.27550   10.62170    0.00780    3.66540   -0.09580    0.00140    2.86950 1155.28160 3460.38180  335.14820    8.12340
 3787.50000   46.52200   84.22840  181.36070   10.69150    0.00670    3.66840   -0.09800    0.00090    2.87060 1299.44700 5042.42090  384.67080    8.11680
 3788.00000   45.69080   85.30540  180.54590   10.68390    0.00700    3.62680   -0.09800    0.00040    2.87410 1344.67860 4148.01710  384.20100    8.07080
 3788.50000   44.69950   84.87740  180.23860   10.64800    0.00740    3.59120   -0.10000   -0.00020    2.87710  973.76490 1776.71910  297.71910    8.02370
 3789.00000   44.72010   83.47580  180.81720   10.62820    0.00920    3.59980   -0.10200   -0.00110    2.87950  929.68000 2054.91330  230.51960    8.03580
 3789.50000   45.31150   82.18730  179.97520   10.86720    0.01010    3.60840   -0.10410   -0.00190    2.87930  901.33790 2366.95950  163.24260    8.05460
 3790.00000   45.62340   83.11120  180.92400   12.30610    0.01170    3.60370   -0.10540   -0.00130    2.84790  632.67000 1087.50270  145.64040    8.07540
 3790.50000   45.87510   85.33170  180.27360   14.48080    0.01520    3.48920   -0.09350   -0.00070    2.82360  365.18080  476.30830  123.69960    8.07580
 3791.00000   46.18480   84.49380  180.93730   19.60970    0.01870    3.33660   -0.07600   -0.00000    2.82580  214.64340  279.57900   97.95980    8.05580
 3791.50000   46.54240   84.29000  181.54770   20.27480    0.02230    3.27060   -0.07030    0.00070    2.82840  191.56560  268.07570   87.44400    8.04380
 3792.00000   46.68720   86.54790  181.67860   20.36030    0.02620    3.21390   -0.07280    0.00130    2.83030  197.44290  330.18070   93.27420    8.06830
 3792.50000   46.75590   85.85960  181.02380   20.37650    0.02930    3.20210   -0.07380    0.00200    2.82630  215.80170  293.47040  135.50630    8.10050
 3793.00000   47.29680   86.60680  180.81070   21.51770    0.02860    3.20850   -0.07080    0.00260    2.81570  172.26000  190.70450  129.44560    8.13260
 3793.50000   48.47110   87.49490  183.11110   25.43920    0.02740    3.18620   -0.06220    0.00330    2.80270  117.06240  136.11190   85.91320    8.13280
