~Version ---------------------------------------------------
VERS.   2.0 : CWLS log ASCII Standard -VERSION 2.0
WRAP.    NO : One line per depth step
DLM . SPACE : Column Data Section Delimiter
~Well ------------------------------------------------------
STRT .F                 180.0 : START DEPTH
STOP .F                7174.0 : STOP DEPTH
STEP .F                   0.5 : STEP
NULL .               -9999.25 : NULL VALUE
COMP .                        : COMPANY
WELL .                        : WELL
FLD  .                        : FIELD
LOC  .                        : LOCATION
PROV .                        : PROVINCE
CNTY .                        : COUNTY
STAT .                        : STATE
CTRY .                        : COUNTRY
SRVC .                        : SERVICE COMPANY
DATE .                        : DATE
UWI  .                        : UNIQUE WELL ID
API  .                        : API NUMBER
SLAT .WGS84 3.063333872257701 : SURFACE LATITUDE
SLON .WGS84 8.393341535545005 : SURFACE LONGITUDE
DATUM.F                   nan : DEPTH DATUM ELEV
~Curve Information -----------------------------------------
DEPT   .F     : 1 MEASURED DEPTH
DTCO   .US/F  : DELTA-T COMPRESSIONAL
DTSH   .US/F  : DELTA-T SHEAR BOREHOLE COMPENSATED (DEPTH DERIVED)
DTSM   .US/F  : DELTA-T SHEAR
HSGRD  .GAPI  : HNGS STANDARD GAMMA RAY FROM DENSITY LOG
TNPH_LS.DEC   : THERMAL NEUTRON POROSITY [LIMESTONE]
PEFZ   .B/E   : HRDD STANDARD RESOLUTION FORMATION PHOTOELECTRIC FACTOR
DPHZ_LS.DEC   : HGRD STANDARD RESOLUTION DENSITY POROSITY
HDRA   .G/C3  : HRDD SPINE AND RIBS DENSITY CORRECTION
RHOZ   .G/C3  : HRDD STANDARD RESOLUTION FORMATION DENSITY
RLA3   .OHMM  : APPARENT RESISTIVITY FROM COMPUTED FOCUSING MODE 3
RLA5   .OHMM  : APPARENT RESISTIVITY FROM COMPUTED FOCUSING MODE 5
RXOZ   .OHMM  : INVADED FORMATION RESISTIVITY FILTERED AT 18 INCHES
HCALR  .IN    : HRCC CALIPER CALIBRATED FROM RESISTIVITY LOG
~Params ----------------------------------------------------
~Other -----------------------------------------------------
~ASCII -----------------------------------------------------
# ...
  830.00000   54.84990  123.78530  200.31830   10.31060    0.07770    5.14790   -0.13460   -0.02010    2.94230  175.57950  245.21550   92.74460   12.13620
  830.50000   66.95990  148.27000  206.87870   14.16460    0.07990    4.97170   -0.12030   -0.01640    2.91140   90.53940  117.45740   29.07030   12.14100
  831.00000   77.01980  170.38860  215.79560   25.09790    0.08980    4.67820   -0.06190    0.00900    2.88050    7.07110   12.52310    2.49820   12.15000
  831.50000   85.07370  188.82010  224.78420   45.03750    0.13000    4.21630    0.01340    0.03440    2.75400    5.62390    7.21580    1.91030   12.28060
  832.00000   92.03020  205.36600  229.96780   66.12490    0.19910    3.70730    0.09300    0.06280    2.61790    5.60330    6.89930    0.92980   12.37290
  832.50000   93.23680  204.38290  236.13860   73.90110    0.25810    3.37190    0.17940    0.09910    2.49070    6.37000    7.16970    0.56430   12.19880
  833.00000   89.10460  193.44560  244.39380   75.98330    0.30580    3.34610    0.24750    0.10730    2.38370    7.39120    7.92190    0.29250   11.45310
  833.50000   81.60630  184.24300  249.54010   77.24060    0.27560    3.30660    0.27610    0.08790    2.30050    8.51840    9.86510    0.35470   10.42620
  834.00000   77.86430  175.70350  249.69790   79.87710    0.24540    3.27060    0.20820    0.06350    2.27070    9.36320    9.67940    0.81660    9.55200
  834.50000   80.56750  172.32830  248.76570   82.14920    0.21310    3.24000    0.13070    0.03910    2.36890    9.36360    8.87250    3.35840    9.52860
  835.00000   83.00520  171.59460  248.01120   84.22560    0.20070    3.20930    0.09730    0.01520    2.48750    8.82390    8.47620    3.39890    9.54300
  835.50000   82.70590  171.30870  248.49750   85.83160    0.18830    3.16440    0.09950    0.00670    2.55620    8.31450    8.66100    3.32660    9.55040
  836.00000   83.59020  170.99900  249.72930   86.16310    0.17590    3.17420    0.10240    0.00440    2.54740    7.89390    9.34610    3.53720    9.54840
  836.50000   83.19900  169.89720  250.20060   84.33430    0.16710    3.20070    0.09590    0.00210    2.55240    7.75500   10.23630    3.97660    9.54510
  837.00000   82.39880  166.82310  249.47510   81.44510    0.14450    3.35590    0.07890    0.00090    2.56800    8.05580   11.81740    4.74020    9.54170
  837.50000   80.65940  162.26450  247.80310   79.35220    0.12180    3.54020    0.07060    0.00090    2.58350    8.91010   13.34350    5.55940    9.53840
  838.00000   78.76130  155.48380  244.55100   77.26190    0.11280    3.71610    0.06670    0.00090    2.59640    9.58990   14.93100    6.21210    9.54730
  838.50000   76.68530  148.82100  240.83850   69.75520    0.08790    4.05820    0.06230    0.00090    2.60810    8.87610   15.40820    6.59940    9.55020
  839.00000   74.44340  143.21320  236.18450   55.16220    0.05950    4.45260   -0.00400    0.00090    2.64500   11.25580   20.57930    8.71190    9.55770
  839.50000   71.87350  137.72720  228.09500   35.83750    0.03470    4.89200   -0.07130    0.00090    2.69750   35.19400  111.31330   15.91350    9.56570
  840.00000   67.01460  127.12890  221.85580   22.40210    0.01150    5.21490   -0.10830    0.00090    2.83860  196.30280  315.37120   75.14750    9.57370
  840.50000   61.56660  113.52030  217.01560   14.56840   -0.00680    5.31420   -0.14520    0.00090    2.90360  286.17070  839.30060  407.01400    9.58180
  841.00000   51.91860  100.86700  214.53660   12.80190   -0.01170    5.33630   -0.15740    0.00120    2.96570  391.49740 1337.20450  381.53190    9.58930
  841.50000   51.06420   99.44670  214.15440   12.92250   -0.01150    5.35870   -0.15060    0.00180    2.95970  427.37350 1448.02370  346.98470    9.59420
  842.00000   51.89190   98.22000  215.20840   13.45180   -0.01040    5.34050   -0.14730    0.00250    2.94890  422.69590  958.10560  326.57740    9.60850
  842.50000   51.89190   98.20830  216.49100   14.51330   -0.00950    5.28160   -0.14500    0.00310    2.94490  295.24150  538.94680  231.82570    9.61230
  843.00000   52.02520   99.33480  217.99710   15.00390   -0.00840    5.22260   -0.14340    0.00370    2.94010  206.06650  300.26930  163.30190    9.61110
  843.50000   52.30910   99.35070  219.68380   15.01930   -0.00780    5.26280   -0.14030    0.00440    2.93580  211.08550  324.20590  149.24820    9.60160
  844.00000   52.59630  100.01650  221.82280   14.33180   -0.00880    5.33870   -0.14320    0.00500    2.94660  220.40400  333.66230  164.47690    9.59200
  844.50000   52.75450  100.69730  224.29500   12.47550   -0.01170    5.41630   -0.15430    0.00510    2.96240  257.35920  553.13210  207.04360    9.59210
  845.00000   52.24400  100.12060  229.29630   11.02400   -0.01460    5.43110   -0.16160    0.00510    2.97350  330.56080  791.47600  274.37450    9.59770
  845.50000   51.56440   99.11290  232.51170   10.28070   -0.01690    5.33700   -0.16220    0.00510    2.96890  372.81380 1248.84220  324.75720    9.63730
  846.00000   51.10770   98.10520  230.42780   11.21010   -0.01670    5.20920   -0.15800    0.00510    2.96270  315.74670  848.97140  280.17030    9.68340
  846.50000   51.54680   97.09750  228.71970   12.33130   -0.01500    5.09380   -0.15350    0.00470    2.95590  241.10900  340.67760  199.57480    9.72150
  847.00000   52.12550   96.56730  227.75490   13.21360   -0.01170    5.10010   -0.14510    0.00430    2.94550  186.34930  238.95080  130.37980    9.75980
  847.50000   52.54120   96.26400  227.89810   13.75930   -0.00900    5.11330   -0.13940    0.00400    2.93430  158.54810  215.80140  103.11520    9.78990
  848.00000   52.83000   95.97060  228.48800   13.86360   -0.00750    5.09440   -0.13850    0.00360    2.93300  141.13710  182.37900   99.16790    9.80300
  848.50000   53.28620   93.77470  226.17900   14.59620   -0.00490    4.96690   -0.14350    0.00330    2.94150  234.15660  358.68150  132.98030    9.80070
  849.00000   53.20780   92.39370  220.09660   16.93950   -0.00190    4.76630   -0.14660    0.00310    2.94850  258.53880  425.45960  166.56980    9.79790
  849.50000   52.83380   94.49330  214.46080   19.87970    0.00800    4.60750   -0.14060    0.00310    2.93470  163.02150  214.16560  135.24510    9.79510
  850.00000   52.16420   96.63030  209.91260   22.96040    0.01890    4.44550   -0.12400    0.00310    2.91250  115.46720  135.93720   85.17840    9.83030
  850.50000   52.93870   97.62600  207.62070   25.14750    0.02990    4.32990   -0.11220    0.00310    2.88470   90.62400  105.80800   60.97130    9.88620
  851.00000   54.01330   97.18160  207.85190   26.70670    0.03550    4.27480   -0.09770    0.00310    2.86850   70.85880   97.87540   48.47850    9.94980
  851.50000   54.22140   99.25490  208.29040   29.60840    0.04180    4.21860   -0.08610    0.00300    2.84870   63.68320   81.07320   51.69200   10.01860
  852.00000   55.13570  102.14740  208.49700   32.81470    0.05030    4.16240   -0.07100    0.00300    2.82800   51.33840   74.57670   37.78230   10.08730
  852.50000   56.54330  103.99650  209.04850   36.65720    0.06000    4.10380   -0.05050    0.00300    2.79400   33.63550   48.12130   26.23670   10.16800
  853.00000   57.92720  105.63870  211.68060   39.43690    0.06980    4.05340   -0.03190    0.00300    2.76190   32.21090   40.32450   18.71770   10.24170
  853.50000   59.32040  108.75650  215.60050   41.54980    0.08190    3.99110   -0.01380    0.00300    2.72250   32.68820   39.58130   15.54110   10.31540
  854.00000   60.66980  111.55480  219.80520   43.13270    0.09570    3.92820   -0.00010    0.00300    2.68930   24.78740   29.97970   11.35310   10.38620
  854.50000   61.75710  113.35370  220.54960   45.30960    0.10950    3.86590    0.01710    0.00300    2.68030   22.36380   26.49450    9.03340   10.45680
  855.00000   62.64050  115.89010  222.95640   49.34660    0.11960    3.83050    0.01920    0.00300    2.68350   25.27010   30.23720    9.56800   10.50070
  855.50000   63.07600  115.98160  225.01860   54.23320    0.12730    3.81690    0.01790    0.00300    2.68980   20.65900   24.94210    9.42590   10.52590
