~Version ---------------------------------------------------
VERS.   2.0 : CWLS log ASCII Standard -VERSION 2.0
WRAP.    NO : One line per depth step
DLM . SPACE : Column Data Section Delimiter
~Well ------------------------------------------------------
STRT .F                 180.0 : START DEPTH
STOP .F                7174.0 : STOP DEPTH
STEP .F                   0.5 : STEP
NULL .               -9999.25 : NULL VALUE
COMP .                        : COMPANY
WELL .                        : WELL
FLD  .                        : FIELD
LOC  .                        : LOCATION
PROV .                        : PROVINCE
CNTY .                        : COUNTY
STAT .                        : STATE
CTRY .                        : COUNTRY
SRVC .                        : SERVICE COMPANY
DATE .                        : DATE
UWI  .                        : UNIQUE WELL ID
API  .                        : API NUMBER
SLAT .WGS84 3.063333872257701 : SURFACE LATITUDE
SLON .WGS84 8.393341535545005 : SURFACE LONGITUDE
DATUM.F                   nan : DEPTH DATUM ELEV
~Curve Information -----------------------------------------
DEPT   .F     : 1 MEASURED DEPTH
DTCO   .US/F  : DELTA-T COMPRESSIONAL
DTSH   .US/F  : DELTA-T SHEAR BOREHOLE COMPENSATED (DEPTH DERIVED)
DTSM   .US/F  : DELTA-T SHEAR
HSGRD  .GAPI  : HNGS STANDARD GAMMA RAY FROM DENSITY LOG
TNPH_LS.DEC   : THERMAL NEUTRON POROSITY [LIMESTONE]
PEFZ   .B/E   : HRDD STANDARD RESOLUTION FORMATION PHOTOELECTRIC FACTOR
DPHZ_LS.DEC   : HGRD STANDARD RESOLUTION DENSITY POROSITY
HDRA   .G/C3  : HRDD SPINE AND RIBS DENSITY CORRECTION
RHOZ   .G/C3  : HRDD STANDARD RESOLUTION FORMATION DENSITY
RLA3   .OHMM  : APPARENT RESISTIVITY FROM COMPUTED FOCUSING MODE 3
RLA5   .OHMM  : APPARENT RESISTIVITY FROM COMPUTED FOCUSING MODE 5
RXOZ   .OHMM  : INVADED FORMATION RESISTIVITY FILTERED AT 18 INCHES
HCALR  .IN    : HRCC CALIPER CALIBRATED FROM RESISTIVITY LOG
~Params ----------------------------------------------------
~Other -----------------------------------------------------
~ASCII -----------------------------------------------------
# ...
 2520.00000   59.88970  118.70900  191.08850   17.33910    0.03540    5.36620   -0.12590    0.00860    2.91200   15.48100   19.71180    6.69700   10.15130
 2520.50000   57.57800  112.38220  188.63480   17.72740    0.03950    5.31220   -0.12150    0.01100    2.91000   26.28770   37.88130    7.04670   10.03260
 2521.00000   54.80490  107.56900  185.30580   18.04920    0.04210    5.22630   -0.11510    0.01310    2.90860   41.19840   46.20580  145.89650    9.96500
 2521.50000   53.95080  101.89430  183.44950   17.71220    0.04140    5.16940   -0.10780    0.01310    2.89980   51.31960   61.68920  146.61530    9.94040
 2522.00000   54.31570  101.21600  183.77780   16.06730    0.03450    5.13460   -0.11370    0.01120    2.88780   71.19450   79.61730   99.32880    9.95340
 2522.50000   56.11460  108.44150  185.70260   12.78210    0.02580    5.15570   -0.12190    0.00890    2.88810   80.78650   85.49640   90.91160    9.98220
 2523.00000   57.69610  108.06780  187.47260   11.98440    0.02080    5.21340   -0.13740    0.00680    2.90190   76.17670   82.90010   87.63460   10.01100
 2523.50000   58.12430  105.40640  187.64860   12.25550    0.01840    5.22170   -0.15280    0.00680    2.91960   56.99870   81.30640   89.91040   10.03980
 2524.00000   57.31860  105.92250  187.09730   13.05680    0.02050    5.24260   -0.16320    0.00690    2.94310   68.11580   87.89520  117.41960   10.06860
 2524.50000   55.28540  106.55480  185.94360   14.27190    0.02110    5.27900   -0.16810    0.00690    2.96920   95.29770  122.39980  178.66310   10.05830
 2525.00000   54.47040  103.50970  184.72240   14.63960    0.01930    5.30120   -0.17250    0.00690    2.97640  131.25900  148.37380  415.35020   10.00880
 2525.50000   54.30230   99.80750  183.95730   13.51750    0.01590    5.30170   -0.17360    0.00690    2.98360  115.30620  151.80560  198.85460    9.93280
 2526.00000   53.68540  100.74010  184.16020   11.92000    0.01330    5.29270   -0.17000    0.00690    2.98870   76.61740  152.10390  108.29310    9.86000
 2526.50000   52.59320  100.04300  184.19040   10.91890    0.01320    5.24330   -0.16640    0.00690    2.98610  130.22250  172.84530  108.28050    9.85600
 2527.00000   51.39710   98.75200  184.07720   10.18700    0.01200    5.21630   -0.16050    0.00690    2.98020  185.42210  358.25270  153.90410    9.85600
 2527.50000   50.91800   98.65490  183.95380    9.33540    0.00910    5.24240   -0.15490    0.00600    2.97280  363.65090  655.57260  195.26530    9.85610
 2528.00000   51.26890   99.34750  183.82080    8.60540    0.00410    5.32650   -0.15360    0.00480    2.96410  612.48780 1057.11100  349.14050    9.82920
 2528.50000   51.89620   99.45690  183.82580    7.93450   -0.00010    5.42860   -0.15650    0.00360    2.95700  616.16220 1647.49390  441.50380    9.76390
 2529.00000   52.32880   99.17400  183.97270    7.12440   -0.00380    5.58040   -0.16270    0.00240    2.95880  455.00980  528.06020  307.67190    9.69990
 2529.50000   52.83990   99.14520  184.03960    6.83120   -0.00330    5.64900   -0.16960    0.00120    2.96750  350.05420  423.60540  180.41790    9.67870
 2530.00000   52.76790   99.42870  184.16740    6.73830   -0.00280    5.68130   -0.17410    0.00070    2.97550  209.13950  358.46300  153.56040    9.68330
 2530.50000   52.17000   99.76980  184.07420    7.21410   -0.00260    5.61310   -0.17670    0.00070    2.98460  299.28470  405.35430  168.23620    9.68590
 2531.00000   51.43660  100.14510  183.94150    7.90610   -0.00150    5.51360   -0.17370    0.00070    2.99080  423.34080  628.14230  229.07920    9.70060
 2531.50000   51.11840  100.32060  183.88010    9.10390   -0.00020    5.35510   -0.17300    0.00070    2.99070  423.36130  605.14660  302.78820    9.76310
 2532.00000   52.00940   98.81840  183.93000   13.82030    0.00120    5.04500   -0.16020    0.00080    2.98580  209.09190  240.41700  123.20370    9.82710
 2532.50000   53.22140   97.28600  185.77160   23.39720    0.01320    4.66740   -0.13880    0.00110    2.98020   69.98440   47.98910   26.80490    9.88300
 2533.00000   54.26310   95.92090  186.81490   31.49280    0.03840    4.32220   -0.08770    0.00140    2.94830   23.58300   25.29670   14.11210    9.92620
 2533.50000   54.19160   95.81450  187.06150   34.52130    0.05810    4.29960   -0.07810    0.00170    2.88440   38.47040   46.85260   14.35720    9.96900
 2534.00000   52.89110   98.58730  186.00150   30.79300    0.06010    4.52810   -0.08610    0.00200    2.83630  157.39540  475.49480   52.12260   10.00780
 2534.50000   51.64510  100.93830  184.38970   24.45650    0.05000    4.80780   -0.11970    0.00230    2.85960  209.80940  269.42950   90.69330   10.04660
 2535.00000   51.34160  101.22930  183.57940   22.42220    0.03730    4.83770   -0.12890    0.00260    2.90050   67.14310   90.01860   31.35630   10.08540
 2535.50000   51.41490  101.27250  183.92960   24.38950    0.04290    4.59010   -0.09000    0.00280    2.91890   24.54040   29.70920   17.62830   10.12420
 2536.00000   51.99080  101.48050  183.96190   28.43000    0.07370    4.37970   -0.03640    0.00280    2.87130   16.20760   19.79190    1.93130   10.19330
 2536.50000   53.93850  102.20320  185.42590   31.28370    0.13830    4.24860    0.01600    0.00280    2.77290   13.63520   15.82980    1.24800   10.22830
 2537.00000   58.99380  105.48320  189.64930   29.91210    0.13870    4.40830    0.00780    0.00280    2.71290   16.18800   20.23980    1.27160   10.26910
 2537.50000   63.84720  110.84700  194.96080   26.25790    0.09560    4.80760   -0.04220    0.00250    2.68000   55.04410   67.25930    2.35650   10.27060
 2538.00000   62.91560  115.42640  194.68750   20.44430    0.04980    5.18640   -0.08950    0.00180    2.73580  115.83620  133.57170   39.58670   10.10020
 2538.50000   60.57890  117.54440  192.56530   15.84780    0.02590    5.21290   -0.11450    0.00100    2.81470  104.72690  119.39820   63.60720    9.77980
 2539.00000   54.60520  120.95330  187.87860   15.23320    0.02530    5.07020   -0.11300    0.00020    2.90000   27.32810   41.54580    9.63400    9.81690
 2539.50000   56.76010  119.58310  184.08760   17.12420    0.02560    4.98580   -0.10230   -0.00060    2.89620   19.73050   23.24880    9.46160    9.87250
 2540.00000   60.02770  110.32060  188.53940   17.89070    0.02590    4.98350   -0.11620   -0.00130    2.87990   24.06990  106.23470   12.52790    9.86800
 2540.50000   61.65120  107.79860  190.21810   16.50780    0.02060    5.13550   -0.13350   -0.00130    2.87680  154.60270  814.62740   96.57230    9.83560
 2541.00000   58.79090  113.12930  189.62710   14.39570    0.01700    5.28750   -0.16810   -0.00010    2.98020  142.96950  805.24610   96.75830    9.82160
 2541.50000   56.83380  118.14620  186.83900   14.36230    0.02290    5.38410   -0.15590    0.00230    2.98080   66.08430   95.54290   28.58270    9.82460
 2542.00000   58.43590  109.98210  184.96180   15.95260    0.03360    5.34430   -0.11510    0.00480    2.93040   37.29860   60.35580   25.22270    9.83030
 2542.50000   60.82020  110.35440  186.06690   16.59380    0.04970    5.30350   -0.08640    0.00210    2.89170   46.75650   57.02210   16.45240    9.83120
 2543.00000   62.80820  121.53700  189.81980   15.25990    0.05140    5.24710   -0.08360   -0.00670    2.84840   56.29500   64.27910   30.11910    9.83130
 2543.50000   60.43900  120.84520  189.05930   13.80770    0.05330    5.12950   -0.09120   -0.01340    2.85440   60.07620  123.69980   38.33180    9.79130
 2544.00000   57.08610  117.32420  186.34320   15.51780    0.05720    4.83360   -0.09880   -0.01180    2.87770   59.64590  115.22960   48.92030    9.73080
 2544.50000   55.19510  107.16250  184.75620   20.17990    0.08360    4.50790   -0.10090   -0.00670    2.85830   46.83790   59.68920   33.47350    9.73880
 2545.00000   56.56360  105.29910  185.68640   25.92400    0.11960    4.23040   -0.02520   -0.00130    2.79620   35.41600   41.09420   23.17350    9.77800
 2545.50000   59.41350  109.45490  188.55160   28.43170    0.15540    4.14570   -0.00530    0.00320    2.74320   20.98530   24.61310    9.96910    9.81720
