~Version ---------------------------------------------------
VERS.   2.0 : CWLS log ASCII Standard -VERSION 2.0
WRAP.    NO : One line per depth step
DLM . SPACE : Column Data Section Delimiter
~Well ------------------------------------------------------
STRT .F                 180.0 : START DEPTH
STOP .F                7174.0 : STOP DEPTH
STEP .F                   0.5 : STEP
NULL .               -9999.25 : NULL VALUE
COMP .                        : COMPANY
WELL .                        : WELL
FLD  .                        : FIELD
LOC  .                        : LOCATION
PROV .                        : PROVINCE
CNTY .                        : COUNTY
STAT .                        : STATE
CTRY .                        : COUNTRY
SRVC .                        : SERVICE COMPANY
DATE .                        : DATE
UWI  .                        : UNIQUE WELL ID
API  .                        : API NUMBER
SLAT .WGS84 3.063333872257701 : SURFACE LATITUDE
SLON .WGS84 8.393341535545005 : SURFACE LONGITUDE
DATUM.F                   nan : DEPTH DATUM ELEV
~Curve Information -----------------------------------------
DEPT   .F     : 1 MEASURED DEPTH
DTCO   .US/F  : DELTA-T COMPRESSIONAL
DTSH   .US/F  : DELTA-T SHEAR BOREHOLE COMPENSATED (DEPTH DERIVED)
DTSM   .US/F  : DELTA-T SHEAR
HSGRD  .GAPI  : HNGS STANDARD GAMMA RAY FROM DENSITY LOG
TNPH_LS.DEC   : THERMAL NEUTRON POROSITY [LIMESTONE]
PEFZ   .B/E   : HRDD STANDARD RESOLUTION FORMATION PHOTOELECTRIC FACTOR
DPHZ_LS.DEC   : HGRD STANDARD RESOLUTION DENSITY POROSITY
HDRA   .G/C3  : HRDD SPINE AND RIBS DENSITY CORRECTION
RHOZ   .G/C3  : HRDD STANDARD RESOLUTION FORMATION DENSITY
RLA3   .OHMM  : APPARENT RESISTIVITY FROM COMPUTED FOCUSING MODE 3
RLA5   .OHMM  : APPARENT RESISTIVITY FROM COMPUTED FOCUSING MODE 5
RXOZ   .OHMM  : INVADED FORMATION RESISTIVITY FILTERED AT 18 INCHES
HCALR  .IN    : HRCC CALIPER CALIBRATED FROM RESISTIVITY LOG
~Params ----------------------------------------------------
~Other -----------------------------------------------------
~ASCII -----------------------------------------------------
# ...
 6706.00000   45.11130   80.21220  180.01410   18.92690    0.02110    3.39800   -0.09240    0.00300    2.85340 1448.30030 9630.88480  303.83540    8.42470
 6706.50000   44.92510   80.26910  179.84550   20.36740    0.01780    3.47410   -0.10130    0.00290    2.86080 1523.09620 12604.03610  298.79170    8.42210
 6707.00000   44.71110   83.65930  179.01120   23.15840    0.01670    3.55020   -0.10280    0.00270    2.86830 1637.56790 27378.81450  313.79440    8.42030
 6707.50000   44.63710   83.00780  178.71470   29.44560    0.01740    3.57030   -0.09420    0.00260    2.87430 1748.72330 39148.21090  341.87330    8.42460
 6708.00000   44.43730   83.98990  179.64760   37.71260    0.01810    3.53310   -0.08740    0.00240    2.86480 1779.57430 31940.84180  364.40310    8.42420
 6708.50000   44.09910   83.89560  179.85550   44.22990    0.01820    3.46050   -0.08750    0.00220    2.85170 1722.80490 50962.42970  354.76800    8.42250
 6709.00000   44.01870   83.01940  179.58800   45.89120    0.01660    3.32700   -0.10000    0.00210    2.85790 1626.72710 19756.50390  330.15740    8.41110
 6709.50000   44.06940   82.36570  179.20610   42.50410    0.01460    3.29400   -0.10540    0.00190    2.88330 1501.48280 9588.70120  318.89860    8.40030
 6710.00000   44.04450   81.36150  179.04430   40.71290    0.01300    3.30580   -0.10790    0.00170    2.88390 1337.77430 5973.69730  315.45580    8.38410
 6710.50000   44.07230   81.98070  179.04510   39.95260    0.01280    3.31760   -0.10740    0.00190    2.87490 1194.53660 3536.74510  309.11080    8.38270
 6711.00000   44.09150   84.41780  179.28680   41.19240    0.01190    3.31920   -0.10720    0.00230    2.86620 1107.17160 2802.07320  301.63100    8.38280
 6711.50000   45.10400   86.07970  179.56560   46.55740    0.01280    3.33620   -0.09680    0.00260    2.85560 1032.99720 2260.37160  295.12730    8.38290
 6712.00000   46.30440   86.40280  179.69860   54.18790    0.01700    3.37240   -0.09490    0.00300    2.84270 1029.71780 2380.39940  296.78290    8.38310
 6712.50000   46.94500   85.63800  179.70390   64.76550    0.02240    3.40170   -0.08120    0.00330    2.82450 1072.83590 2638.73930  299.29860    8.38320
 6713.00000   46.79480   83.34700  179.72310   68.02330    0.02710    3.41550   -0.07230    0.00370    2.82450 1020.62860 2051.04860  304.83820    8.38330
 6713.50000   45.34880   83.22430  179.74230   67.38190    0.02810    3.41850   -0.07090    0.00360    2.84280  999.16370 2297.58760  305.65140    8.37330
 6714.00000   44.49510   83.62560  179.76140   60.86290    0.02600    3.37320   -0.07440    0.00320    2.86280 1054.37180 2802.17630  302.67600    8.36490
 6714.50000   44.87110   83.58650  179.78060   56.57140    0.01950    3.36240   -0.08650    0.00270    2.88230 1113.37900 2792.94780  285.21420    8.35650
 6715.00000   45.52850   81.44910  179.79980   55.97430    0.01400    3.35200   -0.09870    0.00220    2.88840 1092.88130 2970.48390  281.19910    8.36170
 6715.50000   45.47580   85.83410  179.81890   56.34990    0.01740    3.36280   -0.11090    0.00180    2.88530 1040.18380  866.56020  266.07730    8.38050
 6716.00000   44.98690   85.58050  179.83810   53.75010    0.02220    3.34160   -0.11000    0.00180    2.87850  999.51150  234.92180  203.73100    8.38230
 6716.50000   44.14950   84.85510  179.85730   45.99870    0.02370    3.32330   -0.10780    0.00180    2.87080 1013.12420  467.39490  196.60260    8.38120
 6717.00000   43.72170   85.81810  179.85650   36.98840    0.02020    3.33540   -0.10270    0.00180    2.86340 1083.26750 2553.41920  218.34560    8.37800
 6717.50000   43.63070   85.60920  179.82250   29.23930    0.01130    3.42030   -0.09390    0.00180    2.86070 1319.19250 18795.25980  271.82010    8.37490
 6718.00000   43.47920   85.84180  179.78840   23.07900    0.00520    3.49200   -0.09250    0.00180    2.86700 1305.70180 29134.23630  278.51400    8.37870
 6718.50000   43.44820   86.52010  179.75440   21.03630    0.00340    3.44190   -0.09800    0.00190    2.87440 1227.52210 36641.55470  283.57080    8.38300
 6719.00000   43.58990   84.59830  179.72040   19.77540    0.00500    3.35630   -0.10340    0.00170    2.87010 1155.78600 16959.66800  267.08360    8.38300
 6719.50000   43.86090   82.94430  179.68640   19.27860    0.00630    3.31940   -0.10160    0.00130    2.85720 1081.93260 9121.65140  218.91450    8.37770
 6720.00000   43.94870   81.95290  179.65230   20.84420    0.00860    3.33730   -0.09000    0.00100    2.86160 1020.47560 5433.47410  129.13000    8.36990
 6720.50000   43.94200   82.30860  179.61830   24.00200    0.00950    3.38690   -0.09240    0.00060    2.87050 1060.30350 5798.00050  132.72510    8.36350
 6721.00000   43.87440   82.23940  179.58430   25.54200    0.01020    3.36820   -0.09850    0.00020    2.87940 1105.43290 7507.88090  197.09750    8.35710
 6721.50000   43.88180   82.02370  179.55020   25.24860    0.01250    3.33550   -0.10450   -0.00010    2.88690 1066.84640 7443.35450  276.79010    8.36010
 6722.00000   43.95550   84.09170  179.54600   23.73550    0.01490    3.29160   -0.11150   -0.00050    2.87930 1016.06180 4162.05220  218.09700    8.36420
 6722.50000   44.05540   85.17020  179.54600   23.47130    0.01580    3.28930   -0.10800   -0.00090    2.87110 1032.11850 4113.60890  197.25420    8.36830
 6723.00000   44.06320   86.43370  179.60390   25.72810    0.01600    3.30920   -0.10330   -0.00120    2.86840 1216.33230 7993.97270  197.23560    8.37240
 6723.50000   44.13890   84.37160  179.76620   27.39960    0.01620    3.33020   -0.09650   -0.00140    2.87490 1163.60140 5157.95650  255.19700    8.37650
 6724.00000   44.23120   83.79810  180.59990   28.91830    0.01780    3.31330   -0.10070   -0.00150    2.88320  938.86790 2768.32840  213.02260    8.38050
 6724.50000   44.23890   86.57520  181.44050   30.00520    0.02000    3.26870   -0.10690   -0.00150    2.88950  765.15680 1550.06040  198.91450    8.38300
 6725.00000   44.27800   87.94930  180.02170   30.42560    0.02200    3.24710   -0.11200   -0.00150    2.88740  774.65600 1330.97330  216.01190    8.38300
 6725.50000   44.28450   87.04610  179.90930   30.06490    0.02360    3.20900   -0.11040   -0.00160    2.88110  861.42770 1611.54350  222.79580    8.38300
 6726.00000   44.12490   86.08720  179.87130   29.55020    0.02490    3.23690   -0.10520   -0.00160    2.86120  767.00810 2062.61790  208.56470    8.38290
 6726.50000   44.10190   85.92660  179.87130   29.56230    0.02570    3.27900   -0.09190   -0.00160    2.84350  944.38410 3263.97970  235.72220    8.38120
 6727.00000   44.22610   84.80620  179.87130   31.23660    0.02510    3.33240   -0.08320   -0.00170    2.84280 1212.62130 9444.90920  272.05620    8.37940
 6727.50000   44.20710   83.08960  179.87130   35.82900    0.02350    3.34960   -0.08090   -0.00160    2.85330 1391.77870 19070.79490  245.14360    8.38080
 6728.00000   44.03020   84.16520  179.86000   40.01520    0.02070    3.35600   -0.08950   -0.00140    2.86480 1394.13320 18023.11330  247.24390    8.38220
 6728.50000   43.78460   83.45350  179.84230   44.03540    0.01840    3.36400   -0.10060   -0.00130    2.87630 1336.67380 11491.14450  279.45750    8.38300
 6729.00000   43.55040   82.40360  179.81610   45.63630    0.01660    3.38070   -0.10340   -0.00110    2.88300 1283.24120 8941.21880  301.94810    8.38310
 6729.50000   43.41740   82.32940  179.64340   45.61590    0.01560    3.39620   -0.10920   -0.00100    2.87910 1336.41770 13169.77540  320.14770    8.38330
 6730.00000   43.40210   82.48110  179.47070   44.25020    0.01560    3.41050   -0.10450   -0.00080    2.87330 1361.46280 15549.32130  287.97160    8.37650
 6730.50000   43.44490   81.58190  179.29800   42.04200    0.01510    3.41430   -0.10060   -0.00070    2.87000 1367.41030 17291.19140  323.52080    8.37930
 6731.00000   43.53750   80.44210  179.28340   39.04620    0.01450    3.45150   -0.09870   -0.00050    2.87430 1401.16690 26524.36720  326.25430    8.38210
 6731.50000   43.55620   80.09490  179.57460   35.41640    0.01390    3.44030   -0.10610   -0.00040    2.88320 1420.14920 27178.35550  399.51790    8.38320
