~Version ---------------------------------------------------
VERS.   2.0 : CWLS log ASCII Standard -VERSION 2.0
WRAP.    NO : One line per depth step
DLM . SPACE : Column Data Section Delimiter
~Well ------------------------------------------------------
STRT .F                 180.0 : START DEPTH
STOP .F                7174.0 : STOP DEPTH
STEP .F                   0.5 : STEP
NULL .               -9999.25 : NULL VALUE
COMP .                        : COMPANY
WELL .                        : WELL
FLD  .                        : FIELD
LOC  .                        : LOCATION
PROV .                        : PROVINCE
CNTY .                        : COUNTY
STAT .                        : STATE
CTRY .                        : COUNTRY
SRVC .                        : SERVICE COMPANY
DATE .                        : DATE
UWI  .                        : UNIQUE WELL ID
API  .                        : API NUMBER
SLAT .WGS84 3.063333872257701 : SURFACE LATITUDE
SLON .WGS84 8.393341535545005 : SURFACE LONGITUDE
DATUM.F                   nan : DEPTH DATUM ELEV
~Curve Information -----------------------------------------
DEPT   .F     : 1 MEASURED DEPTH
DTCO   .US/F  : DELTA-T COMPRESSIONAL
DTSH   .US/F  : DELTA-T SHEAR BOREHOLE COMPENSATED (DEPTH DERIVED)
DTSM   .US/F  : DELTA-T SHEAR
HSGRD  .GAPI  : HNGS STANDARD GAMMA RAY FROM DENSITY LOG
TNPH_LS.DEC   : THERMAL NEUTRON POROSITY [LIMESTONE]
PEFZ   .B/E   : HRDD STANDARD RESOLUTION FORMATION PHOTOELECTRIC FACTOR
DPHZ_LS.DEC   : HGRD STANDARD RESOLUTION DENSITY POROSITY
HDRA   .G/C3  : HRDD SPINE AND RIBS DENSITY CORRECTION
RHOZ   .G/C3  : HRDD STANDARD RESOLUTION FORMATION DENSITY
RLA3   .OHMM  : APPARENT RESISTIVITY FROM COMPUTED FOCUSING MODE 3
RLA5   .OHMM  : APPARENT RESISTIVITY FROM COMPUTED FOCUSING MODE 5
RXOZ   .OHMM  : INVADED FORMATION RESISTIVITY FILTERED AT 18 INCHES
HCALR  .IN    : HRCC CALIPER CALIBRATED FROM RESISTIVITY LOG
~Params ----------------------------------------------------
~Other -----------------------------------------------------
~ASCII -----------------------------------------------------
# ...
 5016.00000   52.77650   88.71630  182.43720   26.26930    0.04480    2.97090   -0.02740    0.00200    2.71330  291.96200  305.85170   94.42130    8.12050
 5016.50000   52.14650   87.73870  182.30780   25.13940    0.04440    3.08280   -0.02840    0.00200    2.73520  225.30070  275.43200  107.57320    8.12930
 5017.00000   51.91430   87.98240  182.10140   23.89790    0.04420    3.09550   -0.03390    0.00210    2.74750  150.35040  173.90990   88.84020    8.14500
 5017.50000   51.59340   89.64880  182.38720   24.04440    0.04350    3.07220   -0.03400    0.00180    2.75640  141.25530  189.40880  109.15380    8.16070
 5018.00000   51.42350   91.71590  182.67300   24.97240    0.04280    2.87470   -0.02640    0.00100    2.76450  246.52340  654.34620  130.68190    8.17640
 5018.50000   52.36050   91.69300  182.95870   26.88200    0.04430    2.74090   -0.01680    0.00020    2.76200  140.08850  203.39330  119.67480    8.18780
 5019.00000   52.78160   90.22090  182.55460   27.67570    0.04580    2.70580   -0.01730   -0.00060    2.75030  112.63480  120.25640   72.14260    8.14880
 5019.50000   52.60400   89.89570  182.31470   27.28160    0.04650    2.74790   -0.02110   -0.00140    2.73960  108.09820  114.20370   60.63800    8.12470
 5020.00000   53.00020   92.44310  182.34350   26.69560    0.04620    2.81240   -0.01630   -0.00190    2.74570  128.47260  142.59210   61.97820    8.12070
 5020.50000   53.77600   92.23810  182.64120   27.19790    0.04640    2.87690    0.00720   -0.00240    2.75080  145.29460  144.88240   64.77000    8.12560
 5021.00000   54.79460   93.43910  182.80140   29.07890    0.04700    2.85430    0.02010   -0.00280    2.73200  123.89630  129.83280   57.78940    8.12530
 5021.50000   54.50630   94.14930  182.52970   30.05780    0.04760    2.76010    0.03530   -0.00310    2.69900  141.89720  160.93080   62.78330    8.14020
 5022.00000   53.76320   93.54870  182.54780   29.00780    0.04780    2.73260    0.04050   -0.00300    2.67170  122.55340  170.42100   55.42600    8.16880
 5022.50000   52.50090   92.43680  182.55100   27.38200    0.04830    2.79760    0.03330   -0.00270    2.65250   99.48910  108.26320   44.78850    8.16560
 5023.00000   52.87720   90.57330  182.55410   26.69200    0.04910    2.89720   -0.00840   -0.00220    2.64650  107.11080  110.47950   47.05780    8.16010
 5023.50000   53.44710   90.06970  182.12790   26.66450    0.04920    3.10820   -0.04930   -0.00170    2.66090  161.96160  206.88120   65.94160    8.15520
 5024.00000   53.81720   90.71700  181.01860   26.61120    0.04740    3.12580   -0.06040   -0.00120    2.68300  154.83560  182.66470  134.07150    8.15240
 5024.50000   53.39340   89.87590  180.79640   26.13500    0.04570    3.01640   -0.05780   -0.00030    2.76780  134.59010  138.00480  202.79170    8.16780
 5025.00000   52.15980   90.02060  181.13750   25.65670    0.04410    2.88590   -0.04320    0.00130    2.80940  132.45840  140.37350  171.15620    8.18850
 5025.50000   50.73650   90.59670  181.33450   26.05810    0.04520    2.75540   -0.02320    0.00260    2.80880  170.53330  258.63130   86.16800    8.18510
 5026.00000   50.62720   90.85530  181.24540   27.55230    0.04630    2.71730   -0.01620    0.00400    2.79580  159.13810  180.69670   58.49750    8.16200
 5026.50000   51.75630   89.85140  181.13650   29.77940    0.04670    2.72290   -0.01340    0.00460    2.76820  219.07810  253.98620   69.69640    8.13800
 5027.00000   52.73380   89.00380  181.30310   30.05730    0.04650    2.78120   -0.00990    0.00410    2.73990  265.78820  361.95990   82.12590    8.11690
 5027.50000   53.02520   89.71210  181.93460   29.03810    0.04380    2.94500   -0.00800    0.00360    2.73880  207.82840  242.48560   81.39740    8.15170
 5028.00000   52.63780   89.46640  182.52260   27.73810    0.04080    3.03450   -0.02570    0.00310    2.73250  268.21600  295.23000   97.26960    8.15230
 5028.50000   51.97180   89.02770  180.58950   27.42720    0.03780    3.10100   -0.05360    0.00320    2.72570  328.45390  369.93060  169.59180    8.15580
 5029.00000   51.03920   88.12820  179.88200   28.90740    0.03550    3.10330   -0.06520    0.00490    2.72460  292.17730  390.52300  174.19740    8.16180
 5029.50000   50.11540   88.25470  181.75320   31.31240    0.03520    3.10550   -0.05620    0.00700    2.73750  405.27650  613.78000  148.28230    8.16400
 5030.00000   50.03780   90.21280  181.24690   33.02560    0.03640    3.14050   -0.04240    0.00710    2.77890  739.58410 1122.46250  153.16800    8.16510
 5030.50000   50.47480   91.33780  179.97810   31.95680    0.03860    3.14690   -0.02560    0.00510    2.82020  735.17940 1208.04860  162.57150    8.17570
 5031.00000   51.10830   90.60780  179.75040   30.52150    0.04080    3.11100   -0.01480    0.00300    2.80440  616.77060  798.52220  149.86890    8.19680
 5031.50000   51.14700   89.31620  181.53000   29.87080    0.04300    3.00090   -0.01150    0.00160    2.77590  572.29390  715.97280  118.40840    8.19290
 5032.00000   51.38040   89.62540  182.09440   29.78570    0.04720    2.89270   -0.00690    0.00170    2.75120  463.69060  571.96480  128.95410    8.18060
 5032.50000   51.75050   89.96150  181.59500   28.53720    0.04960    2.85640   -0.01530    0.00170    2.73870  340.99290  397.79120  128.77370    8.16840
 5033.00000   51.80460   89.36820  180.90940   25.80310    0.04960    2.95260   -0.02510    0.00180    2.72830  366.95280  412.19800  147.41160    8.16100
 5033.50000   51.86890   88.56290  180.47750   24.66660    0.04780    2.98560   -0.03100    0.00180    2.72210  434.26460  481.48620  175.03470    8.16350
 5034.00000   51.87920   87.77240  180.36370   24.17790    0.04660    2.99970   -0.02740    0.00190    2.72630  555.64630  704.43240  208.65090    8.16170
 5034.50000   51.84890   87.21840  180.48670   24.37400    0.04590    3.01380   -0.02120    0.00190    2.74540  676.18490 1291.63920  225.89190    8.16590
 5035.00000   51.62360   88.22610  180.95890   25.01190    0.04520    2.99610   -0.01610    0.00160    2.76030  791.68330 1170.57680  214.36000    8.18280
 5035.50000   50.84330   89.84380  181.03300   25.76870    0.04470    3.00360   -0.01680    0.00110    2.75450  926.90970 1949.27610  212.11570    8.19910
 5036.00000   51.14090   91.51570  181.10710   27.27420    0.04480    3.04640   -0.01860    0.00060    2.74370  719.94070 1146.84570  224.13650    8.20230
 5036.50000   51.85610   91.63320  181.18110   28.72260    0.04450    3.07800   -0.01890    0.00020    2.73870  645.88030  943.51150  238.47150    8.18910
 5037.00000   52.56580   91.30300  181.29120   29.09360    0.04260    3.10500   -0.01950   -0.00030    2.73870  537.13790  721.17130  223.43280    8.17590
 5037.50000   52.90090   90.70300  181.65640   29.04360    0.04060    3.12680   -0.01960   -0.00070    2.73970  555.52430  714.56400  191.26650    8.18030
 5038.00000   51.88170   89.87930  181.53080   28.90270    0.03960    3.17740   -0.02810   -0.00120    2.73950  581.18980  974.78590  192.24620    8.18480
 5038.50000   50.84070   89.89110  181.23090   29.83650    0.03960    3.19900   -0.03240   -0.00090    2.73960  341.93020  527.41380   89.54830    8.18930
 5039.00000   50.43300   90.01340  180.83940   31.62090    0.03950    3.21560   -0.03350    0.00000    2.74200  279.49080  385.02400  112.71430    8.19370
 5039.50000   49.75390   88.08720  180.70690   30.47910    0.03970    3.22020   -0.03360    0.00100    2.75620  362.80680  549.13740   76.33250    8.19820
 5040.00000   49.18250   87.69610  180.58600   30.50770    0.04040    3.22770   -0.03570    0.00200    2.76830  240.43500  340.61930   58.00190    8.20260
 5040.50000   48.52120   90.04030  180.39490   34.09160    0.04110    3.27370   -0.03910    0.00310    2.77770  215.29720  269.60650   56.85880    8.20710
 5041.00000   47.76680   89.23130  180.53420   39.90280    0.04160    3.35580   -0.05190    0.00420    2.79740  249.09210  363.85920   56.50690    8.21170
 5041.50000   47.58080   86.53540  180.61340   42.36030    0.04190    3.43780   -0.06750    0.00390    2.82000  359.49170  540.20160   58.75250    8.21730
