~Version ---------------------------------------------------
VERS.   2.0 : CWLS log ASCII Standard -VERSION 2.0
WRAP.    NO : One line per depth step
DLM . SPACE : Column Data Section Delimiter
~Well ------------------------------------------------------
STRT .F                 180.0 : START DEPTH
STOP .F                7174.0 : STOP DEPTH
STEP .F                   0.5 : STEP
NULL .               -9999.25 : NULL VALUE
COMP .                        : COMPANY
WELL .                        : WELL
FLD  .                        : FIELD
LOC  .                        : LOCATION
PROV .                        : PROVINCE
CNTY .                        : COUNTY
STAT .                        : STATE
CTRY .                        : COUNTRY
SRVC .                        : SERVICE COMPANY
DATE .                        : DATE
UWI  .                        : UNIQUE WELL ID
API  .                        : API NUMBER
SLAT .WGS84 3.063333872257701 : SURFACE LATITUDE
SLON .WGS84 8.393341535545005 : SURFACE LONGITUDE
DATUM.F                   nan : DEPTH DATUM ELEV
~Curve Information -----------------------------------------
DEPT   .F     : 1 MEASURED DEPTH
DTCO   .US/F  : DELTA-T COMPRESSIONAL
DTSH   .US/F  : DELTA-T SHEAR BOREHOLE COMPENSATED (DEPTH DERIVED)
DTSM   .US/F  : DELTA-T SHEAR
HSGRD  .GAPI  : HNGS STANDARD GAMMA RAY FROM DENSITY LOG
TNPH_LS.DEC   : THERMAL NEUTRON POROSITY [LIMESTONE]
PEFZ   .B/E   : HRDD STANDARD RESOLUTION FORMATION PHOTOELECTRIC FACTOR
DPHZ_LS.DEC   : HGRD STANDARD RESOLUTION DENSITY POROSITY
HDRA   .G/C3  : HRDD SPINE AND RIBS DENSITY CORRECTION
RHOZ   .G/C3  : HRDD STANDARD RESOLUTION FORMATION DENSITY
RLA3   .OHMM  : APPARENT RESISTIVITY FROM COMPUTED FOCUSING MODE 3
RLA5   .OHMM  : APPARENT RESISTIVITY FROM COMPUTED FOCUSING MODE 5
RXOZ   .OHMM  : INVADED FORMATION RESISTIVITY FILTERED AT 18 INCHES
HCALR  .IN    : HRCC CALIPER CALIBRATED FROM RESISTIVITY LOG
~Params ----------------------------------------------------
~Other -----------------------------------------------------
~ASCII -----------------------------------------------------
# ...
 4600.00000   52.74320   98.14960  183.91850   25.72140    0.13460    3.36400   -0.01240    0.00420    2.73970    8.33080   11.02350    6.42850    8.17420
 4600.50000   52.99920   97.79340  184.00370   28.06940    0.14300    3.33450    0.00370    0.00390    2.70920    6.88080    9.28170    4.74370    8.18240
 4601.00000   52.94760   97.21670  184.52290   28.48920    0.14660    3.37210    0.00680    0.00350    2.70160    7.80220   10.82120    4.84000    8.20850
 4601.50000   52.80790   96.84530  185.72520   26.44470    0.14370    3.40690   -0.00000    0.00320    2.71520    9.24340   11.80530    6.11400    8.23250
 4602.00000   52.18940   98.57870  185.48440   23.34630    0.13430    3.44080   -0.01500    0.00280    2.73080    9.62530   12.85290    7.72340    8.27910
 4602.50000   51.56040   97.04820  184.12020   21.91930    0.12130    3.50930   -0.02740    0.00250    2.74640   13.55220   17.86300    9.73390    8.24010
 4603.00000   51.36900   96.39670  184.08110   21.80280    0.11040    3.59940   -0.02880    0.00240    2.75540   16.82480   19.98730   11.07980    8.20410
 4603.50000   51.22550   95.92260  183.97750   21.62220    0.11210    3.68800   -0.02810    0.00240    2.75610   13.61850   16.05420   10.23980    8.18300
 4604.00000   51.51290   96.19920  183.88350   20.42030    0.11630    3.67210   -0.02090    0.00240    2.75480   14.05740   16.60880    9.49420    8.17630
 4604.50000   52.00120   96.65330  183.91530   19.24680    0.12510    3.53820   -0.01330    0.00240    2.74390   10.21590   12.60430    8.76490    8.19210
 4605.00000   52.61560   94.88330  184.20520   19.61020    0.13750    3.36220   -0.00330    0.00240    2.73220    7.04000    7.85220    5.78270    8.20520
 4605.50000   53.71480   95.81780  184.13650   20.97090    0.14600    3.24200    0.00710    0.00240    2.71610    5.67060    5.91950    5.04870    8.20530
 4606.00000   54.24700   97.58650  185.25720   22.20570    0.15310    3.24400    0.01400    0.00240    2.70200    5.40240    5.77050    4.46280    8.20540
 4606.50000   54.43390   99.56140  185.71770   23.19370    0.15550    3.29490    0.01820    0.00240    2.68790    5.61110    5.87720    4.47150    8.20610
 4607.00000   54.33150  100.04260  185.35600   24.21370    0.15570    3.30660    0.01350    0.00240    2.67920    5.89940    6.20510    4.83420    8.19050
 4607.50000   53.68870  100.04680  186.30320   25.07090    0.14990    3.30690    0.00730    0.00230    2.68870    6.73530    7.98240    5.90060    8.19170
 4608.00000   52.96820   98.34530  185.15370   25.81490    0.13600    3.30840   -0.00360    0.00230    2.70060    9.37960   10.07930    7.78500    8.19530
 4608.50000   52.34180   97.77560  184.18700   26.91580    0.12020    3.31000   -0.01070    0.00230    2.71330   10.93320   11.62450    7.93080    8.22350
 4609.00000   51.68600   96.00060  183.91400   30.82390    0.10610    3.37600   -0.01560    0.00230    2.72470   12.63290   13.58070    9.32530    8.24650
 4609.50000   51.26810   93.55140  183.78760   35.70060    0.09530    3.45470   -0.02110    0.00230    2.73330   17.07200   20.36890   10.83150    8.27090
 4610.00000   50.79930   94.24800  183.78560   37.34150    0.08920    3.49570   -0.02730    0.00230    2.74250   21.58800   25.34330   17.62060    8.29540
 4610.50000   50.61100   94.65500  183.78350   36.20790    0.08690    3.49370   -0.02930    0.00230    2.75170   35.28630   42.00120   20.00510    8.30130
 4611.00000   50.77050   94.23900  183.78150   32.94300    0.09200    3.41890   -0.02790    0.00230    2.75780   37.97580   47.37490   14.61290    8.27530
 4611.50000   50.98210   94.16730  183.77940   31.13460    0.09540    3.42060   -0.02100    0.00230    2.75540   24.83800   30.88230   12.07910    8.23390
 4612.00000   51.09540   92.94060  183.77130   29.38040    0.09800    3.45040   -0.02130    0.00230    2.75050   18.26530   20.67520   10.85100    8.24370
 4612.50000   50.98690   91.18550  183.71090   28.64000    0.09410    3.53340   -0.02880    0.00220    2.75070   17.03140   19.00130   14.54420    8.26470
 4613.00000   50.51320   91.81710  183.62730   25.79640    0.08180    3.61560   -0.03840    0.00220    2.77550   20.17920   22.21130   16.75280    8.28950
 4613.50000   49.88540   92.48230  183.57970   22.53990    0.07050    3.65160   -0.05160    0.00220    2.79620   25.49320   28.88640   20.95450    8.31420
 4614.00000   49.77040   92.95820  183.57140   20.76420    0.06700    3.68480   -0.05380    0.00220    2.79480   39.60560   73.05910   27.69470    8.30940
 4614.50000   50.01620   92.54770  183.56760   19.54440    0.06690    3.71800   -0.05160    0.00220    2.78920   46.32990   95.05930   32.27570    8.27800
 4615.00000   50.65400   92.37330  183.56380   19.23860    0.07340    3.68830   -0.04500    0.00220    2.78160   35.27320   40.22030   29.39660    8.24920
 4615.50000   51.27430   93.49470  183.55650   19.19460    0.08250    3.58980   -0.04240    0.00220    2.77970   26.31040   29.96520   21.01330    8.24630
 4616.00000   51.61410   94.51650  183.74350   18.31370    0.09070    3.50210   -0.04130    0.00220    2.77820   18.37080   24.82590   15.89500    8.24430
 4616.50000   51.89350   94.98240  183.78420   17.40320    0.09150    3.52650   -0.04090    0.00220    2.77610   26.33500   30.16590   16.54920    8.24270
 4617.00000   52.04970   95.00810  183.81950   16.72180    0.08960    3.57130   -0.04110    0.00250    2.77720   16.93730   19.79210   15.29840    8.24350
 4617.50000   51.75810   95.04380  183.85480   16.40630    0.08900    3.65200   -0.04340    0.00360    2.78090   12.63820   14.18430   11.63260    8.27710
 4618.00000   51.38410   95.20200  183.88610   16.55180    0.08810    3.68550   -0.05230    0.00480    2.79260   15.13640   20.00750   11.49550    8.31180
 4618.50000   50.84680   95.49320  183.81920   16.42120    0.08710    3.68930   -0.05780    0.00570    2.80170   16.00130   16.59420   14.06050    8.30830
 4619.00000   50.65560   95.26040  183.78020   16.76260    0.08600    3.64140   -0.06090    0.00420    2.80700   16.13050   17.59180   15.28300    8.28960
 4619.50000   51.03050   94.23520  183.78270   17.65320    0.08440    3.59350   -0.05990    0.00380    2.80590   22.24610   26.87330   20.55030    8.27560
 4620.00000   51.82570   93.65750  183.87770   20.00430    0.08870    3.54920   -0.05190    0.00350    2.78140   30.01420   37.95270   26.23840    8.27820
 4620.50000   52.50120   93.39360  183.94330   22.21180    0.09310    3.50530   -0.04910    0.00330    2.75700   30.68690   39.77800   29.83560    8.28320
 4621.00000   52.49010   93.03410  183.97810   22.48160    0.08680    3.50490   -0.05310    0.00300    2.74830   28.82890   32.33980   25.08060    8.28810
 4621.50000   51.86880   94.95370  183.85570   22.89210    0.08690    3.50070   -0.04820    0.00280    2.76460   17.76680   18.99850   13.26560    8.29300
 4622.00000   50.97650   96.06950  183.73330   24.22100    0.10280    3.49830   -0.03740    0.00250    2.78540   11.98240   13.19810    9.45550    8.29630
 4622.50000   50.49280   96.61410  183.61090   24.90500    0.11230    3.52800   -0.02310    0.00230    2.80620   12.67720   13.32580   11.10820    8.24170
 4623.00000   50.50440   95.09340  183.65720   24.65020    0.11020    3.60980   -0.02750    0.00210    2.81790   18.61930   24.45210   18.79610    8.23980
 4623.50000   50.88820   95.25750  183.73840   23.69640    0.10100    3.69350   -0.04540    0.00230    2.80050   37.29280   47.68220   31.81200    8.27150
 4624.00000   51.32950   95.46040  183.77330   23.54140    0.08790    3.69080   -0.06350    0.00260    2.77860   32.21130   42.99690   25.79980    8.30320
 4624.50000   51.58760   95.03830  183.86820   23.84110    0.08400    3.69360   -0.06520    0.00280    2.75240   24.40510   27.13900   17.84460    8.30550
 4625.00000   51.45890   94.55070  183.94240   24.98230    0.08770    3.68590   -0.05260    0.00310    2.74770   18.49990   21.41830   16.02470    8.30380
 4625.50000   51.18510   94.03090  183.82010   25.86700    0.09550    3.67260   -0.03890    0.00330    2.75530   12.50350   15.30050   10.44650    8.26620
