~Version ---------------------------------------------------
VERS.   2.0 : CWLS log ASCII Standard -VERSION 2.0
WRAP.    NO : One line per depth step
DLM . SPACE : Column Data Section Delimiter
~Well ------------------------------------------------------
STRT .F                 180.0 : START DEPTH
STOP .F                7174.0 : STOP DEPTH
STEP .F                   0.5 : STEP
NULL .               -9999.25 : NULL VALUE
COMP .                        : COMPANY
WELL .                        : WELL
FLD  .                        : FIELD
LOC  .                        : LOCATION
PROV .                        : PROVINCE
CNTY .                        : COUNTY
STAT .                        : STATE
CTRY .                        : COUNTRY
SRVC .                        : SERVICE COMPANY
DATE .                        : DATE
UWI  .                        : UNIQUE WELL ID
API  .                        : API NUMBER
SLAT .WGS84 3.063333872257701 : SURFACE LATITUDE
SLON .WGS84 8.393341535545005 : SURFACE LONGITUDE
DATUM.F                   nan : DEPTH DATUM ELEV
~Curve Information -----------------------------------------
DEPT   .F     : 1 MEASURED DEPTH
DTCO   .US/F  : DELTA-T COMPRESSIONAL
DTSH   .US/F  : DELTA-T SHEAR BOREHOLE COMPENSATED (DEPTH DERIVED)
DTSM   .US/F  : DELTA-T SHEAR
HSGRD  .GAPI  : HNGS STANDARD GAMMA RAY FROM DENSITY LOG
TNPH_LS.DEC   : THERMAL NEUTRON POROSITY [LIMESTONE]
PEFZ   .B/E   : HRDD STANDARD RESOLUTION FORMATION PHOTOELECTRIC FACTOR
DPHZ_LS.DEC   : HGRD STANDARD RESOLUTION DENSITY POROSITY
HDRA   .G/C3  : HRDD SPINE AND RIBS DENSITY CORRECTION
RHOZ   .G/C3  : HRDD STANDARD RESOLUTION FORMATION DENSITY
RLA3   .OHMM  : APPARENT RESISTIVITY FROM COMPUTED FOCUSING MODE 3
RLA5   .OHMM  : APPARENT RESISTIVITY FROM COMPUTED FOCUSING MODE 5
RXOZ   .OHMM  : INVADED FORMATION RESISTIVITY FILTERED AT 18 INCHES
HCALR  .IN    : HRCC CALIPER CALIBRATED FROM RESISTIVITY LOG
~Params ----------------------------------------------------
~Other -----------------------------------------------------
~ASCII -----------------------------------------------------
# ...
 7122.00000   53.22420   95.91290  181.29350   72.55100    0.02560    3.36750   -0.08340    0.00200    2.84620  174.11780  678.95540  155.10610    8.00360
 7122.50000   47.61780   94.11460  179.23610   72.88200    0.03040    3.28380   -0.08370    0.00220    2.84620  168.48730  174.72280  120.96450    7.99750
 7123.00000   44.95930   89.05260  180.04440   73.12400    0.04050    3.18530   -0.07950    0.00240    2.84420   73.73730   97.70330   56.80580    7.99090
 7123.50000   44.31470   86.14470  179.87650   72.97330    0.05870    3.17520   -0.06280    0.00260    2.83230   45.20780   51.87480   26.67640    7.97750
 7124.00000   45.03210   86.27580  179.55780   73.45580    0.09050    3.16630   -0.04480    0.00280    2.80380   48.31240   59.48860   25.19160    7.96410
 7124.50000   46.88770   87.95720  179.55870   74.23430    0.09310    3.20500   -0.04440    0.00290    2.78590   77.47800   98.75650   37.10880    7.95130
 7125.00000   49.37360   89.62290  180.60140   74.21220    0.07620    3.24080   -0.06870    0.00310    2.77820  157.01130  235.52880   67.55460    7.94860
 7125.50000   52.67590   91.28460  181.86320   73.48220    0.05330    3.23750   -0.08330    0.00330    2.80090  503.12770 1088.10050  140.93590    7.94590
 7126.00000   53.06770   91.61580  182.30470   72.28600    0.02370    3.21980   -0.10160    0.00350    2.83480  718.27470 1087.58340  161.71300    7.94440
 7126.50000   51.96710   90.12810  182.65400   71.72360    0.01640    3.25230   -0.10580    0.00360    2.85740  622.82820  905.20120  149.80580    7.94370
 7127.00000   50.12170   88.41280  181.15380   72.18130    0.01610    3.25900   -0.10580    0.00360    2.87930  722.84550 1038.96140  165.36310    7.94300
 7127.50000   48.10250   88.56880  179.43550   -9999.25   -9999.25   -9999.25   -9999.25   -9999.25   -9999.25  589.27570  939.27310  141.21990    7.94230
 7128.00000   47.29160   87.80070  177.90570   -9999.25   -9999.25   -9999.25   -9999.25   -9999.25   -9999.25 1055.66110 1968.62060  131.06550    7.94160
 7128.50000   47.13170   86.80580  176.37510   -9999.25   -9999.25   -9999.25   -9999.25   -9999.25   -9999.25  819.80600 1478.86910  178.36510    7.94090
 7129.00000   47.47950   89.73890  176.05860   -9999.25   -9999.25   -9999.25   -9999.25   -9999.25   -9999.25  516.30840  814.76110  158.02400    7.94020
 7129.50000   47.58420   88.38090  178.41300   -9999.25   -9999.25   -9999.25   -9999.25   -9999.25   -9999.25  303.95790  412.72260  145.97210    7.93950
 7130.00000   47.62710   88.96290  179.56770   -9999.25   -9999.25   -9999.25   -9999.25   -9999.25   -9999.25  163.88520  214.65300   93.59010    7.93880
 7130.50000   47.78700   88.57490  179.36770   -9999.25   -9999.25   -9999.25   -9999.25   -9999.25   -9999.25  165.70620  233.17310   78.49050    7.93810
 7131.00000   48.50830   90.20110  178.06560   -9999.25   -9999.25   -9999.25   -9999.25   -9999.25   -9999.25  257.88400  281.23010   76.32390    7.93740
 7131.50000   48.50110   90.69680  176.79530   -9999.25   -9999.25   -9999.25   -9999.25   -9999.25   -9999.25  133.57980  209.44610   90.89870    7.93670
 7132.00000   48.43340   89.79270  175.60030   -9999.25   -9999.25   -9999.25   -9999.25   -9999.25   -9999.25  111.04050  113.66880   80.75990    7.93600
 7132.50000   48.40080   88.22520  175.39250   -9999.25   -9999.25   -9999.25   -9999.25   -9999.25   -9999.25  117.48360  171.85660   81.00060    7.93530
 7133.00000   48.43850   86.58830  175.63710   -9999.25   -9999.25   -9999.25   -9999.25   -9999.25   -9999.25  326.51250  603.68700  116.15210    7.93460
 7133.50000   48.33960   86.35060  175.92090   -9999.25   -9999.25   -9999.25   -9999.25   -9999.25   -9999.25  976.52340 2021.85340  214.53410    7.93390
 7134.00000   48.09310   87.50470  175.93680   -9999.25   -9999.25   -9999.25   -9999.25   -9999.25   -9999.25 1149.46720 1951.70360  240.79390    7.93370
 7134.50000   47.86970   88.91420  175.32860   -9999.25   -9999.25   -9999.25   -9999.25   -9999.25   -9999.25  938.71440 1630.58140  174.49870    7.93370
 7135.00000   47.74280   90.06210  175.03770   -9999.25   -9999.25   -9999.25   -9999.25   -9999.25   -9999.25  464.96740  707.04960  126.68900    7.93370
 7135.50000   47.62670   90.59490  175.35030   -9999.25   -9999.25   -9999.25   -9999.25   -9999.25   -9999.25  212.82280  268.32160   85.11580    7.93370
 7136.00000   47.50480   90.87670  175.62050   -9999.25   -9999.25   -9999.25   -9999.25   -9999.25   -9999.25  201.99260  325.41410   86.61360    7.93370
 7136.50000   47.59710   90.00750  176.03690   -9999.25   -9999.25   -9999.25   -9999.25   -9999.25   -9999.25 1047.41480 1960.69430   94.90260    7.93370
 7137.00000   48.12080   89.05990  176.16290   -9999.25   -9999.25   -9999.25   -9999.25   -9999.25   -9999.25 1646.65660 4467.26370  118.40640    7.93370
 7137.50000   49.13380   89.56470  175.83440   -9999.25   -9999.25   -9999.25   -9999.25   -9999.25   -9999.25 1106.65090 2747.96580  140.62360    7.93370
 7138.00000   49.88850   90.55030  175.74970   -9999.25   -9999.25   -9999.25   -9999.25   -9999.25   -9999.25  211.47070  492.90510  121.37120    7.93380
 7138.50000   -9999.25   -9999.25  175.77380   -9999.25   -9999.25   -9999.25   -9999.25   -9999.25   -9999.25  166.26100  179.71570   88.17100    7.93390
 7139.00000   -9999.25   -9999.25  175.64310   -9999.25   -9999.25   -9999.25   -9999.25   -9999.25   -9999.25  158.83220  163.63210   73.42400    7.93410
 7139.50000   -9999.25   -9999.25  175.60950   -9999.25   -9999.25   -9999.25   -9999.25   -9999.25   -9999.25  147.81100  157.42470   71.26010    7.93420
 7140.00000   -9999.25   -9999.25  175.75840   -9999.25   -9999.25   -9999.25   -9999.25   -9999.25   -9999.25  220.90770  568.76070   80.95930    7.93440
 7140.50000   -9999.25   -9999.25  175.75680   -9999.25   -9999.25   -9999.25   -9999.25   -9999.25   -9999.25  983.06300 1608.41200  110.82990    7.93460
 7141.00000   -9999.25   -9999.25  175.75350   -9999.25   -9999.25   -9999.25   -9999.25   -9999.25   -9999.25 1345.92220 3284.97780  161.81230    7.93470
 7141.50000   -9999.25   -9999.25  175.79200   -9999.25   -9999.25   -9999.25   -9999.25   -9999.25   -9999.25 1597.93790 4422.96340  253.66780    7.93490
 7142.00000   -9999.25   -9999.25  175.79060   -9999.25   -9999.25   -9999.25   -9999.25   -9999.25   -9999.25 1306.40230 2526.79640  340.17190    7.93500
 7142.50000   -9999.25   -9999.25  175.74020   -9999.25   -9999.25   -9999.25   -9999.25   -9999.25   -9999.25 1017.47000 1317.69270  406.83370    7.93520
 7143.00000   -9999.25   -9999.25  175.74680   -9999.25   -9999.25   -9999.25   -9999.25   -9999.25   -9999.25  488.32480  764.71170  374.34110    7.93560
 7143.50000   -9999.25   -9999.25  175.75610   -9999.25   -9999.25   -9999.25   -9999.25   -9999.25   -9999.25  219.52170  265.44240  137.50340    7.93670
 7144.00000   -9999.25   -9999.25  175.76540   -9999.25   -9999.25   -9999.25   -9999.25   -9999.25   -9999.25   98.68380  113.65230   77.22320    7.93780
 7144.50000   -9999.25   -9999.25  175.76860   -9999.25   -9999.25   -9999.25   -9999.25   -9999.25   -9999.25   87.67190   95.97970   63.54880    7.93890
 7145.00000   -9999.25   -9999.25  175.77100   -9999.25   -9999.25   -9999.25   -9999.25   -9999.25   -9999.25  106.90370  110.94160   58.04720    7.93990
 7145.50000   -9999.25   -9999.25  175.77060   -9999.25   -9999.25   -9999.25   -9999.25   -9999.25   -9999.25  139.25650  201.56000   69.03350    7.94100
 7146.00000   -9999.25   -9999.25  175.77030   -9999.25   -9999.25   -9999.25   -9999.25   -9999.25   -9999.25  866.62820 2179.41310   95.44570    7.94210
 7146.50000   -9999.25   -9999.25  175.76890   -9999.25   -9999.25   -9999.25   -9999.25   -9999.25   -9999.25 1299.87440 2478.65360  139.24260    7.94320
 7147.00000   -9999.25   -9999.25  175.76990   -9999.25   -9999.25   -9999.25   -9999.25   -9999.25   -9999.25 1160.06920 1925.37520  124.73160    7.94180
 7147.50000   -9999.25   -9999.25  175.76600   -9999.25   -9999.25   -9999.25   -9999.25   -9999.25   -9999.25 1002.85220 1717.54770  119.32570    7.93940
