~Version ---------------------------------------------------
VERS.   2.0 : CWLS log ASCII Standard -VERSION 2.0
WRAP.    NO : One line per depth step
DLM . SPACE : Column Data Section Delimiter
~Well ------------------------------------------------------
STRT .F                 180.0 : START DEPTH
STOP .F                7174.0 : STOP DEPTH
STEP .F                   0.5 : STEP
NULL .               -9999.25 : NULL VALUE
COMP .                        : COMPANY
WELL .                        : WELL
FLD  .                        : FIELD
LOC  .                        : LOCATION
PROV .                        : PROVINCE
CNTY .                        : COUNTY
STAT .                        : STATE
CTRY .                        : COUNTRY
SRVC .                        : SERVICE COMPANY
DATE .                        : DATE
UWI  .                        : UNIQUE WELL ID
API  .                        : API NUMBER
SLAT .WGS84 3.063333872257701 : SURFACE LATITUDE
SLON .WGS84 8.393341535545005 : SURFACE LONGITUDE
DATUM.F                   nan : DEPTH DATUM ELEV
~Curve Information -----------------------------------------
DEPT   .F     : 1 MEASURED DEPTH
DTCO   .US/F  : DELTA-T COMPRESSIONAL
DTSH   .US/F  : DELTA-T SHEAR BOREHOLE COMPENSATED (DEPTH DERIVED)
DTSM   .US/F  : DELTA-T SHEAR
HSGRD  .GAPI  : HNGS STANDARD GAMMA RAY FROM DENSITY LOG
TNPH_LS.DEC   : THERMAL NEUTRON POROSITY [LIMESTONE]
PEFZ   .B/E   : HRDD STANDARD RESOLUTION FORMATION PHOTOELECTRIC FACTOR
DPHZ_LS.DEC   : HGRD STANDARD RESOLUTION DENSITY POROSITY
HDRA   .G/C3  : HRDD SPINE AND RIBS DENSITY CORRECTION
RHOZ   .G/C3  : HRDD STANDARD RESOLUTION FORMATION DENSITY
RLA3   .OHMM  : APPARENT RESISTIVITY FROM COMPUTED FOCUSING MODE 3
RLA5   .OHMM  : APPARENT RESISTIVITY FROM COMPUTED FOCUSING MODE 5
RXOZ   .OHMM  : INVADED FORMATION RESISTIVITY FILTERED AT 18 INCHES
HCALR  .IN    : HRCC CALIPER CALIBRATED FROM RESISTIVITY LOG
~Params ----------------------------------------------------
~Other -----------------------------------------------------
~ASCII -----------------------------------------------------
# ...
 3352.00000   57.99090  104.74230  185.12840   62.70710    0.05460    3.71500   -0.00040   -0.00120    2.71430   41.54650   60.03000   29.55440    9.33070
 3352.50000   58.17540  103.91610  184.95460   63.09970    0.05240    3.88280   -0.00770   -0.00100    2.72430   62.40670   66.20640   42.49260    9.37050
 3353.00000   58.60080  103.28980  186.02440   61.81410    0.04550    4.05070   -0.00850   -0.00090    2.72420   68.45180   75.48740   51.91730    9.44290
 3353.50000   59.03640  103.42930  187.06220   57.63460    0.03880    4.15340   -0.00650   -0.00070    2.72050   56.94760   64.77890   45.35180    9.49800
 3354.00000   60.15670  108.05510  187.47560   53.99180    0.03660    4.17790   -0.00320   -0.00060    2.71850   46.02480   51.45080   37.25380    9.53910
 3354.50000   59.90870  109.50260  187.42310   50.01580    0.04020    4.20660   -0.00920   -0.00040    2.72910   37.19710   40.33270   28.07720    9.55940
 3355.00000   59.63270  110.96680  186.84010   46.28630    0.04400    4.25870   -0.01950   -0.00030    2.77290   35.28570   47.11760   23.26690    9.53130
 3355.50000   59.85580  111.09570  186.85970   42.25730    0.04640    4.46620   -0.04450    0.00030    2.80290   50.26710   70.73620   25.40970    9.49430
 3356.00000   60.62960  109.24180  186.91020   39.86960    0.04770    4.67890   -0.06220    0.00110    2.80620   38.56770   47.48780   30.97540    9.48430
 3356.50000   60.46250  108.97820  187.49970   40.86600    0.04790    4.71020   -0.05740    0.00200    2.79630   37.09250   39.99600   34.69720    9.51100
 3357.00000   58.66380  108.97890  187.45630   41.61990    0.04600    4.69460   -0.05240    0.00290    2.79560   47.20300   52.72790   38.85820    9.53950
 3357.50000   57.11230  107.24540  186.49620   39.83070    0.04250    4.64050   -0.05510    0.00310    2.82890   61.67260   87.80460   50.54920    9.56800
 3358.00000   55.75600  105.53680  184.21550   34.05080    0.03230    4.78060   -0.07520    0.00210    2.86400   88.15580  110.93860   60.13480    9.59550
 3358.50000   54.64980  104.37010  183.96250   27.22080    0.02190    5.01390   -0.10250    0.00120    2.90760   81.12370   86.72900   66.89430    9.58310
 3359.00000   55.24120  103.76060  183.87440   25.42500    0.01630    5.05610   -0.12990    0.00020    2.94070  105.78380  159.15780   88.86430    9.52910
 3359.50000   54.50270  103.69550  183.89110   24.46220    0.01190    4.99410   -0.14250   -0.00070    2.94080  132.29890  540.14350  106.80740    9.52490
 3360.00000   54.47780  103.69620  183.91590   24.60560    0.00980    4.78510   -0.14360   -0.00170    2.90560   81.61510  128.63930   99.35990    9.53070
 3360.50000   54.68880  103.34900  183.85210   26.30620    0.00770    4.50410   -0.11900   -0.00220    2.86290  108.56830  147.71020  101.92630    9.53720
 3361.00000   55.05130  101.67830  183.84210   28.44800    0.00970    4.16340   -0.08860   -0.00220    2.83580  129.50440  153.93440  103.40850    9.58080
 3361.50000   55.83320  101.06720  183.94350   29.55050    0.01240    3.98400   -0.07210   -0.00220    2.80410   98.04870  113.59950   72.66670    9.62270
 3362.00000   56.29830  100.07130  184.16530   31.48010    0.01850    3.85310   -0.04930   -0.00190    2.77120   57.61410   64.70830   44.08450    9.63760
 3362.50000   56.90830  101.01170  184.86830   34.79010    0.02820    3.82450   -0.02710   -0.00140    2.73530   52.24810   55.35180   38.45070    9.64370
 3363.00000   58.75440  102.52960  186.12230   38.00000    0.03690    3.87500   -0.01090   -0.00090    2.73210   48.57210   50.88180   34.61430    9.64870
 3363.50000   60.13490  103.19660  187.22080   38.24070    0.04290    3.93530   -0.01240   -0.00030    2.73700   56.12270   61.03390   38.72150    9.64420
 3364.00000   60.75400  106.61740  187.66840   36.29740    0.04820    4.18220   -0.03170    0.00220    2.74090   63.94560   68.67620   33.42340    9.63540
 3364.50000   60.52890  109.33240  187.53120   36.04470    0.04900    4.32580   -0.04560    0.00460    2.73900   56.56380   61.86700   35.00220    9.62340
 3365.00000   60.20710  108.73550  187.15300   36.84150    0.04920    4.43350   -0.04660    0.00700    2.73340   50.03420   52.37380   32.48960    9.62870
 3365.50000   60.00030  107.89120  186.99140   38.16740    0.04900    4.48970   -0.04300    0.00950    2.72990   49.77970   63.21030   35.89760    9.61040
 3366.00000   59.82620  106.89230  186.82980   34.68440    0.03750    4.64090   -0.05720    0.01190    2.74110   85.09740  143.41560   43.23360    9.59030
 3366.50000   58.31890  104.88030  186.30310   27.88330    0.02160    4.79210   -0.09040    0.01250    2.77720  179.19000  224.05000   77.45350    9.57030
 3367.00000   56.39450  103.93720  185.17750   20.26500    0.00480    4.96820   -0.11170    0.00920    2.78800  398.96730  493.00880  220.22660    9.52190
 3367.50000   53.89670  103.40520  183.86100   14.28030   -0.00320    5.18380   -0.14180    0.00510    2.78350  496.25260  898.67430  379.73820    9.48970
 3368.00000   52.12790  102.48320  183.52620   11.92170   -0.00800    5.27960   -0.15520    0.00320    2.77870  359.93210  577.13180  287.67720    9.53800
 3368.50000   51.67040  100.30240  183.28770   11.58150   -0.00850    5.34000   -0.15680    0.00320    2.83990  313.81630  452.61960  260.00770    9.54430
 3369.00000   51.79380   98.45570  183.37520   11.09600   -0.00870    5.35380   -0.15860    0.00320    2.89430  316.36490  514.47750  248.26820    9.56370
 3369.50000   52.03830   99.33370  183.45030   11.13800   -0.00790    5.35100   -0.16040    0.00320    2.94890  472.49190  785.16620  310.09270    9.58480
 3370.00000   52.02450  102.38820  183.41800   12.41920   -0.00470    5.19380   -0.15380    0.00320    2.96110  602.74680 1026.97240  254.29960    9.61110
 3370.50000   52.10110  102.83170  183.28770   17.23680    0.00160    4.90700   -0.14290    0.00320    2.96210  225.53600  390.03560  149.43810    9.65310
 3371.00000   52.84170  101.87060  183.36760   23.43040    0.01250    4.68220   -0.09820    0.00310    2.96370  110.97130  124.25060   71.22820    9.68430
 3371.50000   54.02310  101.39410  183.77520   29.53440    0.02130    4.61810   -0.08860    0.00310    2.96090   73.04900   76.41750   49.26990    9.70130
 3372.00000   55.61590  101.74120  184.75060   31.66550    0.03000    4.59330   -0.07930    0.00310    2.95040   76.38300   82.90660   50.16930    9.71030
 3372.50000   58.00530  104.44490  186.19400   31.23990    0.03690    4.49080   -0.08530    0.00310    2.91350   82.58040   89.16070   69.27670    9.69840
 3373.00000   57.90580  108.04750  186.67360   31.47480    0.04120    4.30960   -0.09060    0.00310    2.87920   60.67250   71.09030   42.39000    9.67960
 3373.50000   57.77830  110.90340  185.39080   33.67510    0.04640    4.26810   -0.07330    0.00310    2.84710   29.17880   36.56740   23.73380    9.66290
 3374.00000   58.45990  110.41810  185.98170   37.32980    0.05410    4.28400   -0.04770    0.00310    2.84450   29.50430   32.33780   21.47660    9.65230
 3374.50000   59.63250  111.54010  187.54850   38.68910    0.06190    4.33610   -0.03840    0.00310    2.85210   37.90110   45.29940   32.79930    9.65490
 3375.00000   61.42680  113.35940  188.02430   36.73840    0.06140    4.48910   -0.05050    0.00230    2.85430   58.73620   65.91220   38.01970    9.66100
 3375.50000   60.93770  112.91000  187.69960   34.58080    0.05100    4.71210   -0.07360    0.00140    2.81400   88.93720   92.92410   56.04820    9.66340
 3376.00000   59.36180  111.97200  186.11540   26.98620    0.03890    5.01110   -0.08810   -0.00040    2.77170  104.38640  114.76510   62.85580    9.66350
 3376.50000   57.50840  107.32420  184.82050   22.26380    0.02690    5.31000   -0.10270   -0.00260    2.77960  212.11850  286.96990   79.63430    9.62750
 3377.00000   54.99230  104.28080  184.12420   17.41090    0.01450    5.41430   -0.12010   -0.00440    2.81160  343.51350  535.78850  135.33040    9.59070
 3377.50000   53.45300  102.89440  183.88000   14.90960    0.00200    5.42620   -0.13870   -0.00100    2.85810  461.64800  560.77890  391.62870    9.54750
