~Version ---------------------------------------------------
VERS.   2.0 : CWLS log ASCII Standard -VERSION 2.0
WRAP.    NO : One line per depth step
DLM . SPACE : Column Data Section Delimiter
~Well ------------------------------------------------------
STRT .F                 180.0 : START DEPTH
STOP .F                7174.0 : STOP DEPTH
STEP .F                   0.5 : STEP
NULL .               -9999.25 : NULL VALUE
COMP .                        : COMPANY
WELL .                        : WELL
FLD  .                        : FIELD
LOC  .                        : LOCATION
PROV .                        : PROVINCE
CNTY .                        : COUNTY
STAT .                        : STATE
CTRY .                        : COUNTRY
SRVC .                        : SERVICE COMPANY
DATE .                        : DATE
UWI  .                        : UNIQUE WELL ID
API  .                        : API NUMBER
SLAT .WGS84 3.063333872257701 : SURFACE LATITUDE
SLON .WGS84 8.393341535545005 : SURFACE LONGITUDE
DATUM.F                   nan : DEPTH DATUM ELEV
~Curve Information -----------------------------------------
DEPT   .F     : 1 MEASURED DEPTH
DTCO   .US/F  : DELTA-T COMPRESSIONAL
DTSH   .US/F  : DELTA-T SHEAR BOREHOLE COMPENSATED (DEPTH DERIVED)
DTSM   .US/F  : DELTA-T SHEAR
HSGRD  .GAPI  : HNGS STANDARD GAMMA RAY FROM DENSITY LOG
TNPH_LS.DEC   : THERMAL NEUTRON POROSITY [LIMESTONE]
PEFZ   .B/E   : HRDD STANDARD RESOLUTION FORMATION PHOTOELECTRIC FACTOR
DPHZ_LS.DEC   : HGRD STANDARD RESOLUTION DENSITY POROSITY
HDRA   .G/C3  : HRDD SPINE AND RIBS DENSITY CORRECTION
RHOZ   .G/C3  : HRDD STANDARD RESOLUTION FORMATION DENSITY
RLA3   .OHMM  : APPARENT RESISTIVITY FROM COMPUTED FOCUSING MODE 3
RLA5   .OHMM  : APPARENT RESISTIVITY FROM COMPUTED FOCUSING MODE 5
RXOZ   .OHMM  : INVADED FORMATION RESISTIVITY FILTERED AT 18 INCHES
HCALR  .IN    : HRCC CALIPER CALIBRATED FROM RESISTIVITY LOG
~Params ----------------------------------------------------
~Other -----------------------------------------------------
~ASCII -----------------------------------------------------
# ...
 6290.00000   46.95600   86.50000  180.35210   27.08850    0.03650    3.69080   -0.09030   -0.00060    2.84440 1353.38640 5193.65580  513.83200    8.11310
 6290.50000   47.66510   86.08630  180.85530   24.70760    0.04630    3.64110   -0.07670   -0.00020    2.83010  774.73340 1109.13780  261.64110    8.11150
 6291.00000   47.86120   84.70900  181.20110   23.03980    0.05440    3.59140   -0.06660    0.00020    2.81970  399.83480  477.31820  135.21720    8.10590
 6291.50000   47.24660   86.74420  181.30110   23.11240    0.06080    3.55250   -0.06720    0.00060    2.82050  240.68060  351.82710  113.66610    8.10590
 6292.00000   46.45300   87.50630  180.53130   24.33820    0.06190    3.56460   -0.07400    0.00100    2.82970  237.61640  514.40470  138.38950    8.10750
 6292.50000   45.88560   88.48870  180.11880   25.53840    0.05020    3.57630   -0.08420    0.00150    2.83890  529.45590 1676.42380  308.24620    8.11030
 6293.00000   45.74770   87.94920  180.05590   24.75180    0.03830    3.57460   -0.09050    0.00190    2.85200 1227.74110 3843.54150  430.54490    8.11310
 6293.50000   45.83520   84.25930  179.99300   22.85140    0.03300    3.55690   -0.09180    0.00230    2.85730 1276.08280 4249.98540  466.84090    8.11590
 6294.00000   45.86550   83.60410  179.93010   21.53250    0.03270    3.53530   -0.09340    0.00270    2.85880 1020.73230 2150.10030  377.20130    8.11870
 6294.50000   45.87070   84.90680  179.86720   21.49000    0.03310    3.52450   -0.09400    0.00310    2.86070  847.86160 1818.23360  291.62850    8.12150
 6295.00000   45.75540   85.43990  179.85540   22.55120    0.03350    3.50810   -0.09840    0.00350    2.86240  750.32330 1486.36690  252.28850    8.12430
 6295.50000   45.51780   84.85740  179.89260   24.62740    0.03340    3.49140   -0.10070    0.00350    2.86740  612.12480 1113.73600  262.19460    8.11670
 6296.00000   45.43120   84.37700  179.92990   26.47580    0.03290    3.42630   -0.10300    0.00350    2.87100  719.01450 1404.43140  336.80560    8.11840
 6296.50000   45.72030   84.64860  179.96720   27.46570    0.03210    3.42130   -0.10500    0.00350    2.87450  785.05630 1655.82030  313.14360    8.12340
 6297.00000   46.15440   86.14430  179.99910   28.27170    0.03260    3.41970   -0.10210    0.00350    2.87570  616.17470  990.53350  268.82450    8.12640
 6297.50000   46.90790   87.96500  180.24710   30.18120    0.03600    3.40220   -0.08880    0.00350    2.87120  603.29700 1041.31460  227.39410    8.10960
 6298.00000   47.91480   88.15750  181.17630   33.70480    0.04430    3.41330   -0.06630    0.00350    2.86130  536.34650  820.84360  173.85860    8.10690
 6298.50000   48.51920   87.19050  181.73770   35.01460    0.05850    3.41450   -0.04380    0.00350    2.81820  277.52320  378.04290   66.49870    8.10470
 6299.00000   48.52590   86.21410  181.66500   33.11930    0.07450    3.47480   -0.03190    0.00350    2.78800  308.30160  346.99620   59.96910    8.11360
 6299.50000   48.01240   85.24380  181.23790   30.74750    0.07240    3.51490   -0.04060    0.00350    2.76110  373.08830  468.51290   59.32890    8.11410
 6300.00000   46.90090   85.15960  180.32590   28.81710    0.06090    3.53880   -0.05720    0.00350    2.78110  451.48970  673.71750  113.41570    8.11470
 6300.50000   45.95790   85.12460  180.16060   29.30380    0.04820    3.55440   -0.08820    0.00350    2.81910  679.15410 1265.55590  204.44720    8.13140
 6301.00000   45.61150   84.36840  180.15160   32.82990    0.03780    3.56980   -0.09160    0.00350    2.85590 1095.17930 2679.32100  298.36210    8.13450
 6301.50000   45.62750   86.14830  180.14270   38.35030    0.03510    3.59830   -0.08560    0.00360    2.85290 1188.13900 2730.37350  396.53270    8.11110
 6302.00000   45.74270   86.78010  180.13370   42.37640    0.03320    3.62080   -0.08330    0.00360    2.84780  634.27420 1250.86900  338.96620    8.10440
 6302.50000   45.65040   87.32590  180.12460   43.39100    0.03030    3.62570   -0.08960    0.00330    2.84450  620.85470 1024.83120  333.17720    8.10440
 6303.00000   45.33370   85.65460  180.11560   41.30730    0.02630    3.62850   -0.10250    0.00250    2.85760 1135.30700 2037.02430  364.23930    8.10460
 6303.50000   45.09800   84.57020  180.10660   41.78510    0.02090    3.65840   -0.11170    0.00160    2.87600 1567.28500 9146.74900  477.73890    8.10350
 6304.00000   44.83970   83.29480  180.09760   47.09040    0.02070    3.70910   -0.11530    0.00080    2.89220 1663.87370 10419.62990  442.53560    8.10180
 6304.50000   44.78510   82.44640  180.08870   52.10910    0.01960    3.81260   -0.11140   -0.00010    2.89140 1638.21440 12069.84670  420.28020    8.10320
 6305.00000   44.81100   82.33230  180.07970   52.63010    0.01880    3.82290   -0.10930   -0.00020    2.88700 1586.14160 12558.13380  424.58420    8.10310
 6305.50000   44.85470   83.60340  180.07060   47.33580    0.01760    3.77620   -0.11160   -0.00020    2.88770 1563.72710 11104.58110  490.94290    8.10250
 6306.00000   44.96130   85.07620  180.06160   37.84540    0.01630    3.71770   -0.11520    0.00030    2.89150 1541.62840 8847.44530  557.76850    8.09790
 6306.50000   45.05490   84.82350  180.05260   31.98790    0.01500    3.66070   -0.11790    0.00090    2.89520 1522.74260 8192.24710  606.04360    8.09320
 6307.00000   44.96480   84.40540  180.04360   28.07780    0.01380    3.60370   -0.11700    0.00150    2.89460 1513.84990 9035.84180  613.89830    8.08380
 6307.50000   44.61140   84.73940  180.03470   26.80800    0.01400    3.55640   -0.10900    0.00170    2.89200 1525.86300 8951.79300  677.08120    8.07490
 6308.00000   44.57090   85.23260  180.02570   27.20930    0.01410    3.54480   -0.10290    0.00170    2.87880 1528.39150 7376.66550  748.47860    8.08220
 6308.50000   45.04140   85.57050  180.01670   28.03030    0.01410    3.55410   -0.10250    0.00170    2.87300 1409.11840 4457.38620  690.82240    8.07820
 6309.00000   45.54510   83.46470  180.01660   29.18600    0.01540    3.49860   -0.10400    0.00170    2.87810 1358.62260 4080.47630  665.74000    8.07310
 6309.50000   45.66140   82.79520  180.01640   30.64470    0.01530    3.46700   -0.10740    0.00170    2.88210 1367.63100 4111.52290  661.78920    8.07270
 6310.00000   45.53530   83.37760  180.01630   32.07370    0.01570    3.46540   -0.10810    0.00170    2.87900 1385.98100 4985.75340  657.86160    8.07240
 6310.50000   45.39780   84.00850  180.01620   31.23760    0.01580    3.45990   -0.10810    0.00170    2.87370 1378.06620 3601.78340  652.55760    8.07290
 6311.00000   45.30830   84.43630  180.01610   31.70020    0.01580    3.46950   -0.10770    0.00170    2.87120 1208.30530 2769.40600  639.30160    8.07430
 6311.50000   45.33020   85.54650  180.01600   34.39050    0.01610    3.50620   -0.10670    0.00170    2.87870  858.86270 1461.61120  545.80490    8.07610
 6312.00000   45.39100   86.42310  180.01590   40.48310    0.01630    3.63910   -0.10110    0.00170    2.90340  760.50090 1353.32760  529.50700    8.07580
 6312.50000   45.31830   85.52040  180.01640   47.06260    0.01360    3.82950   -0.10050    0.00170    2.90730 1198.81800 4728.82710  542.51290    8.07990
 6313.00000   45.28140   84.61690  180.01710   49.98110    0.01070    4.02320   -0.10670    0.00170    2.90010 1608.21330 14825.44140  632.46830    8.09390
 6313.50000   45.31330   84.25150  180.01780   49.29710    0.01000    4.02140   -0.11500    0.00170    2.88360 1676.16890 26362.01170  620.84380    8.10380
 6314.00000   45.43580   84.58700  180.01850   44.82650    0.01180    3.92210   -0.12190    0.00170    2.86560 1456.38500 10868.49800  604.32960    8.10400
 6314.50000   45.70600   83.79520  180.01910   40.83810    0.01440    3.75170   -0.12190    0.00170    2.86010 1103.14490 3607.62330  595.84020    8.10390
 6315.00000   46.36810   83.58780  180.01980   37.29630    0.01660    3.62160   -0.11270    0.00170    2.86040  912.67910 2158.27100  574.73840    8.09360
 6315.50000   47.10960   83.87780  180.02050   40.25990    0.01690    3.60440   -0.09560    0.00170    2.86460 1113.28800 2730.09180  486.46950    8.10070
