~Version ---------------------------------------------------
VERS.   2.0 : CWLS log ASCII Standard -VERSION 2.0
WRAP.    NO : One line per depth step
DLM . SPACE : Column Data Section Delimiter
~Well ------------------------------------------------------
STRT .F                 180.0 : START DEPTH
STOP .F                7174.0 : STOP DEPTH
STEP .F                   0.5 : STEP
NULL .               -9999.25 : NULL VALUE
COMP .                        : COMPANY
WELL .                        : WELL
FLD  .                        : FIELD
LOC  .                        : LOCATION
PROV .                        : PROVINCE
CNTY .                        : COUNTY
STAT .                        : STATE
CTRY .                        : COUNTRY
SRVC .                        : SERVICE COMPANY
DATE .                        : DATE
UWI  .                        : UNIQUE WELL ID
API  .                        : API NUMBER
SLAT .WGS84 3.063333872257701 : SURFACE LATITUDE
SLON .WGS84 8.393341535545005 : SURFACE LONGITUDE
DATUM.F                   nan : DEPTH DATUM ELEV
~Curve Information -----------------------------------------
DEPT   .F     : 1 MEASURED DEPTH
DTCO   .US/F  : DELTA-T COMPRESSIONAL
DTSH   .US/F  : DELTA-T SHEAR BOREHOLE COMPENSATED (DEPTH DERIVED)
DTSM   .US/F  : DELTA-T SHEAR
HSGRD  .GAPI  : HNGS STANDARD GAMMA RAY FROM DENSITY LOG
TNPH_LS.DEC   : THERMAL NEUTRON POROSITY [LIMESTONE]
PEFZ   .B/E   : HRDD STANDARD RESOLUTION FORMATION PHOTOELECTRIC FACTOR
DPHZ_LS.DEC   : HGRD STANDARD RESOLUTION DENSITY POROSITY
HDRA   .G/C3  : HRDD SPINE AND RIBS DENSITY CORRECTION
RHOZ   .G/C3  : HRDD STANDARD RESOLUTION FORMATION DENSITY
RLA3   .OHMM  : APPARENT RESISTIVITY FROM COMPUTED FOCUSING MODE 3
RLA5   .OHMM  : APPARENT RESISTIVITY FROM COMPUTED FOCUSING MODE 5
RXOZ   .OHMM  : INVADED FORMATION RESISTIVITY FILTERED AT 18 INCHES
HCALR  .IN    : HRCC CALIPER CALIBRATED FROM RESISTIVITY LOG
~Params ----------------------------------------------------
~Other -----------------------------------------------------
~ASCII -----------------------------------------------------
# ...
 1662.00000   72.07630  127.19870  227.93600   28.66810   -0.04440    4.82200    0.39260    0.00330    2.06340   51.83180 1244.70060  104.69240   14.84900
 1662.50000   70.91560  128.36450  232.27060   38.11760   -0.03640    4.84680    0.35820    0.00630    2.08940   48.01990  580.57280  110.02970   14.52560
 1663.00000   71.34780  133.00560  229.81790   58.38690   -0.01350    4.84300    0.32140    0.01100    2.24430   55.23650  330.49730  103.63450   13.65930
 1663.50000   69.89630  134.64910  224.28780   91.40140    0.01550    4.81680    0.23130    0.01900    2.32120   36.89510  165.18600   91.51140   12.88750
 1664.00000   70.73900  135.66270  212.49080  124.51580    0.04450    4.77080    0.14040    0.03160    2.53110   21.20260   88.77990   50.47420   12.73240
 1664.50000   78.68970  131.61920  193.57110  144.90240    0.06010    4.72350    0.07920    0.03240    2.57850   12.18450   21.23660    3.47240   12.74460
 1665.00000   82.53060  130.54250  195.37150  127.44390    0.04650    4.68060    0.12220    0.02310    2.49500    7.99250   16.51770    3.46520   13.67970
 1665.50000   84.45890  134.48880  200.18620  102.25170    0.02420    4.68020    0.22630    0.01390    2.35780   12.44360   59.41620    6.51080   15.14140
 1666.00000   83.45200  137.48790  210.00750   56.91360   -0.01640    4.70360    0.38230    0.00600    2.15640   24.00320   82.97180   77.24370   15.21990
 1666.50000   74.75770  133.55990  224.33520   35.07050   -0.03390    4.74170    0.41660    0.00600    2.05600   30.86860  143.96680   78.93800   13.67640
 1667.00000   71.97370  136.31310  222.14040   23.86740   -0.03690    4.78000    0.42330    0.00600    2.03480   29.91230  422.61030   82.64470   14.29480
 1667.50000   70.72130  135.64140  217.72110   21.59750   -0.03910    4.81840    0.42170    0.00600    2.03360   36.28720  927.01400  122.00270   16.13290
 1668.00000   71.22890  129.23160  211.54450   20.95340   -0.04080    4.85210    0.42080    0.00540    2.03420   27.06240 1584.96810  222.50700   16.37530
 1668.50000   70.05680  128.36670  201.85120   20.40950   -0.04110    4.85780    0.42070    0.00460    2.03460   26.70100 1364.67000  295.69620   16.16270
 1669.00000   70.22440  128.91420  191.42330   20.17760   -0.04160    4.85880    0.42060    0.00390    2.03420   25.46710 1115.84440  342.41780   16.06450
 1669.50000   70.47980  123.52760  188.20400   19.83460   -0.04490    4.86670    0.42070    0.00390    2.03400   23.82380 1101.30970  298.70740   16.37110
 1670.00000   69.25460  122.28500  191.86380   18.24680   -0.04820    4.86680    0.42070    0.00390    2.03430   33.55220 1100.06620  189.44560   17.13740
 1670.50000   69.23920  125.55680  196.37160   15.77070   -0.04870    4.82560    0.42060    0.00390    2.03720   26.90900  862.26650  121.78910   17.36430
 1671.00000   70.89550  127.52990  202.17570   14.36140   -0.04950    4.75600    0.41970    0.00390    2.04150   23.76190  791.55980   96.31780   17.45120
 1671.50000   70.98600  128.31140  207.80220   13.65140   -0.04950    4.70960    0.41890    0.00390    2.04550   20.62190  743.45170  108.32300   17.39900
 1672.00000   71.31830  130.93500  214.02980   13.96960   -0.04790    4.70240    0.41600    0.00420    2.04940   18.81900  775.54020  126.48130   17.39900
 1672.50000   69.47550  131.91800  216.27530   14.55870   -0.04590    4.71650    0.41280    0.00460    2.04780   28.37320 1093.83570  145.49070   17.24160
 1673.00000   68.83250  126.12630  213.68100   16.10510   -0.04230    4.73700    0.41220    0.00490    2.04550   24.25320 1306.57590  168.90340   16.71010
 1673.50000   68.70190  122.78510  210.69740   17.59130   -0.03980    4.74760    0.41490    0.00530    2.04870   30.37080 2196.75730  234.85960   16.63900
 1674.00000   69.84110  122.45310  207.03080   18.40640   -0.04230    4.75820    0.41320    0.00570    2.05190   37.06190 1820.81300  301.32430   16.69770
 1674.50000   69.98060  126.30560  202.55300   18.26280   -0.04620    4.71950    0.41110    0.00690    2.04910   35.20230 2023.13270  154.64400   16.97600
 1675.00000   69.57660  130.55840  197.13040   17.32980   -0.04980    4.75210    0.41170    0.00890    2.04220   43.69780 2225.45240   99.47530   17.25520
 1675.50000   69.42250  125.83710  196.89160   16.17430   -0.05080    4.77490    0.41460    0.01090    2.03980   45.34710 1747.84220   95.98110   17.21520
 1676.00000   71.04150  126.53250  204.97890   15.01210   -0.05070    4.85780    0.41780    0.01220    2.04060   44.60390 1539.33070  140.60490   17.02360
 1676.50000   70.11150  126.07270  216.17740   14.83920   -0.05060    4.87610    0.41780    0.01050    2.04570   45.24480 1387.81580  228.53930   16.76460
 1677.00000   68.79470  124.03310  236.02850   15.80690   -0.05060    4.83210    0.41290    0.00820    2.05310   54.28820 1123.47050  240.79480   16.68680
 1677.50000   67.35340  123.38430  249.86410   18.54210   -0.04630    4.78350    0.40730    0.00580    2.06110   45.82390  711.41690  186.83720   15.79160
 1678.00000   66.02410  126.34690  249.85110   22.95020   -0.04550    4.77970    0.40000    0.00380    2.07060   57.21630  505.63750  143.31240   15.72600
 1678.50000   68.22160  134.78650  249.81110   28.95410   -0.04380    4.77720    0.39270    0.00380    2.08170   46.37310  231.21250  119.85360   16.15310
 1679.00000   71.72100  139.86180  249.77900   35.55650   -0.04050    4.73750    0.38570    0.00380    2.08920   35.84200  120.90770  105.62860   15.81150
 1679.50000   75.18910  147.57890  249.78040   40.95230   -0.03650    4.68180    0.38460    0.00380    2.09070   17.16360   59.05440   25.45680   14.56990
 1680.00000   76.70470  151.82400  247.90570   42.30980   -0.02110    4.56760    0.38630    0.00380    2.09020   15.73260   19.25410    8.30200   14.39690
 1680.50000   75.49750  147.16910  233.17210   40.66390   -0.00550    4.45270    0.39180    0.00380    2.08590   19.44500   23.39010    6.63400   14.44760
 1681.00000   74.99510  142.91820  225.63450   35.80910    0.00710    4.35120    0.40080    0.00380    2.07490   24.77270   35.81700   11.01460   15.78470
 1681.50000   77.39270  146.90600  232.30080   30.51730    0.00380    4.33260    0.41030    0.00260    2.05710   31.56150   59.75170   37.35630   16.32530
 1682.00000   78.97930  154.91930  240.71670   26.49600   -0.00260    4.37120    0.42120   -0.00080    2.04090   29.31990   53.16510   69.65810   16.60320
 1682.50000   80.18640  161.72670  248.54770   26.21180   -0.00790    4.40740    0.42080   -0.00650    2.03610   22.00150   34.49820    9.25390   16.25770
 1683.00000   79.08400  157.48290  244.19780   29.07240   -0.00270    4.44360    0.41760   -0.01220    2.03570   18.79370   28.07670    6.53510   15.91220
 1683.50000   76.75640  150.99180  234.69620   31.26710    0.00670    4.39230    0.41510   -0.01550    2.04030   29.66250   37.89700    6.14370   15.56670
 1684.00000   75.36820  145.73020  219.55860   31.57330    0.00770    4.35570    0.41410   -0.01640    2.04310   28.61490   57.37560   13.19100   15.94140
 1684.50000   74.25550  135.09040  208.21850   29.43230   -0.00100    4.44340    0.41730   -0.01710    2.04430   21.78840   61.57390   17.99860   15.92730
 1685.00000   75.66130  129.49640  202.69010   24.37220   -0.00640    4.56340    0.42360   -0.01710    2.04030   24.19490   96.52470   27.27070   15.69840
 1685.50000   74.74410  131.05010  195.90650   20.71340   -0.01410    4.68270    0.42420   -0.01710    2.03710   28.88510  185.65590   51.04750   16.15760
 1686.00000   75.28580  128.12080  194.18810   18.57450   -0.01750    4.71310    0.41740   -0.01390    2.03050   32.36210   66.31210  105.21870   16.61670
 1686.50000   74.77150  130.79450  194.25100   19.40530   -0.01930    4.65790    0.41160   -0.00930    2.03440   34.98450   87.46190   76.08810   16.52060
 1687.00000   76.17140  128.17160  196.20940   21.72070   -0.01740    4.61630    0.40950   -0.00480    2.04620   29.82550  121.11540   60.96030   16.50790
 1687.50000   73.73470  125.32880  206.15940   22.99900   -0.01570    4.57430    0.40920   -0.00030    2.05270   27.90210  178.12860   60.09080   15.88100
