~Version ---------------------------------------------------
VERS.   2.0 : CWLS log ASCII Standard -VERSION 2.0
WRAP.    NO : One line per depth step
DLM . SPACE : Column Data Section Delimiter
~Well ------------------------------------------------------
STRT .F                 180.0 : START DEPTH
STOP .F                7174.0 : STOP DEPTH
STEP .F                   0.5 : STEP
NULL .               -9999.25 : NULL VALUE
COMP .                        : COMPANY
WELL .                        : WELL
FLD  .                        : FIELD
LOC  .                        : LOCATION
PROV .                        : PROVINCE
CNTY .                        : COUNTY
STAT .                        : STATE
CTRY .                        : COUNTRY
SRVC .                        : SERVICE COMPANY
DATE .                        : DATE
UWI  .                        : UNIQUE WELL ID
API  .                        : API NUMBER
SLAT .WGS84 3.063333872257701 : SURFACE LATITUDE
SLON .WGS84 8.393341535545005 : SURFACE LONGITUDE
DATUM.F                   nan : DEPTH DATUM ELEV
~Curve Information -----------------------------------------
DEPT   .F     : 1 MEASURED DEPTH
DTCO   .US/F  : DELTA-T COMPRESSIONAL
DTSH   .US/F  : DELTA-T SHEAR BOREHOLE COMPENSATED (DEPTH DERIVED)
DTSM   .US/F  : DELTA-T SHEAR
HSGRD  .GAPI  : HNGS STANDARD GAMMA RAY FROM DENSITY LOG
TNPH_LS.DEC   : THERMAL NEUTRON POROSITY [LIMESTONE]
PEFZ   .B/E   : HRDD STANDARD RESOLUTION FORMATION PHOTOELECTRIC FACTOR
DPHZ_LS.DEC   : HGRD STANDARD RESOLUTION DENSITY POROSITY
HDRA   .G/C3  : HRDD SPINE AND RIBS DENSITY CORRECTION
RHOZ   .G/C3  : HRDD STANDARD RESOLUTION FORMATION DENSITY
RLA3   .OHMM  : APPARENT RESISTIVITY FROM COMPUTED FOCUSING MODE 3
RLA5   .OHMM  : APPARENT RESISTIVITY FROM COMPUTED FOCUSING MODE 5
RXOZ   .OHMM  : INVADED FORMATION RESISTIVITY FILTERED AT 18 INCHES
HCALR  .IN    : HRCC CALIPER CALIBRATED FROM RESISTIVITY LOG
~Params ----------------------------------------------------
~Other -----------------------------------------------------
~ASCII -----------------------------------------------------
# ...
 1246.00000   77.08690  144.16430  247.11920   23.04600    0.00950    4.45390    0.42070    0.01500    2.03650   26.55230  133.74430   31.34330   15.56500
 1246.50000   73.31290  142.32150  244.10820   22.37320    0.00600    4.42260    0.41650    0.00990    2.04700   29.14690  264.07570   52.14370   16.09530
 1247.00000   72.82050  136.23480  240.28570   21.28150   -0.00750    4.44290    0.41070    0.00490    2.04940   31.80550  520.74850   65.76770   16.36260
 1247.50000   71.94740  123.07050  232.00340   19.50630   -0.01900    4.56530    0.40930    0.00220    2.05180   32.06000  488.89910  109.82280   17.16350
 1248.00000   69.83200  120.71330  227.21820   18.19820   -0.02900    4.62510    0.40830    0.00140    2.05230   29.76980  461.14290   98.64880   15.60040
 1248.50000   69.83200  121.39020  222.88160   17.97830   -0.02830    4.60070    0.40880    0.00070    2.05150   27.18530  522.80780  141.25560   15.95180
 1249.00000   70.54440  118.53350  229.50350   21.30050   -0.02140    4.52650    0.41230    0.00230    2.04960   24.08810  343.02070   47.97300   16.02980
 1249.50000   73.13690  155.76700  236.22650   23.86550   -0.01000    4.44650    0.42170    0.00500    2.04000   18.28090  117.45970   21.90730   15.90050
 1250.00000   74.96820  158.75720  238.25950   23.27980   -0.00730    4.35590    0.42230    0.00760    2.03030   15.92640   94.96020   18.93960   15.55050
 1250.50000   74.87530  148.80190  232.23200   20.59050   -0.02020    4.36900    0.41860    0.01020    2.03370   18.00530  387.92710   32.79010   16.08850
 1251.00000   73.33290  138.67180  221.76430   17.57190   -0.03370    4.48810    0.41730    0.01020    2.04110   18.34170  561.96230   69.18430   16.08850
 1251.50000   70.94840  130.06580  217.87190   15.51960   -0.04300    4.62430    0.42030    0.00920    2.03800   18.95840  526.30320  181.13970   17.82660
 1252.00000   69.39930  123.08190  223.99180   15.28870   -0.04750    4.71840    0.42370    0.00760    2.02930   23.23990  620.14210  274.91680   18.28840
 1252.50000   68.66620  121.31750  228.63060   15.45930   -0.04830    4.78030    0.42570    0.00540    2.02630   26.31550  486.48390  317.43080   17.92060
 1253.00000   68.87700  118.22250  231.73040   16.79590   -0.04720    4.76800    0.42590    0.00330    2.02600   25.52950  426.95260  297.82550   17.61980
 1253.50000   71.25420  108.64090  232.45180   19.37960   -0.04540    4.72840    0.42320    0.00110    2.02730   24.49050  377.09070  229.28540   17.61980
 1254.00000   70.68540  117.20710  223.71580   23.45080   -0.04260    4.70940    0.41260    0.00050    2.03540   23.04570  345.68160  197.36070   17.65740
 1254.50000   70.00560  118.35730  217.58850   31.31120   -0.03430    4.70440    0.40610    0.01200    2.04680   21.42860  383.01240   39.95200   17.74850
 1255.00000   68.82420  115.44920  214.68480   43.74530   -0.01930    4.70250    0.40810    0.01460    2.05550   20.65410  363.68740   32.40570   15.42890
 1255.50000   69.60260  115.45590  213.89650   60.35220   -0.00070    4.69800    0.40380    0.01070    2.05810   21.55110  417.73660   26.01870   15.27920
 1256.00000   74.41970  124.42570  215.97600   75.38790    0.01980    4.62100    0.38510    0.00690    2.06180   26.12860  538.97170    3.41520   15.06220
 1256.50000   73.97040  124.30740  223.01440   78.54040    0.02050    4.60200    0.36540    0.00670    2.08680   32.08670  566.38570    3.41820   14.90970
 1257.00000   72.38760  122.53620  228.22040   64.19730    0.00720    4.60590    0.37180    0.00670    2.12190   36.72480  715.20050    4.02340   15.16040
 1257.50000   71.92530  118.93210  226.74140   48.34100   -0.00330    4.60220    0.38640    0.00670    2.10420   42.02020  404.80950  164.21280   16.53740
 1258.00000   71.99220  125.29550  218.06160   33.02950    0.01250    4.52920    0.40630    0.00670    2.06570   45.53720  196.73370   48.25030   17.62810
 1258.50000   72.62540  129.93430  216.88660   29.54590    0.03170    4.48450    0.42410    0.00670    2.03620   53.92470  135.91640   45.18140   15.76740
 1259.00000   73.09710  136.12160  223.10350   31.29110    0.06560    4.19490    0.42590    0.00670    2.02800   62.51150  147.50940   34.97360   15.29600
 1259.50000   73.63410  152.84590  231.40700   34.36650    0.12390    3.90510    0.43080    0.00670    2.01660   35.35540  150.55640   12.26510   15.27230
 1260.00000   91.57680  191.38220  249.73320   37.69220    0.18230    3.64610    0.44990    0.00620    2.00520   12.46110   26.74440    1.94580   15.52450
 1260.50000  102.30670  226.89050  249.76880   36.80920    0.20120    3.61170    0.45500    0.00570    1.97630   11.18020   42.21710    2.02200   15.29810
 1261.00000  104.16590  230.07890  249.79200   33.38500    0.12120    3.83530    0.44710    0.00520    1.98540   11.95800  105.39760    4.25210   15.43820
 1261.50000   89.70700  204.33170  249.81520   28.71450    0.03590    4.25170    0.42790    0.00470    1.99450   13.48140  220.33330   91.05230   16.87010
 1262.00000   76.44860  149.67470  249.83840   24.18170   -0.01320    4.50760    0.42260    0.00800    2.00360   13.68470  464.43660   87.71940   18.30200
 1262.50000   72.19350  130.49090  247.19840   21.29160   -0.03230    4.73770    0.41790    0.01150    2.02770   16.87510  600.07540   88.78770   17.74640
 1263.00000   70.10740  121.40940  231.20630   19.41530   -0.04140    4.81760    0.41730    0.01490    2.03640   19.77320  910.51910  112.00700   17.64230
 1263.50000   69.93590  115.54280  226.26870   18.24860   -0.04710    4.81460    0.41600    0.01510    2.03850   25.82970 1033.16780  180.15690   18.48450
 1264.00000   68.43250  112.28390  223.63380   19.73430   -0.04670    4.78510    0.41720    0.01480    2.04020   25.37860  821.73720  172.77740   18.38890
 1264.50000   67.45030  109.02790  225.96780   22.20730   -0.04220    4.78770    0.42080    0.01400    2.03730   22.56800  663.21390  154.21180   18.31640
 1265.00000   68.38090  111.33910  229.72880   25.22570   -0.03480    4.76440    0.42930    0.01330    2.02840   43.74550  851.61870  150.67210   18.71240
 1265.50000   70.01200  117.00720  230.58180   28.12240   -0.02640    4.74250    0.43070    0.01300    2.01880   21.66990  621.61690   86.21340   18.88150
 1266.00000   69.29650  123.37170  226.08950   30.16810   -0.02260    4.75380    0.41990    0.01300    2.02650   22.99520  553.40120   67.20310   15.87460
 1266.50000   68.29790  123.38580  223.57290   34.06650   -0.02000    4.76570    0.41540    0.01500    2.03680   27.08610  616.13540   71.89570   15.53830
 1267.00000   69.70070  118.06410  219.07310   42.15130   -0.01480    4.76820    0.40730    0.01710    2.04220   23.87380  666.48490   92.01710   15.64560
 1267.50000   70.47660  118.86870  217.07300   70.87140    0.00490    4.73240    0.36430    0.01930    2.06770   28.62380  612.10100  115.27430   17.51200
 1268.00000   68.77410  117.43240  216.96640   94.72590    0.02980    4.64450    0.30360    0.02130    2.12780   16.44020  786.77170   51.48030   18.12100
 1268.50000   68.99470  119.06780  218.47860   92.38940    0.04080    4.59050    0.29400    0.02130    2.20780   16.06790 1349.89620   46.37190   14.65560
 1269.00000   69.82400  116.92130  216.81120   80.40800    0.03190    4.59180    0.34900    0.01730    2.23610   17.80700 1913.02080   39.44640   15.93380
 1269.50000   72.38670  112.66180  207.45960   48.83040    0.00430    4.60880    0.40280    0.01180    2.13430   16.40430 1442.56090   65.27280   17.31120
 1270.00000   67.54240  113.69290  202.65940   28.07820   -0.02510    4.68630    0.42880    0.00630    2.04100   20.41360 1690.59660   85.93770   17.80810
 1270.50000   61.65310  118.49800  200.38100   19.19590   -0.03780    4.76000    0.42180    0.00470    2.02390   27.29690 1489.52910  156.77750   18.65320
 1271.00000   63.51040  120.95740  201.07760   20.52590   -0.04310    4.81030    0.41660    0.00470    2.03420   29.20350 1135.92740  189.00440   18.66210
 1271.50000   68.65200  123.88640  201.15590   23.54380   -0.04420    4.80470    0.41410    0.00590    2.04150   30.86020  761.52900  231.37530   18.70200
