~Version ---------------------------------------------------
VERS.   2.0 : CWLS log ASCII Standard -VERSION 2.0
WRAP.    NO : One line per depth step
DLM . SPACE : Column Data Section Delimiter
~Well ------------------------------------------------------
STRT .F                 180.0 : START DEPTH
STOP .F                7174.0 : STOP DEPTH
STEP .F                   0.5 : STEP
NULL .               -9999.25 : NULL VALUE
COMP .                        : COMPANY
WELL .                        : WELL
FLD  .                        : FIELD
LOC  .                        : LOCATION
PROV .                        : PROVINCE
CNTY .                        : COUNTY
STAT .                        : STATE
CTRY .                        : COUNTRY
SRVC .                        : SERVICE COMPANY
DATE .                        : DATE
UWI  .                        : UNIQUE WELL ID
API  .                        : API NUMBER
SLAT .WGS84 3.063333872257701 : SURFACE LATITUDE
SLON .WGS84 8.393341535545005 : SURFACE LONGITUDE
DATUM.F                   nan : DEPTH DATUM ELEV
~Curve Information -----------------------------------------
DEPT   .F     : 1 MEASURED DEPTH
DTCO   .US/F  : DELTA-T COMPRESSIONAL
DTSH   .US/F  : DELTA-T SHEAR BOREHOLE COMPENSATED (DEPTH DERIVED)
DTSM   .US/F  : DELTA-T SHEAR
HSGRD  .GAPI  : HNGS STANDARD GAMMA RAY FROM DENSITY LOG
TNPH_LS.DEC   : THERMAL NEUTRON POROSITY [LIMESTONE]
PEFZ   .B/E   : HRDD STANDARD RESOLUTION FORMATION PHOTOELECTRIC FACTOR
DPHZ_LS.DEC   : HGRD STANDARD RESOLUTION DENSITY POROSITY
HDRA   .G/C3  : HRDD SPINE AND RIBS DENSITY CORRECTION
RHOZ   .G/C3  : HRDD STANDARD RESOLUTION FORMATION DENSITY
RLA3   .OHMM  : APPARENT RESISTIVITY FROM COMPUTED FOCUSING MODE 3
RLA5   .OHMM  : APPARENT RESISTIVITY FROM COMPUTED FOCUSING MODE 5
RXOZ   .OHMM  : INVADED FORMATION RESISTIVITY FILTERED AT 18 INCHES
HCALR  .IN    : HRCC CALIPER CALIBRATED FROM RESISTIVITY LOG
~Params ----------------------------------------------------
~Other -----------------------------------------------------
~ASCII -----------------------------------------------------
# ...
 5432.00000   55.06450   98.03360  183.69160   36.15290    0.07850    3.19200   -0.02760    0.00130    2.73800   20.71920   28.47720   19.98650    8.33850
 5432.50000   54.84740   97.97760  183.64670   31.84510    0.07950    3.18920   -0.03820    0.00130    2.74610   20.85620   28.65950   20.16700    8.33870
 5433.00000   54.24900   98.08940  183.68230   29.81540    0.07730    3.19600   -0.04310    0.00130    2.76050   21.24410   29.28370   20.34910    8.33890
 5433.50000   53.78160   97.51650  183.71800   28.15070    0.07430    3.21510   -0.04400    0.00130    2.77600   21.76030   30.01950   20.53280    8.33900
 5434.00000   53.36820   95.94220  183.70430   27.68500    0.07410    3.22890   -0.04400    0.00130    2.78080   23.30640   30.81550   20.60150    8.33920
 5434.50000   52.77430   94.39630  183.48870   27.12780    0.07370    3.21140   -0.04710    0.00120    2.78210   24.51730   31.29600   20.60150    8.33940
 5435.00000   52.16730   94.78570  183.27310   26.76330    0.07270    3.19370   -0.05040    0.00110    2.78280   23.80040   30.81740   20.31120    8.33630
 5435.50000   52.01420   95.41350  183.05750   26.14300    0.07190    3.18150   -0.05400    0.00100    2.78650   22.33720   28.07490   20.06360    8.33840
 5436.00000   52.11200   94.93210  182.84190   23.81830    0.07110    3.18080   -0.05730    0.00090    2.79180   24.04570   29.38850   20.14640    8.33730
 5436.50000   51.90850   93.73040  182.52210   21.81790    0.07050    3.22710   -0.05640    0.00090    2.79650   27.51290   32.63320   22.99320    8.34510
 5437.00000   51.38610   93.04320  182.23330   21.02590    0.07200    3.26640   -0.05700    0.00080    2.80040   29.48880   36.27680   26.35530    8.34920
 5437.50000   50.70940   92.90370  182.02020   21.15560    0.07460    3.27520   -0.05480    0.00070    2.80040   29.45960   35.85470   26.26620    8.35320
 5438.00000   50.50620   92.95880  181.93890   21.78320    0.07770    3.27600   -0.05120    0.00060    2.79860   29.15080   34.22180   24.79570    8.35710
 5438.50000   50.41170   93.65230  181.87040   22.14100    0.08060    3.31080   -0.04870    0.00050    2.79680   28.88940   32.26420   23.40750    8.36110
 5439.00000   50.34780   92.49020  181.80200   21.10170    0.08300    3.37770   -0.04910    0.00040    2.79280   29.27250   32.24740   22.16670    8.36500
 5439.50000   50.04310   90.90500  181.75300   19.91940    0.08140    3.53530   -0.05090    0.00040    2.78980   30.02530   33.87550   23.66320    8.36900
 5440.00000   49.47780   90.75410  181.65220   19.06400    0.07890    3.60330   -0.05340    0.00030    2.79110   34.37080   37.70970   26.07860    8.37380
 5440.50000   48.84080   89.20410  181.38580   18.95690    0.07850    3.60960   -0.06600    0.00020    2.81680   40.48200   47.55970   31.37450    8.38150
 5441.00000   48.46360   88.52240  180.92970   18.28430    0.07390    3.85430   -0.09330    0.00010    2.87080   40.86830   46.79400   28.18390    8.38790
 5441.50000   48.35510   88.15630  180.45920   17.54780    0.06770    4.35810   -0.12060    0.00000    2.96110   35.60120   42.10070   16.50970    8.38870
 5442.00000   47.91550   87.88360  180.00670   17.08330    0.06340    4.61720   -0.16460   -0.00010    2.98520   32.42150   59.32690   15.30560    8.41500
 5442.50000   47.54290   87.67420  179.85710   15.84690    0.04990    4.72130   -0.16970   -0.00010    2.95880   88.84810  388.78990   23.34270    8.42570
 5443.00000   47.47500   85.97280  179.70750   14.18130    0.03860    4.53580   -0.14570   -0.00020    2.92920  635.95240 2843.46190  127.72920    8.44410
 5443.50000   47.40380   86.48800  179.55800   13.00990    0.02530    4.34430   -0.13060   -0.00030    2.91100  930.42900 5119.55370  202.18880    8.46490
 5444.00000   47.39440   89.44650  179.76110   12.93430    0.01980    4.08180   -0.12370   -0.00040    2.90730 1025.91700 7306.99850  185.38730    8.48410
 5444.50000   47.58060   90.31620  180.01740   12.94880    0.02340    3.77770   -0.12040   -0.00050    2.89210 1010.27280 6414.58740  292.48260    8.46940
 5445.00000   48.28820   88.25310  180.27360   12.84060    0.02780    3.64510   -0.09530   -0.00060    2.87110  806.96090 2650.18920  441.43440    8.47030
 5445.50000   49.69830   87.33980  181.81340   13.10570    0.03390    3.56200   -0.07920   -0.00060    2.84540  645.83640 1320.21690  459.57850    8.48730
 5446.00000   49.59730   88.86670  181.84400   14.80920    0.03980    3.48310   -0.07260   -0.00070    2.82790  448.43500  793.44890  387.08020    8.50030
 5446.50000   48.32040   91.27170  180.83630   17.78400    0.04540    3.44250   -0.07270   -0.00080    2.83010  309.42220  365.30080  254.79670    8.49840
 5447.00000   46.95540   91.64590  180.52330   19.17920    0.04850    3.45750   -0.07990   -0.00090    2.83500  373.26920  467.61740  291.18800    8.49370
 5447.50000   47.12970   92.14680  180.22690   20.35320    0.04950    3.50460   -0.07890   -0.00100    2.83870  320.14220  464.77120  406.96870    8.49750
 5448.00000   47.64450   92.75370  180.34900   21.55660    0.04960    3.52730   -0.07490   -0.00110    2.83490  216.70440  230.49670  303.86640    8.50190
 5448.50000   48.82000   92.73860  180.84250   22.68420    0.05340    3.47850   -0.06860   -0.00110    2.82910  143.43030  154.97000  153.86510    8.50640
 5449.00000   49.26830   90.81980  181.30480   23.04690    0.05940    3.40380   -0.06140   -0.00120    2.81540  177.42030  274.13210  189.78500    8.51080
 5449.50000   49.39060   89.55820  181.40590   22.80160    0.06560    3.32180   -0.05270   -0.00130    2.79570  207.64040  255.46560  190.22430    8.51340
 5450.00000   49.03300   88.89070  180.65550   21.50190    0.06990    3.31130   -0.04990   -0.00140    2.79070  208.72850  279.62340  154.16260    8.50630
 5450.50000   48.24640   88.06260  180.36380   20.17090    0.06610    3.29550   -0.06000   -0.00150    2.80190  239.15740  359.13660  145.43800    8.49850
 5451.00000   47.68950   88.24660  180.26850   20.19560    0.05770    3.27800   -0.07020   -0.00160    2.81470  266.27050  423.22530  166.73360    8.50640
 5451.50000   47.10580   88.24110  180.17320   20.61470    0.05200    3.25980   -0.07410   -0.00160    2.82750  242.74390  417.56140  190.77920    8.50730
 5452.00000   47.12410   86.07320  180.07780   20.62250    0.04870    3.20860   -0.08050   -0.00170    2.83960  233.45940  390.96020  234.35460    8.50510
 5452.50000   47.14220   84.72040  179.98250   20.26270    0.04870    3.22650   -0.07980   -0.00180    2.83890  254.81670  419.88590  229.98770    8.49440
 5453.00000   47.06950   85.50020  179.88720   19.96420    0.04940    3.29060   -0.07180   -0.00190    2.82760  243.12060  431.72990  213.71860    8.48370
 5453.50000   47.01790   86.43510  179.88070   19.45510    0.05100    3.33550   -0.06100   -0.00200    2.81460  240.16820  445.59400  198.60030    8.47470
 5454.00000   47.46440   87.31740  179.95730   18.89350    0.05310    3.33680   -0.05320   -0.00210    2.80200  222.22120  380.99620  187.02560    8.47850
 5454.50000   47.01980   87.80680  179.90640   18.39020    0.06010    3.33730   -0.04570   -0.00210    2.79100  202.25810  311.49780  177.76320    8.47600
 5455.00000   48.57190   88.71330  180.18650   17.83680    0.06650    3.33680   -0.03410   -0.00220    2.77600  187.97040  292.66970  167.34550    8.49140
 5455.50000   50.07290   90.81860  181.02810   17.33140    0.07620    3.33290   -0.01620   -0.00130    2.74080  148.52140  211.47590  121.68770    8.50260
 5456.00000   51.43470   92.55690  181.96300   16.74680    0.08970    3.31350   -0.00470   -0.00010    2.72280   98.33870  129.16240   81.58520    8.51410
 5456.50000   51.92380   93.01380  182.88160   16.41030    0.09260    3.28200   -0.00090    0.00120    2.71050   82.01490   87.76740   59.48730    8.52560
 5457.00000   51.60700   94.20700  183.12170   16.32570    0.09110    3.25050   -0.00340    0.00240    2.71520   80.09760   86.23390   54.31390    8.52590
 5457.50000   50.98180   96.63010  183.23840   16.12730    0.09020    3.24100   -0.00810    0.00320    2.72130   79.57950   91.76360   64.82460    8.52210
