~Version ---------------------------------------------------
VERS.   2.0 : CWLS log ASCII Standard -VERSION 2.0
WRAP.    NO : One line per depth step
DLM . SPACE : Column Data Section Delimiter
~Well ------------------------------------------------------
STRT .F                 180.0 : START DEPTH
STOP .F                7174.0 : STOP DEPTH
STEP .F                   0.5 : STEP
NULL .               -9999.25 : NULL VALUE
COMP .                        : COMPANY
WELL .                        : WELL
FLD  .                        : FIELD
LOC  .                        : LOCATION
PROV .                        : PROVINCE
CNTY .                        : COUNTY
STAT .                        : STATE
CTRY .                        : COUNTRY
SRVC .                        : SERVICE COMPANY
DATE .                        : DATE
UWI  .                        : UNIQUE WELL ID
API  .                        : API NUMBER
SLAT .WGS84 3.063333872257701 : SURFACE LATITUDE
SLON .WGS84 8.393341535545005 : SURFACE LONGITUDE
DATUM.F                   nan : DEPTH DATUM ELEV
~Curve Information -----------------------------------------
DEPT   .F     : 1 MEASURED DEPTH
DTCO   .US/F  : DELTA-T COMPRESSIONAL
DTSH   .US/F  : DELTA-T SHEAR BOREHOLE COMPENSATED (DEPTH DERIVED)
DTSM   .US/F  : DELTA-T SHEAR
HSGRD  .GAPI  : HNGS STANDARD GAMMA RAY FROM DENSITY LOG
TNPH_LS.DEC   : THERMAL NEUTRON POROSITY [LIMESTONE]
PEFZ   .B/E   : HRDD STANDARD RESOLUTION FORMATION PHOTOELECTRIC FACTOR
DPHZ_LS.DEC   : HGRD STANDARD RESOLUTION DENSITY POROSITY
HDRA   .G/C3  : HRDD SPINE AND RIBS DENSITY CORRECTION
RHOZ   .G/C3  : HRDD STANDARD RESOLUTION FORMATION DENSITY
RLA3   .OHMM  : APPARENT RESISTIVITY FROM COMPUTED FOCUSING MODE 3
RLA5   .OHMM  : APPARENT RESISTIVITY FROM COMPUTED FOCUSING MODE 5
RXOZ   .OHMM  : INVADED FORMATION RESISTIVITY FILTERED AT 18 INCHES
HCALR  .IN    : HRCC CALIPER CALIBRATED FROM RESISTIVITY LOG
~Params ----------------------------------------------------
~Other -----------------------------------------------------
~ASCII -----------------------------------------------------
# ...
 2078.00000   87.54440  150.91930  223.21710   17.09330    0.17360    3.73850    0.69900    0.01900    1.52730   81.60960  122.87070   16.27910   10.70960
 2078.50000   83.10780  150.73740  217.41940   15.92070    0.19300    3.77120    0.69910    0.04010    1.71060   57.97460   79.46260    1.45770   10.80230
 2079.00000   71.03060  141.77490  214.21910   14.48240    0.29520    4.16260    0.35840    0.06120    2.19010   46.80210   66.59610    0.20950   11.25550
 2079.50000   62.63470  119.79680  197.10060   13.93230    0.14250    4.60140    0.15880    0.08230    2.90320   62.03950   88.76970    0.20050   11.70530
 2080.00000   57.56370  113.42420  190.78780   13.49900    0.08710    4.95700   -0.04070    0.09230    2.89800  143.74060  194.38670    0.20050   13.28650
 2080.50000   56.32020  108.02380  187.93870   14.00220    0.06370    5.14610   -0.07930    0.04850    2.88730  164.64270  175.78650    0.20050   13.60740
 2081.00000   55.48060  110.00670  186.73180   14.82820    0.04760    5.19080   -0.11790    0.00740    2.87650   99.76120  191.81500    0.20370   11.89780
 2081.50000   56.55200  113.28560  187.88660   15.36630    0.04690    5.18740   -0.11480   -0.03130    2.86580   79.49390   97.68200    2.91110   10.09820
 2082.00000   57.97670  113.35020  188.23250   15.49780    0.04990    5.14510   -0.09880   -0.04610    2.86270   82.53420   87.96050   29.32600    9.81690
 2082.50000   58.26490  112.98340  188.23310   14.58560    0.05280    5.10290   -0.09570   -0.04740    2.90550   59.34150   88.09570   43.66350    9.79240
 2083.00000   58.28290  113.72020  188.23360   13.12070    0.04890    5.11870   -0.10490   -0.03000    2.94890   70.54980  154.34540   29.68660    9.78500
 2083.50000   58.46870  114.29350  188.23420   11.37250    0.03900    5.20260   -0.12510   -0.01270    2.94970   17.33310   58.24910   12.77120    9.87480
 2084.00000   57.28400  111.24810  188.10100    9.84800    0.02770    5.28660   -0.14320   -0.01190    2.94820   16.79670   23.11120   11.96810    9.91040
 2084.50000   54.17740  105.45900  187.86620    9.55320    0.01520    5.31590   -0.15230   -0.01620    2.94140   35.44650  526.74190   13.65770    9.94210
 2085.00000   51.33810  101.35740  185.72980    9.58340    0.01430    5.24000   -0.14970   -0.01210    2.92700  149.47000  170.50880   70.79430    9.91370
 2085.50000   52.27340   98.04310  185.23540    9.61020    0.01430    5.18440   -0.14640   -0.00780    2.91010  119.32310  179.60540   63.45260    9.89540
 2086.00000   53.11590   96.31590  186.11440    9.79510    0.01470    5.15070   -0.14660   -0.00780    2.84430  276.22510  646.62500   76.86520    9.88000
 2086.50000   54.10670   94.63950  186.58180   10.14550    0.01560    5.12620   -0.14670   -0.00780    2.77860  129.34490  301.63430  101.43880    9.85540
 2087.00000   55.60070   94.57170  188.24010   10.67590    0.01840    5.05920   -0.14590   -0.00860    2.71280   48.78640   63.26710   17.18560    9.83070
 2087.50000   58.34250  104.97300  189.71680   11.94630    0.02180    4.88710   -0.13170   -0.00990    2.69000   21.32820   25.79160   13.43160    9.78260
 2088.00000   62.14360  114.58400  190.01020   12.89310    0.02520    4.73610   -0.08900   -0.01110    2.74220   25.18460   35.44850   14.65820    9.77430
 2088.50000   67.02930  120.10290  187.50750   15.29880    0.03130    4.51950   -0.04940   -0.01230    2.84040   17.91330   26.90630    9.57650    9.77490
 2089.00000   64.59130  124.51290  187.05730   18.61580    0.04480    4.20990   -0.00840   -0.01360    2.89840   10.49140   12.28210    4.12360    9.70430
 2089.50000   60.21530  125.54650  189.52390   21.85460    0.10060    3.77950    0.01480   -0.01490    2.57770   17.42670   20.19880    4.45480    9.62360
 2090.00000   54.62660  124.57590  197.64790   21.47480    0.14000    3.75060   -0.00590   -0.01640    2.38240   49.48450  142.48990   17.21180    9.49330
 2090.50000   57.04690  131.59070  207.33700   17.66410    0.09690    4.07320   -0.06810   -0.01780    2.18710  260.89900  425.91690   72.54460    9.46900
 2091.00000   60.34660  137.93230  207.96690   14.23810    0.05200    4.61800   -0.06650   -0.01990    1.76040  123.01240  211.21520    3.18450    9.49300
 2091.50000   64.46340  143.79040  209.90670   13.57550    0.02230    4.92880   -0.06500   -0.02240    1.94660   22.38090   38.21400    0.24510    9.55450
 2092.00000   68.85430  149.55390  209.16850   18.92660    0.07420    4.74560   -0.09930   -0.02080    2.39480   10.69050   13.13850    0.20530    9.66970
 2092.50000   75.53320  155.93650  207.53530   23.60170    0.14090    4.29780    0.26890   -0.00930    2.65260   12.97270   15.69750    0.20530   11.63410
 2093.00000   76.85130  150.08710  205.54370   25.43860    0.20380    3.92190    0.49890    0.00570    2.77150   22.34850   29.58990    0.20520   12.34930
 2093.50000   76.38960  141.75110  201.60390   22.82690    0.26490    3.64300    0.65520    0.02700    2.81390   61.58850   79.31330    0.20620   12.39040
 2094.00000   76.89230  142.50270  195.53380   20.53190    0.27380    3.61420    0.39040    0.06930    2.82750   61.41630  102.99160    1.39980   10.08350
 2094.50000   72.63800  140.27310  193.00300   21.10600    0.19620    4.28520    0.12560    0.11160    2.79850   13.09020   30.83830   11.17310   10.13850
 2095.00000   67.24580  136.72450  196.52290   21.00200    0.10530    4.61900   -0.03470    0.10690    2.76520   49.44780   56.54590   12.03290   10.15190
 2095.50000   64.29510  140.81870  196.84450   17.59530    0.08320    4.75180   -0.06580    0.04560    2.69620   78.41670  100.56770   14.65250   10.02570
 2096.00000   66.93860  147.22240  189.45550   13.79240    0.04600    4.99670   -0.07290    0.03250    2.60280  100.30710  130.57330    4.89530    9.91720
 2096.50000   68.96100  147.66520  188.24020   11.72520    0.01790    5.11700   -0.05170    0.01810    2.50940  170.12840  308.67740    5.56900    9.91690
 2097.00000   69.66210  151.17460  212.54360   12.05160    0.01900    4.81600    0.02040    0.02150    2.41600   85.64550  184.66640    0.81250    9.89380
 2097.50000   76.58240  149.75310  215.07620   13.23660    0.04330    4.35580    0.11620    0.03520    2.32260   31.37530   46.58910    0.21180    9.88430
 2098.00000   82.37390  145.98320  218.17030   14.62950    0.05980    3.89990    0.26590    0.04860    2.22930   19.42660   32.70110    0.20020   10.21440
 2098.50000   83.76450  143.51690  217.92230   14.58080    0.12270    3.89620    0.57800    0.04860    2.12100   90.88500  109.74490    0.20020   12.38610
 2099.00000   79.97530  141.06160  216.30840   13.43340    0.12680    4.19170    0.53070    0.02310    1.81680  110.59240  126.10910    0.20020   11.46140
 2099.50000   78.58040  143.77320  214.89110   12.30920    0.11250    4.42800    0.31440    0.01380    1.79620  312.47470  435.37220    0.22330   10.52910
 2100.00000   79.61980  142.62880  213.47380   12.61460    0.09450    4.53310    0.30090    0.02190    1.92020   82.27200 2633.07570    0.31250    9.79260
 2100.50000   76.99360  140.69290  212.34100   13.71770    0.05780    3.98550    0.50400    0.03540    1.99800   53.36090 2106.31840    0.20210    9.75070
 2101.00000   70.16550  146.04440  212.53110   14.66330    0.05970    3.26940    0.68140    0.04900    1.41060  139.30020 2771.82890    0.20190   12.45950
 2101.50000   70.75760  151.28770  214.23460   15.37810    0.10110    2.71260    0.69900    0.06250    1.41000  934.28730 3904.67310    0.20150   13.52860
 2102.00000   71.34300  149.03990  218.33040   15.45210    0.15270    2.67530    0.69910    0.07570    1.45320  454.32790  339.18680    0.20110   13.35590
 2102.50000   72.57860  146.16810  223.35180   15.95670    0.20830    2.73090    0.69250    0.07570    1.60940  512.46660  196.20630    0.20080   13.14800
 2103.00000   71.37880  146.98780  222.80270   16.38010    0.22880    3.19770    0.60300    0.08090    1.69750  422.09600   97.46100    0.20040   13.22730
 2103.50000   72.04430  145.66850  222.28330   16.06620    0.19310    3.61010    0.37510    0.09630    1.88440   95.21130   50.01390    0.20060   11.46750
