~Version ---------------------------------------------------
VERS.   2.0 : CWLS log ASCII Standard -VERSION 2.0
WRAP.    NO : One line per depth step
DLM . SPACE : Column Data Section Delimiter
~Well ------------------------------------------------------
STRT .F                  139.0 : START DEPTH
STOP .F                 8710.0 : STOP DEPTH
STEP .F                    0.5 : STEP
NULL .                -9999.25 : NULL VALUE
COMP .                         : COMPANY
WELL .                         : WELL
FLD  .                         : FIELD
LOC  .                         : LOCATION
PROV .                         : PROVINCE
CNTY .                         : COUNTY
STAT .                         : STATE
CTRY .                         : COUNTRY
SRVC .                         : SERVICE COMPANY
DATE .                         : DATE
UWI  .                         : UNIQUE WELL ID
API  .                         : API NUMBER
SLAT .WGS84    2.6384200224634 : SURFACE LATITUDE
SLON .WGS84 7.3704452632600095 : SURFACE LONGITUDE
DATUM.F                    nan : DEPTH DATUM ELEV
~Curve Information -----------------------------------------
DEPT   .F     : 
GRD    .GAPI  : GAMMA RAY FROM DENSITY LOG
TNPH_LS.DEC   : THERMAL NEUTRON POROSITY [LIMESTONE]
PEFZ   .B/E   : HRDD STANDARD RESOLUTION FORMATION PHOTOELECTRIC FACTOR
DPHZ_LS.DEC   : HGRD STANDARD RESOLUTION DENSITY POROSITY
CALD   .IN    : CALIPER FROM DENSITY LOG
RHOZ   .G/C3  : HRDD STANDARD RESOLUTION FORMATION DENSITY
HDRA   .G/C3  : HRDD SPINE AND RIBS DENSITY CORRECTION
TEND   .LB    : TENSION FROM DENSITY LOG
TENR   .LB    : TENSION FROM RESISTIVITY LOG
SPHI   .DEC   : SONIC POROSITY
DTCO   .US/F  : DELTA-T COMPRESSIONAL
DTSM   .US/F  : DELTA-T SHEAR
HD1    .IN    : HOLE DIAMETER
HD2    .IN    : HOLE DIAMETER
TENS   .LB    : TENSION FROM SONIC LOG
GR_EDTC.GAPI  : GAMMA RAY
RXOZ   .OHMM  : INVADED FORMATION RESISTIVITY FILTERED AT 18 INCHES
RLA3   .OHMM  : APPARENT RESISTIVITY FROM COMPUTED FOCUSING MODE 3
RLA5   .OHMM  : APPARENT RESISTIVITY FROM COMPUTED FOCUSING MODE 5
RXOZ_R .OHMM  : INVADED ZONE RESISTIVITY
~Params ----------------------------------------------------
~Other -----------------------------------------------------
~ASCII -----------------------------------------------------
# ...
 4094.00000   52.53290    0.08900    3.38960    0.01730    9.82080    2.66840   -0.00160 2515.53100 2517.10450    0.10740   62.73530  113.65460    8.07430   10.42370 2726.53520   44.37690   17.22290   31.69790   29.58220   -9999.25
 4094.50000   54.23890    0.09550    3.42890    0.02830    9.81860    2.67510   -0.00160 2530.56570 2531.15160    0.09840   61.53790  113.53510    8.06960   10.38680 2707.87650   40.17230   13.20450   14.75810   15.99670   -9999.25
 4095.00000   48.53380    0.08530    3.60330    0.01190    9.76670    2.70960   -0.00180 2549.17600 2546.80910    0.09410   61.00360  112.53450    8.05560   10.29060 2718.61010   29.61710   11.56190   12.91310   14.42210   -9999.25
 4095.50000   42.50340    0.05710    3.99730   -0.03520    9.70640    2.84080    0.00080 2567.77880 2555.67870    0.08270   59.23340  110.61390    8.05470   10.27230 2689.98120   23.43680   16.07050   20.81890   24.83300   -9999.25
 4096.00000   32.32190    0.03880    4.37380   -0.07520    9.59370    2.86920    0.00690 2570.02950 2558.84910    0.07550   58.19710  108.86670    8.05440   10.26170 2677.74220   21.36230   31.99120  228.57570  301.32140   -9999.25
 4096.50000   31.61760    0.03150    4.71810   -0.11510    9.58440    2.88750    0.00990 2565.41360 2560.33010    0.07050   57.54530  108.36780    8.05570   10.27110 2631.28220   25.71840   59.02420   51.55020   77.22890   -9999.25
 4097.00000   33.31070    0.03470    4.75210   -0.10750    9.56290    2.87790    0.00410 2533.19510 2531.22560    0.07320   57.95550  108.31820    8.05700   10.29650 2696.46920   26.71600   41.59390   27.22890   26.85530   -9999.25
 4097.50000   33.27870    0.03520    4.57680   -0.10040    9.53100    2.87180   -0.00450 2540.98610 2534.66020    0.07710   58.49350  109.08990    8.05540   10.33100 2709.15890   25.18800   38.28510   66.83900   26.73190   -9999.25
 4098.00000   30.83580    0.02910    4.38690   -0.09330    9.53030    2.85580   -0.00430 2565.88400 2548.05810    0.08640   59.83850  110.71070    8.05580   10.43260 2513.61740   23.71190  103.52140   98.78630  126.30770   -9999.25
 4098.50000   31.49950    0.02910    3.96160   -0.06970    9.57730    2.77560   -0.00370 2557.94530 2561.45580    0.09750   61.54310  113.78420    8.05460   10.53860 2710.59690   26.83550   36.90030  110.41550  144.22150   -9999.25
 4099.00000   33.56160    0.04260    3.54350   -0.01510    9.68650    2.72540   -0.00310 2531.26680 2505.35380    0.14420   67.98750  121.08820    8.05440   10.60640 2878.54130   34.91930   22.23460   24.50780   41.05520   -9999.25
 4099.50000   40.90260    0.06480    3.31580    0.01960    9.75750    2.66120   -0.00330 2504.55150 2523.07350    0.16240   70.51110  125.26490    8.05420   10.66650 2830.79830   43.12970   14.34350   19.12450   26.75060   -9999.25
 4100.00000   53.95810    0.09160    3.19020    0.04950    9.82840    2.59710   -0.00320 2509.20630 2540.79350    0.18250   73.82910  132.90390    8.05790   10.72270 2742.55570   50.55380    9.34130   15.52490   18.99750   -9999.25
 4100.50000   60.52450    0.11230    3.09210    0.07420    9.89940    2.55530   -0.00300 2524.31760 2551.74930    0.19430   75.07670  137.38530    8.06590   10.77320 2654.31300   53.99900    6.08350   11.01850   15.10180   -9999.25
 4101.00000   61.60570    0.14010    3.06530    0.09420    9.95700    2.55530   -0.00320 2557.52440 2560.53270    0.20440   76.46960  140.23610    8.07240   10.64480 2671.05640   53.47930    3.97220    6.71470    6.35380   -9999.25
 4101.50000   62.86040    0.16880    3.05430    0.09320   10.00800    2.57050   -0.00370 2567.46750 2559.77050    0.20360   76.38770  140.83940    8.04590   10.63410 2818.54220   49.61760    3.93580    7.77690    6.90290   -9999.25
 4102.00000   62.25800    0.15610    3.07860    0.08070   10.02100    2.59360   -0.00390 2572.57570 2559.00810    0.20220   76.07580  140.51760    8.03430   10.65370 2781.80150   49.10110    5.39120    9.79560   10.30460   -9999.25
 4102.50000   62.94800    0.14720    3.15440    0.06640    9.98400    2.60540   -0.00430 2560.23610 2559.02200    0.18650   73.93430  138.77430    8.03370   10.67020 2698.74950   55.67850    6.95280   16.25660   13.64680   -9999.25
 4103.00000   63.25890    0.14590    3.22730    0.06350    9.93990    2.60710   -0.00480 2535.91500 2558.83130    0.17990   73.21880  136.62540    8.03310   10.64240 2687.11210   57.97420    6.70130   12.21260   10.39990   -9999.25
 4103.50000   64.95820    0.15020    3.30440    0.06370    9.97390    2.61090   -0.00630 2516.88770 2556.22730    0.16720   71.14000  131.56140    8.00640   10.61400 2712.16700   56.67980    6.96680   10.94030    9.70580   -9999.25
 4104.00000   65.35090    0.13660    3.38480    0.05560   10.00880    2.63110   -0.00780 2513.49630 2553.62330    0.15560   69.35210  127.09620    7.99170   10.59950 2705.18650   49.19910    8.57100   15.77720   14.22430   -9999.25
 4104.50000   62.78200    0.11890    3.49390    0.03600   10.03340    2.67650   -0.00850 2510.10500 2549.43630    0.11970   64.34400  120.98020    7.98950   10.57350 2689.47800   43.88760   10.07000   17.99000   18.49400   -9999.25
 4105.00000   52.26060    0.09480    3.77070   -0.00690    9.89910    2.76260   -0.00500 2504.99340 2541.33760    0.09630   61.60980  113.67720    8.03500   10.34960 2673.76980   33.94920   11.09980   12.45750   14.22430   -9999.25
 4105.50000   38.27670    0.05370    4.10030   -0.06550    9.92570    2.86430   -0.00190 2495.88350 2533.23880    0.06330   56.23470  107.01300    8.03380   10.30980 2674.73560   20.57960   14.48870   10.64220   13.03260   -9999.25
 4106.00000   24.28280    0.01730    4.52300   -0.10590    9.81940    2.92000    0.00110 2508.79490 2531.75200    0.04450   53.75350  103.09960    8.03390   10.31910 2673.06320   11.01310   31.40730  206.55230  170.22760   -9999.25
 4106.50000   16.29810   -0.00920    4.81150   -0.15010    9.67640    2.97280    0.00420 2539.39820 2535.12570    0.03420   52.40150  101.02670    8.03400   10.32800 2635.12550    6.24630  729.50790  387.52770  617.34790   -9999.25
 4107.00000   14.54430   -0.01350    4.94800   -0.16820    9.60870    2.98370    0.00520 2557.07740 2541.08860    0.04690   54.15000   99.67480    8.03410   10.34550 2630.04880    6.02990  837.58720  779.72080 1954.47450   -9999.25
 4107.50000   16.10680   -0.01020    4.94660   -0.17010    9.57290    2.96780    0.00550 2534.24440 2537.39720    0.04600   54.20590  100.74250    8.04040   10.33880 2641.09160    9.57230  829.90810  961.67870 2460.53760   -9999.25
 4108.00000   21.78020    0.00470    4.88110   -0.15400    9.57450    2.94230    0.00570 2511.31470 2533.70610    0.05990   56.04520  102.49040    8.04750   10.33300 2652.13450   15.85930  885.17680  436.11540 1782.50180   -9999.25
 4108.50000   27.30660    0.02110    4.75070   -0.13310    9.59140    2.89070    0.00610 2488.38500 2520.95460    0.06400   56.77990  104.24960    8.04750   10.32830 2663.17750   21.58450   62.09120   41.21260   45.94410   -9999.25
 4109.00000   30.92470    0.03470    4.63460   -0.11240    9.62080    2.87920    0.00250 2468.01150 2502.29910    0.06760   57.13190  105.73210    8.04230   10.32540 2674.22020   19.98430   59.57030   25.52880   25.06280   -9999.25
 4109.50000   26.84850    0.03210    4.69270   -0.10320    9.60690    2.88450   -0.00120 2453.52490 2514.95900    0.07050   57.52990  106.61610    8.06150   10.32200 2687.78540   16.21080   56.44090   89.99740  107.46820   -9999.25
 4110.00000   24.56740    0.02570    4.86440   -0.10660    9.59330    2.89570   -0.00290 2463.51370 2548.86670    0.06470   56.70080  105.84370    8.08320   10.31860 2710.15580   14.18990  313.55200  419.78800  490.94180   -9999.25
 4110.50000   24.00890    0.02520    4.97720   -0.11500    9.58060    2.89210   -0.00240 2495.52910 2542.62890    0.06550   56.84590  105.15250    8.07670   10.28310 2713.27980   16.35790   68.89420  419.78800  490.94180   -9999.25
 4111.00000   24.97620    0.02990    4.96200   -0.11480    9.57760    2.88590   -0.00180 2486.57180 2536.39140    0.05920   55.69140  104.08980    8.06830   10.26540 2626.74220   17.15010   38.99690  121.06820  121.06820   -9999.25
