~Version ---------------------------------------------------
VERS.   2.0 : CWLS log ASCII Standard -VERSION 2.0
WRAP.    NO : One line per depth step
DLM . SPACE : Column Data Section Delimiter
~Well ------------------------------------------------------
STRT .F                  139.0 : START DEPTH
STOP .F                 8710.0 : STOP DEPTH
STEP .F                    0.5 : STEP
NULL .                -9999.25 : NULL VALUE
COMP .                         : COMPANY
WELL .                         : WELL
FLD  .                         : FIELD
LOC  .                         : LOCATION
PROV .                         : PROVINCE
CNTY .                         : COUNTY
STAT .                         : STATE
CTRY .                         : COUNTRY
SRVC .                         : SERVICE COMPANY
DATE .                         : DATE
UWI  .                         : UNIQUE WELL ID
API  .                         : API NUMBER
SLAT .WGS84    2.6384200224634 : SURFACE LATITUDE
SLON .WGS84 7.3704452632600095 : SURFACE LONGITUDE
DATUM.F                    nan : DEPTH DATUM ELEV
~Curve Information -----------------------------------------
DEPT   .F     : 
GRD    .GAPI  : GAMMA RAY FROM DENSITY LOG
TNPH_LS.DEC   : THERMAL NEUTRON POROSITY [LIMESTONE]
PEFZ   .B/E   : HRDD STANDARD RESOLUTION FORMATION PHOTOELECTRIC FACTOR
DPHZ_LS.DEC   : HGRD STANDARD RESOLUTION DENSITY POROSITY
CALD   .IN    : CALIPER FROM DENSITY LOG
RHOZ   .G/C3  : HRDD STANDARD RESOLUTION FORMATION DENSITY
HDRA   .G/C3  : HRDD SPINE AND RIBS DENSITY CORRECTION
TEND   .LB    : TENSION FROM DENSITY LOG
TENR   .LB    : TENSION FROM RESISTIVITY LOG
SPHI   .DEC   : SONIC POROSITY
DTCO   .US/F  : DELTA-T COMPRESSIONAL
DTSM   .US/F  : DELTA-T SHEAR
HD1    .IN    : HOLE DIAMETER
HD2    .IN    : HOLE DIAMETER
TENS   .LB    : TENSION FROM SONIC LOG
GR_EDTC.GAPI  : GAMMA RAY
RXOZ   .OHMM  : INVADED FORMATION RESISTIVITY FILTERED AT 18 INCHES
RLA3   .OHMM  : APPARENT RESISTIVITY FROM COMPUTED FOCUSING MODE 3
RLA5   .OHMM  : APPARENT RESISTIVITY FROM COMPUTED FOCUSING MODE 5
RXOZ_R .OHMM  : INVADED ZONE RESISTIVITY
~Params ----------------------------------------------------
~Other -----------------------------------------------------
~ASCII -----------------------------------------------------
# ...
 7296.50000   34.79460    0.03260    3.04260   -0.07910    8.90230    2.83620   -0.00110 3437.73270 3442.68850   -0.00110   47.13500   84.12460    8.11430    9.61860 3486.75610   24.02530   80.35820  426.21820  867.68750   -9999.25
 7297.00000   34.56320    0.03190    3.03970   -0.07580    8.88250    2.83040   -0.00110 3448.45870 3440.39770   -0.00080   47.37010   83.62360    8.11430    9.62030 3490.13820   26.24180   71.61930  271.48910  421.72560   -9999.25
 7297.50000   32.77720    0.03270    3.09250   -0.07470    8.86270    2.83220   -0.00110 3467.20830 3442.02880   -0.00230   47.24600   83.17320    8.12470    9.61670 3404.90310   25.85640   64.12540  281.39880  415.93930   -9999.25
 7298.00000   35.20800    0.03350    3.16080   -0.07790    8.86730    2.83760   -0.00110 3457.56300 3442.80810   -0.00320   47.15620   82.70470    8.13710    9.62500 3442.46290   25.84880   74.95140  317.77710  486.44080   -9999.25
 7298.50000   36.65830    0.03660    3.22980   -0.08000    8.86780    2.83740   -0.00110 3432.52290 3443.58760   -0.00300   47.16810   82.36070    8.13990    9.63760 3525.24800   26.60610  103.52140  574.82370 1496.33900   -9999.25
 7299.00000   36.96220    0.03980    3.26540   -0.07900    8.87380    2.83570   -0.00100 3422.02760 3442.58720   -0.00230   47.25800   82.53780    8.14270    9.65150 3462.85640   27.29140  192.92670  760.68990 2244.03690   -9999.25
 7299.50000   34.79760    0.04300    3.20920   -0.07710    8.87960    2.83390   -0.00100 3414.10670 3441.56930   -0.00090   47.48430   83.08920    8.16090    9.65900 3544.90580   26.05320  159.36130  997.76900 3572.97510   -9999.25
 7300.00000   33.16360    0.04660    3.13460   -0.07430    8.87850    2.82510   -0.00110 3416.13400 3440.55130    0.00290   48.21600   84.25390    8.16360    9.65720 3504.14790   23.11740  118.85680  683.95890 1496.33900   -9999.25
 7300.50000   33.52560    0.05060    3.07320   -0.06990    8.86920    2.81580   -0.00140 3422.97710 3440.46240    0.00550   48.37120   84.75890    8.14330    9.65710 3469.82540   19.43070   89.12860  705.55360 1145.59200   -9999.25
 7301.00000   41.07540    0.05750    3.06320   -0.06540    8.86690    2.81150   -0.00170 3429.81980 3436.04690    0.01040   49.06680   85.50080    8.10230    9.65710 3482.85300   25.19980   66.87600  729.42690 1377.30460   -9999.25
 7301.50000   47.04960    0.06700    3.17000   -0.06330    8.88730    2.81360   -0.00190 3435.06010 3421.04130    0.01140   49.33320   86.35550    8.07080    9.66770 3484.40480   33.22770   46.02880  213.40400  456.06840   -9999.25
 7302.00000   46.91290    0.06730    3.29320   -0.07010    8.88190    2.82960   -0.00190 3437.31840 3413.58250    0.01120   49.24820   86.27240    8.09350    9.67760 3480.83150   36.44370   47.31840  129.01780  122.18840   -9999.25
 7302.50000   36.08770    0.06190    3.44500   -0.08480    8.88040    2.85390   -0.00140 3439.57670 3453.64990    0.01040   49.04410   84.98680    8.11710    9.67720 3494.70970   29.40390   70.49870  159.36840  234.44400   -9999.25
 7303.00000   28.34520    0.04270    3.59570   -0.09870    8.87540    2.87110   -0.00090 3448.75850 3453.77950    0.00830   48.75560   84.37610    8.13820    9.67540 3479.90090   18.63200  119.09480  582.83590 1183.81090   -9999.25
 7303.50000   26.94840    0.03330    3.66900   -0.10040    8.87380    2.87360   -0.00010 3449.20900 3453.90940    0.00440   48.22480   83.90520    8.13180    9.66070 3432.76320   14.23180  200.48820 1487.99120 8469.66700   -9999.25
 7304.00000   27.41570    0.03090    3.58360   -0.10190    8.87320    2.86710    0.00110 3434.10300 3454.03910   -0.00760   46.49650   83.44260    8.13340    9.66730 3407.40110   14.43530  318.44170 1482.62050 17825.01950   -9999.25
 7304.50000   27.50250    0.03340    3.51990   -0.09600    8.87020    2.85780   -0.00030 3432.21610 3455.76050   -0.00940   46.21850   83.00400    8.11520    9.67400 3451.42630   16.54170  333.44940 1393.25310 30692.33980   -9999.25
 7305.00000   27.40380    0.03590    3.51050   -0.08790    8.87100    2.84620   -0.00210 3425.48850 3459.41040   -0.01010   46.07870   83.22500    8.12120    9.67840 3411.11330   17.61620  193.01960 1074.06360 4602.88380   -9999.25
 7305.50000   26.47850    0.03180    3.55550   -0.08460    8.87300    2.84820   -0.00390 3408.87280 3463.06030   -0.00980   46.01930   82.81150    8.12620    9.69970 3485.85380   16.62600  149.63390 1210.68180 18408.99220   -9999.25
 7306.00000   26.21250    0.02690    3.58340   -0.09350    8.88300    2.86380   -0.00320 3445.56370 3452.75100   -0.00940   46.23760   82.18940    8.12980    9.64380 3441.78560   17.53970  115.61920 1315.31570 73625.79690   -9999.25
 7306.50000   26.62710    0.02240    3.59140   -0.10100    8.92060    2.87650   -0.00140 3457.09200 3443.66460   -0.01000   46.18000   81.17730    8.13330    9.63740 3505.57150   18.77860  130.32570 1156.19210 50936.60550   -9999.25
 7307.00000   28.47510    0.01810    3.43710   -0.10400    8.90450    2.87190    0.00050 3461.29080 3443.76340   -0.01010   46.15380   82.11680    8.13430    9.63740 3511.77340   21.30580  209.10450 1200.68160 97955.76560   -9999.25
 7307.50000   29.91330    0.01450    3.33380   -0.09790    8.88850    2.86570    0.00020 3456.50880 3446.34770   -0.01000   46.20690   82.28520    8.12440    9.63740 3525.15160   21.72040  298.55890 1053.25180 61805.91020   -9999.25
 7308.00000   30.84290    0.01350    3.31120   -0.09490    8.87290    2.86260   -0.00180 3442.32470 3446.05400   -0.01000   46.17210   81.84520    8.09920    9.63740 3502.47900   21.79370  304.10950  952.91180 27735.11720   -9999.25
 7308.50000   28.77860    0.01280    3.34050   -0.09460    8.87500    2.86200   -0.00200 3418.46340 3442.13090   -0.00890   46.18730   81.70810    8.11560    9.63740 3471.62620   20.76010  369.00310  893.36720 19613.02150   -9999.25
 7309.00000   27.38950    0.01500    3.34160   -0.09490    8.88180    2.85990   -0.00210 3391.81010 3438.20800   -0.00690   46.55790   81.70770    8.07490    9.63120 3455.83860   19.66310  195.11370  814.76060 9963.39940   -9999.25
 7309.50000   26.85790    0.01680    3.31130   -0.09060    8.88250    2.85250   -0.00230 3412.44040 3435.05590   -0.00330   47.08910   81.62350    8.07490    9.61950 3519.30520   21.28100  198.97330  789.36890 5945.26860   -9999.25
 7310.00000   33.44610    0.02060    3.29540   -0.08540    8.88110    2.84490   -0.00250 3447.38790 3446.44970   -0.00510   46.88450   82.32720    8.07490    9.61710 3554.43460   25.97560  156.51810  641.25380 4055.36550   -9999.25
 7310.50000   40.28560    0.02570    3.27250   -0.08190    8.87720    2.84100   -0.00260 3458.95650 3447.19380   -0.00560   46.81870   83.39010    8.07330    9.61670 3560.45920   29.98420  188.37790  514.07920 2477.59330   -9999.25
 7311.00000   43.99110    0.02900    3.26640   -0.07930    8.87320    2.83310   -0.00330 3442.75000 3447.93820   -0.00630   46.69740   82.94580    8.08140    9.63430 3549.58300   32.78650  162.56610  500.06910 1936.55570   -9999.25
 7311.50000   46.60470    0.02860    3.26830   -0.07250    8.86930    2.82330   -0.00460 3434.31350 3447.52610   -0.00880   46.32200   82.34440    8.09920    9.66040 3449.93260   34.69010  178.25020  533.37170 1954.47450   -9999.25
 7312.00000   49.72190    0.02810    3.27020   -0.06840    8.91010    2.82070   -0.00330 3439.65530 3443.58330   -0.01030   46.12870   82.91630    8.09360    9.67170 3485.01680   42.39690  132.74860  568.89220 4008.94410   -9999.25
 7312.50000   58.74350    0.02640    3.27090   -0.07090    8.95690    2.82440   -0.00200 3444.53610 3439.87180   -0.01070   46.08510   82.65540    8.09430    9.65470 3495.64530   46.38530  142.89930  495.48440 1840.89920   -9999.25
 7313.00000   59.76750    0.02520    3.25680   -0.07400    8.94290    2.82870    0.00100 3461.50050 3436.16060   -0.01260   45.78000   82.44120    8.09480    9.63690 3446.06790   46.41530   92.97440  575.47970 2192.95630   -9999.25
 7313.50000   52.75220    0.02630    3.23570   -0.07100    8.93640    2.81550    0.00140 3457.64790 3437.56760   -0.01220   45.82320   82.26790    8.09560    9.63740 3490.29170   38.79080   90.16330  623.77790 2799.17460   -9999.25
