~Version ---------------------------------------------------
VERS.   2.0 : CWLS log ASCII Standard -VERSION 2.0
WRAP.    NO : One line per depth step
DLM . SPACE : Column Data Section Delimiter
~Well ------------------------------------------------------
STRT .F                  139.0 : START DEPTH
STOP .F                 8710.0 : STOP DEPTH
STEP .F                    0.5 : STEP
NULL .                -9999.25 : NULL VALUE
COMP .                         : COMPANY
WELL .                         : WELL
FLD  .                         : FIELD
LOC  .                         : LOCATION
PROV .                         : PROVINCE
CNTY .                         : COUNTY
STAT .                         : STATE
CTRY .                         : COUNTRY
SRVC .                         : SERVICE COMPANY
DATE .                         : DATE
UWI  .                         : UNIQUE WELL ID
API  .                         : API NUMBER
SLAT .WGS84    2.6384200224634 : SURFACE LATITUDE
SLON .WGS84 7.3704452632600095 : SURFACE LONGITUDE
DATUM.F                    nan : DEPTH DATUM ELEV
~Curve Information -----------------------------------------
DEPT   .F     : 
GRD    .GAPI  : GAMMA RAY FROM DENSITY LOG
TNPH_LS.DEC   : THERMAL NEUTRON POROSITY [LIMESTONE]
PEFZ   .B/E   : HRDD STANDARD RESOLUTION FORMATION PHOTOELECTRIC FACTOR
DPHZ_LS.DEC   : HGRD STANDARD RESOLUTION DENSITY POROSITY
CALD   .IN    : CALIPER FROM DENSITY LOG
RHOZ   .G/C3  : HRDD STANDARD RESOLUTION FORMATION DENSITY
HDRA   .G/C3  : HRDD SPINE AND RIBS DENSITY CORRECTION
TEND   .LB    : TENSION FROM DENSITY LOG
TENR   .LB    : TENSION FROM RESISTIVITY LOG
SPHI   .DEC   : SONIC POROSITY
DTCO   .US/F  : DELTA-T COMPRESSIONAL
DTSM   .US/F  : DELTA-T SHEAR
HD1    .IN    : HOLE DIAMETER
HD2    .IN    : HOLE DIAMETER
TENS   .LB    : TENSION FROM SONIC LOG
GR_EDTC.GAPI  : GAMMA RAY
RXOZ   .OHMM  : INVADED FORMATION RESISTIVITY FILTERED AT 18 INCHES
RLA3   .OHMM  : APPARENT RESISTIVITY FROM COMPUTED FOCUSING MODE 3
RLA5   .OHMM  : APPARENT RESISTIVITY FROM COMPUTED FOCUSING MODE 5
RXOZ_R .OHMM  : INVADED ZONE RESISTIVITY
~Params ----------------------------------------------------
~Other -----------------------------------------------------
~ASCII -----------------------------------------------------
# ...
 8661.50000   -9999.25   -9999.25    4.94830    0.00150    9.09350    2.70590    0.00160 3971.88090 3950.53930   -9999.25   -9999.25   -9999.25   -9999.25   -9999.25 3928.58180   -9999.25   89.33670  330.39240  926.89390  376.49160
 8662.00000   -9999.25   -9999.25    4.94750    0.00410    9.09360    2.70180    0.00090 3976.79270 3951.05490   -9999.25   -9999.25   -9999.25   -9999.25   -9999.25 3921.20510   -9999.25   91.43460  269.79260  629.54970  424.08560
 8662.50000   -9999.25   -9999.25    4.93540    0.00410    9.09470    2.70360    0.00010 3957.72900 3951.57030   -9999.25   -9999.25   -9999.25   -9999.25   -9999.25 3971.29390   -9999.25   -9999.25  295.00540  548.31480  467.44290
 8663.00000   -9999.25   -9999.25    4.91740    0.00200    9.09900    2.70840   -0.00060 3938.66530 3951.51490   -9999.25   -9999.25   -9999.25   -9999.25   -9999.25 4017.67530   -9999.25   -9999.25  419.78800 2371.53760  372.66780
 8663.50000   -9999.25   -9999.25    4.88730   -0.00040    9.10330    2.71020   -0.00110 3946.37650 3948.78130   -9999.25   -9999.25   -9999.25   -9999.25   -9999.25 4026.00950   -9999.25   -9999.25  490.94180 3523.95210  309.79030
 8664.00000   -9999.25   -9999.25    4.85460   -0.00100    9.10820    2.71070   -0.00080 3988.51250 3940.68510   -9999.25   -9999.25   -9999.25   -9999.25   -9999.25 3960.23390   -9999.25   -9999.25  468.84580 1385.25590  127.12380
 8664.50000   -9999.25   -9999.25    4.82880   -0.00030    9.11370    2.70890   -0.00060 4021.94560 3931.61040   -9999.25   -9999.25   -9999.25   -9999.25   -9999.25 3919.56760   -9999.25   -9999.25  234.97950  423.67220  127.12380
 8665.00000   -9999.25   -9999.25    4.85300    0.00370    9.14660    2.70170    0.00080 3988.55860 3925.70610   -9999.25   -9999.25   -9999.25   -9999.25   -9999.25 3930.42850   -9999.25   -9999.25  226.05830  312.62950  117.49270
 8665.50000   -9999.25   -9999.25    4.89000    0.00730    9.17630    2.69410    0.00540 3955.17140 3930.31980   -9999.25   -9999.25   -9999.25   -9999.25   -9999.25 3834.41380   -9999.25   -9999.25  215.92910  306.92340  109.72130
 8666.00000   -9999.25   -9999.25    4.92690    0.01210    9.20220    2.68990    0.02340 3985.91970 3994.17580   -9999.25   -9999.25   -9999.25   -9999.25   -9999.25 3890.25000   -9999.25   -9999.25  254.58660  456.06840  172.22450
 8666.50000   -9999.25   -9999.25    4.95060    0.01160    9.22030    2.68620    0.05000 3968.47310 4013.19950   -9999.25   -9999.25   -9999.25   -9999.25   -9999.25 3939.91920   -9999.25   -9999.25  173.39240  197.25590    7.20230
 8667.00000   -9999.25   -9999.25    4.83450    0.01730    9.20560    2.70150    0.09320 3868.33520 3970.90330   -9999.25   -9999.25   -9999.25   -9999.25   -9999.25 3876.71510   -9999.25   -9999.25   82.22990   88.51770    5.84200
 8667.50000   -9999.25   -9999.25    4.62250    0.00960    9.18750    2.70550    0.15840 3888.63310 3968.64360   -9999.25   -9999.25   -9999.25   -9999.25   -9999.25 3882.68770   -9999.25   -9999.25  200.92320  219.72890    3.28710
 8668.00000   -9999.25   -9999.25    4.33570    0.02550    9.27120    2.61120    0.21720 3951.19480 4007.62570   -9999.25   -9999.25   -9999.25   -9999.25   -9999.25 4025.96660   -9999.25   -9999.25  191.88010  362.26800    1.74620
 8668.50000   -9999.25   -9999.25    4.09060    0.11350    9.82540    2.52390    0.26240 3964.63570 4019.48100   -9999.25   -9999.25   -9999.25   -9999.25   -9999.25 3940.23970   -9999.25   -9999.25  132.06270  345.96330    1.43650
 8669.00000   -9999.25   -9999.25    3.88900    0.10280    9.83070    2.58930    0.31870 3928.09790 3934.62080   -9999.25   -9999.25   -9999.25   -9999.25   -9999.25 3836.85250   -9999.25   -9999.25  111.43710  145.55600    1.28890
 8669.50000   -9999.25   -9999.25    3.94010    0.05840    7.80800    2.68030    0.35850 3874.80050 3857.16140   -9999.25   -9999.25   -9999.25   -9999.25   -9999.25 4059.74900   -9999.25   -9999.25  112.46830  108.33780    2.07050
 8670.00000   -9999.25   -9999.25    4.03220   -0.01500    3.75960    2.73530    0.37300 3874.68850 3903.95340   -9999.25   -9999.25   -9999.25   -9999.25   -9999.25 4067.19120   -9999.25   -9999.25   86.10530   86.10530    3.18580
 8670.50000   -9999.25   -9999.25    4.16970    0.03720    3.50840    2.67500    0.29690 4010.51860 3967.72920   -9999.25   -9999.25   -9999.25   -9999.25   -9999.25 3998.43730   -9999.25   -9999.25   85.31590  132.13870    5.71710
 8671.00000   -9999.25   -9999.25    4.18200    0.07180    3.50560    2.58520    0.30160 3946.24760 3967.72920   -9999.25   -9999.25   -9999.25   -9999.25   -9999.25 3893.15820   -9999.25   -9999.25  173.78910  221.83500   12.00350
 8671.50000   -9999.25   -9999.25    4.15220    0.07720    3.50610    2.59030    0.31660 3866.78520 3904.33180   -9999.25   -9999.25   -9999.25   -9999.25   -9999.25 3860.94630   -9999.25   -9999.25  173.27370  277.13840   25.20250
 8672.00000   -9999.25   -9999.25    4.19090    0.05920    3.50190    2.61850    0.32790 3866.78520 3843.83790   -9999.25   -9999.25   -9999.25   -9999.25   -9999.25 4060.35670   -9999.25   -9999.25  208.76960  305.04460   32.27170
 8672.50000   -9999.25   -9999.25    4.31480    0.05160    3.49880    2.63930    0.32930 3887.42040 3829.54740   -9999.25   -9999.25   -9999.25   -9999.25   -9999.25 4000.33010   -9999.25   -9999.25  201.64840  312.62950   28.63350
 8673.00000   -9999.25   -9999.25    4.44890    0.02030    3.50150    2.68270    0.30340 3945.79220 3860.68680   -9999.25   -9999.25   -9999.25   -9999.25   -9999.25 3928.54390   -9999.25   -9999.25  282.50750  400.89440   23.42940
 8673.50000   -9999.25   -9999.25    4.61010   -0.01050    3.49900    2.74040    0.27350 3932.71310 3886.18040   -9999.25   -9999.25   -9999.25   -9999.25   -9999.25 3928.69530   -9999.25   -9999.25  287.75970  447.74420   18.90220
 8674.00000   -9999.25   -9999.25    4.71540   -0.02590    3.49810    2.75070    0.23920 3901.74780 3874.09200   -9999.25   -9999.25   -9999.25   -9999.25   -9999.25 3899.87820   -9999.25   -9999.25  206.55230 1327.48610   15.31600
 8674.50000   -9999.25   -9999.25    4.78690   -0.02820    3.49810    2.75740    0.21890 3868.38650 3864.94380   -9999.25   -9999.25   -9999.25   -9999.25   -9999.25 3938.47660   -9999.25   -9999.25  250.43590  439.57200   15.30860
 8675.00000   -9999.25   -9999.25    4.80940   -0.03320    3.49520    2.76930    0.22530 3842.32280 3882.79860   -9999.25   -9999.25   -9999.25   -9999.25   -9999.25 3863.40010   -9999.25   -9999.25  252.36550  514.07920   -9999.25
 8675.50000   -9999.25   -9999.25    4.80130   -0.04820    3.49210    2.80050    0.24050 3844.05400 3897.21750   -9999.25   -9999.25   -9999.25   -9999.25   -9999.25 3919.16800   -9999.25   -9999.25  263.04500  504.69610   -9999.25
 8676.00000   -9999.25   -9999.25    4.79090   -0.06490    3.49600    2.82080    0.24140 3885.52250 3904.83720   -9999.25   -9999.25   -9999.25   -9999.25   -9999.25 3939.95560   -9999.25   -9999.25  264.86830  495.33660   -9999.25
 8676.50000   -9999.25   -9999.25    4.79180   -0.06620    3.50450    2.81500    0.23630 3936.11600 3912.45680   -9999.25   -9999.25   -9999.25   -9999.25   -9999.25 3940.19650   -9999.25   -9999.25  278.63130  523.80550   -9999.25
 8677.00000   -9999.25   -9999.25    4.79440   -0.06140    3.49890    2.80350    0.21430 3928.47900 3913.97490   -9999.25   -9999.25   -9999.25   -9999.25   -9999.25 3890.57420   -9999.25   -9999.25  293.10960  534.96470   -9999.25
 8677.50000   -9999.25   -9999.25    4.80710   -0.04980    3.49790    2.78430    0.20290 3920.84180 3913.97490   -9999.25   -9999.25   -9999.25   -9999.25   -9999.25 4101.81930   -9999.25   -9999.25  324.36200  641.25380   -9999.25
 8678.00000   -9999.25   -9999.25    4.81290   -0.04570    3.49720    2.78220    0.20830 3910.24540 3909.40970   -9999.25   -9999.25   -9999.25   -9999.25   -9999.25 4021.67260   -9999.25   -9999.25  324.36200  666.54580   -9999.25
 8678.50000   -9999.25   -9999.25    4.82160   -0.04510    3.49490    2.78300    0.22010 3893.58980 3876.01950   -9999.25   -9999.25   -9999.25   -9999.25   -9999.25 3940.70430   -9999.25   -9999.25  274.80840  677.68830   -9999.25
