~Version ---------------------------------------------------
VERS.   2.0 : CWLS log ASCII Standard -VERSION 2.0
WRAP.    NO : One line per depth step
DLM . SPACE : Column Data Section Delimiter
~Well ------------------------------------------------------
STRT .F                  139.0 : START DEPTH
STOP .F                 8710.0 : STOP DEPTH
STEP .F                    0.5 : STEP
NULL .                -9999.25 : NULL VALUE
COMP .                         : COMPANY
WELL .                         : WELL
FLD  .                         : FIELD
LOC  .                         : LOCATION
PROV .                         : PROVINCE
CNTY .                         : COUNTY
STAT .                         : STATE
CTRY .                         : COUNTRY
SRVC .                         : SERVICE COMPANY
DATE .                         : DATE
UWI  .                         : UNIQUE WELL ID
API  .                         : API NUMBER
SLAT .WGS84    2.6384200224634 : SURFACE LATITUDE
SLON .WGS84 7.3704452632600095 : SURFACE LONGITUDE
DATUM.F                    nan : DEPTH DATUM ELEV
~Curve Information -----------------------------------------
DEPT   .F     : 
GRD    .GAPI  : GAMMA RAY FROM DENSITY LOG
TNPH_LS.DEC   : THERMAL NEUTRON POROSITY [LIMESTONE]
PEFZ   .B/E   : HRDD STANDARD RESOLUTION FORMATION PHOTOELECTRIC FACTOR
DPHZ_LS.DEC   : HGRD STANDARD RESOLUTION DENSITY POROSITY
CALD   .IN    : CALIPER FROM DENSITY LOG
RHOZ   .G/C3  : HRDD STANDARD RESOLUTION FORMATION DENSITY
HDRA   .G/C3  : HRDD SPINE AND RIBS DENSITY CORRECTION
TEND   .LB    : TENSION FROM DENSITY LOG
TENR   .LB    : TENSION FROM RESISTIVITY LOG
SPHI   .DEC   : SONIC POROSITY
DTCO   .US/F  : DELTA-T COMPRESSIONAL
DTSM   .US/F  : DELTA-T SHEAR
HD1    .IN    : HOLE DIAMETER
HD2    .IN    : HOLE DIAMETER
TENS   .LB    : TENSION FROM SONIC LOG
GR_EDTC.GAPI  : GAMMA RAY
RXOZ   .OHMM  : INVADED FORMATION RESISTIVITY FILTERED AT 18 INCHES
RLA3   .OHMM  : APPARENT RESISTIVITY FROM COMPUTED FOCUSING MODE 3
RLA5   .OHMM  : APPARENT RESISTIVITY FROM COMPUTED FOCUSING MODE 5
RXOZ_R .OHMM  : INVADED ZONE RESISTIVITY
~Params ----------------------------------------------------
~Other -----------------------------------------------------
~ASCII -----------------------------------------------------
# ...
 1766.50000   79.28120    0.32390    2.82420    0.20660   13.12220    2.36650    0.00730 1848.13480 1845.49280   -9999.25   -9999.25   -9999.25   -9999.25   -9999.25   -9999.25   -9999.25    2.34490   28.41850   21.14720   -9999.25
 1767.00000   82.67240    0.35200    2.79730    0.24680   13.00680    2.31880    0.03350 1850.63040 1842.98990   -9999.25   -9999.25   -9999.25   -9999.25   -9999.25   -9999.25   -9999.25    0.51210   23.17560   19.54470   -9999.25
 1767.50000   88.08990    0.41350    2.82600    0.26900   12.33970    2.28180    0.06260 1853.12600 1842.79410   -9999.25   -9999.25   -9999.25   -9999.25   -9999.25   -9999.25   -9999.25    0.46030   20.04240   18.15640   -9999.25
 1768.00000   90.91650    0.40780    2.89510    0.20480   10.33710    2.42740    0.08100 1851.12500 1842.90500   -9999.25   -9999.25   -9999.25   -9999.25   -9999.25   -9999.25   -9999.25    0.73290   20.06230   20.00000   -9999.25
 1768.50000   82.21230    0.29400    2.93950    0.12690    9.51520    2.53630    0.08840 1845.93580 1843.01610   -9999.25   -9999.25   -9999.25   -9999.25   -9999.25   -9999.25   -9999.25    3.38090   26.29810   26.88180   -9999.25
 1769.00000   79.87370    0.21290    2.94170    0.09450    9.46460    2.56100    0.03560 1842.65810 1845.55710   -9999.25   -9999.25   -9999.25   -9999.25   -9999.25   -9999.25   -9999.25   15.02050   37.42780   40.02360   -9999.25
 1769.50000   77.81270    0.18170    2.89550    0.08950    9.48490    2.56590    0.01180 1842.24850 1840.35970   -9999.25   -9999.25   -9999.25   -9999.25   -9999.25   -9999.25   -9999.25   23.38600   59.19220   59.58990   -9999.25
 1770.00000   75.42490    0.17250    2.83440    0.09440    9.50450    2.56020    0.00300 1841.83910 1817.48650   -9999.25   -9999.25   -9999.25   -9999.25   -9999.25   -9999.25   -9999.25   22.96570   59.19810   71.61930   -9999.25
 1770.50000   75.56720    0.17230    2.81390    0.09490    9.51230    2.55450   -0.00120 1840.82450 1817.74330   -9999.25   -9999.25   -9999.25   -9999.25   -9999.25   -9999.25   -9999.25   19.15070   42.69780   46.35420   -9999.25
 1771.00000   77.13750    0.17850    2.81290    0.09960    9.52120    2.54670   -0.00120 1837.96560 1830.81070   -9999.25   -9999.25   -9999.25   -9999.25   -9999.25   -9999.25   -9999.25   13.57320   29.79580   31.21220   -9999.25
 1771.50000   82.50070    0.19920    2.83500    0.10600    9.52940    2.52970   -0.00110 1839.63200 1844.95300   -9999.25   -9999.25   -9999.25   -9999.25   -9999.25   -9999.25   -9999.25    9.76890   18.66510   18.66510   -9999.25
 1772.00000   86.53560    0.22820    2.85710    0.11360    9.52950    2.52120   -0.00110 1845.89030 1859.09550   -9999.25   -9999.25   -9999.25   -9999.25   -9999.25   -9999.25   -9999.25    9.75060   20.26130   21.52930   -9999.25
 1772.50000   88.89910    0.25630    2.87910    0.11940    9.52400    2.51480   -0.00120 1852.14860 1861.34520   -9999.25   -9999.25   -9999.25   -9999.25   -9999.25   -9999.25   -9999.25   10.55430   22.78110   24.83300   -9999.25
 1773.00000   85.86590    0.26480    2.89010    0.12220    9.51860    2.51470    0.00030 1854.93300 1854.31690   -9999.25   -9999.25   -9999.25   -9999.25   -9999.25   -9999.25   -9999.25    9.56910   24.15630   20.97770   -9999.25
 1773.50000   85.64090    0.26980    2.86770    0.11820    9.56060    2.52180    0.00180 1855.08720 1845.41060   -9999.25   -9999.25   -9999.25   -9999.25   -9999.25   -9999.25   -9999.25    8.22300   19.18800   18.66510   -9999.25
 1774.00000   86.76470    0.26890    2.82920    0.11270    9.57410    2.52900    0.00280 1855.24120 1836.50440   -9999.25   -9999.25   -9999.25   -9999.25   -9999.25   -9999.25   -9999.25    8.07290   19.36560   19.72560   -9999.25
 1774.50000   93.56460    0.25980    2.82300    0.10710    9.49850    2.53610    0.00200 1846.62490 1833.43600   -9999.25   -9999.25   -9999.25   -9999.25   -9999.25   -9999.25   -9999.25   10.94030   30.74540   28.94210   -9999.25
 1775.00000   92.69610    0.24360    2.82300    0.10800    9.48300    2.53790    0.00040 1836.37240 1837.18820   -9999.25   -9999.25   -9999.25   -9999.25   -9999.25   -9999.25   -9999.25   11.76780   37.93410   38.99690   -9999.25
 1775.50000   89.52150    0.22780    2.83220    0.11440    9.48970    2.52800   -0.00130 1826.11990 1840.94030   -9999.25   -9999.25   -9999.25   -9999.25   -9999.25   -9999.25   -9999.25   12.21880   32.58590   26.24400   -9999.25
 1776.00000   87.04490    0.22640    2.84660    0.12470    9.49630    2.51170   -0.00470 1815.86730 1839.46550   -9999.25   -9999.25   -9999.25   -9999.25   -9999.25   -9999.25   -9999.25    9.41950   29.13970   30.69230   -9999.25
 1776.50000   85.81800    0.23340    2.86080    0.13290    9.49610    2.49130   -0.00570 1816.08690 1840.88400   -9999.25   -9999.25   -9999.25   -9999.25   -9999.25   -9999.25   -9999.25    8.01730   27.71190   27.27070   -9999.25
 1777.00000   84.91310    0.22630    2.86020    0.13620    9.49860    2.49130   -0.00640 1829.71750 1849.60440   -9999.25   -9999.25   -9999.25   -9999.25   -9999.25   -9999.25   -9999.25    7.09630   26.48680   25.06280   -9999.25
 1777.50000   81.57640    0.21530    2.84590    0.13170    9.49950    2.49550   -0.00660 1843.34810 1858.32470   -9999.25   -9999.25   -9999.25   -9999.25   -9999.25   -9999.25   -9999.25    7.03120   26.48680   31.37110   -9999.25
 1778.00000   79.99630    0.20790    2.83170    0.12710    9.49830    2.50940   -0.00580 1851.73070 1862.90490   -9999.25   -9999.25   -9999.25   -9999.25   -9999.25   -9999.25   -9999.25    8.74130   32.13880   35.23950   -9999.25
 1778.50000   79.48440    0.23000    2.84320    0.12400    9.48780    2.51070   -0.00550 1854.93660 1859.10180   -9999.25   -9999.25   -9999.25   -9999.25   -9999.25   -9999.25   -9999.25   10.20570   30.97630   30.41090   -9999.25
 1779.00000   76.04730    0.22840    2.86650    0.12200    9.46520    2.51970   -0.00510 1855.76610 1851.80260   -9999.25   -9999.25   -9999.25   -9999.25   -9999.25   -9999.25   -9999.25   13.61960   39.77420   39.88230   -9999.25
 1779.50000   73.14780    0.22060    2.87090    0.11900    9.44080    2.52810   -0.00410 1849.41080 1844.50340   -9999.25   -9999.25   -9999.25   -9999.25   -9999.25   -9999.25   -9999.25   17.67940   62.37780   62.95500   -9999.25
 1780.00000   72.18680    0.19620    2.81710    0.11540    9.41640    2.52810   -0.00340 1843.81070 1841.25330   -9999.25   -9999.25   -9999.25   -9999.25   -9999.25   -9999.25   -9999.25   19.90810   62.56270   56.65160   -9999.25
 1780.50000   71.78300    0.18410    2.81450    0.11340    9.39420    2.52670   -0.00410 1838.52210 1841.29270   -9999.25   -9999.25   -9999.25   -9999.25   -9999.25   -9999.25   -9999.25   17.60360   49.71980   48.72560   -9999.25
 1781.00000   75.01580    0.18770    2.81450    0.11500    9.38680    2.52510   -0.00480 1844.97560 1841.33220   -9999.25   -9999.25   -9999.25   -9999.25   -9999.25   -9999.25   -9999.25   16.55950   46.40690   43.80860   -9999.25
 1781.50000   75.80900    0.19710    2.81070    0.11460    9.38780    2.52780   -0.00500 1842.23030 1841.70470   -9999.25   -9999.25   -9999.25   -9999.25   -9999.25   -9999.25   -9999.25   16.57450   49.28300   48.72970   -9999.25
 1782.00000   76.94170    0.20400    2.76710    0.11000    9.37530    2.53250   -0.00440 1836.93420 1843.49980   -9999.25   -9999.25   -9999.25   -9999.25   -9999.25   -9999.25   -9999.25   12.49700   60.01400   59.61620   -9999.25
 1782.50000   72.63200    0.20490    2.72990    0.10890    9.31040    2.53220   -0.00390 1831.63820 1843.93740   -9999.25   -9999.25   -9999.25   -9999.25   -9999.25   -9999.25   -9999.25   11.83330   73.08160   73.10430   -9999.25
 1783.00000   67.70510    0.20450    2.70930    0.11500    9.24640    2.52110   -0.00340 1844.12430 1844.37500   -9999.25   -9999.25   -9999.25   -9999.25   -9999.25   -9999.25   -9999.25   13.80610   95.15430   89.64040   -9999.25
 1783.50000   65.35260    0.20730    2.71830    0.12150    9.15130    2.51100   -0.00310 1849.37220 1843.61540   -9999.25   -9999.25   -9999.25   -9999.25   -9999.25   -9999.25   -9999.25   17.45570   95.63600   95.28620   -9999.25
