~Version ---------------------------------------------------
VERS.   2.0 : CWLS log ASCII Standard -VERSION 2.0
WRAP.    NO : One line per depth step
DLM . SPACE : Column Data Section Delimiter
~Well ------------------------------------------------------
STRT .F                  139.0 : START DEPTH
STOP .F                 8710.0 : STOP DEPTH
STEP .F                    0.5 : STEP
NULL .                -9999.25 : NULL VALUE
COMP .                         : COMPANY
WELL .                         : WELL
FLD  .                         : FIELD
LOC  .                         : LOCATION
PROV .                         : PROVINCE
CNTY .                         : COUNTY
STAT .                         : STATE
CTRY .                         : COUNTRY
SRVC .                         : SERVICE COMPANY
DATE .                         : DATE
UWI  .                         : UNIQUE WELL ID
API  .                         : API NUMBER
SLAT .WGS84    2.6384200224634 : SURFACE LATITUDE
SLON .WGS84 7.3704452632600095 : SURFACE LONGITUDE
DATUM.F                    nan : DEPTH DATUM ELEV
~Curve Information -----------------------------------------
DEPT   .F     : 
GRD    .GAPI  : GAMMA RAY FROM DENSITY LOG
TNPH_LS.DEC   : THERMAL NEUTRON POROSITY [LIMESTONE]
PEFZ   .B/E   : HRDD STANDARD RESOLUTION FORMATION PHOTOELECTRIC FACTOR
DPHZ_LS.DEC   : HGRD STANDARD RESOLUTION DENSITY POROSITY
CALD   .IN    : CALIPER FROM DENSITY LOG
RHOZ   .G/C3  : HRDD STANDARD RESOLUTION FORMATION DENSITY
HDRA   .G/C3  : HRDD SPINE AND RIBS DENSITY CORRECTION
TEND   .LB    : TENSION FROM DENSITY LOG
TENR   .LB    : TENSION FROM RESISTIVITY LOG
SPHI   .DEC   : SONIC POROSITY
DTCO   .US/F  : DELTA-T COMPRESSIONAL
DTSM   .US/F  : DELTA-T SHEAR
HD1    .IN    : HOLE DIAMETER
HD2    .IN    : HOLE DIAMETER
TENS   .LB    : TENSION FROM SONIC LOG
GR_EDTC.GAPI  : GAMMA RAY
RXOZ   .OHMM  : INVADED FORMATION RESISTIVITY FILTERED AT 18 INCHES
RLA3   .OHMM  : APPARENT RESISTIVITY FROM COMPUTED FOCUSING MODE 3
RLA5   .OHMM  : APPARENT RESISTIVITY FROM COMPUTED FOCUSING MODE 5
RXOZ_R .OHMM  : INVADED ZONE RESISTIVITY
~Params ----------------------------------------------------
~Other -----------------------------------------------------
~ASCII -----------------------------------------------------
# ...
 4549.00000   59.42820    0.08740    2.99850   -0.02600    9.06700    2.77600   -0.00320 2626.72340 2641.85180    0.03310   52.25700   98.34320    8.25020    9.77330 2776.75510   44.21020   31.13860   42.11410   38.99690   -9999.25
 4549.50000   44.60600    0.06230    3.12950   -0.05320    9.05690    2.81660   -0.00280 2644.12130 2631.40580    0.02700   51.55720   94.06650    8.22400    9.77770 2817.99390   35.04920  119.95820  140.09470  124.17380   -9999.25
 4550.00000   31.30260    0.05080    3.15350   -0.06920    9.03800    2.81890   -0.00230 2680.91280 2633.92090    0.01430   49.58440   89.53960    8.20620    9.76240 2802.52860   23.53740  116.68900  142.09170  184.51430   -9999.25
 4550.50000   26.26850    0.04810    3.15290   -0.06930    9.01920    2.81570   -0.00270 2679.68580 2637.66990    0.01450   49.58240   89.11320    8.18210    9.72860 2785.75050   17.87580  127.65270  143.24480  217.61890   -9999.25
 4551.00000   24.52160    0.05120    3.14110   -0.06010    9.00030    2.78950   -0.00300 2662.18210 2641.41870    0.01800   50.03860   88.20790    8.17300    9.70840 2793.30080   14.00980  152.41580  149.41480  246.05380   -9999.25
 4551.50000   22.83570    0.05950    3.13510   -0.04420    8.98140    2.76180   -0.00240 2647.10820 2645.16770    0.02000   50.50410   89.00550    8.16960    9.68590 2781.12380   13.63090  112.46830  192.88920  272.28890   -9999.25
 4552.00000   23.26750    0.07440    3.11960   -0.02780    8.96460    2.74320   -0.00090 2645.25220 2648.91650    0.02350   50.96960   88.95350    8.16610    9.66340 2761.00150   13.31750   47.31840   60.71580   61.80590   -9999.25
 4552.50000   25.01380    0.08300    3.10420   -0.01740    8.94800    2.74000   -0.00110 2643.39620 2651.47000    0.02720   51.37350   89.20410    8.15840    9.65710 2759.20530   15.01260   43.95720   53.51200   52.84820   -9999.25
 4553.00000   28.01300    0.08270    3.08700   -0.02030    8.93380    2.74590   -0.00120 2641.54050 2653.57980    0.02720   51.41400   89.96440    8.14450    9.65710 2759.15360   17.53820   42.79460  107.40640  132.74860   -9999.25
 4553.50000   30.07730    0.08160    3.06060   -0.02430    8.93330    2.75490   -0.00130 2639.68210 2655.68970    0.02320   50.92250   90.86760    8.13520    9.65710 2759.10180   20.11220   58.89800  107.40640   72.28200   -9999.25
 4554.00000   31.16470    0.07810    3.03410   -0.02950    8.92970    2.75960   -0.00140 2642.35210 2654.04250    0.01730   50.11910   89.96090    8.13460    9.65710 2743.24680   20.12930   49.71330   62.37780   72.95080   -9999.25
 4554.50000   30.54610    0.07470    3.00770   -0.03470    8.92980    2.76440   -0.00150 2651.08720 2651.77710    0.01380   49.56000   89.42110    8.13410    9.65710 2763.32470   18.26300   61.23930   72.28200  121.06820   -9999.25
 4555.00000   28.56040    0.06980    2.99070   -0.03660    8.92990    2.76420   -0.00170 2652.42630 2654.71440    0.01070   49.15350   88.10720    8.13550    9.65640 2782.18410   15.39910  165.49310  423.67220  372.98960   -9999.25
 4555.50000   25.91660    0.06520    2.97860   -0.03230    8.93320    2.76010   -0.00190 2661.17600 2657.65190    0.00710   48.59900   86.25040    8.13690    9.65560 2766.88940   14.26550  262.44000  418.07310  650.98550   -9999.25
 4556.00000   26.10720    0.06720    2.96650   -0.02770    8.93440    2.75240   -0.00200 2678.58350 2659.95560    0.00580   48.41450   86.82160    8.13690    9.65570 2754.43580   16.65830  203.71830  415.93930  546.74950   -9999.25
 4556.50000   28.45740    0.06840    2.95440   -0.02760    8.93390    2.75570   -0.00220 2688.19340 2662.72440    0.00540   48.40120   88.29310    8.13430    9.65730 2748.92310   20.04260  181.56410  349.16440  481.55480   -9999.25
 4557.00000   34.32200    0.06440    2.97480   -0.03210    8.93340    2.76410   -0.00240 2666.95240 2666.74730    0.00840   48.67510   89.74690    8.13470    9.66700 2756.54710   24.06550  199.08110  389.96890  538.18950   -9999.25
 4557.50000   38.10740    0.06170    3.00270   -0.03470    8.93290    2.76250   -0.00260 2647.20460 2670.77050    0.02990   51.77650   90.67060    8.14200    9.67780 2860.05570   27.89350  224.40370  389.96890  522.38280   -9999.25
 4558.00000   42.79970    0.06180    3.03440   -0.02880    8.93240    2.75320   -0.00270 2636.27880 2667.50490    0.02520   50.97910   91.51380    8.13790    9.67830 2837.67260   34.18030  111.82270  192.41100  215.12040   -9999.25
 4558.50000   46.48170    0.06940    3.06650   -0.02200    8.93180    2.74710   -0.00290 2634.60910 2660.65160    0.02270   50.80710   91.68860    8.13140    9.67780 2800.33520   39.76600   38.77300   84.76760   79.36080   -9999.25
 4559.00000   46.63030    0.07470    3.09990   -0.02570    8.93130    2.75670   -0.00270 2632.93920 2654.34200    0.01870   50.15840   91.44480    8.12830    9.67830 2807.27590   37.89600   24.83300   44.13110   27.99180   -9999.25
 4559.50000   39.27370    0.06640    3.08480   -0.03860    8.93110    2.78460   -0.00240 2631.26950 2647.56300    0.00950   48.89490   90.72970    8.13130    9.67890 2813.44900   29.70750   28.20740   33.03920   56.62780   -9999.25
 4560.00000   30.44470    0.05480    3.06260   -0.05040    8.93950    2.79500   -0.00200 2629.59990 2664.04030    0.00470   48.34650   88.09080    8.15460    9.67800 2813.55620   21.16580   63.90430  268.17270  264.86830   -9999.25
 4560.50000   24.53940    0.04500    3.04050   -0.05710    8.93930    2.80450   -0.00160 2627.92990 2665.47660   -0.00920   46.33570   86.55380    8.14440    9.67740 2764.47050   16.48360  223.96120  271.03790  301.08780   -9999.25
 4561.00000   23.86500    0.04110    3.01830   -0.06020    8.93910    2.80630   -0.00250 2646.81050 2666.91280   -0.01020   46.18550   83.37550    8.13440    9.67740 2726.22850   14.28260  230.69060  273.93370  298.44720   -9999.25
 4561.50000   23.87510    0.04140    2.99620   -0.05910    8.93890    2.80570   -0.00360 2684.62990 2666.99560   -0.00990   46.19960   81.93730    8.14090    9.67740 2703.85280   13.44380  220.30790  330.39240  329.43960   -9999.25
 4562.00000   23.42610    0.04170    2.98910   -0.05810    8.93890    2.80630   -0.00470 2678.70260 2663.36080   -0.00950   46.25550   81.28560    8.14870    9.67610 2723.04930   13.50080  293.10960  399.85270  411.04060   -9999.25
 4562.50000   22.92630    0.04240    2.98330   -0.06120    8.93910    2.81250   -0.00350 2665.90280 2660.78100   -0.00910   46.32610   81.48770    8.14130    9.66970 2767.08540   14.11570  301.32140  351.03590  478.85820   -9999.25
 4563.00000   21.98510    0.04070    2.97760   -0.06680    8.93980    2.81730   -0.00330 2654.40280 2658.20140   -0.00860   46.38620   82.79100    8.13390    9.66330 2722.65360   14.82530  202.78230  255.72110  302.91590   -9999.25
 4563.50000   20.50130    0.03900    2.98430   -0.06750    8.94120    2.81630   -0.00320 2645.30980 2663.60230   -0.00880   46.36240   82.03660    8.13330    9.65690 2738.41160   14.48000  188.37790  206.47800  231.20250   -9999.25
 4564.00000   19.34740    0.03600    3.01690   -0.06450    8.94120    2.81200   -0.00300 2648.52540 2674.00320   -0.00710   46.57610   81.84770    8.13290    9.65620 2758.03300   14.68850  232.82520  305.82600  317.53490   -9999.25
 4564.50000   21.15050    0.03330    3.02490   -0.06250    8.93540    2.81090   -0.00330 2657.03560 2684.45240   -0.00530   46.85920   81.77160    8.13410    9.65720 2819.27910   15.44910  287.75970  355.65590  404.64330   -9999.25
 4565.00000   26.54240    0.03320    3.00160   -0.06290    8.92960    2.81260   -0.00280 2660.89230 2679.87210   -0.00610   46.72650   82.32230    8.15070    9.66480 2822.99610   18.59820  215.29300  224.44070  272.28890   -9999.25
 4565.50000   31.88650    0.03320    2.97830   -0.06440    8.92260    2.81450   -0.00240 2655.97920 2664.57280   -0.00700   46.64900   82.46270    8.14630    9.68050 2795.98900   22.05740  136.46770  142.57650  165.58840   -9999.25
 4566.00000   33.37990    0.03430    2.95500   -0.06630    8.92790    2.81750   -0.00190 2651.06640 2658.16920   -0.00830   46.54540   81.74210    8.15200    9.68700 2783.98510   22.27600  127.94700  145.37170  155.24940   -9999.25
