~Version ---------------------------------------------------
VERS.   2.0 : CWLS log ASCII Standard -VERSION 2.0
WRAP.    NO : One line per depth step
DLM . SPACE : Column Data Section Delimiter
~Well ------------------------------------------------------
STRT .F                  139.0 : START DEPTH
STOP .F                 8710.0 : STOP DEPTH
STEP .F                    0.5 : STEP
NULL .                -9999.25 : NULL VALUE
COMP .                         : COMPANY
WELL .                         : WELL
FLD  .                         : FIELD
LOC  .                         : LOCATION
PROV .                         : PROVINCE
CNTY .                         : COUNTY
STAT .                         : STATE
CTRY .                         : COUNTRY
SRVC .                         : SERVICE COMPANY
DATE .                         : DATE
UWI  .                         : UNIQUE WELL ID
API  .                         : API NUMBER
SLAT .WGS84    2.6384200224634 : SURFACE LATITUDE
SLON .WGS84 7.3704452632600095 : SURFACE LONGITUDE
DATUM.F                    nan : DEPTH DATUM ELEV
~Curve Information -----------------------------------------
DEPT   .F     : 
GRD    .GAPI  : GAMMA RAY FROM DENSITY LOG
TNPH_LS.DEC   : THERMAL NEUTRON POROSITY [LIMESTONE]
PEFZ   .B/E   : HRDD STANDARD RESOLUTION FORMATION PHOTOELECTRIC FACTOR
DPHZ_LS.DEC   : HGRD STANDARD RESOLUTION DENSITY POROSITY
CALD   .IN    : CALIPER FROM DENSITY LOG
RHOZ   .G/C3  : HRDD STANDARD RESOLUTION FORMATION DENSITY
HDRA   .G/C3  : HRDD SPINE AND RIBS DENSITY CORRECTION
TEND   .LB    : TENSION FROM DENSITY LOG
TENR   .LB    : TENSION FROM RESISTIVITY LOG
SPHI   .DEC   : SONIC POROSITY
DTCO   .US/F  : DELTA-T COMPRESSIONAL
DTSM   .US/F  : DELTA-T SHEAR
HD1    .IN    : HOLE DIAMETER
HD2    .IN    : HOLE DIAMETER
TENS   .LB    : TENSION FROM SONIC LOG
GR_EDTC.GAPI  : GAMMA RAY
RXOZ   .OHMM  : INVADED FORMATION RESISTIVITY FILTERED AT 18 INCHES
RLA3   .OHMM  : APPARENT RESISTIVITY FROM COMPUTED FOCUSING MODE 3
RLA5   .OHMM  : APPARENT RESISTIVITY FROM COMPUTED FOCUSING MODE 5
RXOZ_R .OHMM  : INVADED ZONE RESISTIVITY
~Params ----------------------------------------------------
~Other -----------------------------------------------------
~ASCII -----------------------------------------------------
# ...
 3166.50000   70.13160    0.24140    3.32470    0.14870    9.75740    2.46810    0.03280 2299.38480 2291.17410   -9999.25   -9999.25   -9999.25   -9999.25   -9999.25   -9999.25   -9999.25    0.81480    6.01210    5.23640   -9999.25
 3167.00000   56.25410    0.23900    3.74960    0.07920    9.67040    2.66970    0.06610 2294.30860 2258.70120   -9999.25   -9999.25   -9999.25   -9999.25   -9999.25   -9999.25   -9999.25    0.85850    5.90240    5.23640   -9999.25
 3167.50000   38.15290    0.09430    4.25350   -0.02210    9.38170    2.85630    0.07940 2289.23220 2281.55960   -9999.25   -9999.25   -9999.25   -9999.25   -9999.25   -9999.25   -9999.25    0.84350   17.33920   33.26110   -9999.25
 3168.00000   26.73360    0.02890    4.66380   -0.10330    9.32640    2.91940    0.05250 2284.15600 2304.41820   -9999.25   -9999.25   -9999.25   -9999.25   -9999.25   -9999.25   -9999.25  132.57780   53.33720   63.12690   -9999.25
 3168.50000   18.50510   -0.00170    4.89430   -0.14860    9.26690    2.95330    0.01370 2279.07980 2314.25000   -9999.25   -9999.25   -9999.25   -9999.25   -9999.25   -9999.25   -9999.25  124.64120   44.36390  345.96330   -9999.25
 3169.00000   15.91160   -0.01750    4.99090   -0.15270    9.20730    2.96360   -0.00060 2274.00370 2291.18990   -9999.25   -9999.25   -9999.25   -9999.25   -9999.25   -9999.25   -9999.25  486.44080  279.21400  680.03300   -9999.25
 3169.50000   13.55630   -0.01790    5.03910   -0.15940    9.18670    2.96760   -0.00260 2272.65360 2268.12990   -9999.25   -9999.25   -9999.25   -9999.25   -9999.25   -9999.25   -9999.25  785.28990  316.90350 1109.25150   -9999.25
 3170.00000   13.76530   -0.01800    4.98960   -0.16190    9.18830    2.96800   -0.00510 2271.62160 2274.47410   -9999.25   -9999.25   -9999.25   -9999.25   -9999.25   -9999.25   -9999.25  901.63340  468.84580 2588.34640   -9999.25
 3170.50000   15.32640   -0.01820    4.83500   -0.15460    9.18990    2.89660   -0.00680 2271.44120 2277.81740   -9999.25   -9999.25   -9999.25   -9999.25   -9999.25   -9999.25   -9999.25  895.83910  369.34310 1225.82950   -9999.25
 3171.00000   22.04120   -0.01550    4.50260   -0.06010    9.20180    2.70360    0.01010 2271.26050 2275.87010   -9999.25   -9999.25   -9999.25   -9999.25   -9999.25   -9999.25   -9999.25  328.87430  262.68180 1237.98280   -9999.25
 3171.50000   37.71160    0.01700    3.89220    0.06130    9.22670    2.37390    0.03180 2271.08010 2283.26710   -9999.25   -9999.25   -9999.25   -9999.25   -9999.25   -9999.25   -9999.25    1.22190  141.58920  307.27690   -9999.25
 3172.00000   56.05900    0.06500   -9999.25    0.24320    9.25150    2.05580    0.06140 2270.89940 2290.66410   -9999.25   -9999.25   -9999.25   -9999.25   -9999.25   -9999.25   -9999.25    0.33340   20.94260   20.65520   -9999.25
 3172.50000   69.59340    0.10560   -9999.25    0.29990    9.31090    2.13030    0.10820 2266.44070 2276.70020   -9999.25   -9999.25   -9999.25   -9999.25   -9999.25   -9999.25   -9999.25    0.20090   20.84630   20.65520   -9999.25
 3173.00000   74.70430    0.15270   -9999.25   -9999.25    9.31300    2.23430    0.09250 2261.96920 2279.89720   -9999.25   -9999.25   -9999.25   -9999.25   -9999.25   -9999.25   -9999.25    0.20470   31.55220   32.88740   -9999.25
 3173.50000   74.85230    0.17670   -9999.25   -9999.25    9.25590    2.13240    0.04430 2260.38550 2292.39580   -9999.25   -9999.25   -9999.25   -9999.25   -9999.25   -9999.25   -9999.25    0.38640   25.72010   33.03920   -9999.25
 3174.00000   71.07400    0.17020   -9999.25   -9999.25    9.23880    1.62650    0.01170 2258.66480 2304.89450   -9999.25   -9999.25   -9999.25   -9999.25   -9999.25   -9999.25   -9999.25    0.20280   25.96410   26.00340   -9999.25
 3174.50000   61.35430    0.16380   -9999.25   -9999.25    9.27670    1.54740    0.00190 2257.14890 2307.95070   -9999.25   -9999.25   -9999.25   -9999.25   -9999.25   -9999.25   -9999.25    0.20310   49.27200  130.32570   -9999.25
 3175.00000   52.67930    0.13190   -9999.25   -9999.25   15.05120    1.54760   -0.00410 2257.26420 2301.05420   -9999.25   -9999.25   -9999.25   -9999.25   -9999.25   -9999.25   -9999.25    0.20350   38.99690  126.82560   -9999.25
 3175.50000   46.78760    0.11530   -9999.25   -9999.25   16.42420    1.64010    0.05340 2259.60600 2298.89500   -9999.25   -9999.25   -9999.25   -9999.25   -9999.25   -9999.25   -9999.25    0.20390  316.56180  440.36900   -9999.25
 3176.00000   44.42970    0.10840   -9999.25   -9999.25   14.62810    1.82300    0.09310 2263.81490 2296.73610   -9999.25   -9999.25   -9999.25   -9999.25   -9999.25   -9999.25   -9999.25    0.20430 97057.70310  444.73950   -9999.25
 3176.50000   42.16570    0.10460   -9999.25   -9999.25   12.99780    1.92380    0.09740 2268.02390 2294.57690   -9999.25   -9999.25   -9999.25   -9999.25   -9999.25   -9999.25   -9999.25    0.20470 107092.95310  294.09580   -9999.25
 3177.00000   40.41920    0.10090   -9999.25   -9999.25   10.36620    1.92470    0.09640 2276.07080 2292.41770   -9999.25   -9999.25   -9999.25   -9999.25   -9999.25   -9999.25   -9999.25    0.37590  341.77760  154.25530   -9999.25
 3177.50000   39.50310    0.07450   -9999.25   -9999.25   11.34070    1.85870    0.08650 2312.36160 2311.66060   -9999.25   -9999.25   -9999.25   -9999.25   -9999.25   -9999.25   -9999.25    0.42760  163.23360  133.04780   -9999.25
 3178.00000   38.02820    0.06920   -9999.25   -9999.25   10.48700    1.74000    0.07410 2541.16040 2391.73710   -9999.25   -9999.25   -9999.25   -9999.25   -9999.25   -9999.25   -9999.25    0.20470   97.95580  261.57810   -9999.25
 3178.50000   32.49120    0.07620   -9999.25   -9999.25   11.08880    1.70730    0.06170 2363.07370 2371.50810   -9999.25   -9999.25   -9999.25   -9999.25   -9999.25   -9999.25   -9999.25    0.20430  211.03930  386.39360   -9999.25
 3179.00000   30.09690    0.08800   -9999.25   -9999.25   12.64660    1.69130    0.06310 2312.35910 2340.75340   -9999.25   -9999.25   -9999.25   -9999.25   -9999.25   -9999.25   -9999.25    0.20400  543.28780  538.30690   -9999.25
 3179.50000   27.90160    0.10130   -9999.25   -9999.25   12.46920    1.68800    0.06680 2352.52640 2309.99850   -9999.25   -9999.25   -9999.25   -9999.25   -9999.25   -9999.25   -9999.25    0.20370  301.32140  389.96890   -9999.25
 3180.00000   29.09610    0.11280   -9999.25   -9999.25   14.38530    1.71270    0.07550 2361.68600 2306.56030   -9999.25   -9999.25   -9999.25   -9999.25   -9999.25   -9999.25   -9999.25    0.20340  362.26800  386.39360   -9999.25
 3180.50000   31.86290    0.14280   -9999.25   -9999.25   12.83160    1.84540    0.08590 2366.86350 2311.01030   -9999.25   -9999.25   -9999.25   -9999.25   -9999.25   -9999.25   -9999.25    0.20320 3523.95210  683.95890   -9999.25
 3181.00000   34.84300    0.19380   -9999.25   -9999.25   13.14670    2.05660    0.10380 2383.20510 2322.19210   -9999.25   -9999.25   -9999.25   -9999.25   -9999.25   -9999.25   -9999.25    0.20280 97955.76560  115.36000   -9999.25
 3181.50000   37.63690    0.26240   -9999.25   -9999.25   10.70760    2.27150    0.12180 2392.30150 2333.09990   -9999.25   -9999.25   -9999.25   -9999.25   -9999.25   -9999.25   -9999.25    0.30130   28.51210   16.50160   -9999.25
 3182.00000   36.78790    0.20630    4.48200   -9999.25    9.41680    2.70790    0.11880 2408.57470 2337.72120   -9999.25   -9999.25   -9999.25   -9999.25   -9999.25   -9999.25   -9999.25    0.70310   19.90810   16.54050   -9999.25
 3182.50000   33.10170    0.10340    4.95410   -0.00380    9.18840    2.84200    0.08260 2448.68020 2352.31200   -9999.25   -9999.25   -9999.25   -9999.25   -9999.25   -9999.25   -9999.25    1.64070  167.12060  101.18020   -9999.25
 3183.00000   28.41490    0.04910    5.42620   -0.07460    9.17270    2.68300    0.03660 2390.46780 2366.90280   -9999.25   -9999.25   -9999.25   -9999.25   -9999.25   -9999.25   -9999.25  563.67660  165.77920  495.08800   -9999.25
 3183.50000   28.05900    0.03030    5.85620    0.07540    9.18180    2.48150    0.05760 2299.45560 2328.36110   -9999.25   -9999.25   -9999.25   -9999.25   -9999.25   -9999.25   -9999.25    0.20280  164.07030 1184.16420   -9999.25
