~Version ---------------------------------------------------
VERS.   2.0 : CWLS log ASCII Standard -VERSION 2.0
WRAP.    NO : One line per depth step
DLM . SPACE : Column Data Section Delimiter
~Well ------------------------------------------------------
STRT .F                  139.0 : START DEPTH
STOP .F                 8710.0 : STOP DEPTH
STEP .F                    0.5 : STEP
NULL .                -9999.25 : NULL VALUE
COMP .                         : COMPANY
WELL .                         : WELL
FLD  .                         : FIELD
LOC  .                         : LOCATION
PROV .                         : PROVINCE
CNTY .                         : COUNTY
STAT .                         : STATE
CTRY .                         : COUNTRY
SRVC .                         : SERVICE COMPANY
DATE .                         : DATE
UWI  .                         : UNIQUE WELL ID
API  .                         : API NUMBER
SLAT .WGS84    2.6384200224634 : SURFACE LATITUDE
SLON .WGS84 7.3704452632600095 : SURFACE LONGITUDE
DATUM.F                    nan : DEPTH DATUM ELEV
~Curve Information -----------------------------------------
DEPT   .F     : 
GRD    .GAPI  : GAMMA RAY FROM DENSITY LOG
TNPH_LS.DEC   : THERMAL NEUTRON POROSITY [LIMESTONE]
PEFZ   .B/E   : HRDD STANDARD RESOLUTION FORMATION PHOTOELECTRIC FACTOR
DPHZ_LS.DEC   : HGRD STANDARD RESOLUTION DENSITY POROSITY
CALD   .IN    : CALIPER FROM DENSITY LOG
RHOZ   .G/C3  : HRDD STANDARD RESOLUTION FORMATION DENSITY
HDRA   .G/C3  : HRDD SPINE AND RIBS DENSITY CORRECTION
TEND   .LB    : TENSION FROM DENSITY LOG
TENR   .LB    : TENSION FROM RESISTIVITY LOG
SPHI   .DEC   : SONIC POROSITY
DTCO   .US/F  : DELTA-T COMPRESSIONAL
DTSM   .US/F  : DELTA-T SHEAR
HD1    .IN    : HOLE DIAMETER
HD2    .IN    : HOLE DIAMETER
TENS   .LB    : TENSION FROM SONIC LOG
GR_EDTC.GAPI  : GAMMA RAY
RXOZ   .OHMM  : INVADED FORMATION RESISTIVITY FILTERED AT 18 INCHES
RLA3   .OHMM  : APPARENT RESISTIVITY FROM COMPUTED FOCUSING MODE 3
RLA5   .OHMM  : APPARENT RESISTIVITY FROM COMPUTED FOCUSING MODE 5
RXOZ_R .OHMM  : INVADED ZONE RESISTIVITY
~Params ----------------------------------------------------
~Other -----------------------------------------------------
~ASCII -----------------------------------------------------
# ...
 8206.50000   66.13600    0.05340    3.87920    0.04130    8.90520    2.64510   -0.00090 3742.18770 3735.65800    0.06450   56.77830  101.67660    8.07830    9.60960 3892.50150   50.62310  119.95820  125.61170  131.53160   -9999.25
 8207.00000   62.38180    0.04920    3.97720    0.03770    8.90860    2.64830   -0.00070 3732.50370 3735.58060    0.05930   55.99460   98.22360    8.08740    9.61340 3796.49190   43.42810   42.36720  222.34630  250.62820   -9999.25
 8207.50000   46.71990    0.03920    4.22130    0.03700    8.91790    2.65020   -0.00080 3724.40040 3734.50560    0.05370   55.20100   97.04360    8.09300    9.61700 3776.73560   30.87780   42.75920   53.33720   51.88360   -9999.25
 8208.00000   33.11890    0.02860    4.47940    0.03410    8.92790    2.65260   -0.00100 3716.29690 3733.43070    0.05050   54.69010   96.49250    8.08850    9.61670 3915.24900   21.85490   39.98230  109.40320  118.85840   -9999.25
 8208.50000   26.78860    0.02490    4.55180    0.03520    8.93250    2.65500   -0.00110 3709.70410 3736.04370    0.04740   54.23290   96.06000    8.08250    9.60140 3842.74390   17.74100   81.88960  111.43710  104.47920   -9999.25
 8209.00000   27.73900    0.02570    4.64710    0.03370    8.93050    2.65670   -0.00120 3707.90450 3739.48000    0.04800   54.38020   96.36100    8.07500    9.61720 3947.21390   16.42940   51.87440   70.64750   69.98900   -9999.25
 8209.50000   28.47470    0.02720    4.65030    0.03290    8.92760    2.65670   -0.00130 3719.91770 3748.49150    0.04400   53.87420   96.45180    8.07390    9.61280 3914.53370   16.06490   43.82450   49.94770   47.27480   -9999.25
 8210.00000   26.66940    0.02780    4.62410    0.03530    8.92480    2.65420   -0.00130 3731.93070 3757.50290    0.04380   53.76460   95.42280    8.07460    9.58830 3865.33420   15.36790   38.50850   42.15260   42.36720   -9999.25
 8210.50000   22.93630    0.02680    4.56220    0.03610    8.91430    2.65490   -0.00130 3743.94380 3758.92240    0.03910   53.14570   95.55780    8.06580    9.56390 3883.17870   14.14140   36.67420   54.31710   51.52640   -9999.25
 8211.00000   21.82260    0.02200    4.43550    0.02910    8.90540    2.66570   -0.00130 3755.95680 3748.87890    0.03670   52.78300   95.74530    8.06770    9.55680 3787.17900   13.48980   35.89470   66.53190   57.80750   -9999.25
 8211.50000   23.48480    0.01670    4.37370    0.02080    8.90380    2.67970   -0.00100 3767.97000 3738.83520    0.03740   52.89040   95.62150    8.07420    9.55750 3921.69290   15.88790   64.16760  108.40020  113.34230   -9999.25
 8212.00000   29.18480    0.01210    4.36980    0.01370    8.92790    2.69050   -0.00060 3789.92110 3748.64160    0.03560   52.57970   96.24640    8.08240    9.56680 3828.38840   20.72940  127.94700  168.66690  178.25020   -9999.25
 8212.50000   34.37740    0.01370    4.42820    0.01370    8.97520    2.68540   -0.00030 3786.24000 3756.07080    0.03730   52.67330   95.60510    8.09630    9.58720 3819.14500   24.96950  121.06820  124.11660  148.26210   -9999.25
 8213.00000   36.90070    0.01680    4.48650    0.01800    8.97910    2.68110    0.00000 3762.40160 3741.63130    0.04010   53.17590   96.58770    8.11030    9.56350 3844.21950   25.23680  127.94700   85.31590   88.51770   -9999.25
 8213.50000   37.86830    0.02000    4.45730    0.02240    8.98310    2.67800   -0.00030 3740.10840 3727.19170    0.04790   54.39790   96.46050    8.12110    9.56310 3877.33060   27.26550  127.94700  181.56410  206.55230   -9999.25
 8214.00000   39.07940    0.02330    4.30690    0.02650    8.98700    2.67100   -0.00140 3636.14970 3722.15260    0.04970   54.61580   97.57450    8.13070    9.57270 3897.67940   38.78880  197.25590  214.30390  339.64870   -9999.25
 8214.50000   48.71150    0.03150    4.10580    0.03410    8.99090    2.64980   -0.00250 3766.11080 3733.29320    0.05110   54.75430   98.38060    8.14220    9.57580 3881.14620   47.28060   96.16790  226.48010  178.25020   -9999.25
 8215.00000   53.07650    0.03300    4.03410    0.04440    8.99480    2.63690   -0.00500 3759.35570 3733.70920    0.05280   55.04000   98.67570    8.15370    9.56720 3904.38670   49.48940  100.46850  135.21660  133.97690   -9999.25
 8215.50000   54.59220    0.02640    4.04400    0.04570    8.99870    2.63780   -0.00470 3756.02390 3734.12500    0.05430   55.25380   97.83230    8.13500    9.55760 3787.17900   40.74030  100.07820  404.60390  647.18730   -9999.25
 8216.00000   52.43150    0.01980    4.26180    0.03730    9.00270    2.66360   -0.00450 3760.50490 3734.14700    0.04590   54.10130   97.20330    8.14850    9.55740 3859.03130   39.28680  215.14780  327.36330  464.54740   -9999.25
 8216.50000   55.40810    0.01330    4.37770    0.01590    9.00660    2.68710   -0.00250 3759.00050 3738.47970    0.03640   52.72400   96.74510    8.16310    9.55650 3863.22220   37.20980  216.38730  327.36330  472.45810   -9999.25
 8217.00000   51.42690    0.00880    4.40760    0.00810    9.01090    2.70230   -0.00290 3734.01460 3743.09180    0.03800   53.01630   95.55150    8.18540    9.56760 3928.38450   36.52580  306.92340  376.72980  500.06910   -9999.25
 8217.50000   45.86130    0.00670    4.32950    0.00510    9.01540    2.69950   -0.00330 3743.33760 3746.31350    0.03530   52.54810   94.78440    8.19390    9.59550 3894.68260   32.49800  290.42230  523.63660  979.55760   -9999.25
 8218.00000   40.73050    0.00510    4.27340    0.01110    9.01820    2.68810   -0.00370 3732.47560 3739.18800    0.02990   51.89520   94.34120    8.19340    9.57200 3916.71530   30.02070  301.32140  548.31480 1199.58220   -9999.25
 8218.50000   40.07560    0.00520    4.28960    0.01790    9.01880    2.68140   -0.00330 3751.82860 3736.90330    0.03050   51.87520   94.61430    8.19260    9.53210 3911.59720   27.74810  247.35220  563.67660 1119.51530   -9999.25
 8219.00000   38.17710    0.00580    4.32470    0.02010    9.01880    2.67730   -0.00260 3765.17240 3734.61870    0.03180   52.06570   93.55920    8.20190    9.54920 3795.68510   26.66890  241.56280  553.64320 1104.15490   -9999.25
 8219.50000   37.99720    0.00680    4.31310    0.01790    9.02330    2.67940   -0.00180 3742.63040 3734.04740    0.03100   51.76680   93.37350    8.53290    9.52630 3799.63230   27.20900  298.55890  563.67660 1210.68180   -9999.25
 8220.00000   39.24430    0.00780    4.20800    0.01720    9.02810    2.68060   -0.00090 3749.47140 3733.99950    0.03300   52.18590   93.57560    8.60290    9.51420 3905.54320   28.95640   43.55420  321.38820  476.48540   -9999.25
 8220.50000   43.04430    0.00880    3.99520    0.01790    9.02700    2.68070    0.00010 3756.53690 3733.80930    0.03750   52.73850   92.82640    8.42750    9.56100 3947.32840   31.35380   42.19680  321.38820  450.51790   -9999.25
 8221.00000   49.42870    0.01070    3.74840    0.02190    9.02480    2.67480    0.00110 3754.50460 3733.61940    0.02970   51.74280   92.11590    8.51860    9.56750 3819.46920   40.67500   41.59390  979.55760 2278.57710   -9999.25
 8221.50000   54.74990    0.01320    3.71650    0.02080    9.02270    2.67850    0.00200 3732.91160 3736.42900    0.03620   52.71150   92.78010    8.77140    9.56050 3881.61840   42.76980   62.95500  408.34760  601.21530   -9999.25
 8222.00000   54.83690    0.01190    3.92120    0.01590    9.02050    2.68970    0.00370 3695.36450 3737.25510    0.03400   52.29860   92.31200    8.18820    9.55750 3827.99320   43.16480   54.32880  386.39360  563.67660   -9999.25
 8222.50000   53.58740    0.01060    4.27260    0.00810    9.01840    2.69800    0.00540 3701.61940 3739.07640    0.03390   52.32290   93.74200    8.17680    9.55700 3856.08030   40.03820   56.88920 1901.20960 4560.68410   -9999.25
 8223.00000   55.32480    0.01240    4.40520    0.01320    9.01620    2.68300    0.00430 3700.26200 3740.89770    0.03830   52.99900   95.53310    8.20040    9.55860 3876.12130   42.05350  217.99260  488.23620  729.50790   -9999.25
 8223.50000   58.05090    0.01540    4.41160    0.02090    9.01410    2.67300    0.00080 3700.62650 3754.12890    0.03710   52.84470   94.84450    8.18330    9.55580 3835.04960   43.00570  244.27040  306.92340  372.41740   -9999.25
