~Version ---------------------------------------------------
VERS.   2.0 : CWLS log ASCII Standard -VERSION 2.0
WRAP.    NO : One line per depth step
DLM . SPACE : Column Data Section Delimiter
~Well ------------------------------------------------------
STRT .F                  139.0 : START DEPTH
STOP .F                 8710.0 : STOP DEPTH
STEP .F                    0.5 : STEP
NULL .                -9999.25 : NULL VALUE
COMP .                         : COMPANY
WELL .                         : WELL
FLD  .                         : FIELD
LOC  .                         : LOCATION
PROV .                         : PROVINCE
CNTY .                         : COUNTY
STAT .                         : STATE
CTRY .                         : COUNTRY
SRVC .                         : SERVICE COMPANY
DATE .                         : DATE
UWI  .                         : UNIQUE WELL ID
API  .                         : API NUMBER
SLAT .WGS84    2.6384200224634 : SURFACE LATITUDE
SLON .WGS84 7.3704452632600095 : SURFACE LONGITUDE
DATUM.F                    nan : DEPTH DATUM ELEV
~Curve Information -----------------------------------------
DEPT   .F     : 
GRD    .GAPI  : GAMMA RAY FROM DENSITY LOG
TNPH_LS.DEC   : THERMAL NEUTRON POROSITY [LIMESTONE]
PEFZ   .B/E   : HRDD STANDARD RESOLUTION FORMATION PHOTOELECTRIC FACTOR
DPHZ_LS.DEC   : HGRD STANDARD RESOLUTION DENSITY POROSITY
CALD   .IN    : CALIPER FROM DENSITY LOG
RHOZ   .G/C3  : HRDD STANDARD RESOLUTION FORMATION DENSITY
HDRA   .G/C3  : HRDD SPINE AND RIBS DENSITY CORRECTION
TEND   .LB    : TENSION FROM DENSITY LOG
TENR   .LB    : TENSION FROM RESISTIVITY LOG
SPHI   .DEC   : SONIC POROSITY
DTCO   .US/F  : DELTA-T COMPRESSIONAL
DTSM   .US/F  : DELTA-T SHEAR
HD1    .IN    : HOLE DIAMETER
HD2    .IN    : HOLE DIAMETER
TENS   .LB    : TENSION FROM SONIC LOG
GR_EDTC.GAPI  : GAMMA RAY
RXOZ   .OHMM  : INVADED FORMATION RESISTIVITY FILTERED AT 18 INCHES
RLA3   .OHMM  : APPARENT RESISTIVITY FROM COMPUTED FOCUSING MODE 3
RLA5   .OHMM  : APPARENT RESISTIVITY FROM COMPUTED FOCUSING MODE 5
RXOZ_R .OHMM  : INVADED ZONE RESISTIVITY
~Params ----------------------------------------------------
~Other -----------------------------------------------------
~ASCII -----------------------------------------------------
# ...
 5459.00000   34.66180    0.19910    3.10230    0.05900    9.03280    2.62800   -0.00260 2917.03640 2883.60210    0.05730   55.66640  101.81670    8.26450    9.60940 2946.05790   24.29160    2.75120    3.15520    4.15940   -9999.25
 5459.50000   34.28330    0.19140    3.13220    0.04860    9.04800    2.64620    0.00630 2899.85450 2871.77780    0.05770   55.53530  101.76620    8.29080    9.63360 2925.55150   27.83400    3.34470    4.08350    8.71450   -9999.25
 5460.00000   32.66000    0.17040    3.06120    0.02950    9.05550    2.66450    0.01320 2893.66650 2859.95390    0.05810   55.85650  101.26950    8.30820    9.62160 2894.28050   26.89900    5.69470   11.77690   18.56070   -9999.25
 5460.50000   31.20980    0.15480    2.96800    0.02760    9.06820    2.66830    0.01250 2887.56710 2853.23270    0.05750   55.67490  100.69260    8.32340    9.61440 2860.94600   24.28260    7.43070    9.69550   13.95710   -9999.25
 5461.00000   29.83290    0.15040    2.90270    0.03980    9.08550    2.63790    0.01030 2881.32130 2854.03080    0.05750   55.74630  100.48020    8.31590    9.59930 2898.39330   18.72470    4.30870    7.53940    9.27320   -9999.25
 5461.50000   28.40820    0.15170    2.90810    0.04790    9.09400    2.63850    0.00510 2874.50540 2854.82890    0.05930   56.00400  100.23410    8.30580    9.58430 2837.42330   16.10180    3.74470    6.01210    7.85290   -9999.25
 5462.00000   26.41650    0.15500    2.95800    0.04310    9.10250    2.64380    0.00010 2867.68970 2853.75980    0.06080   56.24800   99.96960    8.29560    9.56570 2770.45000   16.86380    3.91280    7.44780    9.97770   -9999.25
 5462.50000   25.57100    0.15720    2.99000    0.03870    9.11880    2.64370   -0.00170 2857.40600 2858.10620    0.06240   56.41030  100.50570    8.26320    9.55720 2852.03930   18.86540    5.00070    8.63650   11.77690   -9999.25
 5463.00000   27.19000    0.17510    3.00550    0.04170    9.06210    2.63690   -0.00160 2845.10990 2866.55180    0.06150   56.27350  100.72180    8.23060    9.57410 2855.58690   21.17750    4.81610    8.63700   10.99080   -9999.25
 5463.50000   32.01170    0.18760    2.96570    0.04720    9.03290    2.63270   -0.00150 2864.84590 2874.99730    0.05750   55.74570  100.39660    8.15200    9.62380 2854.80930   24.23650    3.76730    7.62380   10.67160   -9999.25
 5464.00000   37.56330    0.18690    2.87870    0.04910    9.00620    2.63140   -0.00140 2849.76560 2891.56450    0.05620   55.58910   99.87830    8.18950    9.66360 2836.91260   28.25150    3.30390    4.52040    5.33370   -9999.25
 5464.50000   41.33210    0.15390    2.77990    0.04840    9.01000    2.62990   -0.00130 2844.20340 2860.67310    0.05720   55.63740   99.36000    8.20540    9.65310 2847.04270   30.58170    3.93580    3.82200    5.33370   -9999.25
 5465.00000   37.68530    0.12890    2.67300    0.05090    9.01680    2.62820   -0.00110 2850.47580 2826.52170    0.05790   55.65490   98.61170    8.21230    9.64150 2867.28200   27.64480    3.15520   16.76720   23.49790   -9999.25
 5465.50000   31.37630    0.11550    2.65760    0.05060    9.02360    2.62910   -0.00100 2856.74830 2847.92110    0.06020   56.09350   97.96970    8.21560    9.62860 2892.72850   23.24800    3.67310   11.64510   16.93050   -9999.25
 5466.00000   26.83630    0.12100    2.74670    0.04180    9.03040    2.65330   -0.00100 2863.02100 2867.57590    0.05650   55.55830   97.75480    8.23200    9.64800 2921.34770   21.22180    5.68560    8.73000   12.13450   -9999.25
 5466.50000   26.96990    0.12850    2.87620    0.02120    9.03470    2.69190   -0.00110 2868.06760 2873.92260    0.05550   55.49090   96.81720    8.34530    9.66400 2911.92550   20.57300    9.79560    9.21780   15.84760   -9999.25
 5467.00000   29.90190    0.12490    2.97090    0.00000    9.07610    2.71950   -0.00130 2868.09450 2880.26930    0.05530   55.62150   95.95810    8.35790    9.65760 2868.34280   21.28780    9.79560    9.16470   11.79750   -9999.25
 5467.50000   36.05840    0.12010    3.03930   -0.01290    9.13180    2.73230   -0.00150 2868.12130 2882.34230    0.05520   55.40540   95.23140    8.32960    9.64100 2943.62940   22.32180   18.66510   34.27910   47.56630   -9999.25
 5468.00000   42.52550    0.11250    3.02800   -0.01510    9.12110    2.74000    0.00080 2868.14820 2882.32840    0.04540   53.69450   94.83350    8.29800    9.64470 2915.64360   28.07530   12.44600   20.84630   30.00510   -9999.25
 5468.50000   44.55330    0.10860    3.01670   -0.01810    9.09920    2.74770    0.00450 2855.68430 2882.44090    0.04300   53.65150   94.78950    8.26630    9.62750 2884.75980   32.15150   12.44600   20.84630   29.58320   -9999.25
 5469.00000   40.13230    0.09470    3.00540   -0.02690    9.04990    2.75370    0.01280 2830.13060 2876.14700    0.04060   53.38040   95.00200    8.23460    9.61020 2880.01590   36.88850   19.90810   39.35770   52.02030   -9999.25
 5469.50000   33.08950    0.08950    2.99410   -0.02280    9.04660    2.73650    0.02340 2804.57690 2822.48170    0.04500   53.86600   95.61310    8.23920    9.64740 2871.14280   32.09790    7.63890   39.35770   60.67780   -9999.25
 5470.00000   30.20600    0.09300    2.98280   -0.00390    9.04360    2.71830    0.01980 2790.93040 2847.35740    0.04930   54.55890   96.46170    8.24450    9.67020 2868.55960   24.99170    7.22820    7.58020   10.44790   -9999.25
 5470.50000   28.46920    0.09820    2.92080    0.01920    9.04220    2.66330    0.01170 2826.84590 2873.40600    0.05260   55.09070   97.39440    8.25220    9.63390 2956.44510   17.47800    5.38310    7.55500   10.44790   -9999.25
 5471.00000   27.33520    0.10010    2.88350    0.03990    9.04640    2.64270    0.00460 2867.69380 2888.16090    0.06180   56.42820   98.43390    8.25020    9.62460 2957.38280   18.06680    5.43290   12.20200   17.49970   -9999.25
 5471.50000   26.21490    0.10550    2.91590    0.04680    9.05060    2.63010   -0.00180 2886.44530 2889.49390    0.06500   56.81470   99.17280    8.24580    9.63930 2910.81570   18.06630    3.62270    6.84090    9.01630   -9999.25
 5472.00000   26.02580    0.11530    3.01130    0.05430    9.05680    2.62650   -0.00460 2895.31670 2886.50320    0.06360   56.58370   99.71980    8.25000    9.65400 2903.71850   17.30940    3.58950   10.44790   14.82620   -9999.25
 5472.50000   25.77460    0.12540    3.03970    0.05110    9.06210    2.62300   -0.00490 2904.18800 2885.03130    0.06410   56.65410  100.09950    8.27380    9.66340 2858.93090   15.79560    4.95480    6.83960    9.93190   -9999.25
 5473.00000   25.39950    0.13050    2.94040    0.05500    9.06400    2.61710   -0.00510 2909.22880 2882.75100    0.06570   56.84660   99.51630    8.25630    9.64050 2816.81620   16.20440    5.09370   10.44790   14.28990   -9999.25
 5473.50000   25.02440    0.13130    2.79860    0.05460    9.07820    2.63150   -0.00270 2903.51730 2885.88010    0.05740   55.67030   98.62290    8.27340    9.66340 2888.26000   15.92620    5.79470    9.88620   14.82620   -9999.25
 5474.00000   25.24510    0.12370    2.75840    0.03240    9.09870    2.66460    0.00780 2887.01120 2889.31030    0.05220   55.05710   97.97500    8.24930    9.63490 2859.85860   16.18580    5.63680    9.88620   13.27490   -9999.25
 5474.50000   27.04110    0.12670    2.73400    0.00990    9.08830    2.69980    0.01010 2883.19680 2874.10960    0.04990   54.76140   97.36150    8.23380    9.63810 2846.38720   17.30290    8.07290   12.84190   21.60380   -9999.25
 5475.00000   31.01930    0.13510    2.79100   -0.00330    9.09290    2.71170    0.00530 2876.64230 2840.49800    0.04510   53.98040   96.89060    8.23270    9.64800 2846.50460   20.25960   12.21880   21.23390   32.01570   -9999.25
 5475.50000   33.42970    0.14970    2.97620    0.00640    9.09970    2.68990    0.00040 2869.03830 2829.85500    0.04740   54.31030   96.90740    8.23150    9.65790 2846.62210   21.54960   10.84000   11.24680   16.02950   -9999.25
 5476.00000   32.47050    0.17030    3.18280    0.01740    9.10770    2.67860   -0.00470 2861.43460 2848.48610    0.04780   54.36440   97.56420    8.25130    9.66660 2880.01200   23.24590    8.22300   11.24680   16.09590   -9999.25
