~Version ---------------------------------------------------
VERS.   2.0 : CWLS log ASCII Standard -VERSION 2.0
WRAP.    NO : One line per depth step
DLM . SPACE : Column Data Section Delimiter
~Well ------------------------------------------------------
STRT .F                  139.0 : START DEPTH
STOP .F                 8710.0 : STOP DEPTH
STEP .F                    0.5 : STEP
NULL .                -9999.25 : NULL VALUE
COMP .                         : COMPANY
WELL .                         : WELL
FLD  .                         : FIELD
LOC  .                         : LOCATION
PROV .                         : PROVINCE
CNTY .                         : COUNTY
STAT .                         : STATE
CTRY .                         : COUNTRY
SRVC .                         : SERVICE COMPANY
DATE .                         : DATE
UWI  .                         : UNIQUE WELL ID
API  .                         : API NUMBER
SLAT .WGS84    2.6384200224634 : SURFACE LATITUDE
SLON .WGS84 7.3704452632600095 : SURFACE LONGITUDE
DATUM.F                    nan : DEPTH DATUM ELEV
~Curve Information -----------------------------------------
DEPT   .F     : 
GRD    .GAPI  : GAMMA RAY FROM DENSITY LOG
TNPH_LS.DEC   : THERMAL NEUTRON POROSITY [LIMESTONE]
PEFZ   .B/E   : HRDD STANDARD RESOLUTION FORMATION PHOTOELECTRIC FACTOR
DPHZ_LS.DEC   : HGRD STANDARD RESOLUTION DENSITY POROSITY
CALD   .IN    : CALIPER FROM DENSITY LOG
RHOZ   .G/C3  : HRDD STANDARD RESOLUTION FORMATION DENSITY
HDRA   .G/C3  : HRDD SPINE AND RIBS DENSITY CORRECTION
TEND   .LB    : TENSION FROM DENSITY LOG
TENR   .LB    : TENSION FROM RESISTIVITY LOG
SPHI   .DEC   : SONIC POROSITY
DTCO   .US/F  : DELTA-T COMPRESSIONAL
DTSM   .US/F  : DELTA-T SHEAR
HD1    .IN    : HOLE DIAMETER
HD2    .IN    : HOLE DIAMETER
TENS   .LB    : TENSION FROM SONIC LOG
GR_EDTC.GAPI  : GAMMA RAY
RXOZ   .OHMM  : INVADED FORMATION RESISTIVITY FILTERED AT 18 INCHES
RLA3   .OHMM  : APPARENT RESISTIVITY FROM COMPUTED FOCUSING MODE 3
RLA5   .OHMM  : APPARENT RESISTIVITY FROM COMPUTED FOCUSING MODE 5
RXOZ_R .OHMM  : INVADED ZONE RESISTIVITY
~Params ----------------------------------------------------
~Other -----------------------------------------------------
~ASCII -----------------------------------------------------
# ...
 3639.00000   73.78890    0.31160    2.82450   -9999.25   11.71520    1.90250    0.08510 2388.95530 2444.87110    0.16170   70.21640  141.76640   11.30430   11.68640 2508.86400   50.90150    0.20360    9.09980   10.00080   -9999.25
 3639.50000   68.59730    0.24020   -9999.25   -9999.25   12.02630    2.01920    0.10220 2379.26880 2429.03130    0.15560   66.82570  138.63020   11.00860   11.51310 2495.26710   44.53600    0.20280    9.09980    9.91180   -9999.25
 3640.00000   61.30390    0.16900   -9999.25   -9999.25   11.26290    2.07760    0.11930 2364.82280 2413.19170    0.14920   68.12790  135.85490    9.72190   10.28160 2623.62110   38.12630    0.29300   31.26300   39.35770   -9999.25
 3640.50000   55.54320    0.12900   -9999.25   -9999.25   11.99570    2.07860    0.12350 2352.74440 2369.76950    0.14310   67.72760  134.68660    9.55780   10.31210 2542.76100   30.80190    0.49570   31.26300   38.99690   -9999.25
 3641.00000   52.40260    0.11620   -9999.25   -9999.25   11.07750    2.04690    0.11300 2352.29790 2390.64090    0.13810   67.21380  135.13890   10.71180   11.74640 2431.10620   24.09440    0.76390   35.56560   47.48210   -9999.25
 3641.50000   49.88120    0.09970   -9999.25   -9999.25   11.10640    1.95710    0.11180 2369.13010 2411.51220    0.13120   66.17070  128.86170   11.58280   12.78370 2649.83910   19.42160    0.33830   34.27910   70.96270   -9999.25
 3642.00000   44.53360    0.08620   -9999.25   -9999.25   11.65150    1.91290    0.11930 2402.13060 2422.47750    0.12160   64.68620  125.58030   12.68570   12.15060 2625.17870   17.91650    0.20040   45.65940   72.95080   -9999.25
 3642.50000   39.98350    0.07520   -9999.25   -9999.25   12.80190    1.89740    0.13180 2426.17680 2422.65360    0.12560   65.44380  126.71800   12.87870   12.15090 2554.85940   16.37550    0.20150   98.74840  171.80270   -9999.25
 3643.00000   36.09800    0.08510   -9999.25   -9999.25   13.29530    1.94120    0.15640 2447.21440 2423.72120    0.11170   63.29410  127.33170    8.75790   10.21970 2484.41360   13.79560    0.23230  161.07570  246.42870   -9999.25
 3643.50000   33.41380    0.09770   -9999.25   -9999.25   12.21990    1.97390    0.17720 2462.53690 2424.78860    0.11210   63.53280  137.67410   15.38420   18.05000 2325.04000   13.02880    0.34920 2460.53760  285.27580   -9999.25
 3644.00000   30.59510    0.11030   -9999.25   -9999.25   10.02600    1.95920    0.18820 2461.02290 2428.08640    0.10970   63.02810  133.52210   16.01790   18.52020 2375.08200   12.05730    0.37930  404.60390  375.17860   -9999.25
 3644.50000   28.53800    0.09030   -9999.25   -9999.25   10.76330    1.86890    0.18920 2459.50880 2443.34160    0.15730   69.92280  136.14240   16.00420   18.46590 3008.82980   12.33150    0.20280   79.76250  185.73400   -9999.25
 3645.00000   29.38030    0.04700   -9999.25   -9999.25   14.76630    1.77860    0.16290 2452.87010 2427.06590    0.17180   71.71780  131.06760   15.43870   16.47570 2801.17330   12.65540    0.20260   76.41460  182.09760   -9999.25
 3645.50000   28.16600    0.02580   -9999.25   -9999.25   15.42620    1.71120    0.12170 2441.27370 2410.79000    0.21160   76.93150  126.72890   12.99190   13.00980 2731.48900   13.58690    0.20230  269.13740  780.27000   -9999.25
 3646.00000   27.30850    0.04140   -9999.25   -9999.25   15.35460    1.64830    0.07930 2429.67750 2405.72920    0.26630   85.37130  135.07000   12.83630   12.98240 2652.77880   15.24710    0.20210  302.48210 1496.33900   -9999.25
 3646.50000   27.61860    0.09860   -9999.25   -9999.25   14.42580    1.60410    0.05050 2418.08110 2420.57620    0.27350   86.25610  133.95770    9.45500   10.03640 2526.52780   16.45790    0.20180 76108.27340 1496.33900   -9999.25
 3647.00000   28.74760    0.16540   -9999.25   -9999.25   11.50210    1.64360    0.03490 2409.03640 2435.42310    0.26360   84.82230  138.95320    9.45580    9.83580 2472.25070   25.35740    0.20160  145.05060  153.82610   -9999.25
 3647.50000   42.93560    0.18650   -9999.25   -9999.25   14.14400    1.81540    0.02080 2460.96700 2450.27000    0.25450   83.54450  145.02550    9.46520    9.78610 2495.51780   35.82120    0.20060  335.01890  188.29530   -9999.25
 3648.00000   54.34830    0.22710   -9999.25   -9999.25   13.40490    1.98710    0.02140 2532.79250 2425.10180    0.26270   84.58570  150.46000    9.50120    9.65230 2579.35820   45.54450    0.20380   55.98410   45.31410   -9999.25
 3648.50000   63.29460    0.22070   -9999.25   -9999.25   11.77740    2.13470    0.02720 2481.82760 2407.33030    0.23300   80.50140  145.82950    9.78410    9.78910 2566.64940   41.98400    0.19720   18.63640   14.80210   -9999.25
 3649.00000   58.53830    0.17840   -9999.25    0.26450   10.15360    2.29650    0.03000 2413.23510 2425.92380    0.21540   78.00300  138.92570    9.16170    9.50680 2546.16750   29.77280    1.08400   15.24160   14.21050   -9999.25
 3649.50000   49.43260    0.10280   -9999.25    0.21510   10.15360    2.44210    0.03280 2410.59080 2444.51710    0.19200   74.70880  131.08730    9.77660   10.09270 2548.05860   17.27710    0.65320   15.24160   21.22640   -9999.25
 3650.00000   35.75150    0.06040   -9999.25    0.17920    9.89520    2.58550    0.04340 2430.27730 2464.23580    0.17140   70.65910  122.55460    9.01600    9.77350 2568.18800   12.80310    0.50940   39.98410   34.72920   -9999.25
 3650.50000   28.17770    0.04170   -9999.25    0.11800   10.43760    2.70420    0.07850 2436.11740 2471.69410    0.12680   65.43010  113.44390    8.79180    9.64220 2545.67210    9.62250    1.21070   53.58340   91.88830   -9999.25
 3651.00000   28.02570    0.02770    4.62070    0.01280   10.10590    2.77700    0.07740 2376.10060 2428.36820    0.04950   54.75460  101.76190    8.78820    9.57920 2531.22710    8.09890    1.38680   84.53370   79.25560   -9999.25
 3651.50000   30.20150    0.01170    4.88510   -0.06880    9.56800    2.84970    0.04660 2339.10130 2385.04220    0.03910   53.08080   92.07210    8.78770    9.61510 2638.48580    6.29170   27.73510   85.31590  171.01330   -9999.25
 3652.00000   31.88260    0.00300    4.94790   -0.09950    9.59190    2.85450   -0.00490 2332.90190 2373.74490    0.06310   56.33470  104.54740    8.93880    9.68070 2479.73950    6.14190  372.41740   46.45470  584.83050   -9999.25
 3652.50000   37.53140    0.00320   -9999.25    0.00090    9.61100    2.57120   -0.03670 2375.56590 2396.67500    0.14550   68.16800  113.20950   13.90220   14.08170 2492.39180    6.69550  579.46880   37.24170  814.76060   -9999.25
 3653.00000   40.71810    0.02520   -9999.25    0.29950    9.61190    2.05530   -0.04520 2452.92920 2419.60550    0.17160   71.43140  121.12030   14.45880   14.49580 2514.98290    8.38600    0.20280   28.54500  208.46350   -9999.25
 3653.50000   38.55750    0.06060   -9999.25   -9999.25   10.23890    1.53940   -0.04720 2509.86500 2442.45580    0.21840   78.20500  119.93860   16.17360   18.78280 2325.11690    9.26630    0.20280   20.84630  210.39240   -9999.25
 3654.00000   36.86410    0.04640   -9999.25   -9999.25   15.13020    1.53810   -0.04160 2482.67900 2465.22120    0.24510   82.24150  118.28020   16.26310   18.92890 2727.79350    8.79880    0.20280   25.52880  178.25020   -9999.25
 3654.50000   29.63500    0.04560   -9999.25   -9999.25   15.74150    1.58470    0.01940 2403.74270 2487.98680    0.26310   84.74210  117.71720   16.26750   18.90310 2656.81520    8.83360    0.20280  107.40640  690.28750   -9999.25
 3655.00000   28.24420    0.10810   -9999.25   -9999.25   16.62510    1.64870    0.06500 2510.77120 2500.98120    0.24430   82.17270  113.52540   16.27030   18.85960 2522.93970   10.92630    0.20280  157.59050 1077.77970   -9999.25
 3655.50000   27.11260    0.11500   -9999.25   -9999.25   18.25450    1.71280    0.07850 2549.15110 2500.98120    0.28010   87.36160  120.24000   16.06130   18.65280 2389.06420   10.10730    0.20270  293.71350 4859.01900   -9999.25
 3656.00000   24.98080    0.11100   -9999.25   -9999.25   17.22570    1.78580    0.08650 2475.35450 2522.20290    0.28570   87.89590  119.91820   14.16280   14.95640 2395.25270   10.49330    0.20260 103759.80470 99874.28910   -9999.25
