~Version ---------------------------------------------------
VERS.   2.0 : CWLS log ASCII Standard -VERSION 2.0
WRAP.    NO : One line per depth step
DLM . SPACE : Column Data Section Delimiter
~Well ------------------------------------------------------
STRT .F                  139.0 : START DEPTH
STOP .F                 8710.0 : STOP DEPTH
STEP .F                    0.5 : STEP
NULL .                -9999.25 : NULL VALUE
COMP .                         : COMPANY
WELL .                         : WELL
FLD  .                         : FIELD
LOC  .                         : LOCATION
PROV .                         : PROVINCE
CNTY .                         : COUNTY
STAT .                         : STATE
CTRY .                         : COUNTRY
SRVC .                         : SERVICE COMPANY
DATE .                         : DATE
UWI  .                         : UNIQUE WELL ID
API  .                         : API NUMBER
SLAT .WGS84    2.6384200224634 : SURFACE LATITUDE
SLON .WGS84 7.3704452632600095 : SURFACE LONGITUDE
DATUM.F                    nan : DEPTH DATUM ELEV
~Curve Information -----------------------------------------
DEPT   .F     : 
GRD    .GAPI  : GAMMA RAY FROM DENSITY LOG
TNPH_LS.DEC   : THERMAL NEUTRON POROSITY [LIMESTONE]
PEFZ   .B/E   : HRDD STANDARD RESOLUTION FORMATION PHOTOELECTRIC FACTOR
DPHZ_LS.DEC   : HGRD STANDARD RESOLUTION DENSITY POROSITY
CALD   .IN    : CALIPER FROM DENSITY LOG
RHOZ   .G/C3  : HRDD STANDARD RESOLUTION FORMATION DENSITY
HDRA   .G/C3  : HRDD SPINE AND RIBS DENSITY CORRECTION
TEND   .LB    : TENSION FROM DENSITY LOG
TENR   .LB    : TENSION FROM RESISTIVITY LOG
SPHI   .DEC   : SONIC POROSITY
DTCO   .US/F  : DELTA-T COMPRESSIONAL
DTSM   .US/F  : DELTA-T SHEAR
HD1    .IN    : HOLE DIAMETER
HD2    .IN    : HOLE DIAMETER
TENS   .LB    : TENSION FROM SONIC LOG
GR_EDTC.GAPI  : GAMMA RAY
RXOZ   .OHMM  : INVADED FORMATION RESISTIVITY FILTERED AT 18 INCHES
RLA3   .OHMM  : APPARENT RESISTIVITY FROM COMPUTED FOCUSING MODE 3
RLA5   .OHMM  : APPARENT RESISTIVITY FROM COMPUTED FOCUSING MODE 5
RXOZ_R .OHMM  : INVADED ZONE RESISTIVITY
~Params ----------------------------------------------------
~Other -----------------------------------------------------
~ASCII -----------------------------------------------------
# ...
 6369.00000   53.75750    0.20800    2.92620    0.07100    9.23850    2.59960   -0.00540 3155.88790 3101.11940    0.10520   62.52320  111.86670    8.47570    9.94240 3233.00070   42.96330    6.12390    6.12390    6.46310   -9999.25
 6369.50000   53.85220    0.20930    2.94280    0.06350    9.23650    2.60830   -0.00650 3166.54520 3123.38210    0.10370   62.32040  111.41250    8.48890    9.94790 3197.84960   43.51070    5.68890    7.09630    7.29510   -9999.25
 6370.00000   50.15510    0.19850    2.94590    0.05750    9.23940    2.61890   -0.00750 3155.49900 3154.29830    0.10450   62.27740  110.63760    8.48020    9.95350 3191.36820   41.23630    4.94720    5.87140    5.78800   -9999.25
 6370.50000   46.40800    0.19960    2.93840    0.05330    9.24230    2.62340   -0.00710 3116.59130 3165.19040    0.09940   61.67410  109.95410    8.47110    9.94250 3195.44580   39.53920    4.09290    4.68850    4.93210   -9999.25
 6371.00000   46.59060    0.20410    2.93100    0.05390    9.22700    2.62740   -0.00560 3143.12400 3173.41040    0.09280   60.73770  109.61180    8.33400    9.83150 3197.23360   38.79000    4.04600    4.90940    4.90940   -9999.25
 6371.50000   60.67030    0.18400    2.92210    0.04630    9.17610    2.64370   -0.00400 3201.15330 3172.14550    0.08810   60.11230  109.35610    8.26050    9.77820 3212.95170   42.41280    5.78140    8.49730    8.66740   -9999.25
 6372.00000   66.93820    0.17450    2.94730    0.03800    9.06890    2.65300   -0.00450 3195.56960 3164.85620    0.08300   59.35960  108.81870    8.23350    9.77050 3158.05200   50.84540    8.95430   12.79470   13.96470   -9999.25
 6372.50000   61.57620    0.14220    2.99470    0.03080    9.02450    2.66440   -0.00670 3180.48560 3157.56690    0.07880   58.72420  107.87420    8.23430    9.76150 3167.11990   50.72170   11.14370   13.16800   14.15890   -9999.25
 6373.00000   49.05220    0.12940    3.06500    0.02610    9.02450    2.67290   -0.00900 3162.21830 3148.70900    0.07330   58.02180  105.50120    8.23300    9.75260 3220.89620   49.95620    9.13340   12.29860   13.12290   -9999.25
 6373.50000   48.97950    0.12370    3.10790    0.01740    9.02460    2.68870   -0.00900 3138.18650 3141.91380    0.05020   54.64950  100.22660    8.23170    9.74020 3184.50830   45.71830    8.13640   11.55540   12.33190   -9999.25
 6374.00000   53.71390    0.12180    3.11020    0.01000    9.02460    2.69700   -0.00730 3108.34500 3137.58110    0.04380   53.79880   98.78600    8.23150    9.73750 3251.03340   47.72690    6.83960   10.84290   12.33730   -9999.25
 6374.50000   56.09080    0.11820    3.12130    0.00520    9.02460    2.70430   -0.00510 3114.91260 3133.07840    0.04410   53.91700   98.52730    8.23300    9.73760 3129.31930   48.21310    7.17840    9.01630   10.08850   -9999.25
 6375.00000   51.38610    0.10870    3.15280   -0.00100    9.02460    2.71500   -0.00350 3127.00930 3123.90280    0.04280   53.64880   96.12810    8.23450    9.75390 3296.65770   44.22080    7.63890   12.56120   13.26720   -9999.25
 6375.50000   47.06050    0.10230    3.19550   -0.00930    9.02460    2.72990   -0.00330 3118.43260 3123.16500    0.04130   53.42900   94.24680    8.23450    9.77550 3361.04570   40.66310   10.52840   16.01510   18.96840   -9999.25
 6376.00000   43.72500    0.10110    3.25530   -0.01600    9.02460    2.73790   -0.00270 3089.10180 3123.85600    0.03970   53.10500   93.68810    8.23970    9.80020 3248.84110   38.65470   12.91310   18.49400   21.03920   -9999.25
 6376.50000   46.96310    0.10100    3.31500   -0.02250    9.03490    2.75290   -0.00210 3084.67190 3124.54660    0.03430   52.64560   94.04780    8.25820    9.82530 3196.49950   38.93580   12.79470   11.35090   13.39770   -9999.25
 6377.00000   48.60080    0.08600    3.37520   -0.03480    9.04570    2.77700   -0.00150 3083.05710 3129.10060    0.02440   51.17880   91.81520    8.26620    9.85030 3355.52150   35.80070   15.89550   20.02770   21.26650   -9999.25
 6377.50000   45.83080    0.07000    3.45800   -0.05260    9.05660    2.80950   -0.00150 3081.44240 3120.67110    0.02100   50.70650   92.10060    8.27420    9.87120 3172.71070   31.59310   28.79240   40.08940   46.17040   -9999.25
 6378.00000   43.52090    0.05860    3.45370   -0.06310    9.06750    2.80660   -0.00150 3084.84720 3112.24170    0.02030   50.46720   93.17390    8.29740    9.89490 3237.82930   29.83440   46.26090   68.39590   88.51770   -9999.25
 6378.50000   42.82570    0.06640    3.36740   -0.05460    9.07560    2.78800   -0.00150 3098.62180 3105.33470    0.02540   51.01910   95.39040    8.34720    9.92820 3309.73070   31.37880   52.82910   53.55730   76.36410   -9999.25
 6379.00000   45.95170    0.08270    3.20440   -0.03860    9.09690    2.75410   -0.00150 3112.39650 3099.53390    0.04320   53.64970   98.01520    8.37350    9.93790 3176.52420   35.10420   13.26360   36.77460   44.40450   -9999.25
 6379.50000   47.12350    0.09850    3.11600   -0.01500    9.12270    2.72560   -0.00150 3126.33590 3093.73340    0.05040   54.76590  100.65620    8.38640    9.92230 3254.80960   36.83060    6.98240   20.34080   21.82540   -9999.25
 6380.00000   45.47680    0.12880    3.12110    0.00520    9.12930    2.69700   -0.00150 3140.38530 3097.85400    0.06400   56.65100  102.14160    8.40220    9.88660 3287.72070   36.87190    3.62270    7.24490    6.15510   -9999.25
 6380.50000   44.55610    0.14870    3.14150    0.01270    9.13600    2.69120   -0.00150 3154.43430 3115.58420    0.07530   58.39320  103.53860    8.37180    9.85100 3258.85790   36.47380    3.69000    4.95480    4.65890   -9999.25
 6381.00000   49.31970    0.15870    3.15830    0.00940    9.14260    2.69650   -0.00160 3152.39260 3133.31450    0.07750   58.52660  104.02370    8.31060    9.81730 3304.11790   38.42840    3.58950    6.11690    4.69780   -9999.25
 6381.50000   51.99390    0.15010    3.17850    0.00720    9.11220    2.70060   -0.00230 3132.74340 3138.52120    0.07450   58.17140  104.30300    8.28880    9.81730 3269.97830   41.61770    6.77690    9.04010   11.04150   -9999.25
 6382.00000   52.20960    0.14570    3.19860    0.00380    9.09220    2.70590   -0.00300 3114.74630 3134.93770    0.07240   57.87160  103.66770    8.30330    9.85740 3211.22510   42.14060    7.22820   11.47320   10.84000   -9999.25
 6382.50000   49.31560    0.14310    3.22950    0.00090    9.09530    2.71270   -0.00350 3129.07250 3139.46220    0.06880   57.39980  102.42960    8.30560    9.87660 3182.38820   36.88140    6.41250   11.47690    8.69020   -9999.25
 6383.00000   46.18790    0.13930    3.26340   -0.00920    9.08710    2.73100   -0.00400 3139.58060 3143.98660    0.06440   56.57080  100.32590    8.27990    9.83340 3151.57710   30.57610    6.80290    8.20320    7.70960   -9999.25
 6383.50000   46.32560    0.11920    3.26220   -0.02110    9.07890    2.75690   -0.00340 3153.00930 3146.33910    0.06200   56.28190  101.08360    8.23790    9.81190 3240.00930   29.51040    8.53160   10.00530    9.08300   -9999.25
 6384.00000   49.93930    0.10760    3.15730   -0.03970    9.05420    2.77770   -0.00270 3141.46170 3145.44310    0.04020   52.94370   98.60940    8.22520    9.79030 3198.18020   32.06840   12.33190   15.40840   13.87490   -9999.25
 6384.50000   50.28700    0.09400    3.11420   -0.04690    9.02940    2.78560   -0.00210 3118.88920 3151.94430    0.03020   51.87810   95.88490    8.23720    9.78850 3185.36210   34.21560   17.82500   25.46470   24.26780   -9999.25
 6385.00000   46.74970    0.08060    3.05580   -0.04730    9.00880    2.78410   -0.00180 3149.15580 3158.44560    0.02970   51.76450   92.98300    8.23580    9.78880 3290.27150   34.49610   24.60540   32.80050   37.58630   -9999.25
 6385.50000   49.11870    0.07110    3.04280   -0.04510    9.00880    2.78210   -0.00130 3179.62960 3162.97660    0.02700   51.45350   92.54520    8.23460    9.77460 3253.08520   41.26100   20.99090   23.85510   28.25070   -9999.25
 6386.00000   61.70150    0.06550    3.04550   -0.04470    9.00880    2.78130   -0.00080 3196.10110 3166.61160    0.02650   51.28670   91.46320    8.23470    9.75750 3236.58540   53.95550   20.27820   24.44280   28.25070   -9999.25
