~Version ---------------------------------------------------
VERS.   2.0 : CWLS log ASCII Standard -VERSION 2.0
WRAP.    NO : One line per depth step
DLM . SPACE : Column Data Section Delimiter
~Well ------------------------------------------------------
STRT .F                  139.0 : START DEPTH
STOP .F                 8710.0 : STOP DEPTH
STEP .F                    0.5 : STEP
NULL .                -9999.25 : NULL VALUE
COMP .                         : COMPANY
WELL .                         : WELL
FLD  .                         : FIELD
LOC  .                         : LOCATION
PROV .                         : PROVINCE
CNTY .                         : COUNTY
STAT .                         : STATE
CTRY .                         : COUNTRY
SRVC .                         : SERVICE COMPANY
DATE .                         : DATE
UWI  .                         : UNIQUE WELL ID
API  .                         : API NUMBER
SLAT .WGS84    2.6384200224634 : SURFACE LATITUDE
SLON .WGS84 7.3704452632600095 : SURFACE LONGITUDE
DATUM.F                    nan : DEPTH DATUM ELEV
~Curve Information -----------------------------------------
DEPT   .F     : 
GRD    .GAPI  : GAMMA RAY FROM DENSITY LOG
TNPH_LS.DEC   : THERMAL NEUTRON POROSITY [LIMESTONE]
PEFZ   .B/E   : HRDD STANDARD RESOLUTION FORMATION PHOTOELECTRIC FACTOR
DPHZ_LS.DEC   : HGRD STANDARD RESOLUTION DENSITY POROSITY
CALD   .IN    : CALIPER FROM DENSITY LOG
RHOZ   .G/C3  : HRDD STANDARD RESOLUTION FORMATION DENSITY
HDRA   .G/C3  : HRDD SPINE AND RIBS DENSITY CORRECTION
TEND   .LB    : TENSION FROM DENSITY LOG
TENR   .LB    : TENSION FROM RESISTIVITY LOG
SPHI   .DEC   : SONIC POROSITY
DTCO   .US/F  : DELTA-T COMPRESSIONAL
DTSM   .US/F  : DELTA-T SHEAR
HD1    .IN    : HOLE DIAMETER
HD2    .IN    : HOLE DIAMETER
TENS   .LB    : TENSION FROM SONIC LOG
GR_EDTC.GAPI  : GAMMA RAY
RXOZ   .OHMM  : INVADED FORMATION RESISTIVITY FILTERED AT 18 INCHES
RLA3   .OHMM  : APPARENT RESISTIVITY FROM COMPUTED FOCUSING MODE 3
RLA5   .OHMM  : APPARENT RESISTIVITY FROM COMPUTED FOCUSING MODE 5
RXOZ_R .OHMM  : INVADED ZONE RESISTIVITY
~Params ----------------------------------------------------
~Other -----------------------------------------------------
~ASCII -----------------------------------------------------
# ...
 2239.00000   54.33980    0.04750   -9999.25   -9999.25   17.07160    1.83520    0.11570 1918.85000 1940.69700   -9999.25   -9999.25   -9999.25   -9999.25   -9999.25   -9999.25   -9999.25    0.20260   25.76500  432.21190   -9999.25
 2239.50000   54.80040    0.03910   -9999.25   -9999.25   16.80790    1.80200    0.12120 1923.50710 1940.63670   -9999.25   -9999.25   -9999.25   -9999.25   -9999.25   -9999.25   -9999.25    0.20290   25.52880  589.25430   -9999.25
 2240.00000   54.83330    0.04080   -9999.25   -9999.25   16.94470    1.76190    0.12270 1929.68540 1940.49400   -9999.25   -9999.25   -9999.25   -9999.25   -9999.25   -9999.25   -9999.25    0.20270   25.52880  744.93930   -9999.25
 2240.50000   54.89360    0.06490   -9999.25   -9999.25   17.66200    1.72900    0.11410 1941.42380 1940.35130   -9999.25   -9999.25   -9999.25   -9999.25   -9999.25   -9999.25   -9999.25    0.20280   26.18360  887.21730   -9999.25
 2241.00000   54.88050    0.11360   -9999.25   -9999.25   18.30710    1.72450    0.10430 1952.40890 1937.90250   -9999.25   -9999.25   -9999.25   -9999.25   -9999.25   -9999.25   -9999.25    0.20280   27.99180 1084.00180   -9999.25
 2241.50000   54.75620    0.16220   -9999.25   -9999.25   17.84660    1.72550    0.09440 1958.18400 1940.52770   -9999.25   -9999.25   -9999.25   -9999.25   -9999.25   -9999.25   -9999.25    0.20280   30.55130 1218.74770   -9999.25
 2242.00000   54.53260    0.17730   -9999.25   -9999.25   17.80290    1.73580    0.09120 1966.22070 1946.27120   -9999.25   -9999.25   -9999.25   -9999.25   -9999.25   -9999.25   -9999.25    0.20280   31.26300 1461.78020   -9999.25
 2242.50000   53.69390    0.18310   -9999.25   -9999.25   17.79690    1.79370    0.09630 1974.25730 1957.64920   -9999.25   -9999.25   -9999.25   -9999.25   -9999.25   -9999.25   -9999.25    0.20260   24.71900  478.49760   -9999.25
 2243.00000   51.32870    0.18790   -9999.25   -9999.25   18.45490    1.84730    0.10080 1982.29390 1972.26210   -9999.25   -9999.25   -9999.25   -9999.25   -9999.25   -9999.25   -9999.25    0.20270   23.71540 1058.76990   -9999.25
 2243.50000   48.83260    0.20450   -9999.25   -9999.25   19.27830    1.90050    0.09930 1990.33070 1986.87510   -9999.25   -9999.25   -9999.25   -9999.25   -9999.25   -9999.25   -9999.25    0.21830   23.69960 1909.98520   -9999.25
 2244.00000   46.65870    0.22090   -9999.25   -9999.25   19.33030    1.95380    0.09100 1998.36730 1990.42040   -9999.25   -9999.25   -9999.25   -9999.25   -9999.25   -9999.25   -9999.25    0.41120   24.38030 2360.64140   -9999.25
 2244.50000   49.98430    0.21810   -9999.25   -9999.25   19.61950    1.98150    0.08280 1992.66490 1979.87650   -9999.25   -9999.25   -9999.25   -9999.25   -9999.25   -9999.25   -9999.25    0.73120   23.92620 2624.39990   -9999.25
 2245.00000   56.17080    0.20200   -9999.25   -9999.25   19.75450    1.98010    0.08000 1982.66470 1969.33250   -9999.25   -9999.25   -9999.25   -9999.25   -9999.25   -9999.25   -9999.25    0.91830   23.49790 2925.31640   -9999.25
 2245.50000   50.85860    0.18870   -9999.25   -9999.25   19.76990    1.97020    0.08040 1972.66460 1958.78860   -9999.25   -9999.25   -9999.25   -9999.25   -9999.25   -9999.25   -9999.25    0.66910   24.88390 6012.15280   -9999.25
 2246.00000   39.99140    0.19010   -9999.25   -9999.25   19.51250    1.93500    0.09530 1962.66430 1948.24450   -9999.25   -9999.25   -9999.25   -9999.25   -9999.25   -9999.25   -9999.25    0.46350   27.22890 4624.12940   -9999.25
 2246.50000   35.68370    0.19410   -9999.25   -9999.25   18.75540    1.89980    0.10930 1955.11520 1937.70060   -9999.25   -9999.25   -9999.25   -9999.25   -9999.25   -9999.25   -9999.25    0.26980   27.48080 2335.91940   -9999.25
 2247.00000   35.04300    0.17190   -9999.25   -9999.25   18.56130    1.89630    0.11100 1955.11520 1936.63540   -9999.25   -9999.25   -9999.25   -9999.25   -9999.25   -9999.25   -9999.25    0.25530   23.49790 1129.25500   -9999.25
 2247.50000   34.28110    0.13560   -9999.25   -9999.25   18.79230    1.92340    0.10350 1955.11520 1934.51060   -9999.25   -9999.25   -9999.25   -9999.25   -9999.25   -9999.25   -9999.25    0.35890   26.97930 1144.99040   -9999.25
 2248.00000   34.10770    0.10080   -9999.25   -9999.25   18.95150    1.93890    0.08610 1952.55220 1932.38590   -9999.25   -9999.25   -9999.25   -9999.25   -9999.25   -9999.25   -9999.25    0.55850   22.44040  427.59240   -9999.25
 2248.50000   33.37200    0.08410   -9999.25   -9999.25   19.14490    1.92710    0.07300 1949.17880 1933.12020   -9999.25   -9999.25   -9999.25   -9999.25   -9999.25   -9999.25   -9999.25    0.32590   27.48080  509.36610   -9999.25
 2249.00000   35.23910    0.08820   -9999.25   -9999.25   18.79370    1.90500    0.06950 1945.80530 1934.18810   -9999.25   -9999.25   -9999.25   -9999.25   -9999.25   -9999.25   -9999.25    0.24380   22.85760   86.21870   -9999.25
 2249.50000   45.01860    0.09710   -9999.25   -9999.25   17.81590    1.89390    0.06600 1942.21670 1933.35690   -9999.25   -9999.25   -9999.25   -9999.25   -9999.25   -9999.25   -9999.25    0.31870   20.13860   45.60680   -9999.25
 2250.00000   61.39210    0.12900   -9999.25   -9999.25   16.98980    1.91170    0.06650 1934.30030 1932.52580   -9999.25   -9999.25   -9999.25   -9999.25   -9999.25   -9999.25   -9999.25    0.54770   14.30190   17.43530   -9999.25
 2250.50000   77.18920    0.16500   -9999.25   -9999.25   16.44350    2.14810    0.06580 1926.38380 1931.81240   -9999.25   -9999.25   -9999.25   -9999.25   -9999.25   -9999.25   -9999.25    1.02450    8.09320    5.38310   -9999.25
 2251.00000   87.92230    0.17930   -9999.25    0.28340   16.77020    2.27270    0.04810 1925.13420 1932.15230   -9999.25   -9999.25   -9999.25   -9999.25   -9999.25   -9999.25   -9999.25    1.13970    5.43290    5.38310   -9999.25
 2251.50000   95.94980    0.15030   -9999.25    0.26360   15.96030    2.28360    0.02750 1934.03260 1932.49230   -9999.25   -9999.25   -9999.25   -9999.25   -9999.25   -9999.25   -9999.25    2.07700    9.45210    9.68340   -9999.25
 2252.00000   99.24280    0.12310   -9999.25    0.26390   15.93340    2.28630    0.01220 1938.52330 1932.83230   -9999.25   -9999.25   -9999.25   -9999.25   -9999.25   -9999.25   -9999.25    7.20260   10.74060   11.56190   -9999.25
 2252.50000  106.07520    0.13670   -9999.25    0.27150   15.93460    2.28530    0.00700 1938.91390 1934.98720   -9999.25   -9999.25   -9999.25   -9999.25   -9999.25   -9999.25   -9999.25    3.38480    8.32730    9.63930   -9999.25
 2253.00000  107.74950    0.21000   -9999.25    0.27900   15.98300    2.27940    0.00800 1939.30440 1939.31130   -9999.25   -9999.25   -9999.25   -9999.25   -9999.25   -9999.25   -9999.25    2.31490    7.02780    6.30840   -9999.25
 2253.50000  108.97390    0.23840   -9999.25    0.28830   16.61530    2.26310    0.01380 1943.62660 1943.63530   -9999.25   -9999.25   -9999.25   -9999.25   -9999.25   -9999.25   -9999.25    1.84940    5.63680    5.20680   -9999.25
 2254.00000  105.48500    0.19360   -9999.25    0.29830   16.97140    2.24680    0.02910 1954.97230 1947.95920   -9999.25   -9999.25   -9999.25   -9999.25   -9999.25   -9999.25   -9999.25    2.06550    6.51670    5.14160   -9999.25
 2254.50000  100.79280    0.14950   -9999.25    0.30040   16.37650    2.23040    0.04890 1966.31790 1952.28320   -9999.25   -9999.25   -9999.25   -9999.25   -9999.25   -9999.25   -9999.25    1.33980    8.01730    8.97490   -9999.25
 2255.00000   98.61060    0.11960   -9999.25   -9999.25   16.27470    2.20440    0.03810 1977.66360 1956.60730   -9999.25   -9999.25   -9999.25   -9999.25   -9999.25   -9999.25   -9999.25    1.54980    8.91830   12.04010   -9999.25
 2255.50000   92.23600    0.10180   -9999.25   -9999.25   16.23590    2.17570    0.02750 1989.00920 1960.93130   -9999.25   -9999.25   -9999.25   -9999.25   -9999.25   -9999.25   -9999.25    3.25000    9.44130   14.69030   -9999.25
 2256.00000   83.97590    0.07610   -9999.25   -9999.25   16.27080    2.09920    0.03620 2000.07900 1965.25520   -9999.25   -9999.25   -9999.25   -9999.25   -9999.25   -9999.25   -9999.25    3.91370   13.86320   27.90590   -9999.25
