~Version ---------------------------------------------------
VERS.   2.0 : CWLS log ASCII Standard -VERSION 2.0
WRAP.    NO : One line per depth step
DLM . SPACE : Column Data Section Delimiter
~Well ------------------------------------------------------
STRT .F                  139.0 : START DEPTH
STOP .F                 8710.0 : STOP DEPTH
STEP .F                    0.5 : STEP
NULL .                -9999.25 : NULL VALUE
COMP .                         : COMPANY
WELL .                         : WELL
FLD  .                         : FIELD
LOC  .                         : LOCATION
PROV .                         : PROVINCE
CNTY .                         : COUNTY
STAT .                         : STATE
CTRY .                         : COUNTRY
SRVC .                         : SERVICE COMPANY
DATE .                         : DATE
UWI  .                         : UNIQUE WELL ID
API  .                         : API NUMBER
SLAT .WGS84    2.6384200224634 : SURFACE LATITUDE
SLON .WGS84 7.3704452632600095 : SURFACE LONGITUDE
DATUM.F                    nan : DEPTH DATUM ELEV
~Curve Information -----------------------------------------
DEPT   .F     : 
GRD    .GAPI  : GAMMA RAY FROM DENSITY LOG
TNPH_LS.DEC   : THERMAL NEUTRON POROSITY [LIMESTONE]
PEFZ   .B/E   : HRDD STANDARD RESOLUTION FORMATION PHOTOELECTRIC FACTOR
DPHZ_LS.DEC   : HGRD STANDARD RESOLUTION DENSITY POROSITY
CALD   .IN    : CALIPER FROM DENSITY LOG
RHOZ   .G/C3  : HRDD STANDARD RESOLUTION FORMATION DENSITY
HDRA   .G/C3  : HRDD SPINE AND RIBS DENSITY CORRECTION
TEND   .LB    : TENSION FROM DENSITY LOG
TENR   .LB    : TENSION FROM RESISTIVITY LOG
SPHI   .DEC   : SONIC POROSITY
DTCO   .US/F  : DELTA-T COMPRESSIONAL
DTSM   .US/F  : DELTA-T SHEAR
HD1    .IN    : HOLE DIAMETER
HD2    .IN    : HOLE DIAMETER
TENS   .LB    : TENSION FROM SONIC LOG
GR_EDTC.GAPI  : GAMMA RAY
RXOZ   .OHMM  : INVADED FORMATION RESISTIVITY FILTERED AT 18 INCHES
RLA3   .OHMM  : APPARENT RESISTIVITY FROM COMPUTED FOCUSING MODE 3
RLA5   .OHMM  : APPARENT RESISTIVITY FROM COMPUTED FOCUSING MODE 5
RXOZ_R .OHMM  : INVADED ZONE RESISTIVITY
~Params ----------------------------------------------------
~Other -----------------------------------------------------
~ASCII -----------------------------------------------------
# ...
 7751.50000   56.06770    0.01460    4.11220   -0.01710    9.04420    2.73520   -0.00290 3551.01930 3597.98490    0.01530   49.77660   90.29670    8.22190    9.75700 3724.81230   48.08600   57.28930  233.86610  935.47030   -9999.25
 7752.00000   55.35450    0.01540    4.13760   -0.01610    9.04090    2.74220   -0.00400 3545.65890 3589.49580    0.01540   49.81850   89.86460    8.21260    9.77640 3666.03740   46.53780   55.85090  232.33050  822.29940   -9999.25
 7752.50000   54.04140    0.01410    4.12330   -0.02420    9.03840    2.75710   -0.00410 3569.09740 3582.87210    0.01510   49.75650   89.81370    8.19420    9.76430 3631.47170   45.38070   69.66750  369.00310 1199.58220   -9999.25
 7753.00000   52.97730    0.01910    3.92790   -0.03680    9.03610    2.77680   -0.00320 3584.95950 3576.52420    0.01480   49.70170   90.24250    8.19180    9.75160 3643.24120   40.88980   73.62580  345.96330 1291.30850   -9999.25
 7753.50000   55.14200    0.03260    3.65220   -0.04530    9.03380    2.77860   -0.00230 3599.74900 3581.59110    0.01430   49.61910   89.85310    8.17750    9.72510 3675.35890   40.68440   50.46960  191.88010  625.78680   -9999.25
 7754.00000   62.00390    0.04990    3.43730   -0.04050    9.03150    2.76500   -0.00140 3546.26370 3590.32540    0.01640   49.94440   89.74000    8.20100    9.71840 3673.23440   42.59070   32.88740  101.25810  171.27010   -9999.25
 7754.50000   62.72850    0.06590    3.26990   -0.02400    9.02920    2.73890   -0.00110 3575.90890 3602.47800    0.02050   50.44950   89.49400    8.18100    9.72170 3656.47190   47.67530   28.25070   76.56490  127.21700   -9999.25
 7755.00000   64.16510    0.07870    3.22310   -0.01390    9.02690    2.72690   -0.00040 3596.62430 3594.96040    0.02380   50.97320   89.14900    8.17450    9.72500 3613.52810   53.85880   29.85590   69.02870  108.40020   -9999.25
 7755.50000   63.99110    0.09290    3.20110   -0.00480    9.02470    2.72870    0.00190 3579.06180 3576.88160    0.02670   51.39860   89.63420    8.14080    9.72830 3576.66430   57.04450   14.73540   44.50030   64.58640   -9999.25
 7756.00000   66.77440    0.10400    3.16400   -0.00480    9.02960    2.73940    0.00410 3546.00120 3558.80270    0.02950   51.72850   90.69210    8.16970    9.75620 3599.08350   58.82960   14.43690   33.65350   45.60680   -9999.25
 7756.50000   69.89420    0.11370    3.12790   -0.01700    9.03460    2.73770    0.00550 3512.48680 3541.13480    0.03070   51.91660   90.97070    8.17450    9.77550 3603.76560   57.92800   24.15630   60.12150   79.56910   -9999.25
 7757.00000   77.31540    0.11390    3.08000   -0.01540    9.03820    2.72790    0.00170 3505.20950 3538.16940    0.03470   52.64310   91.81810    8.15330    9.76040 3598.76610   60.00640   20.09230   64.71870   80.72910   -9999.25
 7757.50000   90.19330    0.11460    3.07260   -0.00220    9.03120    2.70880   -0.00350 3533.30880 3552.26220    0.03750   52.87170   92.50020    8.14740    9.73170 3601.31370   66.03490   14.15890   43.75520   46.88460   -9999.25
 7758.00000   99.33780    0.11760    3.12510    0.00600    9.02420    2.70330   -0.00580 3591.62230 3566.35520    0.03940   53.13760   93.07570    8.13670    9.72160 3675.43900   77.53410   12.67740   32.13880   45.01700   -9999.25
 7758.50000  105.69440    0.12130    3.19380    0.00250    9.02090    2.71130   -0.00660 3608.11600 3565.83110    0.03800   52.97620   92.35110    8.12040    9.71490 3673.18990   84.19820   16.77300   38.19710   44.36030   -9999.25
 7759.00000  101.82330    0.11480    3.23360   -0.00650    9.01160    2.72330   -0.00740 3586.24240 3556.38990    0.03750   52.89800   91.93380    8.10410    9.70810 3674.70460   88.02070   24.86900   51.88360   92.55390   -9999.25
 7759.50000  106.01490    0.10030    3.34240   -0.00890    8.99970    2.72130   -0.00820 3565.89530 3547.26150    0.03360   52.45890   88.94450    8.08690    9.69450 3655.13820   89.82090   38.28510   50.66920   96.61180   -9999.25
 7760.00000  112.90820    0.07850    3.45130   -0.00340    8.98780    2.71550   -0.00800 3547.43460 3541.83110    0.03050   51.69460   91.14210    8.07490    9.69530 3575.78690   93.55200   58.25900   50.00690  111.43710   -9999.25
 7760.50000  124.47130    0.05370    3.63700    0.00280    8.97830    2.70470   -0.00750 3524.11280 3533.34770    0.02020   50.13280   91.40080    8.06580    9.71450 3598.34840   98.48240   85.31590   52.84820  136.46770   -9999.25
 7761.00000  130.69250    0.03810    3.86180    0.00500    8.97490    2.69670   -0.00690 3497.81320 3524.86450    0.01590   49.90340   91.67380    8.07270    9.72160 3613.82230  104.25800   53.83070   75.34080  246.05380   -9999.25
 7761.50000  130.89250    0.02930    4.01900    0.01210    8.97150    2.69280   -0.00660 3483.17430 3524.28170    0.01590   49.88260   91.96630    8.06230    9.72100 3619.95000  110.66840   52.88290   94.68470  287.75970   -9999.25
 7762.00000  120.91500    0.02290    4.32620    0.02020    8.96810    2.69270   -0.00420 3579.87500 3545.33670    0.01590   49.85590   92.54500    8.05920    9.71860 3666.72290  110.36090   92.68940   99.77690  302.71220   -9999.25
 7762.50000  110.76020    0.02380    4.61370    0.02100    8.96460    2.69120    0.00380 3622.71530 3564.35520    0.01600   49.78680   93.57080    8.06860    9.74060 3689.58350  106.91730   64.12540   77.03650  306.92340   -9999.25
 7763.00000   97.19970    0.02490    4.64610    0.01580    9.00040    2.68970    0.01540 3500.99270 3583.37380    0.01600   49.85160   94.13580    8.04430    9.76530 3695.47440   94.58430   43.85610   51.91770  149.63390   -9999.25
 7763.50000   81.83490    0.02910    4.62560    0.01190    9.02310    2.68730    0.02500 3553.55100 3598.83010    0.01720   49.98240   94.49830    8.04090    9.79000 3712.11650   80.22030   31.04770   43.95720  138.68520   -9999.25
 7764.00000   76.90570    0.03720    4.50180    0.01280    8.96650    2.68490    0.01940 3609.43850 3570.78200    0.02240   50.23820   98.60270    8.03750    9.79290 3576.66020   72.15250   21.98010   31.55220  101.16490   -9999.25
 7764.50000   76.69110    0.04800    4.28850    0.01530    8.91190    2.68250    0.01110 3608.33620 3581.55910    0.04450   53.90030  100.00430    8.03410    9.63410 3612.72750   69.93790   16.01590   18.81250   54.83150   -9999.25
 7765.00000   75.13360    0.05680    4.15080    0.01830    8.89040    2.68070    0.00630 3720.20170 3609.86060    0.05780   55.85550  103.47890    8.05410    9.61760 3658.61690   73.57240   13.03900   14.14750   41.02320   -9999.25
 7765.50000   68.69510    0.06380    3.99670    0.01720    8.87910    2.68610    0.00300 3612.83640 3604.72410    0.05950   56.04440  103.98530    8.06250    9.62640 3710.31320   63.06740   10.73990    9.70580   27.22890   -9999.25
 7766.00000   59.95590    0.07420    3.78960    0.01300    8.89450    2.69240    0.00330 3597.90280 3598.08330    0.05990   56.14020  104.48750    8.11210    9.64230 3695.14650   51.25410    8.93370    9.93800   26.40230   -9999.25
 7766.50000   56.41640    0.08970    3.61840    0.00890    8.90870    2.69700    0.00370 3574.76100 3583.88400    0.06090   56.18880  106.00440    8.10000    9.65990 3678.03960   43.77070    9.89380   10.27930   25.56590   -9999.25
 7767.00000   55.00500    0.10790    3.28300    0.00680    8.93120    2.69650    0.00290 3539.80590 3562.86250    0.06080   56.19290  107.16490    8.11650    9.68580 3619.46440   43.55960   10.64220   10.63240   23.99120   -9999.25
 7767.50000   54.83830    0.12430    3.09450    0.00810    8.95370    2.69000    0.00170 3593.40480 3541.84130    0.06140   56.24490  107.39520    8.12460    9.68050 3597.22310   45.19400    7.70960   10.74060   19.86340   -9999.25
 7768.00000   61.15400    0.13340    3.16190    0.02070    8.95080    2.65110   -0.00030 3530.47220 3527.62010    0.06390   56.62210  108.50950    8.13260    9.68770 3601.91060   44.18890    5.50750    7.03120   13.88410   -9999.25
 7768.50000   67.72890    0.14200    3.26090    0.04160    8.93780    2.63150   -0.00230 3510.80620 3541.73190    0.06140   56.34320  109.23150    8.13430    9.69900 3599.34300   45.30400    2.13160    6.18060   12.28760   -9999.25
