~Version ---------------------------------------------------
VERS.   2.0 : CWLS log ASCII Standard -VERSION 2.0
WRAP.    NO : One line per depth step
DLM . SPACE : Column Data Section Delimiter
~Well ------------------------------------------------------
STRT .F                  139.0 : START DEPTH
STOP .F                 8710.0 : STOP DEPTH
STEP .F                    0.5 : STEP
NULL .                -9999.25 : NULL VALUE
COMP .                         : COMPANY
WELL .                         : WELL
FLD  .                         : FIELD
LOC  .                         : LOCATION
PROV .                         : PROVINCE
CNTY .                         : COUNTY
STAT .                         : STATE
CTRY .                         : COUNTRY
SRVC .                         : SERVICE COMPANY
DATE .                         : DATE
UWI  .                         : UNIQUE WELL ID
API  .                         : API NUMBER
SLAT .WGS84    2.6384200224634 : SURFACE LATITUDE
SLON .WGS84 7.3704452632600095 : SURFACE LONGITUDE
DATUM.F                    nan : DEPTH DATUM ELEV
~Curve Information -----------------------------------------
DEPT   .F     : 
GRD    .GAPI  : GAMMA RAY FROM DENSITY LOG
TNPH_LS.DEC   : THERMAL NEUTRON POROSITY [LIMESTONE]
PEFZ   .B/E   : HRDD STANDARD RESOLUTION FORMATION PHOTOELECTRIC FACTOR
DPHZ_LS.DEC   : HGRD STANDARD RESOLUTION DENSITY POROSITY
CALD   .IN    : CALIPER FROM DENSITY LOG
RHOZ   .G/C3  : HRDD STANDARD RESOLUTION FORMATION DENSITY
HDRA   .G/C3  : HRDD SPINE AND RIBS DENSITY CORRECTION
TEND   .LB    : TENSION FROM DENSITY LOG
TENR   .LB    : TENSION FROM RESISTIVITY LOG
SPHI   .DEC   : SONIC POROSITY
DTCO   .US/F  : DELTA-T COMPRESSIONAL
DTSM   .US/F  : DELTA-T SHEAR
HD1    .IN    : HOLE DIAMETER
HD2    .IN    : HOLE DIAMETER
TENS   .LB    : TENSION FROM SONIC LOG
GR_EDTC.GAPI  : GAMMA RAY
RXOZ   .OHMM  : INVADED FORMATION RESISTIVITY FILTERED AT 18 INCHES
RLA3   .OHMM  : APPARENT RESISTIVITY FROM COMPUTED FOCUSING MODE 3
RLA5   .OHMM  : APPARENT RESISTIVITY FROM COMPUTED FOCUSING MODE 5
RXOZ_R .OHMM  : INVADED ZONE RESISTIVITY
~Params ----------------------------------------------------
~Other -----------------------------------------------------
~ASCII -----------------------------------------------------
# ...
 5004.00000   20.47200    0.16710    3.13670    0.01070    8.96450    2.69070   -0.00440 2726.08060 2727.85080    0.04980   54.46850  100.48300    8.15430    9.74200 2837.93460   12.65330    9.26890   21.62870   27.48080   -9999.25
 5004.50000   21.24090    0.17690    3.11480    0.01370    8.96610    2.68050   -0.00490 2711.79100 2734.49760    0.05850   55.88760  100.93630    8.14670    9.76770 2801.32520   12.69370   11.99580   17.99000   24.83300   -9999.25
 5005.00000   21.94610    0.17500    3.02750    0.02540    8.96540    2.65870    0.00120 2697.80910 2744.49340    0.06490   56.74190  101.76020    8.11890    9.77080 2823.71390   12.30290   13.90050   26.50710   31.26300   -9999.25
 5005.50000   21.97100    0.16760    2.93210    0.04070    8.96450    2.60080    0.00650 2684.61430 2767.75020    0.09550   61.04950  104.38150    8.15060    9.77400 2808.02200   11.54670   13.39770   16.85070   35.89470   -9999.25
 5006.00000   22.17400    0.18140    2.80090    0.08070    8.96560    2.57400    0.00800 2671.41940 2747.19070    0.11320   63.30810  106.73310    8.21820    9.75450 2810.22750   12.30810    2.16290    9.32110   11.88580   -9999.25
 5006.50000   24.78070    0.21140    2.75580    0.10220    8.96110    2.52710    0.00960 2694.04660 2733.94290    0.11650   64.04700  108.46230    8.13990    9.69870 2834.07350   13.38870    1.62690   12.68540   14.89460   -9999.25
 5007.00000   26.91680    0.22600    2.74760    0.11350    8.93180    2.54540    0.00630 2725.58590 2725.01050    0.12010   64.38180  109.48460    8.14180    9.67940 2771.47220   15.07860    1.93990   11.75880   18.15640   -9999.25
 5007.50000   26.38490    0.22190    2.80350    0.09360    8.93060    2.57640    0.00250 2740.88430 2739.78100    0.10420   62.28690  109.65330    8.14990    9.70160 2714.85330   16.01230    2.55770    6.41250    8.29910   -9999.25
 5008.00000   23.19200    0.20220    2.87380    0.06650    8.93040    2.61510   -0.00130 2747.41530 2735.80590    0.09110   60.51380  108.48150    8.17410    9.71860 2814.55760   15.14720    3.99380    6.41250    8.29910   -9999.25
 5008.50000   20.38130    0.18160    2.93420    0.04320    8.92950    2.64710   -0.00430 2755.45650 2728.95360    0.07450   58.06290  106.22590    8.12630    9.72550 2868.85250   13.40830    6.88270   15.81360   22.23460   -9999.25
 5009.00000   18.94190    0.14980    3.05120    0.03550    8.92860    2.65590   -0.00660 2772.09500 2729.56180    0.06860   57.16710  104.71620    8.11420    9.73230 2859.23170   12.09140    9.01630   25.76500   37.93410   -9999.25
 5009.50000   19.88660    0.13810    3.14060    0.03080    8.92980    2.65970   -0.00890 2788.73340 2762.98140    0.06420   56.65660  103.13720    8.13410    9.73690 2889.20700   13.84750    6.05580   14.14590   19.01210   -9999.25
 5010.00000   20.61410    0.13720    3.20880    0.02820    8.93660    2.66580   -0.00750 2741.32350 2753.06840    0.06820   57.20500  103.78920    8.14510    9.72320 2934.69970   16.75500    5.65570   10.94030   15.10180   -9999.25
 5010.50000   21.45050    0.13750    3.23270    0.02370    8.94350    2.66970   -0.00520 2724.21000 2743.47360    0.07520   58.12720  104.55160    8.15600    9.71750 2859.61430   19.58450    5.22000   13.64680   20.09230   -9999.25
 5011.00000   21.84220    0.14460    3.20470    0.02600    8.94860    2.66680   -0.00310 2719.93700 2758.60690    0.08500   59.62210  105.28190    8.16690    9.73770 2735.78930   19.82130    5.59780    9.44130   14.15890   -9999.25
 5011.50000   24.70330    0.15690    3.11960    0.02780    8.93750    2.66160   -0.00110 2756.57980 2751.77470    0.08760   59.78870  105.67180    8.17370    9.75770 2856.99730   20.59940    5.58510    9.08480   15.04530   -9999.25
 5012.00000   27.70010    0.16140    3.07910    0.03270    8.92400    2.65070   -0.00070 2762.41240 2725.78740    0.08940   60.19160  106.16450    8.16840    9.74330 2892.82760   19.86070    4.95480    9.05500   16.54150   -9999.25
 5012.50000   29.49450    0.16510    3.03680    0.04050    8.91320    2.63930   -0.00040 2661.92360 2751.95290    0.08260   59.26370  105.43500    8.14220    9.72900 2845.27510   21.41650    5.09370    9.01630   16.56540   -9999.25
 5013.00000   29.44100    0.16670    2.97410    0.04590    8.89780    2.63380   -0.00030 2900.86350 2775.22610    0.07930   59.03110  104.48860    8.13330    9.71250 2861.79740   21.61480    4.15940    9.98530   15.50160   -9999.25
 5013.50000   26.59550    0.17970    2.92030    0.04500    8.84960    2.63930   -0.00130 2803.66820 2772.56930    0.06670   56.79450  102.79150    8.12210    9.69120 2851.98880   21.46760    4.99150   11.94070   19.63500   -9999.25
 5014.00000   24.12210    0.17180    2.98180    0.04000    8.86450    2.64990   -0.00230 2788.86380 2762.34060    0.05960   56.07960  101.68840    8.13930    9.69290 2847.48240   17.98820    5.79470   14.75810   29.85590   -9999.25
 5014.50000   20.27980    0.15270    3.05680    0.03380    8.89360    2.65980   -0.00330 2795.56520 2749.66700    0.05890   55.93640  100.99120    8.14560    9.67710 2875.85990   14.72500    7.36260   16.48340   29.04220   -9999.25
 5015.00000   17.37280    0.13120    3.15030    0.02750    8.92270    2.67570   -0.00440 2801.08960 2745.46680    0.04960   54.65860  100.67060    8.15180    9.65240 2849.81010   12.77540    5.65120   13.33020   23.28250   -9999.25
 5015.50000   17.02120    0.12250    3.23790    0.01040    8.95180    2.70750   -0.00420 2818.08060 2755.22630    0.05180   54.75340  100.69340    8.09660    9.64460 2763.04490   13.35400    4.73180   10.56650   18.15640   -9999.25
 5016.00000   18.08070    0.12240    3.29060   -0.00590    8.94850    2.72160   -0.00320 2834.35130 2757.77610    0.06860   57.28660  101.19140    8.11000    9.64160 2786.81420   13.56950    5.58880    9.70210   16.71570   -9999.25
 5016.50000   19.30690    0.13030    3.32080   -0.00940    8.88100    2.71790   -0.00220 2805.23140 2752.68240    0.07020   57.49630  101.54750    8.09560    9.63860 2836.43410   13.70130    8.69020    9.44490   15.36220   -9999.25
 5017.00000   19.99160    0.13970    3.28510    0.00530    8.87450    2.68740   -0.00130 2770.98020 2747.58860    0.07030   57.69780  101.34620    8.08370    9.65050 2804.91820   13.75100    6.53180    8.96670   14.21920   -9999.25
 5017.50000   21.00810    0.15640    3.20660    0.02770    8.90360    2.64730   -0.00190 2754.19630 2740.71090    0.06920   57.39340  101.33590    8.07870    9.66230 2755.54080   14.22100    5.15260    8.02840   13.86530   -9999.25
 5018.00000   21.69260    0.17180    3.15970    0.04390    8.93010    2.64020   -0.00360 2749.17160 2729.98930    0.06820   57.22110  101.09230    8.08620    9.68630 2740.89580   14.10630    4.33070    7.43070   13.00870   -9999.25
 5018.50000   22.36630    0.16220    3.12370    0.04220    8.94970    2.64490   -0.00490 2744.05080 2719.07200    0.06790   57.19960  100.93000    8.09360    9.66600 2790.37110   13.85500    5.85700    9.39000   14.82560   -9999.25
 5019.00000   23.30890    0.15810    3.12190    0.03280    8.94550    2.66750   -0.00370 2733.95510 2716.64720    0.06660   57.01800  100.76770    8.08190    9.66800 2777.71920   13.08270    5.03460   11.04150   18.36430   -9999.25
 5019.50000   23.07720    0.15390    3.11350    0.01970    8.91210    2.69650   -0.00110 2723.85940 2721.70750    0.06510   56.81580  100.37820    8.12130    9.68310 2766.04710   12.23370    5.65210   10.52850   16.71210   -9999.25
 5020.00000   23.96250    0.14970    3.16600    0.00330    8.89940    2.72560    0.00150 2729.98800 2718.65090    0.06180   56.32510  100.08230    8.11120    9.69820 2792.98220   12.05050    5.50260   11.77360   18.18430   -9999.25
 5020.50000   22.93100    0.14610    3.28440   -0.01980    8.88100    2.75240    0.00340 2720.82030 2715.59420    0.05850   55.85310   98.50260    8.09490    9.71210 2714.84250   12.02130    8.50580   11.83880   19.29880   -9999.25
 5021.00000   24.26820    0.13640    3.44570   -0.03060    8.88660    2.76000   -0.00020 2714.32570 2712.54790    0.05590   55.52510   98.34070    8.11570    9.69670 2719.82590   12.77620   10.64220   14.16260   22.03080   -9999.25
