~Version ---------------------------------------------------
VERS.   2.0 : CWLS log ASCII Standard -VERSION 2.0
WRAP.    NO : One line per depth step
DLM . SPACE : Column Data Section Delimiter
~Well ------------------------------------------------------
STRT .F                  139.0 : START DEPTH
STOP .F                 8710.0 : STOP DEPTH
STEP .F                    0.5 : STEP
NULL .                -9999.25 : NULL VALUE
COMP .                         : COMPANY
WELL .                         : WELL
FLD  .                         : FIELD
LOC  .                         : LOCATION
PROV .                         : PROVINCE
CNTY .                         : COUNTY
STAT .                         : STATE
CTRY .                         : COUNTRY
SRVC .                         : SERVICE COMPANY
DATE .                         : DATE
UWI  .                         : UNIQUE WELL ID
API  .                         : API NUMBER
SLAT .WGS84    2.6384200224634 : SURFACE LATITUDE
SLON .WGS84 7.3704452632600095 : SURFACE LONGITUDE
DATUM.F                    nan : DEPTH DATUM ELEV
~Curve Information -----------------------------------------
DEPT   .F     : 
GRD    .GAPI  : GAMMA RAY FROM DENSITY LOG
TNPH_LS.DEC   : THERMAL NEUTRON POROSITY [LIMESTONE]
PEFZ   .B/E   : HRDD STANDARD RESOLUTION FORMATION PHOTOELECTRIC FACTOR
DPHZ_LS.DEC   : HGRD STANDARD RESOLUTION DENSITY POROSITY
CALD   .IN    : CALIPER FROM DENSITY LOG
RHOZ   .G/C3  : HRDD STANDARD RESOLUTION FORMATION DENSITY
HDRA   .G/C3  : HRDD SPINE AND RIBS DENSITY CORRECTION
TEND   .LB    : TENSION FROM DENSITY LOG
TENR   .LB    : TENSION FROM RESISTIVITY LOG
SPHI   .DEC   : SONIC POROSITY
DTCO   .US/F  : DELTA-T COMPRESSIONAL
DTSM   .US/F  : DELTA-T SHEAR
HD1    .IN    : HOLE DIAMETER
HD2    .IN    : HOLE DIAMETER
TENS   .LB    : TENSION FROM SONIC LOG
GR_EDTC.GAPI  : GAMMA RAY
RXOZ   .OHMM  : INVADED FORMATION RESISTIVITY FILTERED AT 18 INCHES
RLA3   .OHMM  : APPARENT RESISTIVITY FROM COMPUTED FOCUSING MODE 3
RLA5   .OHMM  : APPARENT RESISTIVITY FROM COMPUTED FOCUSING MODE 5
RXOZ_R .OHMM  : INVADED ZONE RESISTIVITY
~Params ----------------------------------------------------
~Other -----------------------------------------------------
~ASCII -----------------------------------------------------
# ...
 2694.00000   57.05680    0.12890   -9999.25   -9999.25   16.32310    1.75030    0.07720 2133.22440 2121.36840   -9999.25   -9999.25   -9999.25   -9999.25   -9999.25   -9999.25   -9999.25    0.20250   96.16990 4993.69730   -9999.25
 2694.50000   54.60840    0.09350   -9999.25   -9999.25   10.27340    1.71460    0.07400 2154.07400 2123.70650   -9999.25   -9999.25   -9999.25   -9999.25   -9999.25   -9999.25   -9999.25    0.20300   37.45370   93.54700   -9999.25
 2695.00000   54.36870    0.07240   -9999.25   -9999.25   12.16960    1.67880    0.07080 2161.47070 2126.04440   -9999.25   -9999.25   -9999.25   -9999.25   -9999.25   -9999.25   -9999.25    0.20330   14.55560   25.06280   -9999.25
 2695.50000   56.31960    0.06250   -9999.25   -9999.25   15.92290    1.70470    0.07770 2152.69460 2128.38260   -9999.25   -9999.25   -9999.25   -9999.25   -9999.25   -9999.25   -9999.25    0.20370   18.32440   74.17710   -9999.25
 2696.00000   54.64510    0.07180   -9999.25   -9999.25   16.04210    1.76660    0.08850 2134.11870 2119.72750   -9999.25   -9999.25   -9999.25   -9999.25   -9999.25   -9999.25   -9999.25    0.20410   14.82620  141.60220   -9999.25
 2696.50000   54.21760    0.07220   -9999.25   -9999.25   16.61240    1.82860    0.07690 2095.71020 2108.13380   -9999.25   -9999.25   -9999.25   -9999.25   -9999.25   -9999.25   -9999.25    0.20450   18.85410  192.37560   -9999.25
 2697.00000   55.52640    0.06740   -9999.25   -9999.25   16.06370    1.89050    0.07110 2030.00490 2099.21090   -9999.25   -9999.25   -9999.25   -9999.25   -9999.25   -9999.25   -9999.25    0.28660   30.13210  449.02450   -9999.25
 2697.50000   55.29170    0.06270   -9999.25   -9999.25   15.40780    1.95240    0.07070 2040.49000 2110.94020   -9999.25   -9999.25   -9999.25   -9999.25   -9999.25   -9999.25   -9999.25    0.38210   30.13210  717.18300   -9999.25
 2698.00000   55.21740    0.05900   -9999.25   -9999.25   15.94330    1.97040    0.07750 2268.36180 2171.55880   -9999.25   -9999.25   -9999.25   -9999.25   -9999.25   -9999.25   -9999.25    0.46450   29.58220 1377.30460   -9999.25
 2698.50000   55.52230    0.06230   -9999.25   -9999.25   17.86000    1.97580    0.09140 2160.61690 2149.72390   -9999.25   -9999.25   -9999.25   -9999.25   -9999.25   -9999.25   -9999.25    0.43810   35.89470 2080.70260   -9999.25
 2699.00000   57.94270    0.06810   -9999.25   -9999.25   18.01390    1.89760    0.08760 2105.44460 2131.61280   -9999.25   -9999.25   -9999.25   -9999.25   -9999.25   -9999.25   -9999.25    0.69670   36.14700 6510.13530   -9999.25
 2699.50000   57.34340    0.07010   -9999.25   -9999.25   18.31770    1.78170    0.06980 2129.57890 2126.87700   -9999.25   -9999.25   -9999.25   -9999.25   -9999.25   -9999.25   -9999.25    0.20090   30.44200 93678.51560   -9999.25
 2700.00000   53.40240    0.07760   -9999.25   -9999.25   15.86960    1.67790    0.06180 2156.41210 2146.77560   -9999.25   -9999.25   -9999.25   -9999.25   -9999.25   -9999.25   -9999.25    0.20120   30.66930 99776.89840   -9999.25
 2700.50000   47.28300    0.08330   -9999.25   -9999.25   16.11790    1.67260    0.06570 2171.05000 2160.16430   -9999.25   -9999.25   -9999.25   -9999.25   -9999.25   -9999.25   -9999.25    0.20110   36.20200 98950.63280   -9999.25
 2701.00000   41.14540    0.07050   -9999.25   -9999.25   16.36620    1.69210    0.09260 2178.40160 2168.43580   -9999.25   -9999.25   -9999.25   -9999.25   -9999.25   -9999.25   -9999.25    0.20130   42.42340 102491.76560   -9999.25
 2701.50000   36.57160    0.06650   -9999.25   -9999.25   12.12130    1.76310    0.11070 2189.15990 2156.57620   -9999.25   -9999.25   -9999.25   -9999.25   -9999.25   -9999.25   -9999.25    0.20170   42.39090 1113.22670   -9999.25
 2702.00000   38.80580    0.06600   -9999.25   -9999.25   15.38510    1.83420    0.11980 2202.40380 2144.71630   -9999.25   -9999.25   -9999.25   -9999.25   -9999.25   -9999.25   -9999.25    0.20190   30.68910 1713.52320   -9999.25
 2702.50000   40.99660    0.08530   -9999.25   -9999.25   16.00110    1.86820    0.11880 2202.63790 2132.85670   -9999.25   -9999.25   -9999.25   -9999.25   -9999.25   -9999.25   -9999.25    0.20220   36.43900 3396.48730   -9999.25
 2703.00000   39.30000    0.11260   -9999.25   -9999.25   13.92380    1.87350    0.11510 2173.18310 2120.99680   -9999.25   -9999.25   -9999.25   -9999.25   -9999.25   -9999.25   -9999.25    0.20230   18.50260 1458.78060   -9999.25
 2703.50000   41.32040    0.13100   -9999.25   -9999.25   14.81760    1.87430    0.10870 2117.02910 2117.28960   -9999.25   -9999.25   -9999.25   -9999.25   -9999.25   -9999.25   -9999.25    0.20260   29.67380 1054.45970   -9999.25
 2704.00000   45.57600    0.14380   -9999.25   -9999.25   15.71150    1.87590    0.09770 2019.43880 2132.57810   -9999.25   -9999.25   -9999.25   -9999.25   -9999.25   -9999.25   -9999.25    0.20280   39.17870 1610.75680   -9999.25
 2704.50000   50.02250    0.15330   -9999.25   -9999.25   16.00080    1.89860    0.08490 2181.56150 2147.86670   -9999.25   -9999.25   -9999.25   -9999.25   -9999.25   -9999.25   -9999.25    0.24890   24.60990  563.67660   -9999.25
 2705.00000   56.08770    0.15160   -9999.25   -9999.25   -9999.25    1.95140    0.07400 2226.66750 2156.43020   -9999.25   -9999.25   -9999.25   -9999.25   -9999.25   -9999.25   -9999.25    0.34340   20.30030 1009.38900   -9999.25
 2705.50000   62.47180    0.15440   -9999.25   -9999.25   -9999.25    2.00600    0.06320 2156.45800 2154.41600   -9999.25   -9999.25   -9999.25   -9999.25   -9999.25   -9999.25   -9999.25    0.54790   21.21190 1809.33920   -9999.25
 2706.00000   63.64080    0.18190   -9999.25   -9999.25   18.38120    2.01840    0.04200 2153.13430 2152.40190   -9999.25   -9999.25   -9999.25   -9999.25   -9999.25   -9999.25   -9999.25    1.89960   24.46550 2459.32910   -9999.25
 2706.50000   62.20430    0.22940   -9999.25   -9999.25   18.49650    2.02330    0.02410 2166.34060 2152.83840   -9999.25   -9999.25   -9999.25   -9999.25   -9999.25   -9999.25   -9999.25   21.61470   33.13030 3532.40090   -9999.25
 2707.00000   54.06700    0.26640   -9999.25   -9999.25   18.69040    2.01930    0.00970 2048.71440 2155.69240   -9999.25   -9999.25   -9999.25   -9999.25   -9999.25   -9999.25   -9999.25   37.01600   40.98250 5741.56100   -9999.25
 2707.50000   45.06110    0.29630    4.53260   -9999.25   19.14370    2.01200    0.00920 2085.23240 2158.54640   -9999.25   -9999.25   -9999.25   -9999.25   -9999.25   -9999.25   -9999.25   47.75620   43.55420 34157.02340   -9999.25
 2708.00000   38.99380    0.32620    4.35060   -9999.25   19.61320    1.94320    0.01250 2136.67970 2142.16870   -9999.25   -9999.25   -9999.25   -9999.25   -9999.25   -9999.25   -9999.25   36.56200   41.42700 96139.82810   -9999.25
 2708.50000   36.57950    0.35280    4.10650   -9999.25   20.31280    1.87440    0.01580 2128.73680 2125.45900   -9999.25   -9999.25   -9999.25   -9999.25   -9999.25   -9999.25   -9999.25    1.42900   33.11420 98762.78910   -9999.25
 2709.00000   33.97420    0.34000    3.82460   -9999.25   20.50640    1.73760    0.00250 2127.55490 2111.44870   -9999.25   -9999.25   -9999.25   -9999.25   -9999.25   -9999.25   -9999.25    0.20090   24.87520 101631.89060   -9999.25
 2709.50000   31.50540    0.29630    3.65930   -9999.25   19.25090    1.72250   -0.00850 2130.22900 2098.59720   -9999.25   -9999.25   -9999.25   -9999.25   -9999.25   -9999.25   -9999.25    0.19950   18.68610 100623.81250   -9999.25
 2710.00000   29.03660    0.15680    3.73800   -9999.25   16.89170    2.14880   -0.00980 2132.90280 2095.29320   -9999.25   -9999.25   -9999.25   -9999.25   -9999.25   -9999.25   -9999.25    0.20150   16.90090 99558.00000   -9999.25
 2710.50000   25.99680    0.05000    4.46140    0.14910   14.30520    2.46180    0.00160 2135.80790 2098.78320   -9999.25   -9999.25   -9999.25   -9999.25   -9999.25   -9999.25   -9999.25    0.19790   16.37750 9354.70310   -9999.25
 2711.00000   21.44720    0.01370    4.81760    0.02780    9.81050    2.66800    0.02600 2140.34470 2102.27320   -9999.25   -9999.25   -9999.25   -9999.25   -9999.25   -9999.25   -9999.25    1.51220   19.87520  439.57200   -9999.25
