~Version ---------------------------------------------------
VERS.   2.0 : CWLS log ASCII Standard -VERSION 2.0
WRAP.    NO : One line per depth step
DLM . SPACE : Column Data Section Delimiter
~Well ------------------------------------------------------
STRT .F                  139.0 : START DEPTH
STOP .F                 8710.0 : STOP DEPTH
STEP .F                    0.5 : STEP
NULL .                -9999.25 : NULL VALUE
COMP .                         : COMPANY
WELL .                         : WELL
FLD  .                         : FIELD
LOC  .                         : LOCATION
PROV .                         : PROVINCE
CNTY .                         : COUNTY
STAT .                         : STATE
CTRY .                         : COUNTRY
SRVC .                         : SERVICE COMPANY
DATE .                         : DATE
UWI  .                         : UNIQUE WELL ID
API  .                         : API NUMBER
SLAT .WGS84    2.6384200224634 : SURFACE LATITUDE
SLON .WGS84 7.3704452632600095 : SURFACE LONGITUDE
DATUM.F                    nan : DEPTH DATUM ELEV
~Curve Information -----------------------------------------
DEPT   .F     : 
GRD    .GAPI  : GAMMA RAY FROM DENSITY LOG
TNPH_LS.DEC   : THERMAL NEUTRON POROSITY [LIMESTONE]
PEFZ   .B/E   : HRDD STANDARD RESOLUTION FORMATION PHOTOELECTRIC FACTOR
DPHZ_LS.DEC   : HGRD STANDARD RESOLUTION DENSITY POROSITY
CALD   .IN    : CALIPER FROM DENSITY LOG
RHOZ   .G/C3  : HRDD STANDARD RESOLUTION FORMATION DENSITY
HDRA   .G/C3  : HRDD SPINE AND RIBS DENSITY CORRECTION
TEND   .LB    : TENSION FROM DENSITY LOG
TENR   .LB    : TENSION FROM RESISTIVITY LOG
SPHI   .DEC   : SONIC POROSITY
DTCO   .US/F  : DELTA-T COMPRESSIONAL
DTSM   .US/F  : DELTA-T SHEAR
HD1    .IN    : HOLE DIAMETER
HD2    .IN    : HOLE DIAMETER
TENS   .LB    : TENSION FROM SONIC LOG
GR_EDTC.GAPI  : GAMMA RAY
RXOZ   .OHMM  : INVADED FORMATION RESISTIVITY FILTERED AT 18 INCHES
RLA3   .OHMM  : APPARENT RESISTIVITY FROM COMPUTED FOCUSING MODE 3
RLA5   .OHMM  : APPARENT RESISTIVITY FROM COMPUTED FOCUSING MODE 5
RXOZ_R .OHMM  : INVADED ZONE RESISTIVITY
~Params ----------------------------------------------------
~Other -----------------------------------------------------
~ASCII -----------------------------------------------------
# ...
 5914.00000   57.30190    0.14520    3.04150    0.01710    9.01400    2.68560   -0.00170 2948.93480 2978.23050    0.04930   54.54600   99.16460    8.23900    9.71970 3090.27980   47.36480    5.23640    6.06780    7.36260   -9999.25
 5914.50000   66.37390    0.15050    3.07110    0.01200    9.01760    2.69950   -0.00120 2926.21750 2976.70340    0.04420   53.87200   97.74400    8.23820    9.71730 3166.63990   49.52790    5.42790    9.03710   11.35090   -9999.25
 5915.00000   75.65600    0.13840    3.08470   -0.00170    9.02130    2.72230   -0.00070 2903.50000 2975.17650    0.03810   52.98580   97.08830    8.25010    9.73720 3122.36250   56.36480    7.22490    9.88620   12.44600   -9999.25
 5915.50000   81.79620    0.11490    3.10040   -0.01750    9.02500    2.73870   -0.00020 2908.76390 2973.64940    0.04180   53.49210   96.49030    8.22420    9.75520 3123.14110   67.71840   12.43490   16.82240   22.03080   -9999.25
 5916.00000   77.20010    0.10490    3.10170   -0.02420    9.02870    2.74670    0.00030 3048.82230 2972.12260    0.04320   53.75230   97.38140    8.22990    9.75600 3109.76900   68.35530   14.47890   21.82880   26.00340   -9999.25
 5916.50000   66.39180    0.10840    3.07310   -0.01670    9.03240    2.72830    0.00080 3002.48510 2970.59550    0.04700   54.04940   99.17940    8.23700    9.75670 3124.04740   61.92310   10.63430   22.03080   18.02680   -9999.25
 5917.00000   53.32140    0.13270    3.05650   -0.00120    9.03610    2.69880    0.00130 2966.21610 2969.06860    0.05330   55.09430   99.61850    8.25090    9.75890 3154.40820   48.11340    4.77560    6.59220    8.98870   -9999.25
 5917.50000   41.48460    0.14860    3.06100    0.01560    9.03970    2.67140    0.00170 2963.62500 2970.89530    0.06420   56.62910   99.53330    8.26470    9.77970 3072.86080   35.17530    4.15940    5.37810    6.06780   -9999.25
 5918.00000   37.21440    0.17190    3.06550    0.03040    9.06610    2.65390    0.00210 2976.19480 2990.56640    0.06450   56.73990   98.77630    8.28810    9.79810 3094.83860   26.81910    2.86270    4.77560    6.12390   -9999.25
 5918.50000   35.49140    0.18570    3.06990    0.03830    9.08580    2.65550    0.00250 2988.76440 3010.23750    0.06060   56.15590   97.20530    8.28880    9.77410 3093.75440   24.68890    2.41560    2.68550    3.33450   -9999.25
 5919.00000   35.88410    0.18970    3.06060    0.02290    9.09130    2.70010    0.00290 3010.56930 3029.90840    0.04850   54.40000   95.19070    8.19110    9.71860 3083.06880   25.42720    2.64870    3.94030    3.30390   -9999.25
 5919.50000   32.70380    0.17450    3.05100   -0.00880    9.05270    2.73740    0.00340 3048.63400 3038.50440    0.04000   53.38380   93.69040    8.17760    9.71810 3091.55180   23.83190    4.19790   11.23390   15.81360   -9999.25
 5920.00000   28.28950    0.12280    3.04140   -0.03590    9.04210    2.76740    0.00400 2975.39360 3030.37840    0.02770   51.52440   91.51660    8.19720    9.71770 3062.34860   20.22080   16.86670   17.82500   25.41150   -9999.25
 5920.50000   25.05400    0.09660    3.03180   -0.04740    9.03270    2.78580    0.00450 2921.77860 3022.25240    0.01570   49.85600   89.94650    8.20370    9.71750 3108.80420   16.52810   20.09230   30.97630   41.02320   -9999.25
 5921.00000   25.03330    0.08460    3.02220   -0.04890    9.02330    2.78870    0.00190 2925.86820 3019.15770    0.01030   48.94620   89.07550    8.21020    9.72390 3200.99440   15.93540   16.25660   29.58220   41.21260   -9999.25
 5921.50000   24.57620    0.07660    3.04070   -0.04740    9.01390    2.78570   -0.00060 2935.87080 3022.21880    0.00900   48.89520   88.67750    8.20720    9.75520 3161.76070   17.36760   17.66160   30.43090   34.59630   -9999.25
 5922.00000   25.06740    0.07690    3.06820   -0.04460    9.01220    2.77760   -0.00320 2951.41460 3026.70970    0.01110   49.14100   88.89080    8.18340    9.73760 3114.67110   19.75330   17.18030   20.93510   29.31100   -9999.25
 5922.50000   23.01490    0.07860    3.10570   -0.03920    9.01380    2.77180   -0.00490 3024.45780 3031.20070    0.01240   49.33430   88.68950    8.18630    9.74460 3105.83110   19.84960   18.15640   21.13170   30.13210   -9999.25
 5923.00000   21.02280    0.08160    3.11540   -0.03730    9.01540    2.76510   -0.00510 3060.90820 3035.69140    0.01530   49.97460   88.36880    8.17430    9.75290 3149.81860   18.46580   14.07760   14.94620   19.87150   -9999.25
 5923.50000   17.23840    0.08460    3.14180   -0.02960    9.01700    2.75520   -0.00530 3059.46360 3037.17850    0.01580   49.84660   89.96570    8.17430    9.76160 3188.38530   15.57310   11.88580   12.79470   18.15640   -9999.25
 5924.00000   17.35280    0.08610    3.18600   -0.02560    9.01850    2.74700   -0.00550 3054.82670 3038.57200    0.01670   49.94390   90.85660    8.18910    9.75310 3184.82690   14.93860   11.04150   15.81360   20.07180   -9999.25
 5924.50000   18.13430    0.08720    3.25910   -0.02010    9.02010    2.73800   -0.00540 3050.18950 3038.77170    0.02040   50.45470   92.77760    8.21150    9.73200 3157.10670   15.01550   13.90050   17.86710   23.49790   -9999.25
 5925.00000   20.38560    0.09030    3.35650   -0.01430    9.02170    2.72370   -0.00470 3056.20210 3033.76810    0.03190   52.07000   94.29120    8.23390    9.76370 3143.24880   15.23530   13.90050   20.60000   23.49790   -9999.25
 5925.50000   22.85710    0.10820    3.45050    0.00130    9.05670    2.69230   -0.00400 3071.50170 3010.31760    0.04450   53.93740   96.58580    8.26560    9.79280 3108.49630   15.03080    8.12420   10.09450    8.53160   -9999.25
 5926.00000   28.91730    0.13350    3.46360    0.02060    9.08710    2.66650   -0.00330 3014.78470 2986.86720    0.04690   54.83270   99.83870    8.29100    9.80860 3076.31860   15.88630    3.24360    4.29960    3.72420   -9999.25
 5926.50000   40.81540    0.15860    3.46670    0.03220    9.09780    2.65750   -0.00250 2935.24800 2974.97830    0.08330   59.22130  103.42010    8.29360    9.80610 3134.33470   17.88410    3.09760    2.95820    3.30390   -9999.25
 5927.00000   59.04930    0.17150    3.37820    0.03140    9.10940    2.66110   -0.00180 2939.62060 3007.63700    0.09200   60.60700  106.44580    8.29480    9.77620 3090.09500   27.69180    3.77160    4.72940    4.73180   -9999.25
 5927.50000   85.08900    0.15300    3.22990    0.02850    9.06740    2.66430   -0.00110 2947.01560 3040.29570    0.09150   60.49090  107.23370    8.25100    9.74640 3090.84200   48.01940    6.73080    9.88620    9.12970   -9999.25
 5928.00000   94.41640    0.14770    3.12960    0.02920    9.02540    2.65940   -0.00040 2953.50710 3037.49050    0.08600   59.72780  106.82680    8.23120    9.71730 3109.56790   68.05740    8.93200   11.99580   13.52170   -9999.25
 5928.50000   90.91460    0.14990    3.09290    0.03440    9.01660    2.65190   -0.00080 2958.04640 3019.65770    0.08100   59.04050  105.87670    8.21130    9.72110 3128.88480   77.63780    6.34860    7.86010    9.18400   -9999.25
 5929.00000   79.65140    0.16220    3.11260    0.03850    9.02640    2.65260   -0.00180 2958.04710 3019.65770    0.07250   57.84540  104.21760    8.21280    9.77490 3144.73750   71.52620    5.15170    4.64870    4.93100   -9999.25
 5929.50000   78.47530    0.15810    3.15000    0.03680    9.03620    2.66950   -0.00290 2958.04790 3019.65770    0.06390   56.66690  101.83450    8.21180    9.75690 3158.23970   67.50370    4.30350    8.25420    7.84630   -9999.25
 5930.00000   78.57410    0.14570    3.18270    0.02180    9.04610    2.68640   -0.00370 2958.04880 3008.00710    0.05580   55.53640  100.51630    8.21300    9.76250 3095.37550   68.27750    6.44480    8.23800   10.83230   -9999.25
 5930.50000   78.53570    0.13570    3.21540    0.00600    9.05590    2.70330   -0.00240 2958.04960 2993.24190    0.05250   55.05130   98.84970    8.21410    9.78420 3148.87130   67.52500   10.07000   19.88980   24.60540   -9999.25
 5931.00000   76.04460    0.13450    3.23020    0.00170    9.06580    2.70710   -0.00100 2958.05030 2978.47680    0.05000   54.65280   97.99340    8.21550    9.80600 3095.09300   66.48420   17.02280   26.97930   35.23950   -9999.25
