~Version ---------------------------------------------------
VERS.   2.0 : CWLS log ASCII Standard -VERSION 2.0
WRAP.    NO : One line per depth step
DLM . SPACE : Column Data Section Delimiter
~Well ------------------------------------------------------
STRT .F                  139.0 : START DEPTH
STOP .F                 8710.0 : STOP DEPTH
STEP .F                    0.5 : STEP
NULL .                -9999.25 : NULL VALUE
COMP .                         : COMPANY
WELL .                         : WELL
FLD  .                         : FIELD
LOC  .                         : LOCATION
PROV .                         : PROVINCE
CNTY .                         : COUNTY
STAT .                         : STATE
CTRY .                         : COUNTRY
SRVC .                         : SERVICE COMPANY
DATE .                         : DATE
UWI  .                         : UNIQUE WELL ID
API  .                         : API NUMBER
SLAT .WGS84    2.6384200224634 : SURFACE LATITUDE
SLON .WGS84 7.3704452632600095 : SURFACE LONGITUDE
DATUM.F                    nan : DEPTH DATUM ELEV
~Curve Information -----------------------------------------
DEPT   .F     : 
GRD    .GAPI  : GAMMA RAY FROM DENSITY LOG
TNPH_LS.DEC   : THERMAL NEUTRON POROSITY [LIMESTONE]
PEFZ   .B/E   : HRDD STANDARD RESOLUTION FORMATION PHOTOELECTRIC FACTOR
DPHZ_LS.DEC   : HGRD STANDARD RESOLUTION DENSITY POROSITY
CALD   .IN    : CALIPER FROM DENSITY LOG
RHOZ   .G/C3  : HRDD STANDARD RESOLUTION FORMATION DENSITY
HDRA   .G/C3  : HRDD SPINE AND RIBS DENSITY CORRECTION
TEND   .LB    : TENSION FROM DENSITY LOG
TENR   .LB    : TENSION FROM RESISTIVITY LOG
SPHI   .DEC   : SONIC POROSITY
DTCO   .US/F  : DELTA-T COMPRESSIONAL
DTSM   .US/F  : DELTA-T SHEAR
HD1    .IN    : HOLE DIAMETER
HD2    .IN    : HOLE DIAMETER
TENS   .LB    : TENSION FROM SONIC LOG
GR_EDTC.GAPI  : GAMMA RAY
RXOZ   .OHMM  : INVADED FORMATION RESISTIVITY FILTERED AT 18 INCHES
RLA3   .OHMM  : APPARENT RESISTIVITY FROM COMPUTED FOCUSING MODE 3
RLA5   .OHMM  : APPARENT RESISTIVITY FROM COMPUTED FOCUSING MODE 5
RXOZ_R .OHMM  : INVADED ZONE RESISTIVITY
~Params ----------------------------------------------------
~Other -----------------------------------------------------
~ASCII -----------------------------------------------------
# ...
 6824.00000   52.19640    0.04770    3.22960   -0.04240    8.92870    2.76680   -0.00180 3272.73800 3289.08130    0.05110   54.91120   98.33940    8.13890    9.68020 3409.77860   42.46890   47.39580   68.20720   76.48260   -9999.25
 6824.50000   60.18490    0.05280    3.13470   -0.01610    8.93350    2.71480   -0.00240 3280.07400 3259.83030    0.08110   58.82230  105.14520    8.18950    9.73160 3334.92870   53.48420   54.70670   77.45150   76.17360   -9999.25
 6825.00000   80.46090    0.07000    3.01510    0.02250    8.93490    2.63590   -0.00330 3262.07470 3260.60420    0.09550   61.12690  111.45050    8.27220    9.80620 3386.31300   67.45040   12.67740   82.99080  106.41240   -9999.25
 6825.50000  101.88200    0.10170    2.88810    0.06200    8.96730    2.59130   -0.00420 3268.39110 3262.71730    0.14660   68.30290  117.82560    8.28150    9.81470 3378.67460   85.51030    9.16280   12.18140   10.54460   -9999.25
 6826.00000  116.18560    0.13520    2.78790    0.09090    9.03580    2.55560   -0.00450 3301.94360 3264.83060    0.16030   70.33580  120.23220    8.29070    9.82320 3294.49000   95.59450    5.48320    9.51610    9.09980   -9999.25
 6826.50000  116.02890    0.16690    2.72180    0.09580    9.09670    2.55670   -0.00460 3298.99320 3266.94380    0.17070   71.70480  121.56770    8.28460    9.82430 3452.85820   97.97700    4.68630    7.22820    6.60230   -9999.25
 6827.00000  108.42550    0.17460    2.72830    0.08690    9.09200    2.58240   -0.00460 3290.08110 3269.05690    0.16280   69.74910  118.93010    8.27430    9.75860 3395.05440   87.60440    4.04640    7.36260    5.96940   -9999.25
 6827.50000   94.51420    0.17770    2.79660    0.07020    9.07190    2.62420   -0.00470 3291.52080 3271.17020    0.12230   64.86260  115.80700    8.25490    9.72750 3383.96340   76.05340    3.44610    5.95700    5.20870   -9999.25
 6828.00000   80.02510    0.17300    2.93060    0.03400    9.03940    2.66320   -0.00600 3292.96070 3273.28340    0.11280   64.07010  111.88450    8.15720    9.69010 3436.46390   62.94780    3.94480    5.95700    5.04030   -9999.25
 6828.50000   68.04830    0.15090    3.05260    0.00810    9.00690    2.71880   -0.00740 3295.97710 3273.45700    0.08200   59.01380  106.71440    8.15320    9.68660 3456.90870   50.49360    6.06780   15.34720    5.04700   -9999.25
 6829.00000   56.26620    0.11140    3.14980   -0.01810    8.98180    2.75870   -0.00880 3309.93990 3273.32080    0.04940   54.80980  100.64040    8.15710    9.70080 3351.79960   44.39950   18.83780   50.00690   46.34790   -9999.25
 6829.50000   48.61660    0.07230    3.24840   -0.04250    8.95830    2.78910   -0.00670 3299.73830 3256.30050    0.03070   52.00490   95.49860    8.16930    9.69100 3446.73950   38.50600   66.85780  112.46830  111.54720   -9999.25
 6830.00000   40.78300    0.04610    3.37340   -0.06410    8.94430    2.81440   -0.00550 3294.92750 3265.39940    0.01880   50.30810   91.93610    8.17470    9.68090 3393.59470   32.89580   84.88560  218.28810  293.10960   -9999.25
 6830.50000   33.15850    0.03840    3.45480   -0.07960    8.93210    2.84170   -0.00470 3289.86130 3276.88060    0.00550   48.36720   88.66810    8.17400    9.68250 3317.91940   26.28100  103.95680  243.79790  330.39240   -9999.25
 6831.00000   28.01700    0.03070    3.50800   -0.08620    8.93210    2.85390   -0.00390 3265.36720 3279.24830    0.00400   48.18090   86.65630    8.15100    9.69160 3391.53610   21.72180  125.71240  274.38690  429.56610   -9999.25
 6831.50000   27.82020    0.02470    3.53610   -0.09120    8.93230    2.85830   -0.00370 3235.45610 3259.07080    0.00300   48.04210   85.71770    8.14700    9.68870 3363.12110   18.44280  149.63390  330.39240  563.67660   -9999.25
 6832.00000   30.48050    0.02320    3.56510   -0.09410    8.93250    2.86230   -0.00460 3257.28930 3271.19190    0.00120   47.71120   85.98690    8.15360    9.70910 3429.26200   19.40360  148.26210  333.44940  579.46880   -9999.25
 6832.50000   32.45750    0.02400    3.61300   -0.09350    8.93260    2.85710   -0.00540 3285.66060 3283.31320    0.00300   47.94180   86.28580    8.14760    9.71680 3491.68630   21.26160  158.13570  254.11480  460.05290   -9999.25
 6833.00000   33.87440    0.02910    3.62040   -0.08900    8.93280    2.84980   -0.00530 3292.52930 3283.10230    0.00580   48.39400   86.73640    8.14100    9.71710 3465.99100   23.51370  124.46010  184.03870  334.98860   -9999.25
 6833.50000   34.95490    0.03660    3.46060   -0.08440    8.93040    2.83000   -0.00420 3298.70430 3283.17040    0.01240   49.26650   89.04170    8.12340    9.71520 3339.84400   25.36410  126.77390  133.48390  200.92320   -9999.25
 6834.00000   41.66890    0.04560    3.29250   -0.06520    8.92780    2.80510   -0.00410 3286.72390 3283.32200    0.02670   51.42320   91.92740    8.09770    9.69450 3331.56760   30.28490   75.61880   99.58710  107.11820   -9999.25
 6834.50000   50.42140    0.05610    3.16150   -0.04670    8.92520    2.76460   -0.00400 3271.02780 3283.33860    0.05300   55.12060   96.08900    8.12040    9.69440 3383.57590   39.89390   45.18870   58.51670   60.46860   -9999.25
 6835.00000   64.32300    0.07200    3.13230   -0.01760    8.92260    2.73090   -0.00670 3271.21730 3284.52830    0.06500   56.76340   98.47320    8.14090    9.70120 3349.11080   51.15070   24.67020   34.12170   39.35770   -9999.25
 6835.50000   73.01080    0.09480    3.12980    0.00350    8.92560    2.69370   -0.00660 3274.00610 3288.55270    0.08000   58.78810  101.61780    8.16910    9.71670 3393.76730   62.42530   12.67740   21.62870   23.83860   -9999.25
 6836.00000   78.62410    0.11770    3.14180    0.01440    8.94180    2.68800   -0.00650 3283.00340 3292.57710    0.08280   59.53310  104.76240    8.18410    9.70720 3422.81050   63.73760   10.14970   11.72720   14.42210   -9999.25
 6836.50000   71.77140    0.12480    3.14780    0.01270    8.95810    2.69190   -0.00620 3294.02760 3293.30030    0.09600   61.14490  107.66770    8.19900    9.71080 3340.14360   60.63350    8.90740   11.63450   13.37300   -9999.25
 6837.00000   68.31170    0.12600    3.12480    0.00990    8.96370    2.68640   -0.00590 3301.51660 3289.05100    0.10390   62.37650  109.70840    8.21400    9.71440 3394.83300   57.52160    9.53510   11.98210   12.88930   -9999.25
 6837.50000   72.25050    0.12100    3.10170    0.02090    8.96370    2.66990   -0.00780 3290.29880 3281.64480    0.10760   62.78130  111.48760    8.24700    9.72330 3469.35910   61.05790    9.52860   12.78630   12.56120   -9999.25
 6838.00000   86.81030    0.11960    3.07870    0.03080    8.96470    2.65180   -0.00980 3244.55910 3277.86790    0.10920   63.04990  111.78120    8.28580    9.73360 3352.84280   69.20040    9.88620   13.64680   12.91310   -9999.25
 6838.50000   93.60300    0.12130    3.07300    0.03840    8.96610    2.65420   -0.01100 3269.19190 3278.64770    0.11480   63.83770  111.84260    8.24100    9.71140 3411.96190   74.02420    9.35470    9.44130    9.57260   -9999.25
 6839.00000   88.23700    0.11980    3.07160    0.02560    8.95590    2.68820   -0.00830 3288.48660 3279.42770    0.11860   64.23090  112.48540    8.07580    9.67730 3392.84860   74.14630   10.84000    9.52860    8.53160   -9999.25
 6839.50000   82.51010    0.11040    3.03830    0.01380    8.94560    2.68820   -0.00560 3291.84640 3280.20750    0.12500   65.25820  113.85060    8.13800    9.69480 3341.22880   76.82400   17.82500   19.90810   36.90030   -9999.25
 6840.00000   93.54950    0.10500    2.96040    0.01900    8.93560    2.66350   -0.00290 3290.44800 3280.98730    0.14800   68.34600  120.17980    8.21230    9.71680 3380.66670   91.33800   21.23390   35.89470   36.06030   -9999.25
 6840.50000  124.65940    0.13350    2.90060    0.04990    8.97230    2.60160    0.00030 3286.09770 3281.76710    0.18070   73.14230  127.28860    8.19460    9.73890 3379.67140  109.36640   15.71800   12.88670    8.97890   -9999.25
 6841.00000  150.55410    0.18620    2.87220    0.10910    9.00980    2.53080    0.00490 3267.64090 3275.88920    0.10320   61.77600  129.72070    8.20140    9.75250 3387.89180  130.60630   10.03140    8.53660    9.16770   -9999.25
