~Version ---------------------------------------------------
VERS.   2.0 : CWLS log ASCII Standard -VERSION 2.0
WRAP.    NO : One line per depth step
DLM . SPACE : Column Data Section Delimiter
~Well ------------------------------------------------------
STRT .FT                 485.0 : START DEPTH
STOP .FT                8925.0 : STOP DEPTH
STEP .FT                   0.5 : STEP
NULL .                -9999.25 : NULL VALUE
COMP .                         : COMPANY
WELL .                         : WELL
FLD  .                         : FIELD
LOC  .                         : LOCATION
PROV .                         : PROVINCE
CNTY .                         : COUNTY
STAT .                         : STATE
CTRY .                         : COUNTRY
SRVC .                         : SERVICE COMPANY
DATE .                         : DATE
UWI  .                         : UNIQUE WELL ID
API  .                         : API NUMBER
SLAT .WGS84 2.6918399674321023 : SURFACE LATITUDE
SLON .WGS84   8.82974560431299 : SURFACE LONGITUDE
DATUM.F                    nan : DEPTH DATUM ELEV
~Curve Information -----------------------------------------
DEPT   .FT    : 
CALD   .IN    : CALIPER FROM DENSITY LOG
DPHZ_LS.DEC   : HGRD STANDARD RESOLUTION DENSITY POROSITY
DT1    .US/F  : DELTA-T SHEAR - LOWER DIPOLE
DT4P   .US/F  : DELTA-T COMPRESSIONAL - MONOPOLE P & S
DT4PR  .US/F  : AUTOMATICALLY ADDED BY PROCLASCURVE_INSERT.
DT4PT  .US/F  : AUTOMATICALLY ADDED BY PROCLASCURVE_INSERT.
DT4S   .US/F  : DELTA-T SHEAR - MONOPOLE P & S
DT4SR  .US/F  : AUTOMATICALLY ADDED BY PROCLASCURVE_INSERT.
DT4ST  .US/F  : AUTOMATICALLY ADDED BY PROCLASCURVE_INSERT.
DTCO   .US/F  : DELTA-T COMPRESSIONAL
DTSM   .US/F  : DELTA-T SHEAR
HDRA   .G/C3  : HRDD SPINE AND RIBS DENSITY CORRECTION
PEFZ   .B/E   : HRDD STANDARD RESOLUTION FORMATION PHOTOELECTRIC FACTOR
RHOZ   .G/C3  : HRDD STANDARD RESOLUTION FORMATION DENSITY
RLA3   .OHMM  : APPARENT RESISTIVITY FROM COMPUTED FOCUSING MODE 3
RLA5   .OHMM  : APPARENT RESISTIVITY FROM COMPUTED FOCUSING MODE 5
RXOZ   .OHMM  : INVADED FORMATION RESISTIVITY FILTERED AT 18 INCHES
SGRDD  .GAPI  : SPECTROSCOPY GAMMA RAY FROM DENSITY LOG
TNPH_LS.DEC   : THERMAL NEUTRON POROSITY [LIMESTONE]
~Params ----------------------------------------------------
~Other -----------------------------------------------------
~ASCII -----------------------------------------------------
# ...
 5276.00000    8.19340    0.01150  101.73430   55.46920   54.77570   56.10880  101.07180  101.78950  100.26470   55.55940   99.87960    0.00030    5.03420    2.69020  988.03710 1029.97370  870.74890   44.19110    0.02840
 5276.50000    8.19410    0.00450  100.83670   55.02430   54.17390   55.66400  100.70550  101.42320   99.89840   54.86690   99.67770    0.00100    5.06260    2.70220 1717.29260 1790.18050 1033.74670   29.42430    0.01910
 5277.00000    8.19480   -0.00220  100.55170   53.93490   52.82280   54.57450   99.12840   99.84600   98.33660   53.50520   98.95270    0.00330    5.06430    2.71370 2372.68900 3152.12410 1196.74450   22.44680    0.00910
 5277.50000    8.19550   -0.00480   99.56240   52.84550   51.47170   53.48510   98.20750   98.92500   97.42070   52.14350   98.25840    0.00570    5.07330    2.71880 1943.84780 2026.35720 1299.81700   20.29100    0.00700
 5278.00000    8.19630   -0.00240   97.65530   51.75610   50.12070   52.39570   96.73110   97.44860   95.93580   50.91540   97.03600    0.00420    5.06430    2.71920 1774.97510 1819.01520 1083.04620   23.25910    0.00690
 5278.50000    8.19700    0.00290   96.31070   50.66660   49.29350   51.30630   95.25470   95.97210   94.45090   49.82530   95.81360    0.00260    5.06210    2.71000 1628.42800 1697.54590  981.57550   27.12740    0.01010
 5279.00000    8.19770    0.00760   95.91180   50.66660   49.01520   51.30630   94.67380   95.39110   93.86660   49.51130   94.59110    0.00100    5.06270    2.70080 1414.15020 1528.63310  870.50400   29.78180    0.01410
 5279.50000    8.19840    0.01200   95.91180   50.66650   49.04130   51.30610   94.67560   95.39300   93.86850   50.04140   95.61700   -0.00110    5.06330    2.69170 1092.07900 1283.65830  772.97860   31.00110    0.01520
 5280.00000    8.19880    0.01630   95.91180   50.66650   49.17230   51.30610   94.69300   95.41050   93.88580   50.36030   96.60710   -0.00230    5.08140    2.68250  770.00780 1015.97820  705.34820   31.24290    0.01630
 5280.50000    8.19880    0.02070   96.74480   50.66650   49.30340   51.30610   94.87100   95.58860   94.06380   50.63900   97.20120   -0.00350    5.09870    2.67330  769.83950  857.88860  705.20090   27.88580    0.01570
 5281.00000    8.19880    0.02200   97.57380   50.66650   49.43440   51.30610   95.24230   95.95970   94.43520   51.07340   96.47630   -0.00480    5.16180    2.67240 1703.20370 1749.88560  904.40450   25.25250    0.01280
 5281.50000    8.19880    0.01950   97.61280   50.66650   49.56540   51.30610   95.19780   95.91520   94.39060   51.05320   96.02820   -0.00510    5.22480    2.67700 2170.85490 2262.99490 1103.60800   21.66880    0.01000
 5282.00000    8.19880    0.01700   97.65180   50.66650   49.69650   51.30610   94.97510   95.69250   94.16790   50.97650   96.79790   -0.00450    5.23000    2.68160 1931.26380 2013.23290 1070.35910   19.76610    0.00860
 5282.50000    8.19880    0.01690   97.69070   50.66650   49.82750   51.30610   94.75230   95.46980   93.94510   50.69600   97.21880   -0.00400    5.23000    2.68100 1660.76460 1731.24360  942.13300   26.26660    0.00990
 5283.00000    8.19880    0.01780   97.72970   50.66650   49.95860   51.30610   94.52960   95.24700   93.72240   50.51480   97.22380   -0.00350    5.21630    2.67940 1087.61000 1407.81030  802.36660   32.76720    0.01240
 5283.50000    8.19880    0.01820   97.67400   50.66650   50.08960   51.30610   94.30680   95.02430   93.49970   50.55840   97.22800   -0.00230    5.19380    2.67870  925.20400 1096.63540  723.49240   39.26780    0.01630
 5284.00000    8.19880    0.01330   97.71420   50.66650   50.22070   51.30610   94.12870   94.84620   93.32150   50.55530   96.45670    0.00000    5.17900    2.68710 1368.08330 1705.34190  839.23580   39.40940    0.02020
 5284.50000    8.19880    0.00840   97.75430   50.66650   50.35170   51.30610   94.86390   95.58160   94.05830   51.26280   95.71520    0.00230    5.09680    2.69560 1461.95520 1564.32830 1029.43480   42.43090    0.02290
 5285.00000    8.19880    0.01380   97.79450   51.73280   51.12140   52.37230   95.75690   96.47460   94.95950   51.05400   96.40540    0.00280    5.00800    2.68620  526.06160  808.37500  329.01600   49.44940    0.02960
 5285.50000    8.19880    0.01740   98.37840   52.58800   51.89100   53.22750   96.64990   97.36760   95.86060   52.72070   98.49750    0.00230    5.10490    2.67910  151.68650  158.12280  295.41380   56.03360    0.03480
 5286.00000    8.19880    0.01830   99.32480   52.69750   52.03880   53.33700   97.54300   98.26060   96.76170   53.14500   99.12800    0.00170    5.43420    2.68180 1549.21440 1614.94840  995.41500   53.70540    0.03920
 5286.50000    8.19880    0.00790   99.32480   52.87050   52.17360   53.51000   98.35840   99.07590   97.66280   52.89570   99.57960    0.00120    5.57460    2.69790 7435.30630 8314.06360 1695.41630   43.63940    0.02990
 5287.00000    8.19880   -0.00250   98.94100   52.70720   52.01440   53.34670   98.91950   99.63720   97.84600   52.58000   99.76280    0.00100    5.50180    2.71410 7905.27820 8513.67380 1994.46550   37.39060    0.01790
 5287.50000    8.19880   -0.00660   98.94550   52.16600   51.43030   52.80550   98.57970   99.29740   97.55000   52.27520   98.86220    0.00090    5.33790    2.72120 5542.38120 5821.70640 2013.50070   39.75280    0.01480
 5288.00000    8.19880   -0.00500   99.18410   51.53650   50.84370   52.18020   97.72320   98.44090   96.80480   51.65560   97.64850    0.00080    5.16330    2.71840 3179.48430 3565.26510 1936.07570   43.06450    0.01400
 5288.50000    8.19880    0.00190   99.04440   51.05760   50.28990   51.69710   96.86680   97.58440   96.05960   50.97450   96.43470   -0.00090    5.12830    2.70660 2976.48620 3329.35050 1720.33550   42.62200    0.01390
 5289.00000    8.19880    0.00590   99.11810   50.36580   49.65200   51.00530   95.75390   96.47140   94.94670   50.29720   96.22680   -0.00160    5.14870    2.69980 3420.21600 3565.31480 1769.32600   38.56430    0.01340
 5289.50000    8.19880    0.00710   97.96430   50.26450   49.56750   50.90410   94.98970   95.70720   94.18250   50.04550   96.22680   -0.00220    5.12970    2.69770 2953.45360 3230.77530 1762.52950   34.53910    0.01260
 5290.00000    8.19880    0.00720   96.63070   50.43910   49.75130   51.07880   95.88090   96.59850   95.07370   50.28560   96.23850   -0.00290    5.11060    2.69760 2628.86370 2896.23580 1686.20910   32.10280    0.01160
 5290.50000    8.19880    0.00740   95.78930   50.61380   49.93510   51.25350   95.97190   96.68960   95.16480   50.58810   96.22420   -0.00280    5.09160    2.69720 2833.02740 2953.21430 1703.34080   31.03770    0.01090
 5291.00000    8.19880    0.00580   95.86570   50.78850   50.11880   51.42820   95.74270   96.46030   94.93550   50.70050   96.20990   -0.00080    5.05930    2.70230 2942.82410 3067.67210 1662.36550   29.60200    0.01040
 5291.50000    8.19880   -0.00280   95.94200   50.96310   50.30260   51.60290   95.85120   96.56890   95.04400   50.82460   96.19560    0.00120    5.01380    2.71540 2964.78350 3090.56370 1671.79620   27.90180    0.01000
 5292.00000    8.19880   -0.00630   96.23740   51.00770   50.28570   51.64740   95.82330   96.54100   95.01610   50.75600   96.18140    0.00320    4.98660    2.71960 3595.32510 4276.90360 1813.32180   27.55730    0.00970
 5292.50000    8.19880   -0.00200   96.00060   50.85700   50.13500   51.49670   95.79540   96.51310   94.98820   50.46530   96.16710    0.00230    5.10910    2.71330 3705.54530 4704.86820 1905.20050   31.31900    0.00930
 5293.00000    8.19880    0.00420   96.00060   50.52990   49.81680   51.16960   95.76750   96.48520   94.96030   50.27260   96.15280    0.00000    5.22110    2.70260 3353.77170 4051.51930 1975.07590   35.50210    0.01010
 5293.50000    8.19880    0.00360   96.00060   50.44480   49.75300   51.08460   95.73950   96.45720   94.93240   50.27000   96.14100   -0.00110    5.24320    2.70370 3881.43200 4332.07380 1991.44020   37.17370    0.01160
 5294.00000    8.19880   -0.00080   96.30010   50.55050   49.85860   51.19030   95.71160   96.42930   94.90440   50.33800   96.13890   -0.00050    5.17400    2.71120 3663.18670 4568.49660 2007.80450   32.58010    0.01260
