~Version ---------------------------------------------------
VERS.   2.0 : CWLS log ASCII Standard -VERSION 2.0
WRAP.    NO : One line per depth step
DLM . SPACE : Column Data Section Delimiter
~Well ------------------------------------------------------
STRT .FT                 485.0 : START DEPTH
STOP .FT                8925.0 : STOP DEPTH
STEP .FT                   0.5 : STEP
NULL .                -9999.25 : NULL VALUE
COMP .                         : COMPANY
WELL .                         : WELL
FLD  .                         : FIELD
LOC  .                         : LOCATION
PROV .                         : PROVINCE
CNTY .                         : COUNTY
STAT .                         : STATE
CTRY .                         : COUNTRY
SRVC .                         : SERVICE COMPANY
DATE .                         : DATE
UWI  .                         : UNIQUE WELL ID
API  .                         : API NUMBER
SLAT .WGS84 2.6918399674321023 : SURFACE LATITUDE
SLON .WGS84   8.82974560431299 : SURFACE LONGITUDE
DATUM.F                    nan : DEPTH DATUM ELEV
~Curve Information -----------------------------------------
DEPT   .FT    : 
CALD   .IN    : CALIPER FROM DENSITY LOG
DPHZ_LS.DEC   : HGRD STANDARD RESOLUTION DENSITY POROSITY
DT1    .US/F  : DELTA-T SHEAR - LOWER DIPOLE
DT4P   .US/F  : DELTA-T COMPRESSIONAL - MONOPOLE P & S
DT4PR  .US/F  : AUTOMATICALLY ADDED BY PROCLASCURVE_INSERT.
DT4PT  .US/F  : AUTOMATICALLY ADDED BY PROCLASCURVE_INSERT.
DT4S   .US/F  : DELTA-T SHEAR - MONOPOLE P & S
DT4SR  .US/F  : AUTOMATICALLY ADDED BY PROCLASCURVE_INSERT.
DT4ST  .US/F  : AUTOMATICALLY ADDED BY PROCLASCURVE_INSERT.
DTCO   .US/F  : DELTA-T COMPRESSIONAL
DTSM   .US/F  : DELTA-T SHEAR
HDRA   .G/C3  : HRDD SPINE AND RIBS DENSITY CORRECTION
PEFZ   .B/E   : HRDD STANDARD RESOLUTION FORMATION PHOTOELECTRIC FACTOR
RHOZ   .G/C3  : HRDD STANDARD RESOLUTION FORMATION DENSITY
RLA3   .OHMM  : APPARENT RESISTIVITY FROM COMPUTED FOCUSING MODE 3
RLA5   .OHMM  : APPARENT RESISTIVITY FROM COMPUTED FOCUSING MODE 5
RXOZ   .OHMM  : INVADED FORMATION RESISTIVITY FILTERED AT 18 INCHES
SGRDD  .GAPI  : SPECTROSCOPY GAMMA RAY FROM DENSITY LOG
TNPH_LS.DEC   : THERMAL NEUTRON POROSITY [LIMESTONE]
~Params ----------------------------------------------------
~Other -----------------------------------------------------
~ASCII -----------------------------------------------------
# ...
 4462.50000    8.65780    0.14120  129.80440   72.61630   71.84950   73.25600  130.40560  131.12310  129.59840   72.81780  131.37280   -0.00320    2.43640    2.46830    2.76970    2.68950    2.96730   59.02550    0.13190
 4463.00000    8.65560    0.14370  128.40680   72.06610   71.34510   72.70570  129.67690  130.39440  128.86970   72.34810  130.84590   -0.00320    2.43520    2.46400    2.69260    2.61470    2.90730   59.99930    0.13310
 4463.50000    8.65200    0.14620  127.97110   71.76510   71.07160   72.40460  129.37420  130.09170  128.56700   72.07000  130.25640   -0.00270    2.43400    2.45960    2.61550    2.53980    2.82040   61.15000    0.13920
 4464.00000    8.64850    0.14720  128.11710   71.83790   71.14440   72.47750  129.07140  129.78900  128.26430   71.90960  129.19760   -0.00170    2.42740    2.45790    2.53850    2.46500    2.78670   60.60370    0.14530
 4464.50000    8.64500    0.14290  126.59900   71.91080   71.21730   72.55040  128.76870  129.48620  127.96150   71.91920  128.93810   -0.00070    2.40820    2.46530    2.53890    2.46540    2.78430   59.87530    0.14900
 4465.00000    8.64150    0.13860  126.22590   71.98370   71.29020   72.62330  128.93680  129.65420  128.12960   72.11200  129.06670    0.00110    2.40970    2.47280    2.60380    2.52840    2.84580   60.46840    0.15050
 4465.50000    8.63410    0.13510  127.77390   71.99480   71.30000   72.63450  129.31780  130.03520  128.51060   72.29780  128.87960   -0.00050    2.38510    2.47870    2.67020    2.59290    2.89140   61.22080    0.15640
 4466.00000    8.64940    0.13660  128.16630   71.91340   71.21530   72.55310  128.93840  129.65580  128.13120   72.25790  128.69240   -0.00200    2.38380    2.47620    2.73660    2.65740    2.94460   61.97330    0.15750
 4466.50000    8.64930    0.13950  128.13500   71.83200   71.13060   72.47170  128.55890  129.27640  127.75180   72.20570  128.62590   -0.00350    2.38250    2.47120    2.80300    2.72190    3.01090   62.42470    0.15130
 4467.00000    8.63880    0.14240  127.08760   71.75050   71.04600   72.39030  128.17950  128.89700  127.37230   72.23330  128.37560   -0.00500    2.36830    2.46620    2.89120    2.80750    3.13740   62.26290    0.14450
 4467.50000    8.62830    0.14040  126.55860   71.66910   70.96130   72.30880  127.50490  128.22240  126.69770   72.03680  128.12520   -0.00510    2.35490    2.46970    3.06650    2.97780    3.26380   62.14150    0.13760
 4468.00000    8.62910    0.13790  125.84640   71.55150   70.81080   72.19120  126.83030  127.54780  126.02320   71.85170  127.66770   -0.00520    2.36060    2.47400    3.24190    3.14810    3.39030   62.56640    0.13740
 4468.50000    8.62440    0.13800  125.03690   71.28910   70.56150   71.92880  126.15570  126.87320  125.34860   71.65750  127.15850   -0.00520    2.38870    2.47380    3.41720    3.31830    3.59550   66.67370    0.13710
 4469.00000    8.62860    0.13960  124.89590   71.02670   70.31220   71.66630  125.48120  126.19860  124.67400   71.31980  126.64920   -0.00480    2.41790    2.47110    3.59260    3.48860    3.85320   65.25740    0.13690
 4469.50000    8.62250    0.13780  123.88000   70.76420   70.06290   71.40380  125.04380  125.76130  124.23660   70.94780  126.13990   -0.00390    2.43720    2.47420    3.76790    3.65890    4.11090   66.61710    0.13660
 4470.00000    8.62050    0.12870  123.44490   70.35290   69.65980   70.99250  124.29610  125.01350  123.48890   70.51620  125.07050   -0.00310    2.42930    2.48970    3.94330    3.82920    4.32840   65.55640    0.13550
 4470.50000    8.63450    0.12130  122.55030   69.95070   69.25690   70.59040  123.43130  124.14870  122.62410   70.16010  124.44790   -0.00300    2.42140    2.50260    4.20520    4.08350    4.48580   63.22220    0.13440
 4471.00000    8.63450    0.11860  121.94990   69.89730   69.20050   70.53700  123.02670  123.74410  122.21960   70.00290  124.00140   -0.00220    2.43130    2.50700    4.46710    4.33780    4.61160   62.29050    0.13320
 4471.50000    8.63390    0.11630  122.38010   69.84380   69.14410   70.48350  122.92900  123.64640  122.12180   69.98160  123.27220   -0.00140    2.42360    2.51110    4.37960    4.25290    4.47960   64.84390    0.13260
 4472.00000    8.62300    0.11600  121.82550   69.79040   69.08760   70.43010  122.83120  123.54860  122.02410   69.88140  122.95860   -0.00060    2.40850    2.51150    4.10000    3.98130    4.39240   64.23420    0.13770
 4472.50000    8.60660    0.11680  121.77290   69.66640   68.93950   70.30610  122.73340  123.45090  121.92630   69.77050  122.71660   -0.00180    2.39350    2.51030    4.47880    4.34920    4.76750   63.00960    0.13790
 4473.00000    8.61500    0.11630  120.32820   69.49540   68.76860   70.13510  122.63570  123.35320  121.82860   69.72290  122.47460   -0.00220    2.39060    2.51100    4.95230    4.80900    5.24880   63.32050    0.13470
 4473.50000    8.62350    0.11400  119.86230   69.32440   68.59760   69.96410  122.14870  122.86640  121.34160   69.67530  122.16100   -0.00260    2.42690    2.51500    5.42570    5.26870    5.73000   64.44560    0.13120
 4474.00000    8.61870    0.11170  119.11860   69.15340   68.42660   69.79310  120.82140  121.53890  120.01420   69.25680  121.56060   -0.00290    2.46840    2.51900    5.70980    5.54460    5.94260   65.57060    0.12830
 4474.50000    8.60320    0.11240  118.67110   68.98240   68.25560   69.62210  120.65510  121.37260  119.84790   69.06120  121.04070   -0.00250    2.46820    2.51790    5.78870    5.62120    6.08800   65.57460    0.12830
 4475.00000    8.60150    0.11200  118.22350   68.83830   68.12500   69.47800  120.48870  121.20630  119.68160   68.86560  120.52080   -0.00210    2.46810    2.51860    6.26120    6.08000    6.57830   64.16470    0.12700
 4475.50000    8.59980    0.11180  118.04450   68.73470   68.02140   69.37440  120.03040  120.74790  119.22320   68.58680  119.52770   -0.00100    2.43930    2.51880    5.86930    5.69950    6.37170   61.81310    0.12200
 4476.00000    8.59810    0.11540  118.04450   68.63110   67.91770   69.27070  119.71600  120.43350  118.90890   68.39130  118.98380   -0.00090    2.43870    2.51270    4.65350    4.51890    5.27890   59.46150    0.11710
 4476.50000    8.59640    0.11980  118.04450   68.52740   67.81410   69.16710  119.83310  120.55050  119.02600   68.55630  119.02820   -0.00180    2.43800    2.50510    4.37450    4.24790    4.59790   57.48850    0.11410
 4477.00000    8.59480    0.12410  118.04450   68.66620   68.01350   69.30590  120.14140  120.85880  119.33420   68.72120  119.13440   -0.00270    2.43740    2.49750    4.26290    4.13950    4.43540   58.57270    0.11510
 4477.50000    8.59310    0.12850  118.04450   68.76750   68.01660   69.40730  120.44970  121.16710  119.64250   68.91460  119.30740   -0.00450    2.44470    2.48980    4.47570    4.34620    4.56690   61.25760    0.11820
 4478.00000    8.59140    0.13250  118.14300   68.98400   68.36010   69.62380  120.73090  121.44830  119.92370   69.08250  119.72850   -0.00460    2.45720    2.48220    4.29280    4.16860    4.41640   59.16760    0.12130
 4478.50000    8.58970    0.13560  118.62570   69.32740   68.70350   69.96730  120.90380  121.62120  120.09670   69.58690  120.14960   -0.00390    2.46980    2.47720    3.98810    3.87270    4.15100   60.21290    0.12400
 4479.00000    8.59100    0.13330  118.17820   69.80090   69.12970   70.44060  121.70300  122.42050  120.89580   69.83350  120.65240   -0.00320    2.49570    2.47690    3.68340    3.57680    3.88550   57.24200    0.12080
 4479.50000    8.58950    0.13590  119.21770   69.94280   69.26000   70.58240  121.88390  122.60160  121.07670   70.02460  121.13750   -0.00350    2.49640    2.48440    3.64770    3.54210    4.89700   61.99160    0.12570
 4480.00000    8.58400    0.12910  120.08910   70.08460   69.39020   70.72420  122.04140  122.75910  121.23420   70.12500  122.13130   -0.00400    2.51590    2.49370    7.95700    6.15650    8.51090   70.45570    0.13150
 4480.50000    8.57850    0.12230  120.41270   69.93360   69.23920   70.57330  121.18790  121.90530  120.38070   70.12150  121.79400   -0.00460    2.54190    2.50300   11.40440   10.17860   16.68770   74.01500    0.13720
