~Version ---------------------------------------------------
VERS.   2.0 : CWLS log ASCII Standard -VERSION 2.0
WRAP.    NO : One line per depth step
DLM . SPACE : Column Data Section Delimiter
~Well ------------------------------------------------------
STRT .FT                 485.0 : START DEPTH
STOP .FT                8925.0 : STOP DEPTH
STEP .FT                   0.5 : STEP
NULL .                -9999.25 : NULL VALUE
COMP .                         : COMPANY
WELL .                         : WELL
FLD  .                         : FIELD
LOC  .                         : LOCATION
PROV .                         : PROVINCE
CNTY .                         : COUNTY
STAT .                         : STATE
CTRY .                         : COUNTRY
SRVC .                         : SERVICE COMPANY
DATE .                         : DATE
UWI  .                         : UNIQUE WELL ID
API  .                         : API NUMBER
SLAT .WGS84 2.6918399674321023 : SURFACE LATITUDE
SLON .WGS84   8.82974560431299 : SURFACE LONGITUDE
DATUM.F                    nan : DEPTH DATUM ELEV
~Curve Information -----------------------------------------
DEPT   .FT    : 
CALD   .IN    : CALIPER FROM DENSITY LOG
DPHZ_LS.DEC   : HGRD STANDARD RESOLUTION DENSITY POROSITY
DT1    .US/F  : DELTA-T SHEAR - LOWER DIPOLE
DT4P   .US/F  : DELTA-T COMPRESSIONAL - MONOPOLE P & S
DT4PR  .US/F  : AUTOMATICALLY ADDED BY PROCLASCURVE_INSERT.
DT4PT  .US/F  : AUTOMATICALLY ADDED BY PROCLASCURVE_INSERT.
DT4S   .US/F  : DELTA-T SHEAR - MONOPOLE P & S
DT4SR  .US/F  : AUTOMATICALLY ADDED BY PROCLASCURVE_INSERT.
DT4ST  .US/F  : AUTOMATICALLY ADDED BY PROCLASCURVE_INSERT.
DTCO   .US/F  : DELTA-T COMPRESSIONAL
DTSM   .US/F  : DELTA-T SHEAR
HDRA   .G/C3  : HRDD SPINE AND RIBS DENSITY CORRECTION
PEFZ   .B/E   : HRDD STANDARD RESOLUTION FORMATION PHOTOELECTRIC FACTOR
RHOZ   .G/C3  : HRDD STANDARD RESOLUTION FORMATION DENSITY
RLA3   .OHMM  : APPARENT RESISTIVITY FROM COMPUTED FOCUSING MODE 3
RLA5   .OHMM  : APPARENT RESISTIVITY FROM COMPUTED FOCUSING MODE 5
RXOZ   .OHMM  : INVADED FORMATION RESISTIVITY FILTERED AT 18 INCHES
SGRDD  .GAPI  : SPECTROSCOPY GAMMA RAY FROM DENSITY LOG
TNPH_LS.DEC   : THERMAL NEUTRON POROSITY [LIMESTONE]
~Params ----------------------------------------------------
~Other -----------------------------------------------------
~ASCII -----------------------------------------------------
# ...
 7292.50000    9.13470    0.11610  108.59980   68.96910   68.44420   69.60880  114.43910  115.15660  113.53130   69.60850  109.10620   -0.00120    2.48510    2.51100    7.29820    8.03410    7.07420   65.61180    0.10420
 7293.00000    9.11510    0.11160  111.13560   70.49390   70.08360   71.13360  115.24400  115.96150  114.43680   70.81180  111.23590   -0.00050    2.48600    2.51870    7.41030    8.03160    7.21190   64.51630    0.10730
 7293.50000    9.10040    0.10710  112.17650   71.17700   70.38310   71.81670  115.05700  115.77450  114.24980   71.34350  112.35960   -0.00050    2.46500    2.52630    7.55050    7.98850    7.34950   63.57150    0.11050
 7294.00000    9.08570    0.10530  112.51220   70.66880   69.87490   71.30860  114.31320  115.03080  113.50600   71.19780  112.36460   -0.00060    2.44720    2.52940    7.66270    8.12040    7.48720   63.56210    0.11070
 7294.50000    9.06860    0.10770  111.96060   70.16070   69.36680   70.80050  114.37810  115.09570  113.57090   70.53480  112.32850   -0.00070    2.43520    2.52530    7.73770    8.25230    7.51470   64.78450    0.10540
 7295.00000    9.05270    0.11060  111.96360   69.16550   68.24980   69.80530  114.55530  115.27290  113.74820   69.60520  112.45140   -0.00070    2.43030    2.52030    7.60870    8.08620    7.44050   65.96540    0.10120
 7295.50000    9.03450    0.11350  111.68750   68.74820   68.06250   69.38790  114.56310  115.28060  113.75590   68.94070  112.55140   -0.00080    2.42220    2.51530    7.44750    7.84580    7.25490   66.68060    0.10460
 7296.00000    9.02600    0.11650  111.47380   68.79730   68.10750   69.43690  114.79490  115.51240  113.98770   69.14530  112.55950   -0.00090    2.40300    2.51020    7.28630    7.60530    7.06930   66.16750    0.10790
 7296.50000    9.01750    0.11940  111.97250   68.99480   68.30250   69.63440  115.36290  116.08040  114.55570   69.60730  112.56750   -0.00090    2.39010    2.50520    7.15730    7.41290    6.88360   65.68590    0.10760
 7297.00000    9.00900    0.11490  111.55680   69.41490   68.72260   70.05460  115.77570  116.49320  114.96850   69.89310  112.14730   -0.00100    2.37720    2.51290    7.29930    7.55990    6.85030   64.51190    0.10360
 7297.50000    9.00060    0.10450  111.52670   70.27500   69.58270   70.97890  116.08500  116.80250  115.27780   70.80660  111.89600    0.00060    2.36820    2.53070    7.54110    7.81040    7.18450   62.84490    0.10120
 7298.00000    8.97250    0.09240  111.42320   70.97710   70.28480   71.81730  117.02760  117.74510  116.22040   71.59600  111.99360    0.00220    2.41530    2.55130    8.13990    8.43050    7.56050   61.26760    0.10120
 7298.50000    8.94570    0.08900  112.66310   70.53730   69.84490   71.80380  117.03320  117.75060  116.22600   71.39530  112.15220    0.00280    2.48920    2.55710    8.52980    8.83440    7.93650   60.29220    0.10080
 7299.00000    8.92650    0.09010  111.45940   69.91260   69.22000   71.23160  117.03880  117.75620  116.23160   70.93790  112.55480    0.00180    2.54680    2.55540    8.58550    8.89210    8.31260   61.23700    0.09970
 7299.50000    8.89680    0.09430  111.29080   69.28780   68.59510   70.48970  115.65900  116.37640  114.85180   70.48050  112.47290    0.00070    2.57970    2.54830    9.90470   10.25840    8.69770   62.02470    0.09850
 7300.00000    8.90260    0.09860  111.12220   68.66310   67.97020   69.74780  114.26290  114.98050  113.45570   69.87990  112.13640   -0.00030    2.59210    2.54130    9.63490    9.97890    8.69770   62.49580    0.09740
 7300.50000    8.87740    0.09930  110.36670   68.03830   67.34530   69.00590  112.26770  112.98520  111.46050   68.82300  111.13090   -0.00110    2.60400    2.54010    8.96020    9.28010    8.41680   61.57520    0.09620
 7301.00000    8.86180    0.09730  110.29140   67.41360   66.72040   68.26410  111.50830  112.22570  110.70110   67.84790  110.57430   -0.00100    2.61310    2.54340    8.28550    8.58130    8.13590   60.79620    0.09500
 7301.50000    8.85240    0.09530  109.52020   66.78880   66.09540   67.52220  110.87890  111.59640  110.07170   66.89170  109.65370   -0.00090    2.59750    2.54680    8.02800    8.31460    7.89000   62.57220    0.09380
 7302.00000    8.84300    0.09380  108.29920   66.28780   65.59420   66.92740  110.76030  111.47780  109.95320   66.37530  109.10650   -0.00080    2.58010    2.54950    7.99320    8.27860    7.81350   64.07980    0.09260
 7302.50000    8.83730    0.09620  107.13600   66.55340   65.85990   67.19310  110.64180  111.35920  109.83460   66.86290  108.91420   -0.00020    2.53900    2.54540    7.99320    8.27860    7.89000   64.47130    0.09190
 7303.00000    8.83050    0.10020  107.54570   66.59850   65.90500   67.23820  110.52330  111.24070  109.71610   66.73290  109.04540   -0.00050    2.49790    2.53860    7.99320    8.22510    7.77960   64.07580    0.09190
 7303.50000    8.83350    0.10430  108.47100   67.47460   66.78100   68.11420  110.40480  111.12210  109.59760   67.66250  109.71030   -0.00080    2.45090    2.53180    7.83890    8.11880    7.22740   66.39600    0.09610
 7304.00000    8.79150    0.10830  109.45800   68.72830   68.03480   69.36800  110.38300  111.10070  109.57620   69.09060  110.38740   -0.00110    2.41330    2.52490    9.27660    9.85800    7.83280   73.82820    0.10220
 7304.50000    8.75880    0.11150  110.44500   69.21770   68.52420   69.85740  110.73360  111.45120  109.92640   69.49890  111.13060   -0.00020    2.44530    2.51950   12.35470   15.59880    9.78770   84.13620    0.11110
 7305.00000    8.73840    0.10950  111.43200   69.75020   69.08890   70.50880  111.22340  111.94080  110.41630   70.16710  111.94970    0.00150    2.48000    2.51880   10.86680   12.27210   10.56970   94.44420    0.11990
 7305.50000    8.73310    0.10750  112.48930   70.63410   70.05310   71.68980  112.77820  113.49560  111.97100   71.06050  113.07210    0.00310    2.52690    2.52200   10.31640   10.59720    8.95580  100.08230    0.12880
 7306.00000    8.72200    0.10860  114.82900   71.51800   70.99050   72.87070  114.33290  115.05040  113.52580   71.96330  114.36640    0.00270    2.57380    2.52610   11.42680   12.62910   10.51540   99.11070    0.13590
 7306.50000    8.70210    0.10660  116.73290   72.43670   71.87050   74.05170  115.88770  116.60520  115.08050   72.86610  116.34830    0.00150    2.59300    2.53020   10.88510   11.69010   10.14320   93.05560    0.13360
 7307.00000    8.68210    0.10070  117.01210   73.15490   72.50310   74.76030  117.82170  118.53910  117.01450   73.49880  117.25580    0.00020    2.55950    2.53760    9.98220   10.23370    9.58810   87.67980    0.12430
 7307.50000    8.66500    0.09370  117.00690   73.10350   72.29850   74.62110  119.50860  120.22600  118.70140   73.65500  118.58260    0.00010    2.52550    2.54970    9.07930    8.77720   10.33560   84.23660    0.11490
 7308.00000    8.65910    0.08860  117.00170   72.45300   71.67900   73.90430  119.01050  119.72820  118.20330   72.77960  119.15660    0.00030    2.49140    2.55840    9.48570    9.17000   11.26990   82.24490    0.11420
 7308.50000    8.65070    0.09530  116.99650   71.80250   71.05950   72.94160  118.79970  119.51720  117.99250   72.06230  118.98520   -0.00040    2.51000    2.54690    9.50720    9.19090   12.02170   81.04980    0.11970
 7309.00000    8.63840    0.10120  116.99130   71.15200   70.44000   71.97900  118.24990  118.96750  117.44270   71.35910  117.71550   -0.00120    2.52680    2.53680    9.05310    8.75190   10.74530   81.92800    0.12240
 7309.50000    8.62620    0.10890  114.95030   70.40160   69.58800   71.04130  117.08690  117.80450  116.27980   70.51890  116.23490   -0.00300    2.52150    2.52370    8.59900    8.31290   10.53790   82.32450    0.12240
 7310.00000    8.62690    0.11620  114.81050   70.12770   69.46290   70.76740  117.38910  118.10660  116.58190   70.21110  115.96080   -0.00300    2.49130    2.51110    8.80390    8.51090   10.99680   86.30600    0.12600
 7310.50000    8.63100    0.11500  114.28650   70.27150   69.60670   70.91120  118.29460  119.01210  117.48740   70.11560  115.63150   -0.00310    2.46120    2.51330   10.00550    9.67250   11.57390   95.90560    0.13050
