~Version ---------------------------------------------------
VERS.   2.0 : CWLS log ASCII Standard -VERSION 2.0
WRAP.    NO : One line per depth step
DLM . SPACE : Column Data Section Delimiter
~Well ------------------------------------------------------
STRT .FT                 485.0 : START DEPTH
STOP .FT                8925.0 : STOP DEPTH
STEP .FT                   0.5 : STEP
NULL .                -9999.25 : NULL VALUE
COMP .                         : COMPANY
WELL .                         : WELL
FLD  .                         : FIELD
LOC  .                         : LOCATION
PROV .                         : PROVINCE
CNTY .                         : COUNTY
STAT .                         : STATE
CTRY .                         : COUNTRY
SRVC .                         : SERVICE COMPANY
DATE .                         : DATE
UWI  .                         : UNIQUE WELL ID
API  .                         : API NUMBER
SLAT .WGS84 2.6918399674321023 : SURFACE LATITUDE
SLON .WGS84   8.82974560431299 : SURFACE LONGITUDE
DATUM.F                    nan : DEPTH DATUM ELEV
~Curve Information -----------------------------------------
DEPT   .FT    : 
CALD   .IN    : CALIPER FROM DENSITY LOG
DPHZ_LS.DEC   : HGRD STANDARD RESOLUTION DENSITY POROSITY
DT1    .US/F  : DELTA-T SHEAR - LOWER DIPOLE
DT4P   .US/F  : DELTA-T COMPRESSIONAL - MONOPOLE P & S
DT4PR  .US/F  : AUTOMATICALLY ADDED BY PROCLASCURVE_INSERT.
DT4PT  .US/F  : AUTOMATICALLY ADDED BY PROCLASCURVE_INSERT.
DT4S   .US/F  : DELTA-T SHEAR - MONOPOLE P & S
DT4SR  .US/F  : AUTOMATICALLY ADDED BY PROCLASCURVE_INSERT.
DT4ST  .US/F  : AUTOMATICALLY ADDED BY PROCLASCURVE_INSERT.
DTCO   .US/F  : DELTA-T COMPRESSIONAL
DTSM   .US/F  : DELTA-T SHEAR
HDRA   .G/C3  : HRDD SPINE AND RIBS DENSITY CORRECTION
PEFZ   .B/E   : HRDD STANDARD RESOLUTION FORMATION PHOTOELECTRIC FACTOR
RHOZ   .G/C3  : HRDD STANDARD RESOLUTION FORMATION DENSITY
RLA3   .OHMM  : APPARENT RESISTIVITY FROM COMPUTED FOCUSING MODE 3
RLA5   .OHMM  : APPARENT RESISTIVITY FROM COMPUTED FOCUSING MODE 5
RXOZ   .OHMM  : INVADED FORMATION RESISTIVITY FILTERED AT 18 INCHES
SGRDD  .GAPI  : SPECTROSCOPY GAMMA RAY FROM DENSITY LOG
TNPH_LS.DEC   : THERMAL NEUTRON POROSITY [LIMESTONE]
~Params ----------------------------------------------------
~Other -----------------------------------------------------
~ASCII -----------------------------------------------------
# ...
 6885.50000    8.27060    0.01890   94.24180   53.76310   53.06960   54.40280   94.63220   95.34970   93.82500   54.01140   94.95360    0.00140    3.93910    2.67760  328.68790  342.63820  301.07700   36.72740    0.02060
 6886.00000    8.26680    0.02560   94.26890   53.53520   52.84170   54.17490   94.31450   95.03200   93.50730   53.90200   94.71820   -0.00090    3.83830    2.66610  260.33460  271.38300  245.04190   38.85240    0.02430
 6886.50000    8.26300    0.02830   95.70280   53.30730   52.61380   53.94700   93.99670   94.71430   93.18960   53.79260   94.07390   -0.00310    3.89720    2.66150  378.08290  394.12780  311.30090   35.10730    0.02600
 6887.00000    8.25920    0.02100   94.27360   53.12420   52.43070   53.76400   93.67900   94.39650   92.87180   53.68330   93.24150   -0.00340    4.00820    2.67400  520.48660  542.57370  392.88140   31.49090    0.02280
 6887.50000    8.25530    0.01560   95.20010   53.12060   52.42710   53.76030   93.47480   94.19220   92.66760   53.57390   94.46520   -0.00110    4.08160    2.68320  678.07500  706.84790  474.46190   29.50350    0.01970
 6888.00000    8.25150    0.01200   95.28570   53.11700   52.42350   53.75670   93.42000   94.13740   92.61290   53.46450   94.45170    0.00120    4.06800    2.68930  701.80860  731.58720  539.73350   32.77750    0.01840
 6888.50000    8.24770    0.01270   95.37130   53.11330   52.41980   53.75310   93.39550   94.11300   92.58830   53.43370   93.99230    0.00310    4.04370    2.68810  505.22500  526.66050  413.35090   38.12120    0.02120
 6889.00000    8.24390    0.01450   95.38810   53.23620   52.25520   53.87590   93.38080   94.09830   92.57360   53.71070   94.21940    0.00260    3.98870    2.68510  347.93100  443.26680  262.72120   43.46490    0.02590
 6889.50000    8.24010    0.01800   95.71060   53.86490   52.48870   54.50460   94.49440   95.21230   93.68720   54.31600   95.01550    0.00210    3.96010    2.67910  235.85630  286.06520  201.81370   46.77050    0.03060
 6890.00000    8.23620    0.02170   96.24830   54.49360   53.45830   55.13330   95.88650   96.60470   95.07930   54.92130   95.81160    0.00150    4.02070    2.67270  302.79770  340.42990  258.30900   41.77300    0.03500
 6890.50000    8.23240    0.02460   96.78610   55.12230   54.42790   55.76200   97.27850   97.99720   96.47130   55.52660   96.60770    0.00100    4.14860    2.66770  410.50130  427.91590  349.15910   35.27640    0.03070
 6891.00000    8.22860    0.01540   96.85160   55.64560   54.95120   56.28530   97.55700   98.27590   96.74990   56.13200   97.24460    0.00150    4.21750    2.68350  485.91350  506.52760  440.00930   30.07530    0.02830
 6891.50000    8.22480    0.00300   96.79900   55.93290   55.23850   56.57260   97.55700   98.27720   96.74990   56.32290   97.24530    0.00190    4.10520    2.70470  702.07450  731.85980  604.86060   24.87430    0.02740
 6892.00000    8.22090   -0.01130   96.74650   55.27580   54.58140   55.91550   97.38300   98.10430   96.57590   55.87080   97.24670    0.00230    3.86900    2.72910 1481.23080 1544.07420  880.71360   19.67320    0.02650
 6892.50000    8.21710   -0.00310   96.69390   54.52750   53.83310   55.16720   96.51300   97.23310   95.70580   54.91110   96.64060    0.00300    3.82230    2.71510 1647.72790 1717.63690 1156.56670   21.74960    0.02480
 6893.00000    8.21330    0.00960   95.77530   53.41440   52.72000   54.05410   95.64300   96.36190   94.83580   53.84190   95.97730    0.00270    3.97240    2.69340 1361.80040 1419.57750 1051.85880   25.20670    0.02530
 6893.50000    8.20950    0.02420   95.65610   52.77210   52.06130   53.41180   94.77300   95.49070   93.96580   52.77270   95.57970    0.00240    4.11960    2.66850  920.72050  959.78460  652.17900   29.72740    0.02730
 6894.00000    8.20570    0.02810   95.77420   52.44370   51.70560   53.08350   94.77300   95.49070   93.96580   52.58130   95.57970    0.00200    4.28830    2.66170  564.18100  588.11700  484.87960   32.32870    0.02930
 6894.50000    8.20340    0.02230   96.73860   52.11540   51.52510   52.75510   94.77300   95.49070   93.96580   52.35510   95.63400    0.00170    4.32500    2.67170  672.31320  700.84070  526.59130   29.61360    0.02970
 6895.00000    8.20340    0.01850   95.77350   52.63570   52.04540   53.27540   94.77300   95.49070   93.96580   52.92580   96.07730    0.00140    4.28750    2.67820  613.84870  639.89550  589.16680   30.23960    0.02950
 6895.50000    8.20340    0.02060   96.67040   53.15600   52.56570   53.79570   94.99580   95.71340   94.18860   53.55220   96.46300    0.00110    4.23980    2.67560  638.22590  669.64920  522.04730   31.44330    0.02930
 6896.00000    8.20340    0.02620   96.77930   53.67630   53.08600   54.31600   95.88670   96.60420   95.07950   54.17860   96.84870   -0.00010    4.21940    2.66510  509.45490  531.07310  410.19960   32.64700    0.03060
 6896.50000    8.20340    0.03220   96.88830   54.19660   53.60630   54.83630   96.72190   97.43940   95.91470   54.51600   97.23430   -0.00060    4.23340    2.65470  432.18530  450.52280  369.02910   32.89210    0.03180
 6897.00000    8.20340    0.03120   96.88780   54.71690   54.00140   55.35660   97.00040   97.71780   96.19320   54.79460   97.46610   -0.00120    4.25450    2.65660  634.47650  678.46510  483.71440   30.86730    0.02970
 6897.50000    8.20340    0.02620   96.88780   54.61110   53.89560   55.25080   96.93080   97.64820   96.12360   55.07330   97.10180   -0.00180    4.26680    2.66510  737.07110  846.00110  579.97440   28.84250    0.02670
 6898.00000    8.20340    0.02120   96.88680   54.57540   53.93000   55.21510   96.58280   97.30020   95.77560   55.04680   96.00670   -0.00120    4.28070    2.67360  705.04920  786.21930  601.56510   26.81770    0.02370
 6898.50000    8.20340    0.02020   96.76780   54.82020   54.17480   55.46010   96.23480   96.95220   95.42760   55.02030   96.00770   -0.00070    4.29660    2.67530  625.02410  718.34790  573.37610   27.10710    0.02450
 6899.00000    8.20340    0.02230   96.88630   54.84690   54.12880   55.48670   96.16520   96.88260   95.35810   54.80960   96.34280   -0.00010    4.42480    2.67170  561.00020  650.47650  545.18720   28.52850    0.02600
 6899.50000    8.20340    0.02390   96.88550   54.72810   53.65790   55.36770   96.44330   97.16100   95.63620   54.51760   96.70570    0.00070    4.55290    2.66910  592.74130  623.31750  574.11560   29.66630    0.02790
 6900.00000    8.20340    0.02310   96.25190   54.35800   53.66520   54.99770   96.54080   97.25840   95.73360   54.56480   96.84600    0.00150    4.62090    2.67030  672.12090  744.89290  660.55010   29.41510    0.02790
 6900.50000    8.20340    0.02190   96.50020   54.36510   53.67260   55.00480   96.78450   97.50200   95.97730   54.56480   96.76250    0.00230    4.62120    2.67240  751.50050  896.86790  695.13550   28.99170    0.02790
 6901.00000    8.20340    0.01980   96.78470   54.37210   53.67990   55.01190   96.93060   97.64820   96.12350   54.56480   96.55370    0.00320    4.49000    2.67600  674.60150  800.45680  664.99840   28.82230    0.02750
 6901.50000    8.20340    0.01780   96.51970   54.37870   53.68620   55.01850   96.93060   97.64820   96.12350   54.59960   96.34490    0.00320    4.35890    2.67940  572.06280  639.76320  635.74940   29.38880    0.02720
 6902.00000    8.20340    0.01840   97.08430   54.38340   53.69080   55.02300   96.92770   97.64520   96.12060   54.66530   96.13610    0.00320    4.28110    2.67830  637.23060  739.46460  606.50050   29.33730    0.02680
 6902.50000    8.20340    0.01910   97.88680   54.38800   53.69540   55.02760   96.92410   97.64160   96.11690   54.70400   95.92730    0.00320    4.29950    2.67730  745.83080  777.48190  600.66600   28.37160    0.02580
 6903.00000    8.20340    0.01970   97.91510   54.36050   53.65370   55.00010   96.92050   97.63790   96.11330   54.68660   95.88560    0.00320    4.30060    2.67620  672.21680  700.74420  603.22390   27.40590    0.02540
 6903.50000    8.20340    0.01860   96.66490   54.28490   53.58100   54.92450   96.91680   97.63420   96.10970   54.64310   95.90650    0.00320    4.30170    2.67810  748.76790 1014.82030  563.09390   26.44030    0.02550
