~Version ---------------------------------------------------
VERS.   2.0 : CWLS log ASCII Standard -VERSION 2.0
WRAP.    NO : One line per depth step
DLM . SPACE : Column Data Section Delimiter
~Well ------------------------------------------------------
STRT .FT                 485.0 : START DEPTH
STOP .FT                8925.0 : STOP DEPTH
STEP .FT                   0.5 : STEP
NULL .                -9999.25 : NULL VALUE
COMP .                         : COMPANY
WELL .                         : WELL
FLD  .                         : FIELD
LOC  .                         : LOCATION
PROV .                         : PROVINCE
CNTY .                         : COUNTY
STAT .                         : STATE
CTRY .                         : COUNTRY
SRVC .                         : SERVICE COMPANY
DATE .                         : DATE
UWI  .                         : UNIQUE WELL ID
API  .                         : API NUMBER
SLAT .WGS84 2.6918399674321023 : SURFACE LATITUDE
SLON .WGS84   8.82974560431299 : SURFACE LONGITUDE
DATUM.F                    nan : DEPTH DATUM ELEV
~Curve Information -----------------------------------------
DEPT   .FT    : 
CALD   .IN    : CALIPER FROM DENSITY LOG
DPHZ_LS.DEC   : HGRD STANDARD RESOLUTION DENSITY POROSITY
DT1    .US/F  : DELTA-T SHEAR - LOWER DIPOLE
DT4P   .US/F  : DELTA-T COMPRESSIONAL - MONOPOLE P & S
DT4PR  .US/F  : AUTOMATICALLY ADDED BY PROCLASCURVE_INSERT.
DT4PT  .US/F  : AUTOMATICALLY ADDED BY PROCLASCURVE_INSERT.
DT4S   .US/F  : DELTA-T SHEAR - MONOPOLE P & S
DT4SR  .US/F  : AUTOMATICALLY ADDED BY PROCLASCURVE_INSERT.
DT4ST  .US/F  : AUTOMATICALLY ADDED BY PROCLASCURVE_INSERT.
DTCO   .US/F  : DELTA-T COMPRESSIONAL
DTSM   .US/F  : DELTA-T SHEAR
HDRA   .G/C3  : HRDD SPINE AND RIBS DENSITY CORRECTION
PEFZ   .B/E   : HRDD STANDARD RESOLUTION FORMATION PHOTOELECTRIC FACTOR
RHOZ   .G/C3  : HRDD STANDARD RESOLUTION FORMATION DENSITY
RLA3   .OHMM  : APPARENT RESISTIVITY FROM COMPUTED FOCUSING MODE 3
RLA5   .OHMM  : APPARENT RESISTIVITY FROM COMPUTED FOCUSING MODE 5
RXOZ   .OHMM  : INVADED FORMATION RESISTIVITY FILTERED AT 18 INCHES
SGRDD  .GAPI  : SPECTROSCOPY GAMMA RAY FROM DENSITY LOG
TNPH_LS.DEC   : THERMAL NEUTRON POROSITY [LIMESTONE]
~Params ----------------------------------------------------
~Other -----------------------------------------------------
~ASCII -----------------------------------------------------
# ...
 6071.50000    8.22000    0.03710   95.08390   53.58480   52.89260   54.22450   93.46170   94.17940   92.66070   53.93100   96.59580   -0.00030    4.11440    2.64650 1654.75380 1725.06510  285.80820   34.50440    0.01050
 6072.00000    8.22000    0.03880   95.39750   52.77230   52.08000   53.41200   93.23990   93.95760   92.43280   53.39010   95.99700   -0.00180    4.14000    2.64360 1199.71640 1358.53960  375.38720   37.39110    0.01040
 6072.50000    8.22000    0.03780   95.39920   52.21530   51.50910   52.85500   92.97050   93.68810   92.16330   52.84910   95.05190   -0.00320    4.14430    2.64520  962.75840 1485.96500  361.39260   39.09070    0.00990
 6073.00000    8.22000    0.03700   94.87980   52.14200   51.51550   52.78180   92.70100   93.41860   91.89380   52.30820   94.10670   -0.00260    4.01220    2.64670 1872.43640 1951.99710  473.87920   39.07470    0.01120
 6073.50000    8.22000    0.03820   93.78950   51.94210   51.16230   52.58180   92.43160   93.14910   91.62440   52.12260   93.06980   -0.00270    3.88680    2.64450 1931.18530 2013.24830  594.44320   40.46690    0.01340
 6074.00000    8.22000    0.03940   93.27920   52.22680   51.59850   52.86650   92.16210   92.87970   91.35490   52.29600   92.27620   -0.00280    3.83590    2.64250  822.39850  891.17030  484.43960   42.42280    0.01480
 6074.50000    8.22000    0.03810   92.60840   52.69220   52.03480   53.33190   91.89270   92.61020   91.08540   52.74880   93.15140   -0.00280    3.82990    2.64470  632.86920  689.44620  404.11460   38.49810    0.01620
 6075.00000    8.22000    0.03620   92.52560   53.15750   52.47100   53.79720   91.76000   92.47140   90.95290   53.20160   93.36630   -0.00290    3.83890    2.64800  890.46950 1410.06010  319.88040   34.01340    0.01740
 6075.50000    8.22000    0.04140   92.05850   53.53480   52.85830   54.17450   91.73520   92.45280   90.92800   53.65440   93.38740   -0.00300    3.81850    2.63900  751.84060  775.08230  411.70800   32.40760    0.01740
 6076.00000    8.22000    0.04740   92.78550   53.89010   53.23330   54.52970   91.66710   92.38470   90.85990   53.92420   93.73300   -0.00310    3.80950    2.62890  520.79250  603.40350  305.09330   33.77400    0.01930
 6076.50000    8.22000    0.05250   93.73770   54.24530   53.60830   54.88500   92.25570   92.97320   91.44860   54.16280   93.53960   -0.00320    3.92930    2.62000  428.37330  588.73140  359.37780   32.77030    0.02220
 6077.00000    8.22000    0.05270   94.43620   54.59910   53.69660   55.23880   92.69410   93.68370   91.88690   54.53550   94.03110   -0.00200    4.17780    2.61980  707.54220 1090.34030  319.67140   25.02180    0.02230
 6077.50000    8.22000    0.04870   94.44990   54.20180   53.50950   54.84150   93.33810   94.05560   92.53090   53.42330   94.14860   -0.00090    4.42640    2.62660  884.34360 1137.52560  471.96660   19.32700    0.02120
 6078.00000    8.22000    0.04400   94.20570   53.96980   53.27750   54.60950   93.99160   94.70900   93.18440   53.27320   94.32960    0.00030    4.51700    2.63460  721.46720  832.97490  362.90130   13.63210    0.01810
 6078.50000    8.22000    0.03810   95.41580   53.78120   53.08890   54.42100   94.78490   95.49620   93.97760   53.38120   95.13850    0.00020    4.51070    2.64470  623.74140  650.24440  384.77980   15.12940    0.01690
 6079.00000    8.22000    0.03140   95.22180   53.52170   52.80770   54.16130   94.83020   95.54770   94.02300   53.52990   95.75560    0.00060    4.42070    2.65620 1070.21390 1115.68780  364.37330   19.22660    0.01590
 6079.50000    8.22000    0.03260   95.82850   53.26210   52.52650   53.90170   94.97050   95.68780   94.16320   53.24080   96.08490    0.00100    4.32960    2.65410 1029.25140 1072.98470  442.42460   25.60690    0.01560
 6080.00000    8.22000    0.03510   96.85460   52.91130   52.12090   53.55100   94.84160   95.55900   94.03430   52.95330   96.46520    0.00100    4.19980    2.64990  728.82310  873.31580  269.82590   32.42290    0.01970
 6080.50000    8.22000    0.03740   97.06770   52.62720   52.03960   53.26690   94.58140   95.29880   93.77410   52.89890   96.84550    0.00090    3.95250    2.64590  185.10390  211.04610  163.05370   35.81890    0.02290
 6081.00000    8.22000    0.03350   97.07760   53.15690   52.56940   53.79680   94.32120   95.03860   93.51400   53.28450   96.97500    0.00080    3.78340    2.65260  479.64330  874.39720  163.05370   29.06190    0.02050
 6081.50000    8.22000    0.03400   97.08740   53.13490   52.44980   53.77470   94.06100   94.77840   93.25380   53.45400   96.10100    0.00020    3.73520    2.65180 1101.77980 1171.35530  327.58760   22.26760    0.01580
 6082.00000    8.22000    0.03550   96.06710   53.18240   52.49450   53.82230   93.80080   94.51820   92.99360   53.62360   95.34250   -0.00050    3.78050    2.64920 1406.41880 1466.17820  458.65210   15.47340    0.00870
 6082.50000    8.22000    0.03560   95.07600   53.23000   52.53930   53.86980   93.65470   94.37230   92.84760   53.79320   94.66090    0.00020    3.87410    2.64900  899.20000 1018.57240  516.46020   15.78500    0.00860
 6083.00000    8.22000    0.03530   93.80860   53.27750   52.58400   53.91740   93.41560   94.13320   92.60840   53.89680   93.87730    0.00090    3.96770    2.64950  984.94500 1382.66110  656.59450   17.27210    0.01080
 6083.50000    8.22010    0.03750   93.52430   52.68610   51.99260   53.32590   92.43040   93.14790   91.62320   53.28210   92.64630    0.00290    4.04040    2.64580  855.22130 1255.60680  533.06860   18.75930    0.01240
 6084.00000    8.22080    0.04480   92.66640   52.09470   51.40120   52.73450   91.16800   91.88550   90.36080   52.48640   91.98320    0.00290    4.06420    2.63320  725.49760  829.98540  377.80450   20.24640    0.01410
 6084.50000    8.22150    0.04490   92.08310   51.64930   50.95580   52.28900   90.41550   91.13300   89.60840   52.10100   92.49700    0.00290    4.11500    2.63310  704.56990  780.92340  269.66210   21.73360    0.01570
 6085.00000    8.22220    0.04560   92.81010   52.01010   51.31660   52.65000   91.54910   92.26650   90.74190   52.45390   93.01070    0.00290    4.10390    2.63180  572.75100  645.31440  244.93030   23.22070    0.02160
 6085.50000    8.22290    0.04740   93.77660   51.96500   51.27150   52.60470   92.62580   93.34340   91.81870   52.38870   93.52450    0.00000    4.10320    2.62880  407.97720  454.68660  277.70240   23.31930    0.02450
 6086.00000    8.22360    0.04550   94.67530   52.49960   51.80600   53.13930   93.61790   94.33540   92.81070   52.60210   94.70460   -0.00040    4.17630    2.63210  663.79810  733.33080  356.04020   20.31490    0.02390
 6086.50000    8.22430    0.03250   95.17720   53.54430   52.85080   54.18390   94.60990   95.32740   93.80280   53.65070   95.52520   -0.00080    4.24230    2.65430 1090.16630 1238.04860  540.58570   17.31040    0.02000
 6087.00000    8.22500    0.02220   95.30880   53.81200   53.11850   54.45180   94.80220   95.51980   93.99510   54.11690   95.83050    0.00000    4.24020    2.67200 1516.53440 1597.89950  826.79660   14.90690    0.01690
 6087.50000    8.22570    0.02990   95.43930   53.14180   52.44830   53.78160   94.23370   94.95120   93.42650   53.99330   95.97760   -0.00180    4.18860    2.65150 1445.57400 1488.08230  456.12180   16.28660    0.01420
 6088.00000    8.22640    0.03960   95.08610   52.47160   51.77810   53.11140   93.66510   94.38270   92.85800   53.86970   95.78910   -0.00350    4.14810    2.63100  612.11390  524.63380  294.96040   18.01120    0.01540
 6088.50000    8.22710    0.04550   95.34160   52.56340   51.86980   53.20320   93.09660   93.81410   92.28940   53.74610   95.73760   -0.00530    4.08110    2.63030  441.09720  541.54970  217.29360   19.00600    0.01770
 6089.00000    8.22780    0.04350   95.58810   52.84570   52.15210   53.48540   93.39120   94.10870   92.58400   53.60420   96.15620   -0.00430    4.07310    2.63160  495.88590  593.64940  170.34960   19.81830    0.01830
 6089.50000    8.22850    0.04280   95.82870   52.69320   51.99970   53.33300   93.68570   94.40330   92.87860   53.74600  121.69030   -0.00320    4.07730    2.63470  455.63580  484.35220  158.80830   20.63050    0.01810
