~Version ---------------------------------------------------
VERS.   2.0 : CWLS log ASCII Standard -VERSION 2.0
WRAP.    NO : One line per depth step
DLM . SPACE : Column Data Section Delimiter
~Well ------------------------------------------------------
STRT .FT                 485.0 : START DEPTH
STOP .FT                8925.0 : STOP DEPTH
STEP .FT                   0.5 : STEP
NULL .                -9999.25 : NULL VALUE
COMP .                         : COMPANY
WELL .                         : WELL
FLD  .                         : FIELD
LOC  .                         : LOCATION
PROV .                         : PROVINCE
CNTY .                         : COUNTY
STAT .                         : STATE
CTRY .                         : COUNTRY
SRVC .                         : SERVICE COMPANY
DATE .                         : DATE
UWI  .                         : UNIQUE WELL ID
API  .                         : API NUMBER
SLAT .WGS84 2.6918399674321023 : SURFACE LATITUDE
SLON .WGS84   8.82974560431299 : SURFACE LONGITUDE
DATUM.F                    nan : DEPTH DATUM ELEV
~Curve Information -----------------------------------------
DEPT   .FT    : 
CALD   .IN    : CALIPER FROM DENSITY LOG
DPHZ_LS.DEC   : HGRD STANDARD RESOLUTION DENSITY POROSITY
DT1    .US/F  : DELTA-T SHEAR - LOWER DIPOLE
DT4P   .US/F  : DELTA-T COMPRESSIONAL - MONOPOLE P & S
DT4PR  .US/F  : AUTOMATICALLY ADDED BY PROCLASCURVE_INSERT.
DT4PT  .US/F  : AUTOMATICALLY ADDED BY PROCLASCURVE_INSERT.
DT4S   .US/F  : DELTA-T SHEAR - MONOPOLE P & S
DT4SR  .US/F  : AUTOMATICALLY ADDED BY PROCLASCURVE_INSERT.
DT4ST  .US/F  : AUTOMATICALLY ADDED BY PROCLASCURVE_INSERT.
DTCO   .US/F  : DELTA-T COMPRESSIONAL
DTSM   .US/F  : DELTA-T SHEAR
HDRA   .G/C3  : HRDD SPINE AND RIBS DENSITY CORRECTION
PEFZ   .B/E   : HRDD STANDARD RESOLUTION FORMATION PHOTOELECTRIC FACTOR
RHOZ   .G/C3  : HRDD STANDARD RESOLUTION FORMATION DENSITY
RLA3   .OHMM  : APPARENT RESISTIVITY FROM COMPUTED FOCUSING MODE 3
RLA5   .OHMM  : APPARENT RESISTIVITY FROM COMPUTED FOCUSING MODE 5
RXOZ   .OHMM  : INVADED FORMATION RESISTIVITY FILTERED AT 18 INCHES
SGRDD  .GAPI  : SPECTROSCOPY GAMMA RAY FROM DENSITY LOG
TNPH_LS.DEC   : THERMAL NEUTRON POROSITY [LIMESTONE]
~Params ----------------------------------------------------
~Other -----------------------------------------------------
~ASCII -----------------------------------------------------
# ...
 6478.50000    8.77900    0.10040  106.01620   62.85630   62.37150   63.49590  104.30080  106.24930  103.49360   63.51580  107.19840   -0.00490    2.51950    2.53820    9.30660    9.70140    8.68040   85.99940    0.11260
 6479.00000    8.79120    0.10190  106.89740   63.75710   63.20780   64.39680  109.42260  111.81670  106.14080   64.43500  107.82100   -0.00530    2.48910    2.53560    9.98680   10.41040    9.49860   86.71490    0.11260
 6479.50000    8.78890    0.10700  107.84620   64.62220   64.04410   65.26190  110.98120  112.02140  109.10980   65.29880  108.31170   -0.00530    2.46020    2.52690    9.75440   10.16820    9.20290   80.84730    0.11690
 6480.00000    8.78290    0.11290  108.48690   65.48730   64.88040   66.12700  110.71100  111.83800  109.48650   65.87310  109.03980   -0.00530    2.44000    2.51680    7.89430    8.22920    7.37440   76.19970    0.12020
 6480.50000    8.80330    0.11890  109.12770   66.35250   65.71670   66.99210  110.15380  111.65470  109.57850   66.69270  109.88980   -0.00530    2.44510    2.50660    6.03420    6.29020    5.54600   71.39770    0.11630
 6481.00000    8.80360    0.11940  109.58580   67.21760   66.55290   67.85720  111.45350  111.85900  110.35640   67.13940  108.76100   -0.00530    2.48710    2.50570    5.29040    5.51480    5.08080   67.63910    0.11190
 6481.50000    8.80390    0.11650  109.67180   68.08270   67.38920   68.72230  113.07840  113.61400  112.22290   67.84020  110.09600   -0.00530    2.55320    2.51070    6.06410    6.32120    5.55350   65.18370    0.10740
 6482.00000    8.80420    0.11120  110.81370   68.65640   68.01510   69.29600  113.97220  115.36910  113.16500   68.54090  111.00140   -0.00530    2.57670    2.51960    6.22410    6.48830    6.35800   63.52370    0.10300
 6482.50000    8.79790    0.10600  111.89030   68.63400   67.94050   69.27360  114.68330  115.99810  113.87600   68.57680  111.78870   -0.00530    2.59540    2.52860    7.46620    7.78300    6.05620   62.39400    0.10210
 6483.00000    8.78200    0.10080  112.58100   68.44830   67.75480   69.08790  114.36110  115.55130  113.55390   68.43070  112.51620   -0.00370    2.57930    2.53750    6.77610    7.06360    6.42140   62.89360    0.10560
 6483.50000    8.77240    0.09660  113.33200   68.26260   67.56910   68.90230  114.03900  114.99290  113.23180   68.38400  112.54150   -0.00220    2.54470    2.54470    6.51550    6.79190    6.19410   63.77290    0.10840
 6484.00000    8.78520    0.09700  112.78310   68.07680   67.38330   68.71660  113.71690  114.43450  112.90970   68.14420  112.47520   -0.00060    2.51020    2.54390    6.27130    6.53740    6.05790   63.96260    0.10740
 6484.50000    8.81700    0.09620  112.13830   67.95130   67.25780   68.59100  112.83110  113.54850  112.02400   67.96770  112.27150    0.00000    2.47570    2.54530    6.14660    6.40740    6.20970   64.66420    0.10650
 6485.00000    8.82400    0.09390  111.66130   67.82570   67.13220   68.46550  112.74880  113.46630  111.94170   67.87200  112.06780    0.00000    2.46880    2.54920    6.68880    6.97270    6.36150   67.75430    0.10440
 6485.50000    8.79370    0.09430  111.18440   67.70010   67.00670   68.33990  112.94210  113.65970  112.13500   67.70960  111.93270    0.00000    2.51100    2.54870    6.66810    6.95110    6.54270   70.92970    0.10420
 6486.00000    8.78820    0.09810  110.67700   67.57450   66.88110   68.21430  113.24760  113.96520  112.44040   67.56010  111.98380   -0.00260    2.58370    2.54210    6.93340    7.22760    7.01390   72.83490    0.10420
 6486.50000    8.75220    0.10190  109.60220   67.52610   66.83260   68.16590  113.10720  114.03090  112.30000   67.76160  111.33490   -0.00400    2.63280    2.53550    7.91360    8.24950    7.67840   71.16040    0.10330
 6487.00000    8.70430    0.10190  110.50660   67.47760   66.78410   68.11740  113.23600  114.03660  112.42880   67.64890  111.10350   -0.00470    2.60980    2.53550    8.59220    8.95680    8.34290   74.05060    0.10250
 6487.50000    8.65630    0.09740  110.81170   66.98950   66.29610   67.62930  112.90440  114.04240  111.77590   67.10940  111.23390   -0.00540    2.58020    2.54330   20.51140   21.38190   11.60800   82.54010    0.11460
 6488.00000    8.61790    0.09040  111.13880   66.39160   65.69820   67.03140  112.57280  114.04460  110.76430   66.42830  111.42190   -0.00610    2.56160    2.55530   36.11680   37.64950   20.48810   90.68070    0.12630
 6488.50000    8.57510    0.08440  111.91440   66.97440   66.28090   67.61410  112.09530  114.04410  110.33730   67.02480  111.57600   -0.00680    2.57240    2.56560   42.91640   44.73790   30.35730   98.58850    0.13340
 6489.00000    8.53860    0.08410  112.28280   66.95130   66.25780   67.59100  112.09490  113.46280  109.91030   67.12490  111.30210   -0.00750    2.60280    2.56600   40.74860   42.47810   38.25370  100.43910    0.13030
 6489.50000    8.51590    0.08940  110.97480   66.77680   66.08330   67.41660  111.22880  112.49440  109.48330   67.03030  110.82780   -0.00820    2.63320    2.55690   49.82710   55.69580   38.63370  100.41550    0.12870
 6490.00000    8.49330    0.09610  111.22330   66.77750   66.08410   67.41730  110.45620  111.52610  109.05630   67.10330  110.35350   -0.00720    2.66360    2.54550   69.15060   85.22440   54.94540  100.39200    0.13690
 6490.50000    8.46770    0.10320  110.95710   67.04120   66.34770   67.68090  109.68370  110.55780  108.61680   67.45920  109.65520   -0.00620    2.69440    2.53350   88.47410  114.75300   71.25700  100.36840    0.14560
 6491.00000    8.44190    0.10020  109.56100   67.30480   66.61130   67.94450  108.85680  109.57430  108.04960   67.67980  109.28290   -0.00520    2.67340    2.53840  130.42290  135.95860   91.65770  100.34490    0.14230
 6491.50000    8.43320    0.09380  109.13300   67.56240   66.87150   68.20210  109.03870  109.75610  108.23140   67.78930  109.31650   -0.00170    2.62710    2.54940  151.83520  158.27980  127.75960  100.32130    0.13430
 6492.00000    8.37820    0.08740  109.20540   67.79590   67.11800   68.43570  109.79160  110.50900  108.98440   68.01070  110.19240    0.00040    2.55970    2.56030  171.11840  178.38120  127.91670  100.29770    0.12790
 6492.50000    8.39640    0.08290  110.58460   68.02950   67.36460   68.66930  109.39440  110.11170  108.58720   68.01520  111.52400    0.00240    2.52580    2.56810   91.99140  127.32780   91.12310  100.27420    0.12790
 6493.00000    8.41140    0.08610  110.75220   68.26310   67.61110   68.90290  109.43610  110.15350  108.62890   68.39920  112.05250    0.00250    2.55590    2.56260   91.09920  106.04320   61.68820  100.25060    0.13630
 6493.50000    8.40440    0.09120  110.80980   68.43600   67.79080   69.11320  109.98590  110.70340  109.17870   69.04510  111.77390   -0.00010    2.60160    2.55400  145.10330  172.61550  125.66000  100.22710    0.14140
 6494.00000    8.40830    0.09620  110.37440   68.51800   67.92590   69.28840  110.40900  111.12650  109.60180   68.62620  112.12800   -0.00270    2.63440    2.54540  166.70490  181.51830  113.84520  100.20350    0.13270
 6494.50000    8.41140    0.10030  110.56670   68.60000   68.06100   69.46360  110.26460  110.98210  109.45740   68.59260  112.55570   -0.00530    2.61540    2.53840  145.44180  155.83540   94.15390  100.17990    0.12600
 6495.00000    8.41140    0.09970  110.75080   68.68200   68.19620   69.63880  110.28110  110.99860  109.47390   68.62250  112.74260   -0.00460    2.59650    2.53940  181.98840  202.08660   93.48340  100.15640    0.12620
 6495.50000    8.41140    0.09680  110.59360   68.76400   68.33130   69.81410  110.37140  111.08900  109.56420   68.78700  112.04320   -0.00290    2.57010    2.54440  155.71790  165.89740   99.45110  100.13280    0.12940
 6496.00000    8.45840    0.09380  110.77340   68.84600   68.46640   69.98930  110.15990  110.87750  109.35270   68.76680  113.26390   -0.00120    2.51420    2.54950   84.43470   88.01850   60.22120  100.10930    0.13350
 6496.50000    8.50870    0.09420  112.41440   69.02140   68.60150   70.16450  110.18930  110.90690  109.38200   69.18670  114.73480   -0.00160    2.50350    2.54880   35.10220   36.59210   27.73740  100.08570    0.13760
