~Version ---------------------------------------------------
VERS.   2.0 : CWLS log ASCII Standard -VERSION 2.0
WRAP.    NO : One line per depth step
DLM . SPACE : Column Data Section Delimiter
~Well ------------------------------------------------------
STRT .FT                 485.0 : START DEPTH
STOP .FT                8925.0 : STOP DEPTH
STEP .FT                   0.5 : STEP
NULL .                -9999.25 : NULL VALUE
COMP .                         : COMPANY
WELL .                         : WELL
FLD  .                         : FIELD
LOC  .                         : LOCATION
PROV .                         : PROVINCE
CNTY .                         : COUNTY
STAT .                         : STATE
CTRY .                         : COUNTRY
SRVC .                         : SERVICE COMPANY
DATE .                         : DATE
UWI  .                         : UNIQUE WELL ID
API  .                         : API NUMBER
SLAT .WGS84 2.6918399674321023 : SURFACE LATITUDE
SLON .WGS84   8.82974560431299 : SURFACE LONGITUDE
DATUM.F                    nan : DEPTH DATUM ELEV
~Curve Information -----------------------------------------
DEPT   .FT    : 
CALD   .IN    : CALIPER FROM DENSITY LOG
DPHZ_LS.DEC   : HGRD STANDARD RESOLUTION DENSITY POROSITY
DT1    .US/F  : DELTA-T SHEAR - LOWER DIPOLE
DT4P   .US/F  : DELTA-T COMPRESSIONAL - MONOPOLE P & S
DT4PR  .US/F  : AUTOMATICALLY ADDED BY PROCLASCURVE_INSERT.
DT4PT  .US/F  : AUTOMATICALLY ADDED BY PROCLASCURVE_INSERT.
DT4S   .US/F  : DELTA-T SHEAR - MONOPOLE P & S
DT4SR  .US/F  : AUTOMATICALLY ADDED BY PROCLASCURVE_INSERT.
DT4ST  .US/F  : AUTOMATICALLY ADDED BY PROCLASCURVE_INSERT.
DTCO   .US/F  : DELTA-T COMPRESSIONAL
DTSM   .US/F  : DELTA-T SHEAR
HDRA   .G/C3  : HRDD SPINE AND RIBS DENSITY CORRECTION
PEFZ   .B/E   : HRDD STANDARD RESOLUTION FORMATION PHOTOELECTRIC FACTOR
RHOZ   .G/C3  : HRDD STANDARD RESOLUTION FORMATION DENSITY
RLA3   .OHMM  : APPARENT RESISTIVITY FROM COMPUTED FOCUSING MODE 3
RLA5   .OHMM  : APPARENT RESISTIVITY FROM COMPUTED FOCUSING MODE 5
RXOZ   .OHMM  : INVADED FORMATION RESISTIVITY FILTERED AT 18 INCHES
SGRDD  .GAPI  : SPECTROSCOPY GAMMA RAY FROM DENSITY LOG
TNPH_LS.DEC   : THERMAL NEUTRON POROSITY [LIMESTONE]
~Params ----------------------------------------------------
~Other -----------------------------------------------------
~ASCII -----------------------------------------------------
# ...
 4055.50000    8.65110    0.13190  122.98580   71.80290   71.08640   72.44260  123.06100  123.77840  122.25380   72.17680  124.70970   -0.00530    2.38100    2.48390    5.74790    5.58150    6.92160   68.68800    0.15130
 4056.00000    8.64730    0.12950  121.80880   71.39750   70.69650   72.03720  121.93670  122.65410  121.12950   71.74140  123.80270   -0.00530    2.40100    2.48810    6.88400    6.68470    7.48360   70.92890    0.15130
 4056.50000    8.63640    0.13080  119.73960   71.06240   70.36770   71.70210  120.81240  121.52970  120.00520   71.45440  122.75610   -0.00530    2.41400    2.48580    7.19230    6.98410    7.54690   70.89160    0.14060
 4057.00000    8.64290    0.13160  118.74690   70.77420   70.07940   71.41390  119.97870  120.69630  119.17160   71.10270  121.71680   -0.00530    2.39820    2.48440    6.12080    6.10590    6.68640   67.71730    0.12990
 4057.50000    8.64560    0.13230  118.32820   70.48590   69.79120   71.12560  119.57150  120.28900  118.76430   70.95120  121.07890   -0.00550    2.40700    2.48330    5.63690    5.40330    6.13010   70.84440    0.13090
 4058.00000    8.63300    0.12460  117.90960   70.29370   69.59900   70.93350  119.37110  120.08870  118.56400   70.72450  120.78890   -0.00620    2.46370    2.49650    6.76450    5.50970    7.22690   77.94780    0.13590
 4058.50000    8.62050    0.11170  117.65840   70.48570   69.79100   71.12560  119.26340  119.98080  118.45620   70.84780  120.83570   -0.00680    2.60620    2.51850   11.90240    9.46440   14.44820   85.05130    0.14150
 4059.00000    8.60790    0.09640  117.65840   70.59100   69.89620   71.23070  118.74260  119.46010  117.93540   71.01920  120.75230   -0.00710    2.72050    2.54460   15.38250   13.41910   17.56340   92.80560    0.14830
 4059.50000    8.60120    0.08790  117.98570   70.85400   70.15920   71.49370  118.91520  119.63260  118.10800   71.05340  120.10880   -0.00600    2.81600    2.55920   12.65810   11.86680   15.21560   96.17710    0.15380
 4060.00000    8.59610    0.08360  118.47100   70.80030   70.10620   71.44000  119.59670  120.31410  118.78950   71.20570  121.19990   -0.00480    2.88330    2.56660   12.65810   11.55630   13.28230   98.20890    0.16240
 4060.50000    8.59090    0.08470  118.78790   70.94850   70.25540   71.58820  120.32420  121.04160  119.51700   71.45310  122.08260   -0.00360    2.90320    2.56470   18.31890   16.09960   18.05450  100.24070    0.17420
 4061.00000    8.58570    0.08980  118.43150   71.02000   70.32770   71.65970  120.57880  121.29640  119.77160   71.70040  121.68180   -0.00270    2.86130    2.55600   25.39480   20.47130   27.85900  100.09910    0.17580
 4061.50000    8.59460    0.09550  118.07500   70.78460   70.09230   71.42430  120.03030  120.74760  119.22310   71.59340  120.70330   -0.00190    2.74800    2.54630   20.54230   15.45690   28.40740   91.56970    0.16130
 4062.00000    8.59610    0.10050  117.71850   70.54920   69.85690   71.18890  120.36600  121.08360  119.55880   71.14970  119.97090   -0.00100    2.63400    2.53780   10.52950    7.53980   11.48630   80.26290    0.14730
 4062.50000    8.62030    0.10170  117.36210   70.31380   69.62150   70.95350  119.46180  120.17950  118.65460   70.94720  118.83620    0.00080    2.55770    2.53570    6.33640    5.87950    7.21130   72.46200    0.13790
 4063.00000    8.62990    0.10010  117.00560   70.07840   69.38610   70.71810  118.14870  118.86630  117.12960   70.56530  117.00560   -0.00030    2.49490    2.53850    6.59330    6.14340    6.98080   67.99120    0.13520
 4063.50000    8.62530    0.10030  116.64910   69.84310   69.15070   70.48270  117.39120  118.10870  116.01890   69.73330  116.35390   -0.00140    2.48550    2.53820    7.23550    6.88400    7.48110   67.42610    0.13260
 4064.00000    8.62070    0.09990  116.29260   69.60770   68.91530   70.24730  116.60320  117.32070  115.54900   69.17080  116.26900   -0.00250    2.51190    2.53880    7.87780    7.62470    8.28740   67.30110    0.12990
 4064.50000    8.61610    0.10090  115.68510   69.37230   68.68000   70.01190  115.96340  116.68090  115.23810   68.56810  116.35850   -0.00350    2.53640    2.53710    7.92860    7.32140    8.65020   64.29430    0.12770
 4065.00000    8.61150    0.10750  116.04210   69.14280   68.45050   69.78240  115.88780  116.60520  114.92720   68.17950  116.30830   -0.00430    2.51870    2.52580    7.12690    6.14140    8.10600   60.26950    0.12770
 4065.50000    8.62830    0.11950  116.46720   68.84360   68.15130   69.48320  115.81210  116.52960  114.86000   68.08530  116.54480   -0.00510    2.45750    2.50520    5.31490    4.88690    6.47290   56.24480    0.12920
 4066.00000    8.65030    0.13210  117.41620   68.65680   67.96460   69.29650  116.36490  117.08230  115.26000   68.28540  116.78120   -0.00510    2.38330    2.48380    3.72920    3.63230    4.94430   54.77650    0.13650
 4066.50000    8.67240    0.14260  117.98040   68.85260   68.38170   69.49220  119.79910  121.38520  117.46790   68.91780  117.28900   -0.00480    2.35150    2.46580    3.04850    2.70220    3.41580   56.91460    0.14370
 4067.00000    8.68640    0.15270  120.37310   69.95940   69.48850   70.78650  122.98680  125.68820  120.57080   70.11800  118.58720   -0.00400    2.34180    2.44860    2.53740    2.47370    3.07850   59.05270    0.15100
 4067.50000    8.70320    0.15780  122.47730   71.06630   70.59530   72.08070  126.11280  129.43390  123.67370   71.43700  123.23120   -0.00330    2.35710    2.43990    2.47630    2.36930    2.90920   61.00330    0.15820
 4068.00000    8.72530    0.16260  124.39930   72.17310   71.70210   73.37490  129.23880  131.50920  126.77660   72.61630  126.44970   -0.00250    2.36790    2.43170    2.26590    2.17870    2.69360   62.67260    0.16260
 4068.50000    8.74390    0.16640  127.69930   73.27990   72.80890   74.66910  131.14650  135.28510  128.43860   73.93790  129.43780   -0.00170    2.37860    2.42510    2.05560    1.98800    2.58300   64.39870    0.16090
 4069.00000    8.74790    0.17030  130.75800   74.38670   73.91580   75.96330  133.63850  138.47780  130.10060   75.06620  131.68850   -0.00100    2.38940    2.41860    1.91070    1.85540    2.49070   66.12490    0.16010
 4069.50000    8.75430    0.17410  132.74570   75.36510   74.63430   77.25750  136.13040  139.37610  131.76260   75.81940  134.05750   -0.00020    2.40910    2.41200    1.91070    1.85540    2.45630   66.81530    0.16350
 4070.00000    8.77000    0.17790  134.73330   75.99160   75.06840   77.66210  138.48010  139.74190  133.42460   76.28660  135.75210   -0.00130    2.40980    2.40550    1.91070    1.85540    2.44150   65.86020    0.16770
 4070.50000    8.76470    0.18180  136.34190   76.78600   75.50250   78.17140  139.31730  140.03470  135.08660   76.66700  137.26380   -0.00280    2.39930    2.39890    1.89530    1.84040    2.44460   64.66620    0.17190
 4071.00000    8.76320    0.18560  137.51400   77.00680   75.93660   78.33710  139.59770  140.31510  136.53520   77.04740  138.63090   -0.00430    2.37690    2.39240    1.84680    1.77740    2.41810   63.47220    0.17620
 4071.50000    8.77190    0.18870  140.25500   77.22770   76.37070   78.50280  139.83180  140.41620  137.37250   77.31190  139.09510   -0.00530    2.35750    2.38670    1.79010    1.70240    2.36020   62.27830    0.18040
 4072.00000    8.77190    0.18740  140.80450   77.44850   76.80480   78.66850  140.06580  140.51730  138.07090   77.70180  139.77820   -0.00330    2.38510    2.38930    1.75590    1.62740    2.30310   61.56040    0.18470
 4072.50000    8.77190    0.18480  140.46340   77.66930   77.23880   78.83420  140.29990  140.61840  138.64690   77.95050  140.64770   -0.00090    2.36970    2.39380    1.73680    1.58240    2.26170   63.15670    0.18760
 4073.00000    8.77190    0.18220  140.77980   77.89020   77.41250   78.99990  140.53400  140.71950  139.43200   78.07010  141.54820    0.00060    2.34580    2.39820    1.71760    1.57210    2.21130   64.75300    0.18760
 4073.50000    8.77190    0.18550  142.02290   78.11100   77.51690   79.16570  140.72150  142.80960  140.21710   78.44680  142.54270   -0.00120    2.33310    2.39260    1.69850    1.51820    2.17210   66.34930    0.18760
