~Version ---------------------------------------------------
VERS.   2.0 : CWLS log ASCII Standard -VERSION 2.0
WRAP.    NO : One line per depth step
DLM . SPACE : Column Data Section Delimiter
~Well ------------------------------------------------------
STRT .FT                 485.0 : START DEPTH
STOP .FT                8925.0 : STOP DEPTH
STEP .FT                   0.5 : STEP
NULL .                -9999.25 : NULL VALUE
COMP .                         : COMPANY
WELL .                         : WELL
FLD  .                         : FIELD
LOC  .                         : LOCATION
PROV .                         : PROVINCE
CNTY .                         : COUNTY
STAT .                         : STATE
CTRY .                         : COUNTRY
SRVC .                         : SERVICE COMPANY
DATE .                         : DATE
UWI  .                         : UNIQUE WELL ID
API  .                         : API NUMBER
SLAT .WGS84 2.6918399674321023 : SURFACE LATITUDE
SLON .WGS84   8.82974560431299 : SURFACE LONGITUDE
DATUM.F                    nan : DEPTH DATUM ELEV
~Curve Information -----------------------------------------
DEPT   .FT    : 
CALD   .IN    : CALIPER FROM DENSITY LOG
DPHZ_LS.DEC   : HGRD STANDARD RESOLUTION DENSITY POROSITY
DT1    .US/F  : DELTA-T SHEAR - LOWER DIPOLE
DT4P   .US/F  : DELTA-T COMPRESSIONAL - MONOPOLE P & S
DT4PR  .US/F  : AUTOMATICALLY ADDED BY PROCLASCURVE_INSERT.
DT4PT  .US/F  : AUTOMATICALLY ADDED BY PROCLASCURVE_INSERT.
DT4S   .US/F  : DELTA-T SHEAR - MONOPOLE P & S
DT4SR  .US/F  : AUTOMATICALLY ADDED BY PROCLASCURVE_INSERT.
DT4ST  .US/F  : AUTOMATICALLY ADDED BY PROCLASCURVE_INSERT.
DTCO   .US/F  : DELTA-T COMPRESSIONAL
DTSM   .US/F  : DELTA-T SHEAR
HDRA   .G/C3  : HRDD SPINE AND RIBS DENSITY CORRECTION
PEFZ   .B/E   : HRDD STANDARD RESOLUTION FORMATION PHOTOELECTRIC FACTOR
RHOZ   .G/C3  : HRDD STANDARD RESOLUTION FORMATION DENSITY
RLA3   .OHMM  : APPARENT RESISTIVITY FROM COMPUTED FOCUSING MODE 3
RLA5   .OHMM  : APPARENT RESISTIVITY FROM COMPUTED FOCUSING MODE 5
RXOZ   .OHMM  : INVADED FORMATION RESISTIVITY FILTERED AT 18 INCHES
SGRDD  .GAPI  : SPECTROSCOPY GAMMA RAY FROM DENSITY LOG
TNPH_LS.DEC   : THERMAL NEUTRON POROSITY [LIMESTONE]
~Params ----------------------------------------------------
~Other -----------------------------------------------------
~ASCII -----------------------------------------------------
# ...
 8902.00000    7.35980    0.15590  105.48910   59.80640   59.11640   60.44570  103.46020  104.17780  102.65300   59.72960  104.57970    0.21480    3.44230    2.44250   19.88280   24.11820    2.22120   -9999.25   -9999.25
 8902.50000    7.36250    0.15560  105.46310   59.79950   59.10920   60.43630  103.50270  104.22040  102.69550   59.80660  104.56620    0.21630    3.46340    2.44300   20.29450   22.04720    2.22110   -9999.25   -9999.25
 8903.00000    7.36510    0.15530  105.25530   59.79270   59.10190   60.42700  103.54520  104.26290  102.73800   59.79900  104.55270    0.21690    3.47050    2.44350   17.82560   19.84680    2.22090   -9999.25   -9999.25
 8903.50000    7.36610    0.15540  105.06810   59.78580   59.09470   60.41770  103.70510  104.42270  102.89790   59.73730  104.53920    0.21750    3.49330    2.44330   18.42380   20.21430    2.22070   -9999.25   -9999.25
 8904.00000    7.36010    0.15540  105.06810   59.77890   59.08740   60.40830  103.70120  104.41870  102.89400   59.66480  104.52570    0.21810    3.50530    2.44340   19.02210   21.13330    2.22050   -9999.25   -9999.25
 8904.50000    7.35420    0.15530  105.51850   59.77200   59.08020   60.39900  103.47080  104.18830  102.66360   59.63080  104.51220    0.21930    3.50970    2.44340   19.11200   21.57390    2.22030   -9999.25   -9999.25
 8905.00000    7.37130    0.15530  105.03580   59.76520   59.07290   60.38970  103.37360  104.09100  102.56640   59.62070  103.95970    0.21860    3.50270    2.44350   19.07490   21.46310    2.22010   -9999.25   -9999.25
 8905.50000   -9999.25   -9999.25  104.00640   59.75830   59.06570   60.38030  103.45730  104.17470  102.65010   59.61560  103.24490   -9999.25   -9999.25   -9999.25   19.03780   21.35230    2.17940   -9999.25   -9999.25
 8906.00000   -9999.25   -9999.25  104.02240   59.75140   59.05850   60.37100  103.30220  104.01960  102.49500   59.61560  103.22170   -9999.25   -9999.25   -9999.25   19.00060   21.24150    2.16350   -9999.25   -9999.25
 8906.50000   -9999.25   -9999.25  104.86630   59.74450   59.05120   60.36170  103.14700  103.86460  102.33980   59.55810  103.37370   -9999.25   -9999.25   -9999.25   18.96350   21.13060    2.07210   -9999.25   -9999.25
 8907.00000   -9999.25   -9999.25  104.48420   59.73770   59.04400   60.35230  103.56290  104.28040  102.75570   59.53720  104.22640   -9999.25   -9999.25   -9999.25   18.74390   20.97510    1.39180   -9999.25   -9999.25
 8907.50000   -9999.25   -9999.25  104.04200   59.73080   59.03670   60.34300  103.62050  104.33810  102.81330   59.58800  104.45310   -9999.25   -9999.25   -9999.25   18.47870   20.64100    0.68620   -9999.25   -9999.25
 8908.00000   -9999.25   -9999.25  104.05920   59.72390   59.02950   60.33370  103.58850  104.30610  102.78130   59.63870  103.69120   -9999.25   -9999.25   -9999.25   18.21360   20.30680    0.50440   -9999.25   -9999.25
 8908.50000   -9999.25   -9999.25  103.46960   59.71700   59.02220   60.32440  103.55650  104.27420  102.74930   59.68940  103.35530   -9999.25   -9999.25   -9999.25   18.05450   20.10630    0.44100   -9999.25   -9999.25
 8909.00000   -9999.25   -9999.25  103.72970   59.71020   59.01500   60.31500  103.42920  104.14680  102.62200   59.74020  103.01930   -9999.25   -9999.25   -9999.25   18.14060   20.10630    0.44280   -9999.25   -9999.25
 8909.50000   -9999.25   -9999.25  104.27210   59.70330   59.00780   60.30570  103.50140  104.21900  102.69420   59.79090  102.82250   -9999.25   -9999.25   -9999.25   18.57120   20.17180   -9999.25   -9999.25   -9999.25
 8910.00000   -9999.25   -9999.25  103.68790   59.69640   59.00050   60.29640  103.67430  104.39190  102.86710   59.84160  103.18220   -9999.25   -9999.25   -9999.25   19.00180   20.77910   -9999.25   -9999.25   -9999.25
 8910.50000   -9999.25   -9999.25  103.71540   59.68950   58.99330   60.28700  103.83470  104.55220  103.02750   59.89240  103.41000   -9999.25   -9999.25   -9999.25   19.43240   21.45620   -9999.25   -9999.25   -9999.25
 8911.00000   -9999.25   -9999.25  104.11930   59.68270   58.99120   60.27770  103.99500  104.71260  103.18790   59.94310  104.44940   -9999.25   -9999.25   -9999.25   19.51530   21.40080   -9999.25   -9999.25   -9999.25
 8911.50000   -9999.25   -9999.25  104.13430   59.69940   59.01010   60.27630  104.14680  104.86440  103.33960   59.99390  103.31510   -9999.25   -9999.25   -9999.25   19.49920   21.34540   -9999.25   -9999.25   -9999.25
 8912.00000   -9999.25   -9999.25  103.62260   59.71620   59.02890   60.27490  104.15670  104.87440  103.34950   60.04460  103.73270   -9999.25   -9999.25   -9999.25   19.48310   21.29000   -9999.25   -9999.25   -9999.25
 8912.50000   -9999.25   -9999.25  103.62480   59.73300   59.04770   60.27360  104.16660  104.88430  103.35940   60.02720  105.10450   -9999.25   -9999.25   -9999.25   19.46700   21.23460   -9999.25   -9999.25   -9999.25
 8913.00000   -9999.25   -9999.25  103.62710   59.74980   59.06650   60.27220  104.17650  104.89420  103.36930   59.96450  104.45770   -9999.25   -9999.25   -9999.25   19.45090   21.17920   -9999.25   -9999.25   -9999.25
 8913.50000   -9999.25   -9999.25  103.62930   59.76660   59.08530   60.27080  104.18650  104.90410  103.37930   59.92700  103.81100   -9999.25   -9999.25   -9999.25   19.43480   21.18650   -9999.25   -9999.25   -9999.25
 8914.00000   -9999.25   -9999.25  103.63150   59.78330   59.10420   60.26940  104.19640  104.91410  103.38920   59.90430  103.40030   -9999.25   -9999.25   -9999.25   19.41870   21.19370   -9999.25   -9999.25   -9999.25
 8914.50000   -9999.25   -9999.25  103.86040   59.80010   59.12300   60.26810  104.20630  104.92400  103.39910   59.86620  104.18540   -9999.25   -9999.25   -9999.25   19.40260   21.20100   -9999.25   -9999.25   -9999.25
 8915.00000   -9999.25   -9999.25  103.71730   59.81690   59.14180   60.26670  104.21630  104.93390  103.40910   59.78950  104.17810   -9999.25   -9999.25   -9999.25   19.38650   21.20820   -9999.25   -9999.25   -9999.25
 8915.50000   -9999.25   -9999.25  103.83160   59.83370   59.16060   60.26530  104.22620  104.94390  103.41900   59.78990  104.78030   -9999.25   -9999.25   -9999.25   19.37040   21.21550   -9999.25   -9999.25   -9999.25
 8916.00000   -9999.25   -9999.25  104.12770   59.70780   59.00850   60.10910  104.23610  104.95380  103.42890   59.78990  104.47190   -9999.25   -9999.25   -9999.25   19.35430   21.22280   -9999.25   -9999.25   -9999.25
 8916.50000   -9999.25   -9999.25  104.10330   59.58200   58.89090   59.95290  104.24610  104.96370  103.43880   59.79100  103.96420   -9999.25   -9999.25   -9999.25   19.33820   21.23000   -9999.25   -9999.25   -9999.25
 8917.00000   -9999.25   -9999.25  104.25250   59.80910   59.11390   60.16170  103.91800  104.63540   -9999.25   59.79160  109.87250   -9999.25   -9999.25   -9999.25   19.32210   21.23730   -9999.25   -9999.25   -9999.25
 8917.50000   -9999.25   -9999.25   -9999.25   -9999.25   -9999.25   -9999.25   -9999.25   -9999.25   -9999.25   -9999.25   -9999.25   -9999.25   -9999.25   -9999.25   19.30600   21.24450   -9999.25   -9999.25   -9999.25
 8918.00000   -9999.25   -9999.25   -9999.25   -9999.25   -9999.25   -9999.25   -9999.25   -9999.25   -9999.25   -9999.25   -9999.25   -9999.25   -9999.25   -9999.25   19.28990   21.25180   -9999.25   -9999.25   -9999.25
 8918.50000   -9999.25   -9999.25   -9999.25   -9999.25   -9999.25   -9999.25   -9999.25   -9999.25   -9999.25   -9999.25   -9999.25   -9999.25   -9999.25   -9999.25   19.27380   21.25900   -9999.25   -9999.25   -9999.25
 8919.00000   -9999.25   -9999.25   -9999.25   -9999.25   -9999.25   -9999.25   -9999.25   -9999.25   -9999.25   -9999.25   -9999.25   -9999.25   -9999.25   -9999.25   19.25770   21.26630   -9999.25   -9999.25   -9999.25
 8919.50000   -9999.25   -9999.25   -9999.25   -9999.25   -9999.25   -9999.25   -9999.25   -9999.25   -9999.25   -9999.25   -9999.25   -9999.25   -9999.25   -9999.25   19.24160   21.27360   -9999.25   -9999.25   -9999.25
 8920.00000   -9999.25   -9999.25   -9999.25   -9999.25   -9999.25   -9999.25   -9999.25   -9999.25   -9999.25   -9999.25   -9999.25   -9999.25   -9999.25   -9999.25   19.22550   21.28080   -9999.25   -9999.25   -9999.25
