~Version ---------------------------------------------------
VERS.   2.0 : CWLS log ASCII Standard -VERSION 2.0
WRAP.    NO : One line per depth step
DLM . SPACE : Column Data Section Delimiter
~Well ------------------------------------------------------
STRT .FT                 485.0 : START DEPTH
STOP .FT                8925.0 : STOP DEPTH
STEP .FT                   0.5 : STEP
NULL .                -9999.25 : NULL VALUE
COMP .                         : COMPANY
WELL .                         : WELL
FLD  .                         : FIELD
LOC  .                         : LOCATION
PROV .                         : PROVINCE
CNTY .                         : COUNTY
STAT .                         : STATE
CTRY .                         : COUNTRY
SRVC .                         : SERVICE COMPANY
DATE .                         : DATE
UWI  .                         : UNIQUE WELL ID
API  .                         : API NUMBER
SLAT .WGS84 2.6918399674321023 : SURFACE LATITUDE
SLON .WGS84   8.82974560431299 : SURFACE LONGITUDE
DATUM.F                    nan : DEPTH DATUM ELEV
~Curve Information -----------------------------------------
DEPT   .FT    : 
CALD   .IN    : CALIPER FROM DENSITY LOG
DPHZ_LS.DEC   : HGRD STANDARD RESOLUTION DENSITY POROSITY
DT1    .US/F  : DELTA-T SHEAR - LOWER DIPOLE
DT4P   .US/F  : DELTA-T COMPRESSIONAL - MONOPOLE P & S
DT4PR  .US/F  : AUTOMATICALLY ADDED BY PROCLASCURVE_INSERT.
DT4PT  .US/F  : AUTOMATICALLY ADDED BY PROCLASCURVE_INSERT.
DT4S   .US/F  : DELTA-T SHEAR - MONOPOLE P & S
DT4SR  .US/F  : AUTOMATICALLY ADDED BY PROCLASCURVE_INSERT.
DT4ST  .US/F  : AUTOMATICALLY ADDED BY PROCLASCURVE_INSERT.
DTCO   .US/F  : DELTA-T COMPRESSIONAL
DTSM   .US/F  : DELTA-T SHEAR
HDRA   .G/C3  : HRDD SPINE AND RIBS DENSITY CORRECTION
PEFZ   .B/E   : HRDD STANDARD RESOLUTION FORMATION PHOTOELECTRIC FACTOR
RHOZ   .G/C3  : HRDD STANDARD RESOLUTION FORMATION DENSITY
RLA3   .OHMM  : APPARENT RESISTIVITY FROM COMPUTED FOCUSING MODE 3
RLA5   .OHMM  : APPARENT RESISTIVITY FROM COMPUTED FOCUSING MODE 5
RXOZ   .OHMM  : INVADED FORMATION RESISTIVITY FILTERED AT 18 INCHES
SGRDD  .GAPI  : SPECTROSCOPY GAMMA RAY FROM DENSITY LOG
TNPH_LS.DEC   : THERMAL NEUTRON POROSITY [LIMESTONE]
~Params ----------------------------------------------------
~Other -----------------------------------------------------
~ASCII -----------------------------------------------------
# ...
 2853.00000   10.79160    0.18380  152.55450   82.08130   81.38780   82.51210  153.99120  154.70860  153.18400   82.16940  153.99680    0.00320    2.31570    2.39510    2.14780    1.32090    3.36510   65.63200    0.23870
 2853.50000   10.78240    0.18200  154.05940   82.08130   81.38780   82.72090  152.59600  153.31340  151.78880   82.59490  154.40390    0.00320    2.34160    2.39810    2.19010    1.39780    3.38270   65.32830    0.24630
 2854.00000   10.77310    0.18300  153.66800   81.45490   80.55260   81.88570  151.20080  151.91830  150.39360   81.56310  154.46790    0.00300    2.34990    2.39650    2.19010    1.59110    3.38840   65.02140    0.24840
 2854.50000   10.76950    0.18520  153.66430   81.24610   80.69180   81.88570  151.19780  151.91540  150.39060   81.56080  154.26190    0.00200    2.34820    2.39280    2.19010    1.73880    3.35240   65.49210    0.23270
 2855.00000   10.76950    0.18390  153.85730   82.18570   81.52690   82.82530  152.53090  153.24840  151.72370   81.66960  154.63610    0.00100    2.31320    2.39490    2.19010    1.86640    3.31030   65.00720    0.23200
 2855.50000   10.76950    0.18470  153.85490   82.18570   81.45730   82.95980  154.53220  155.24980  153.72510   81.58050  155.05930    0.00000    2.29850    2.39350    2.19010    2.02850    3.34740   64.52230    0.23980
 2856.00000   10.76950    0.18860  153.76890   81.66370   80.97020   83.00990  155.92150  156.63930  155.11440   81.68370  155.38050    0.00020    2.28370    2.38690    2.23320    2.20560    3.40630   64.67320    0.24590
 2856.50000   10.76950    0.19650  154.19310   81.66370   80.97020   83.04990  155.91940  156.63710  155.11220   81.94370  155.49660    0.00050    2.35850    2.37350    2.27710    2.38260    3.49650   63.28900    0.25100
 2857.00000   10.76950    0.20510  155.95450   81.66370   81.17900   83.04990  155.59900  156.31660  154.79180   81.69340  156.11290    0.00080    2.36490    2.35880    2.41430    2.55970    3.28580   62.20520    0.25600
 2857.50000   10.85210    0.21510  157.71590   83.13620   82.44270   84.22050  155.38080  156.09840  154.57360   82.24120  158.51290    0.00110    2.36740    2.33980    2.39580    2.47980    3.14230   61.16880    0.25690
 2858.00000   10.93470    0.21990  159.47720   84.45490   83.76140   85.39100  160.97610  161.11500  160.60510   84.20000  159.40480    0.00210    2.31790    2.33220    2.30330    2.20460    2.95530   59.85650    0.25920
 2858.50000   11.01730    0.22200  161.23860   85.77360   85.08010   86.56150  167.20690  166.13160  166.63670   86.65480  161.69900    0.00320    2.19410    2.33150    2.21080    1.92940    2.85920   57.67770    0.25970
 2859.00000   11.04560    0.21810  163.00000   87.09230   86.60760   87.73200  170.43990  169.69760  170.92260   87.30730  164.06090    0.00430    2.12560    2.33120    2.11830    1.90650    2.83940   54.79040    0.25730
 2859.50000   10.93940    0.22600  164.76140   87.50990   86.81640   88.14960  171.92130  171.08620  172.47860   87.24980  165.44220    0.02290    2.14010    2.30970    2.02580    1.83940    2.82590   53.39270    0.25560
 2860.00000   10.87570    0.23270  166.52280   86.83550   86.04890   88.29070  171.39610  169.66610  173.03320   86.82290  166.01110    0.05310    2.15470    2.31310    1.96760    1.80030    2.59080   54.79410    0.26020
 2860.50000   10.99710    0.23020  168.28420   86.16120   85.46770   88.46720  168.55360  165.36020  170.49330   86.48470  166.95580    0.08230    2.16920    2.31880    1.92940    1.70690    2.08640   57.27840    0.26730
 2861.00000   10.90080    0.22420  168.28290   86.31030   85.62830   88.64370  165.71110  162.77760  167.62370   86.48290  167.39840    0.07480    2.18370    2.32450    1.99190    1.60330    1.88460   59.43640    0.27120
 2861.50000   10.28280    0.21730  168.27800   86.45940   85.78890   88.71430  162.86850  162.92630  164.75400   87.60350  166.48240    0.05300    2.19820    2.33010    2.00060    1.83350    2.40210   59.92770    0.24820
 2862.00000    9.66470    0.21920  168.27800   86.57880   85.88520   88.99280  162.70570  163.62990  162.95420   88.83330  165.33440    0.03120    2.21270    2.33580    2.26280    2.00610    3.04890   60.76260    0.22980
 2862.50000    9.66470    0.21710  168.27800   86.57880   85.88520   88.99280  162.71330  163.91490  161.90620   87.97940  166.35850    0.00940    2.22670    2.34150    2.41430    2.21150    3.19110   59.48880    0.23870
 2863.00000    9.66470    0.21400  168.27800   86.57880   85.66250   88.59510  161.94660  162.87690  161.13950   84.92800  167.46530    0.00260    2.24080    2.34490    2.28900    2.08590    3.22070   58.53010    0.24580
 2863.50000    9.66470    0.21500  168.26420   85.74360   84.54900   87.60080  161.01790  161.73540  160.21070   84.26020  167.51310   -0.00040    2.25490    2.34070    2.27180    2.12690    3.09040   58.73470    0.23790
 2864.00000    9.66740    0.21790  167.14430   84.90840   83.43540   86.60650  160.32130  161.03890  158.73010   86.61840  167.19970   -0.00350    2.32090    2.33540    2.31360    2.04810    2.91190   60.39970    0.22810
 2864.50000    9.65910    0.22190  166.13300   84.49080   82.54460   86.20880  160.81960  161.53720  159.36990   84.75620  166.90960   -0.00530    2.32880    2.33010    2.15430    1.91660    2.67380   59.20120    0.22430
 2865.00000    9.61860    0.21730  165.81950   85.32600   83.17100   87.60080  162.81580  163.53320  162.00860   86.04800  166.71290   -0.00480    2.36330    2.32490    2.00610    1.83770    2.52330   57.81340    0.22500
 2865.50000    9.57810    0.21320  165.69210   86.37000   85.25890   90.01350  162.60720  163.32470  161.80000   87.33970  166.51620   -0.00420    2.36390    2.32430    2.25050    2.04560    2.62430   57.70110    0.22480
 2866.00000    9.55080    0.21530  163.73520   86.57880   84.59770   88.40790  159.38010  160.67420  158.62500   86.24180  164.40210   -0.00360    2.41430    2.34530    2.32200    2.08510    2.77590   60.38370    0.21870
 2866.50000    9.44210    0.18850  161.97360   84.41250   82.42280   86.04130  155.42330  156.85880  152.54320   84.08500  160.89230   -0.00310    2.45900    2.39550    2.79530    2.28250    2.91270   65.13120    0.20250
 2867.00000    9.30890    0.15570  159.58150   82.45510   80.24790   83.67460  150.16970  153.24710  147.40020   81.92820  155.39990   -0.00300    2.49550    2.44570    3.92180    3.12620    4.10780   71.88410    0.18630
 2867.50000    9.19490    0.12950  152.32300   80.49770   78.07290   81.30800  145.66510  147.22270  144.45590   79.77140  149.81510   -0.00280    2.53190    2.48820    4.87030    4.13160    5.30290   78.63700    0.17020
 2868.00000    9.18260    0.11690  144.22730   78.22710   75.89800   78.94130  142.25460  144.33420  141.51160   77.41100  141.94940   -0.00260    2.54710    2.50980    4.65960    4.11240    5.68790   82.73630    0.16040
 2868.50000    9.17040    0.12460  142.39350   76.34790   74.81930   77.04800  139.05060  140.07280  137.97460   75.69420  139.29220   -0.00340    2.54810    2.49650    4.29070    3.81710    5.19200   82.93210    0.16250
 2869.00000    9.16700    0.13470  139.08770   76.13920   75.00980   76.83920  135.14210  135.92380  134.15580   76.55370  137.48540   -0.00430    2.53030    2.47930    4.29070    3.78000    4.77270   78.46650    0.16510
 2869.50000    9.18450    0.14690  137.24350   76.29570   75.96230   77.62740  137.99430  138.71180  135.03060   77.34580  137.86220   -0.00530    2.50620    2.45850    3.72960    3.22830    4.31570   74.66390    0.16890
 2870.00000    9.21210    0.16170  137.94010   76.97430   76.91490   78.61260  140.59420  141.31170  137.99620   78.40340  138.80520   -0.00460    2.46470    2.43320    3.08020    2.67650    3.65680   72.23110    0.17740
 2870.50000    9.23960    0.17780  137.97770   78.45670   77.86740   79.59780  143.12320  143.84080  140.96170   78.88210  140.01340   -0.00280    2.40920    2.40550    2.53610    2.33240    3.54040   68.83740    0.18590
 2871.00000    9.28340    0.18160  140.75710   79.39260   78.82000   80.58300  145.60510  146.32260  143.92720   79.26770  141.54070   -0.00110    2.34220    2.39920    2.44020    2.25710    3.45600   65.98990    0.19430
