~Version ---------------------------------------------------
VERS.   2.0 : CWLS log ASCII Standard -VERSION 2.0
WRAP.    NO : One line per depth step
DLM . SPACE : Column Data Section Delimiter
~Well ------------------------------------------------------
STRT .FT                 485.0 : START DEPTH
STOP .FT                8925.0 : STOP DEPTH
STEP .FT                   0.5 : STEP
NULL .                -9999.25 : NULL VALUE
COMP .                         : COMPANY
WELL .                         : WELL
FLD  .                         : FIELD
LOC  .                         : LOCATION
PROV .                         : PROVINCE
CNTY .                         : COUNTY
STAT .                         : STATE
CTRY .                         : COUNTRY
SRVC .                         : SERVICE COMPANY
DATE .                         : DATE
UWI  .                         : UNIQUE WELL ID
API  .                         : API NUMBER
SLAT .WGS84 2.6918399674321023 : SURFACE LATITUDE
SLON .WGS84   8.82974560431299 : SURFACE LONGITUDE
DATUM.F                    nan : DEPTH DATUM ELEV
~Curve Information -----------------------------------------
DEPT   .FT    : 
CALD   .IN    : CALIPER FROM DENSITY LOG
DPHZ_LS.DEC   : HGRD STANDARD RESOLUTION DENSITY POROSITY
DT1    .US/F  : DELTA-T SHEAR - LOWER DIPOLE
DT4P   .US/F  : DELTA-T COMPRESSIONAL - MONOPOLE P & S
DT4PR  .US/F  : AUTOMATICALLY ADDED BY PROCLASCURVE_INSERT.
DT4PT  .US/F  : AUTOMATICALLY ADDED BY PROCLASCURVE_INSERT.
DT4S   .US/F  : DELTA-T SHEAR - MONOPOLE P & S
DT4SR  .US/F  : AUTOMATICALLY ADDED BY PROCLASCURVE_INSERT.
DT4ST  .US/F  : AUTOMATICALLY ADDED BY PROCLASCURVE_INSERT.
DTCO   .US/F  : DELTA-T COMPRESSIONAL
DTSM   .US/F  : DELTA-T SHEAR
HDRA   .G/C3  : HRDD SPINE AND RIBS DENSITY CORRECTION
PEFZ   .B/E   : HRDD STANDARD RESOLUTION FORMATION PHOTOELECTRIC FACTOR
RHOZ   .G/C3  : HRDD STANDARD RESOLUTION FORMATION DENSITY
RLA3   .OHMM  : APPARENT RESISTIVITY FROM COMPUTED FOCUSING MODE 3
RLA5   .OHMM  : APPARENT RESISTIVITY FROM COMPUTED FOCUSING MODE 5
RXOZ   .OHMM  : INVADED FORMATION RESISTIVITY FILTERED AT 18 INCHES
SGRDD  .GAPI  : SPECTROSCOPY GAMMA RAY FROM DENSITY LOG
TNPH_LS.DEC   : THERMAL NEUTRON POROSITY [LIMESTONE]
~Params ----------------------------------------------------
~Other -----------------------------------------------------
~ASCII -----------------------------------------------------
# ...
 3667.00000    8.51860    0.13330  118.80930   69.08320   68.38970   69.72290  119.72520  120.44270  118.91800   69.34270  120.73670   -0.00550    2.56760    2.48540    5.91340    6.07820    5.47050   59.03050    0.12760
 3667.50000    8.52770    0.13430  118.08250   69.05150   68.35800   69.69120  119.14770  119.86520  118.34050   68.93080  120.17270   -0.00610    2.57120    2.48000    5.99480    6.44400    5.27930   59.89680    0.12890
 3668.00000    8.53200    0.13430  117.72850   69.01980   68.32630   69.65950  119.18680  119.90430  118.37950   68.98890  119.33500   -0.00630    2.55860    2.47960    5.45920    6.06610    5.12650   60.76310    0.13110
 3668.50000    8.52150    0.13700  117.73850   68.98800   68.29450   69.62780  119.65980  120.37730  118.85260   69.16630  119.04040   -0.00630    2.51130    2.47550    5.03070    5.18430    4.59070   61.28390    0.13330
 3669.00000    8.52810    0.13940  118.10300   69.24820   68.55470   69.88790  120.13290  120.85030  119.32570   69.49700  119.66280   -0.00630    2.45210    2.47140    5.23060    5.39030    4.46740   60.13470    0.13540
 3669.50000    8.53480    0.13940  118.43210   69.70300   69.00950   70.34260  120.60590  121.32340  119.79870   69.93070  120.51720   -0.00630    2.38580    2.47140    5.13240    5.28910    4.81140   58.21600    0.13720
 3670.00000    8.55670    0.13550  119.49300   70.62870   70.09840   71.26830  122.36680  123.08430  120.84570   70.59760  121.33480   -0.00470    2.33930    2.47870    4.88710    5.03630    4.62040   57.39390    0.13720
 3670.50000    8.55380    0.13160  120.55390   71.75070   71.10170   72.39040  123.69350  124.41100  122.75360   71.26450  123.28310   -0.00270    2.30040    2.48600    4.94620    5.09720    4.58980   56.78800    0.13720
 3671.00000    8.55090    0.13010  122.41020   72.10740   71.41390   72.74710  124.38700  125.10460  123.57980   71.93130  123.73780   -0.00070    2.28490    2.48500    5.25230    5.41270    4.81260   56.18210    0.13990
 3671.50000    8.54790    0.13300  122.66370   72.43530   71.74180   73.07500  124.94280  125.66050  124.13560   72.21970  123.60150    0.00010    2.28640    2.47290    5.43560    5.60160    5.18440   55.69740    0.14430
 3672.00000    8.54660    0.13880  124.13530   72.76330   72.06970   73.40290  125.49860  126.21630  124.69140   72.46820  123.77350    0.00010    2.29390    2.46330    5.52430    5.69300    5.15380   57.47570    0.14430
 3672.50000    8.55140    0.14280  124.17830   73.09120   72.39770   73.73080  125.98380  126.70140  125.17660   72.88120  124.15160    0.00010    2.30140    2.46520    5.61300    5.78440    5.04090   59.52150    0.13990
 3673.00000    8.55610    0.14130  124.10310   73.32590   72.63240   73.96550  126.33890  127.05640  125.53170   73.07460  124.66690    0.00010    2.31060    2.46750    5.86670    6.04590    5.02070   58.90780    0.13620
 3673.50000    8.55590    0.13970  123.75820   73.53740   72.84390   74.17690  126.77090  127.48850  125.96380   73.29890  124.91310   -0.00010    2.28950    2.46610    6.00930    6.18200    4.96220   58.38850    0.13470
 3674.00000    8.56790    0.14060  124.24110   73.52080   72.82730   74.16050  127.13580  127.85330  126.32870   73.47960  124.97970   -0.00080    2.29530    2.46400    6.05940    6.24760    4.92520   60.02740    0.13990
 3674.50000    8.56000    0.14210  123.88680   73.66830   72.97480   74.30820  126.36210  127.07960  125.55500   73.47460  125.12870   -0.00140    2.32740    2.46770    6.23300    6.42330    5.04200   62.75890    0.14510
 3675.00000    8.55180    0.14340  123.97480   73.33560   72.60050   73.97540  125.58840  126.30590  124.78130   73.23710  125.02010   -0.00210    2.36610    2.47500    6.93160    7.14330    5.25840   65.49040    0.14930
 3675.50000    8.54360    0.13940  123.96720   73.06950   72.42670   73.70920  124.81470  125.53220  124.00760   72.92600  124.83340   -0.00310    2.40550    2.48240    7.71850    7.95420    5.70750   66.46160    0.14930
 3676.00000    8.53200    0.13110  123.95970   73.11840   72.39270   73.75820  124.11960  124.83710  123.31240   72.73970  124.67220   -0.00420    2.46870    2.48970    9.72170   10.01860    5.93540   70.74610    0.14890
 3676.50000    8.54440    0.12450  123.95250   72.86070   72.16720   73.50040  123.54230  124.25980  122.73510   72.56790  124.79690   -0.00540    2.57360    2.49700   16.96120   17.47920    9.40580   80.74920    0.15890
 3677.00000    8.54940    0.12040  123.82930   73.36380   72.57000   74.06010  123.31700  124.03460  122.50980   72.97140  125.65790   -0.00500    2.64580    2.50400   24.33730   26.59440   13.68800   90.75230    0.17930
 3677.50000    8.51570    0.12240  123.70610   73.86680   72.97270   74.61980  122.86550  123.58290  122.05830   73.47700  125.61820   -0.00410    2.73570    2.50050   26.00200   30.24650   19.20960   99.82510    0.21090
 3678.00000    8.54680    0.12550  122.42630   74.36990   73.37550   75.17950  123.34860  124.06630  122.54140   74.00830  124.76890   -0.00310    2.72030    2.49520   27.61860   30.54090   20.53650   99.85480    0.22360
 3678.50000    8.55790    0.12570  122.77610   74.82880   73.77820   75.73910  123.81190  124.52940  123.00470   74.57810  123.91970   -0.00260    2.64280    2.49490   22.86910   25.07170   18.50770   95.53520    0.19880
 3679.00000    8.54510    0.11960  123.47480   75.27660   74.19580   76.28370  123.84590  124.56340  123.03870   74.88000  123.47180   -0.00200    2.57040    2.50530   19.25310   20.69590   18.03080   89.04710    0.16770
 3679.50000    8.55570    0.11210  122.39960   75.00630   74.09140   76.28370  123.64560  124.36320  122.83840   74.59000  123.03540   -0.00030    2.52650    2.51820   16.37270   18.62800   15.54550   81.68720    0.15260
 3680.00000    8.57700    0.11280  122.21400   74.36830   73.47480   76.28370  123.01680  123.73020  122.20970   73.78940  121.57550    0.00150    2.48250    2.51690   10.48980   11.27970   10.20580   79.18920    0.14810
 3680.50000    8.60550    0.11990  120.41600   73.44800   72.62120   74.38440  122.89580  123.59860  122.08860   73.17110  121.39480    0.00190    2.46140    2.50370    6.89270    7.10320    5.89570   77.34900    0.14540
 3681.00000    8.63390    0.12760  120.35250   72.52770   71.76760   73.31580  122.77480  123.46700  121.96760   72.57510  122.07090   -0.00170    2.45700    2.48930    5.69220    5.86600    5.48900   75.94740    0.14500
 3681.50000    8.64670    0.13350  120.28890   71.60740   70.91390   72.24710  122.65380  123.36170  121.84660   72.07530  122.57000   -0.00520    2.45550    2.48000    6.39840    6.59380    5.74440   75.21670    0.14610
 3682.00000    8.64900    0.13840  120.00760   71.76950   71.09910   72.40920  123.29380  124.02980  122.45230   71.99250  122.54310   -0.00380    2.49560    2.47230    6.39840    6.59380    6.09050   76.38830    0.15010
 3682.50000    8.65140    0.14330  120.87690   72.00790   71.35850   72.64760  124.44120  126.51670  123.54260   72.35270  122.45110   -0.00310    2.59830    2.46460    5.64640    6.11970    5.41750   73.62640    0.15600
 3683.00000    8.65370    0.14670  122.26700   72.36070   71.66720   73.00040  125.58860  128.18700  123.91850   72.60680  122.84000   -0.00240    2.70090    2.45900    4.89440    5.64550    4.62570   70.17350    0.16070
 3683.50000    8.65050    0.14830  122.29880   72.26860   71.57510   72.90830  125.86930  128.37260  122.51000   72.75780  123.95660   -0.00170    3.02160    2.45630    4.68540    5.55070    3.93500   66.72060    0.15680
 3684.00000    8.64730    0.14740  123.03720   72.44260   71.74910   73.08230  125.88010  126.98070  123.16510   72.83040  124.70750   -0.00330    3.35950    2.45790    4.75940    5.55070    3.89000   65.68070    0.15030
 3684.50000    8.64410    0.14670  123.69080   72.46990   71.69750   73.10960  125.89080  126.98070  123.82020   72.76460  124.91010   -0.00480    3.73120    2.45890    4.60040    5.25300    4.23460   65.14040    0.15030
 3685.00000    8.64080    0.14380  123.89860   72.49720   71.64600   73.13690  126.04840  126.98070  124.47530   72.78950  125.12220   -0.00630    3.92580    2.46400    4.50490    4.88080    4.37250   65.56300    0.15390
