~Version ---------------------------------------------------
VERS.   2.0 : CWLS log ASCII Standard -VERSION 2.0
WRAP.    NO : One line per depth step
DLM . SPACE : Column Data Section Delimiter
~Well ------------------------------------------------------
STRT .FT                 485.0 : START DEPTH
STOP .FT                8925.0 : STOP DEPTH
STEP .FT                   0.5 : STEP
NULL .                -9999.25 : NULL VALUE
COMP .                         : COMPANY
WELL .                         : WELL
FLD  .                         : FIELD
LOC  .                         : LOCATION
PROV .                         : PROVINCE
CNTY .                         : COUNTY
STAT .                         : STATE
CTRY .                         : COUNTRY
SRVC .                         : SERVICE COMPANY
DATE .                         : DATE
UWI  .                         : UNIQUE WELL ID
API  .                         : API NUMBER
SLAT .WGS84 2.6918399674321023 : SURFACE LATITUDE
SLON .WGS84   8.82974560431299 : SURFACE LONGITUDE
DATUM.F                    nan : DEPTH DATUM ELEV
~Curve Information -----------------------------------------
DEPT   .FT    : 
CALD   .IN    : CALIPER FROM DENSITY LOG
DPHZ_LS.DEC   : HGRD STANDARD RESOLUTION DENSITY POROSITY
DT1    .US/F  : DELTA-T SHEAR - LOWER DIPOLE
DT4P   .US/F  : DELTA-T COMPRESSIONAL - MONOPOLE P & S
DT4PR  .US/F  : AUTOMATICALLY ADDED BY PROCLASCURVE_INSERT.
DT4PT  .US/F  : AUTOMATICALLY ADDED BY PROCLASCURVE_INSERT.
DT4S   .US/F  : DELTA-T SHEAR - MONOPOLE P & S
DT4SR  .US/F  : AUTOMATICALLY ADDED BY PROCLASCURVE_INSERT.
DT4ST  .US/F  : AUTOMATICALLY ADDED BY PROCLASCURVE_INSERT.
DTCO   .US/F  : DELTA-T COMPRESSIONAL
DTSM   .US/F  : DELTA-T SHEAR
HDRA   .G/C3  : HRDD SPINE AND RIBS DENSITY CORRECTION
PEFZ   .B/E   : HRDD STANDARD RESOLUTION FORMATION PHOTOELECTRIC FACTOR
RHOZ   .G/C3  : HRDD STANDARD RESOLUTION FORMATION DENSITY
RLA3   .OHMM  : APPARENT RESISTIVITY FROM COMPUTED FOCUSING MODE 3
RLA5   .OHMM  : APPARENT RESISTIVITY FROM COMPUTED FOCUSING MODE 5
RXOZ   .OHMM  : INVADED FORMATION RESISTIVITY FILTERED AT 18 INCHES
SGRDD  .GAPI  : SPECTROSCOPY GAMMA RAY FROM DENSITY LOG
TNPH_LS.DEC   : THERMAL NEUTRON POROSITY [LIMESTONE]
~Params ----------------------------------------------------
~Other -----------------------------------------------------
~ASCII -----------------------------------------------------
# ...
 8495.00000    8.26250    0.05260  103.66380   61.50510   60.82440   62.14480  103.71290  104.43050  102.90570   62.08150  103.30320   -0.00720    2.78140    2.62000   24.36630   29.91650   22.22490   86.52370    0.07700
 8495.50000    8.27250    0.05140  104.15300   61.69060   61.00280   62.33040  103.21100  103.92850  102.40380   62.16650  103.52080   -0.00490    2.72540    2.62220   21.50200   25.16790   18.61520   85.33400    0.08030
 8496.00000    8.28610    0.04890  104.20910   61.86750   61.17590   62.50720  103.90950  104.62700  103.10230   62.57010  103.68760   -0.00360    2.67790    2.62640   16.67160   17.89740   12.95840   85.07650    0.08460
 8496.50000    8.28280    0.04620  104.26530   62.00980   61.32760   62.64950  104.60800  105.32550  103.80080   62.91700  103.63760   -0.00230    2.64910    2.63100   11.84120   13.44730   10.83750   83.78890    0.08370
 8497.00000    8.27950    0.04350  104.32140   62.15210   61.47930   62.79170  105.30650  106.02410  104.49930   63.05880  103.58750   -0.00090    2.65350    2.63570   11.61250   14.05500   11.07390   82.50140    0.08080
 8497.50000    8.27620    0.04110  105.35600   62.29440   61.55100   62.93390  105.47460  106.19210  104.66740   63.07180  103.79090   -0.00130    2.67640    2.63980   12.63170   16.77390   12.17220   83.09400    0.07790
 8498.00000    8.28490    0.04460  106.01150   62.35860   61.69980   62.99830  105.51810  106.23570  104.71090   62.97650  104.37470   -0.00200    2.69420    2.63380   13.04370   14.32610   12.74800   83.09770    0.07670
 8498.50000    8.29080    0.05070  105.94290   62.63160   61.94800   63.27130  105.74990  106.46750  104.94270   63.22330  104.64240   -0.00270    2.68860    2.62330   11.70650   12.83930   11.14720   83.37540    0.07890
 8499.00000    8.29660    0.05310  105.87440   62.73410   62.04060   63.37380  105.91210  106.62980  105.10490   63.24980  104.83110   -0.00290    2.63860    2.61910   10.53350   12.37120    9.89730   82.86850    0.08180
 8499.50000    8.29840    0.05160  105.84800   62.72300   62.02950   63.36270  105.96990  106.68760  105.16280   63.17320  105.01060   -0.00240    2.61390    2.62170   10.61550   13.98700    9.89730   82.10440    0.08120
 8500.00000    8.29320    0.04670  105.29160   62.71190   62.01850   63.35150  106.55550  107.27300  105.74830   63.08770  105.15310   -0.00180    2.58920    2.63040   11.07610   15.27660   10.18670   81.16800    0.07820
 8500.50000    8.28810    0.05120  105.85150   62.86710   62.17370   63.50680  107.70800  108.42550  106.91530   63.26280  105.29560   -0.00130    2.57400    2.62270   11.27770   14.25760    9.59040   80.53170    0.07580
 8501.00000    8.28300    0.05600  107.05210   62.78510   62.09160   63.42480  107.19630  107.91380  106.47680   63.14270  105.43800   -0.00150    2.54510    2.61440   10.77810   13.08430    8.84500   81.85030    0.07670
 8501.50000    8.27780    0.06200  107.40620   62.91900   62.17330   63.55880  107.25580  107.97330  106.44860   63.10240  106.25180   -0.00290    2.54700    2.60420    9.52910   11.28250    8.63060   83.64380    0.07880
 8502.00000    8.27580    0.06440  107.44330   62.74590   62.08560   63.38560  107.33060  108.04820  106.52340   63.20030  106.51380   -0.00430    2.56050    2.60000    9.91980   11.37720    9.38580   83.88570    0.07970
 8502.50000    8.27570    0.05710  107.42960   62.92680   62.25890   63.56650  107.40550  108.12300  106.59830   63.21450  106.40800   -0.00380    2.57480    2.61140   10.72040   11.85090   10.22410   81.68150    0.07930
 8503.00000    8.27570    0.04820  107.49560   63.10760   62.43220   63.74730  107.48040  108.19790  106.67310   63.42290  106.85970   -0.00210    2.57770    2.62500   11.52090   14.25760   11.06250   78.57100    0.07900
 8503.50000    8.27570    0.05310  106.97830   63.28840   62.60550   63.92810  107.55520  108.27270  106.74800   63.76740  107.18910   -0.00080    2.58440    2.62130   11.69690   13.44620   10.95980   78.05920    0.07880
 8504.00000    8.27270    0.06240  107.55070   63.46930   62.77880   64.10900  107.27260  107.99010  106.46540   63.87500  107.18910   -0.00070    2.59650    2.60360   10.97560   12.09390   10.28380   79.92620    0.08140
 8504.50000    8.26880    0.07210  107.68160   63.67400   62.98930   64.31370  107.63560  108.35310  106.82840   63.91020  106.64390   -0.00300    2.56110    2.58680   10.25430   11.02130    9.60780   81.79320    0.08470
 8505.00000    8.26500    0.07390  108.27360   63.89460   63.22470   64.53430  108.18100  108.89850  107.37380   64.19400  107.44120   -0.00220    2.52470    2.58380    9.53290   10.36820    9.15280   83.87880    0.08670
 8505.50000    8.26110    0.06820  109.04470   64.11520   63.46000   64.75500  108.72080  109.43830  107.91360   64.67890  107.41500   -0.00150    2.50690    2.59360    9.10010   10.33190    8.97390   85.20820    0.08840
 8506.00000    8.25730    0.06500  108.97970   64.41300   63.78980   65.05270  109.25100  109.96850  108.44380   64.97960  107.39730   -0.00170    2.48900    2.59900    9.10010   10.48660    8.97390   87.09090    0.08930
 8506.50000    8.25340    0.06640  110.05840   64.82640   64.18260   65.46610  109.76680  110.48430  108.95960   65.29650  107.70640   -0.00330    2.53870    2.59660    9.37030   10.64130    9.13570   91.37120    0.08970
 8507.00000    8.27080    0.06300  110.33780   65.23980   64.57530   65.87960  110.28250  111.00000  109.47540   65.37170  110.14050   -0.00500    2.58200    2.60250   12.40680   13.57130    9.54020   98.85120    0.09180
 8507.50000    8.26290    0.05830  111.45730   65.65330   64.96810   66.29300  110.67510  111.39260  109.86790   65.74980  110.92900   -0.00660    2.64100    2.61050   15.44330   16.88330   13.27870  100.34720    0.09570
 8508.00000    8.25490    0.05190  111.24330   65.75350   65.05190   66.39320  110.57490  111.29240  109.76770   65.87930  110.96500   -0.00620    2.68260    2.62140   16.65800   17.10420   14.61280  100.34720    0.09380
 8508.50000    8.24690    0.04000  110.30530   65.64500   64.92980   66.28470  110.47460  111.19230  109.66740   65.71280  110.08920   -0.00430    2.73660    2.64180   16.87880   19.29750   14.61280   96.06280    0.08370
 8509.00000    8.23940    0.02810  108.57400   64.45890   63.59560   65.09860  109.24270  109.96020  108.43550   64.83410  108.58750   -0.00250    2.80580    2.66210   21.79190   23.36820   17.21760   85.70580    0.07740
 8509.50000    8.23340    0.01620  105.49190   63.00340   62.26140   63.64320  106.64820  107.36590  105.84110   63.31300  106.42420   -0.00100    2.89580    2.68240   42.48020   71.68490   38.56260   75.34890    0.07120
 8510.00000    8.22750    0.01730  102.98940   62.20400   61.49070   62.84380  104.20250  104.91990  103.39530   61.78960  103.93260   -0.00270    2.93110    2.67880   39.70180   41.13940   35.71400   74.37050    0.06870
 8510.50000    8.22630    0.02570  101.42070   61.20940   60.39660   61.84900  102.66310  103.38060  101.85590   60.72990  102.02490   -0.00430    2.89220    2.66180   30.66420   34.74180   27.18230   77.69640    0.07420
 8511.00000    8.24410    0.03840  102.39020   60.21480   59.50500   60.85430  101.47230  102.45390  100.66490   60.30600  101.78290   -0.00600    2.85330    2.64010   21.96950   24.73530   19.70960   82.04020    0.08100
 8511.50000    8.26180    0.05140  101.42420   60.12140   59.42350   60.76100  101.29730  102.07860  100.48980   60.32920  101.72420   -0.00640    2.80880    2.62220   14.64660   14.72880   12.50180   84.12270    0.08520
 8512.00000    8.27390    0.05830  103.10040   60.69540   60.00210   61.33510  102.95860  103.52690  102.15120   60.93240  102.75300   -0.00590    2.74770    2.61060   13.32280   13.62340   12.26030   84.18760    0.08310
 8512.50000    8.27740    0.06080  104.07900   61.66920   60.97570   62.30900  104.61990  105.33720  103.81260   61.93840  104.11960   -0.00530    2.72390    2.60630   13.99470   14.40230   12.40090   83.99380    0.08280
 8513.00000    8.28090    0.05810  104.77850   62.35390   61.66040   62.99370  106.08250  106.80000  105.27520   62.83590  104.80700   -0.00480    2.70940    2.61090   14.46240   14.92280   13.10380   84.01560    0.08480
