~Version ---------------------------------------------------
VERS.   2.0 : CWLS log ASCII Standard -VERSION 2.0
WRAP.    NO : One line per depth step
DLM . SPACE : Column Data Section Delimiter
~Well ------------------------------------------------------
STRT .FT                 485.0 : START DEPTH
STOP .FT                8925.0 : STOP DEPTH
STEP .FT                   0.5 : STEP
NULL .                -9999.25 : NULL VALUE
COMP .                         : COMPANY
WELL .                         : WELL
FLD  .                         : FIELD
LOC  .                         : LOCATION
PROV .                         : PROVINCE
CNTY .                         : COUNTY
STAT .                         : STATE
CTRY .                         : COUNTRY
SRVC .                         : SERVICE COMPANY
DATE .                         : DATE
UWI  .                         : UNIQUE WELL ID
API  .                         : API NUMBER
SLAT .WGS84 2.6918399674321023 : SURFACE LATITUDE
SLON .WGS84   8.82974560431299 : SURFACE LONGITUDE
DATUM.F                    nan : DEPTH DATUM ELEV
~Curve Information -----------------------------------------
DEPT   .FT    : 
CALD   .IN    : CALIPER FROM DENSITY LOG
DPHZ_LS.DEC   : HGRD STANDARD RESOLUTION DENSITY POROSITY
DT1    .US/F  : DELTA-T SHEAR - LOWER DIPOLE
DT4P   .US/F  : DELTA-T COMPRESSIONAL - MONOPOLE P & S
DT4PR  .US/F  : AUTOMATICALLY ADDED BY PROCLASCURVE_INSERT.
DT4PT  .US/F  : AUTOMATICALLY ADDED BY PROCLASCURVE_INSERT.
DT4S   .US/F  : DELTA-T SHEAR - MONOPOLE P & S
DT4SR  .US/F  : AUTOMATICALLY ADDED BY PROCLASCURVE_INSERT.
DT4ST  .US/F  : AUTOMATICALLY ADDED BY PROCLASCURVE_INSERT.
DTCO   .US/F  : DELTA-T COMPRESSIONAL
DTSM   .US/F  : DELTA-T SHEAR
HDRA   .G/C3  : HRDD SPINE AND RIBS DENSITY CORRECTION
PEFZ   .B/E   : HRDD STANDARD RESOLUTION FORMATION PHOTOELECTRIC FACTOR
RHOZ   .G/C3  : HRDD STANDARD RESOLUTION FORMATION DENSITY
RLA3   .OHMM  : APPARENT RESISTIVITY FROM COMPUTED FOCUSING MODE 3
RLA5   .OHMM  : APPARENT RESISTIVITY FROM COMPUTED FOCUSING MODE 5
RXOZ   .OHMM  : INVADED FORMATION RESISTIVITY FILTERED AT 18 INCHES
SGRDD  .GAPI  : SPECTROSCOPY GAMMA RAY FROM DENSITY LOG
TNPH_LS.DEC   : THERMAL NEUTRON POROSITY [LIMESTONE]
~Params ----------------------------------------------------
~Other -----------------------------------------------------
~ASCII -----------------------------------------------------
# ...
 8088.00000    8.08740    0.04900  102.22870   57.74890   57.05550   58.38870  101.88390  102.60130  100.87400   58.07230  100.62640    0.00230    4.16160    2.62530  384.86400  499.52420  836.13670   39.69130    0.04760
 8088.50000    8.08730    0.05060  102.26840   57.47710   56.78370   58.11690  100.89910  101.61660   99.96160   57.74530  100.09400    0.00240    4.07490    2.62010  640.02570  746.08350  787.63370   40.86850    0.05070
 8089.00000    8.08710    0.05220  102.30810   57.28620   56.59270   57.92590   99.91440  100.63190   99.04930   57.41840   99.70850    0.00210    4.00390    2.61490  895.18740  992.64270  727.00500   40.83260    0.05310
 8089.50000    8.08690    0.05450  102.34770   57.45520   56.78580   58.09500   99.10940   99.82710   98.30230   57.41210   99.53230    0.00170    3.89210    2.60970 1150.34910 1440.47560  715.13720   39.75980    0.05270
 8090.00000    8.08680    0.05980  102.38740   57.71070   57.10350   58.35050   99.02380   99.74140   98.21660   57.64680  100.06480    0.00140    3.86990    2.60450 1700.96550 1902.41090  761.88460   38.68700    0.05120
 8090.50000    8.08660    0.06440  102.42710   58.14270   57.53560   58.78250   98.93820   99.65570   98.13100   58.14770  100.68760    0.00140    3.93840    2.59930 2205.03230 2285.97870  774.17180   37.61420    0.05110
 8091.00000    8.08650    0.06570  102.46680   58.57470   57.96760   59.21450   98.85250   99.57010   98.04540   58.64870  100.89440    0.00070    4.01260    2.59510 2151.67060 2216.22020  728.95850   36.54130    0.05320
 8091.50000    8.08630    0.06390  102.50650   58.76800   58.07890   59.40780   99.20340   99.92100   98.39630   58.80110  100.88450   -0.00010    4.05840    2.59510 1990.27210 2054.17940  624.04410   37.14120    0.05530
 8092.00000    8.08610    0.05990  102.54610   58.80220   58.10990   59.44200  100.22700  100.94460   99.41980   58.80110  100.88250   -0.00080    3.99790    2.59750 1137.10900 1237.36230  404.71440   38.64090    0.05580
 8092.50000    8.08600    0.05550  103.81800   58.96730   58.27380   59.60720  101.62630  102.34390  100.81910   59.20580  101.82200   -0.00160    3.83660    2.60960  749.32000  815.61740  292.32250   40.14050    0.05450
 8093.00000    8.08580    0.05110  103.58020   59.21970   58.52620   59.85960  103.42880  104.14630  102.62160   59.61050  103.59680   -0.00230    3.78320    2.62180  302.44970  313.76170  178.05610   41.64010    0.05030
 8093.50000    8.08560    0.05050  103.65330   59.52260   58.82910   60.16200  103.79340  104.51100  102.98620   59.95850  102.43350   -0.00310    3.78940    2.63390  223.02460  437.02970  151.75540   37.12430    0.04410
 8094.00000    8.08550    0.04050  102.85810   59.30840   58.61490   59.94810  103.60530  104.32290  102.79820   59.38430  100.56930   -0.00310    4.02180    2.64600  562.05130  740.08890  179.90320   32.60850    0.03780
 8094.50000    8.08530    0.02830  102.37670   57.95080   57.25730   58.59060  102.58830  103.30580  101.78110   57.94880  100.47880   -0.00320    4.37930    2.65810  718.37340  723.62550  305.69850   27.44390    0.03160
 8095.00000    8.08520    0.02340  102.10390   56.69800   56.00450   57.33780  101.19460  101.91230  100.38740   57.59220  100.08910   -0.00340    4.62430    2.66780  696.69390  711.77660  406.33470   25.47380    0.02670
 8095.50000    8.08500    0.02490  100.78530   55.43200   54.73850   56.07170  100.29630  101.01390   99.48910   56.06310   99.18430   -0.00350    4.86930    2.66680  698.91380  733.14410  338.40610   23.90910    0.02270
 8096.00000    8.08480    0.02600   98.84010   54.12330   53.42980   54.76300   99.39800  100.11560   98.59080   54.23880   98.27960   -0.00260    4.86800    2.66430  632.66610  664.14840  283.65940   22.95220    0.02230
 8096.50000    8.08470    0.02470   99.39760   52.81460   52.12110   53.45430   98.49970   99.21720   97.69250   53.01650   97.55580   -0.00110    4.86870    2.66700  577.79280  605.00400  271.22170   23.41670    0.02230
 8097.00000    8.08450    0.02340   99.07470   52.07490   51.38140   52.71460   98.49430   99.21170   97.68700   52.38710   98.22390    0.00050    4.86930    2.66980  529.11540  569.21550  334.33590   24.88020    0.02250
 8097.50000    8.08430    0.02610   99.11340   52.18880   51.49530   52.82850   98.48880   99.20630   97.68160   52.65360   99.05910    0.00080    4.87000    2.67200  454.23660  518.57340  312.27530   24.50250    0.02280
 8098.00000    8.08420    0.02770   99.96250   52.36310   51.67880   53.00270   98.48340   99.20080   97.67620   52.80720   99.74810    0.00080    4.92870    2.67200  416.09040  488.18810  334.33590   24.69140    0.02310
 8098.50000    8.08400    0.02420   99.12260   52.77860   52.14050   53.41830   98.47800   99.19540   97.67080   52.97610   99.53930    0.00080    4.96000    2.67000  466.65800  570.00340  377.12080   22.80290    0.02340
 8099.00000    8.08390    0.02320   99.12320   53.11100   52.41750   53.75080   98.47250   99.18990   97.66530   53.33070   99.01730    0.00000    5.00460    2.66790  608.66050  774.54150  530.26110   21.66980    0.02360
 8099.50000    8.08370    0.02620   99.09750   52.78200   52.00560   53.42180   98.46710   99.18450   97.65990   53.13710   98.49530    0.00020    5.01150    2.66580  603.96410  682.95060  507.85290   21.28220    0.02240
 8100.00000    8.08350    0.02450   99.20680   52.37080   51.59370   53.01050   98.46170   99.17900   97.65450   53.00840   99.07030    0.00050    4.99120    2.66460  600.26810  668.03560  398.48670   20.79770    0.02040
 8100.50000    8.08340    0.02060   99.37640   51.95950   51.18180   52.59930   97.76640   98.48620   96.95920   52.55170   99.20280    0.00070    4.92980    2.66640  617.22660  716.41440  394.61970   20.31310    0.01920
 8101.00000    8.08320    0.01610   99.51060   51.60340   50.83950   52.24320   97.56180   98.28130   96.75460   51.98860   99.23110    0.00090    4.86850    2.67190  565.16500  681.56680  392.46470   19.82860    0.01970
 8101.50000    8.08310    0.01540   99.50290   51.39710   50.76920   52.03680   97.47990   98.19860   96.67270   51.71270   99.02470    0.00160    4.86020    2.67740  472.74300  594.44780  323.11490   20.24170    0.02100
 8102.00000    8.08290    0.01930   99.49530   51.71610   51.06960   52.35570   97.39790   98.11590   96.59080   52.06180  100.48810    0.00230    4.90870    2.68290  454.25850  559.60020  316.63360   22.30720    0.02230
 8102.50000    8.08270    0.01790   99.48770   51.96090   51.31440   52.60040   97.34880   98.06630   96.54160   52.36870  100.49090    0.00290    4.84410    2.68290  458.70990  599.03190  368.58140   24.37260    0.02370
 8103.00000    8.08260    0.01820   99.48000   52.57130   51.96610   53.21090   98.30720   99.02710   97.48830   52.92460  100.07570    0.00130    4.85640    2.68110  552.31920  759.58180  433.81030   25.38500    0.02470
 8103.50000    8.08240    0.01920   99.47240   53.27320   52.61780   53.91280   99.03570   99.75320   98.22860   53.41000   99.67790   -0.00070    4.82820    2.67190  620.67710  716.41440  394.61970   26.17510    0.02470
 8104.00000    8.08220    0.02710   99.46480   53.82600   53.13050   54.46570   99.31680  100.03410   98.50960   53.87410   99.20180   -0.00280    4.88040    2.66270  655.08470  735.29080  386.99800   25.91270    0.02340
 8104.50000    8.08210    0.02670   99.45710   53.78280   53.08730   54.42240   99.17740   99.89470   98.37020   53.91530   98.72570   -0.00150    4.89620    2.66420  690.56580  788.99110  416.55230   25.23130    0.02230
 8105.00000    8.08200    0.02170   99.44950   53.56450   52.86900   54.20400   98.94360   99.66090   98.13630   53.63590   98.24960    0.00020    4.90540    2.67270  690.89180  790.40570  480.95730   24.50240    0.02110
 8105.50000    8.08200    0.01670   99.44190   53.08360   52.38810   53.72320   98.70970   99.42700   97.90250   52.95840   97.77340    0.00190    4.91910    2.68120  587.06360  689.40610  510.84190   23.77910    0.01990
 8106.00000    8.08200    0.01170   99.12840   52.79480   52.09930   53.43450   98.47590   99.19320   97.66870   52.86590   97.89480    0.00250    5.00340    2.68970  483.23530  588.40650  523.59450   25.26620    0.01990
