~Version ---------------------------------------------------
VERS.   2.0 : CWLS log ASCII Standard -VERSION 2.0
WRAP.    NO : One line per depth step
DLM . SPACE : Column Data Section Delimiter
~Well ------------------------------------------------------
STRT .FT                 485.0 : START DEPTH
STOP .FT                8925.0 : STOP DEPTH
STEP .FT                   0.5 : STEP
NULL .                -9999.25 : NULL VALUE
COMP .                         : COMPANY
WELL .                         : WELL
FLD  .                         : FIELD
LOC  .                         : LOCATION
PROV .                         : PROVINCE
CNTY .                         : COUNTY
STAT .                         : STATE
CTRY .                         : COUNTRY
SRVC .                         : SERVICE COMPANY
DATE .                         : DATE
UWI  .                         : UNIQUE WELL ID
API  .                         : API NUMBER
SLAT .WGS84 2.6918399674321023 : SURFACE LATITUDE
SLON .WGS84   8.82974560431299 : SURFACE LONGITUDE
DATUM.F                    nan : DEPTH DATUM ELEV
~Curve Information -----------------------------------------
DEPT   .FT    : 
CALD   .IN    : CALIPER FROM DENSITY LOG
DPHZ_LS.DEC   : HGRD STANDARD RESOLUTION DENSITY POROSITY
DT1    .US/F  : DELTA-T SHEAR - LOWER DIPOLE
DT4P   .US/F  : DELTA-T COMPRESSIONAL - MONOPOLE P & S
DT4PR  .US/F  : AUTOMATICALLY ADDED BY PROCLASCURVE_INSERT.
DT4PT  .US/F  : AUTOMATICALLY ADDED BY PROCLASCURVE_INSERT.
DT4S   .US/F  : DELTA-T SHEAR - MONOPOLE P & S
DT4SR  .US/F  : AUTOMATICALLY ADDED BY PROCLASCURVE_INSERT.
DT4ST  .US/F  : AUTOMATICALLY ADDED BY PROCLASCURVE_INSERT.
DTCO   .US/F  : DELTA-T COMPRESSIONAL
DTSM   .US/F  : DELTA-T SHEAR
HDRA   .G/C3  : HRDD SPINE AND RIBS DENSITY CORRECTION
PEFZ   .B/E   : HRDD STANDARD RESOLUTION FORMATION PHOTOELECTRIC FACTOR
RHOZ   .G/C3  : HRDD STANDARD RESOLUTION FORMATION DENSITY
RLA3   .OHMM  : APPARENT RESISTIVITY FROM COMPUTED FOCUSING MODE 3
RLA5   .OHMM  : APPARENT RESISTIVITY FROM COMPUTED FOCUSING MODE 5
RXOZ   .OHMM  : INVADED FORMATION RESISTIVITY FILTERED AT 18 INCHES
SGRDD  .GAPI  : SPECTROSCOPY GAMMA RAY FROM DENSITY LOG
TNPH_LS.DEC   : THERMAL NEUTRON POROSITY [LIMESTONE]
~Params ----------------------------------------------------
~Other -----------------------------------------------------
~ASCII -----------------------------------------------------
# ...
 4869.50000    8.30110    0.03640  109.50540   62.10420   60.41630   62.74390  104.65950  105.33110  103.79780   62.43540  104.05930   -0.00470    2.92210    2.64770   64.00180   58.46850   75.38730   73.86900    0.10020
 4870.00000    8.28860    0.03830  108.31580   62.01240   59.90950   62.65210  104.75540  105.47290  103.94820   62.12540  105.19850   -0.00410    2.99020    2.64460   68.40320   54.24420   80.70610   80.53310    0.10400
 4870.50000    8.28200    0.04310  107.20620   62.18760   61.27620   62.82740  105.65220  106.36970  104.84500   62.13900  106.06090   -0.00340    3.00810    2.63660   45.49140   37.34830   55.50260   83.38110    0.10780
 4871.00000    8.27960    0.04860  107.12220   62.36280   61.71670   63.00270  106.54890  107.26650  105.74180   62.39100  106.74400   -0.00280    2.97550    2.62910   40.77850   50.25240   45.42510   88.51070    0.11010
 4871.50000    8.27710    0.05490  107.42630   63.42240   62.73610   64.06220  107.78040  108.49790  106.97330   63.10000  107.73770   -0.00340    2.97660    2.61650   82.19390   81.59000   82.58860   93.01980    0.11440
 4872.00000    8.27460    0.06040  107.24830   64.70300   64.00730   65.34280  109.09560  109.81310  108.28850   64.14090  108.10960   -0.00410    2.95230    2.60680   65.21790   63.32970   91.66760   96.50220    0.11960
 4872.50000    8.27210    0.06290  107.48090   65.87330   65.17760   66.51290  109.70930  110.42680  108.90220   65.19950  107.34730   -0.00480    2.91190    2.60240   44.01270   42.54510   46.46770   94.23070    0.11390
 4873.00000    8.27150    0.06310  108.74790   65.65980   64.97320   66.38870  109.52120  110.23870  108.71410   65.11260  107.75530   -0.00530    2.87440    2.60210   37.13300   35.94500   39.65300   92.10080    0.10820
 4873.50000    8.27860    0.06610  110.34790   66.29470   65.65360   67.47050  110.50270  111.22020  109.69550   65.68000  108.45300   -0.00530    2.89370    2.59700   48.89940   44.36390   53.77010  100.16870    0.11470
 4874.00000    8.28560    0.07040  110.38220   66.92970   66.33390   68.33840  111.48410  112.20170  110.67690   66.69700  109.39760   -0.00530    2.90390    2.58960   60.86500   52.58640   72.58980  100.16300    0.12280
 4874.50000    8.28420    0.07280  110.41650   67.44570   66.75040   68.15500  112.08880  112.80630  111.28160   66.93850  109.24450   -0.00530    2.87570    2.58550   54.71460   45.00430   59.39400  100.15790    0.11770
 4875.00000    8.30980    0.07450  110.45070   67.29700   66.75210   68.35430  111.95200  112.75450  110.84230   66.75820  110.49380   -0.00500    2.78940    2.58260   39.32020   36.16250   42.89360   92.92890    0.10500
 4875.50000    8.33540    0.08200  111.58150   68.35810   66.75370   69.37590  112.08350  113.63300  110.40290   67.18740  111.67340   -0.00430    2.68050    2.56980   30.35020   27.87450   36.31240   92.09790    0.10540
 4876.00000    8.36100    0.09500  113.06150   68.63580   66.76200   69.90390  112.19140  114.99530  109.96350   67.76890  112.29990   -0.00360    2.65270    2.54750   17.08740   16.59260   25.49470   89.81850    0.11960
 4876.50000    8.38660    0.11340  113.33150   68.67390   67.00370   69.92670  112.49190  115.82960  109.42690   67.92650  112.92630   -0.00440    2.55760    2.51610    6.04230    5.77980    6.79670   85.69060    0.13100
 4877.00000    8.41460    0.13170  113.87360   69.43170   68.31380   70.41050  114.51670  116.40850  111.50580   68.68190  114.14070   -0.00460    2.46240    2.48480    3.50060    3.23760    4.95310   76.30210    0.12950
 4877.50000    8.42030    0.13910  116.26860   70.76640   70.01940   71.57570  117.41350  119.30720  114.95210   70.04110  115.74700   -0.00410    2.40630    2.47220    3.35280    3.36660    4.17500   68.57830    0.12760
 4878.00000    8.43570    0.11830  118.15170   72.10110   71.46020   72.74100  120.31030  122.92360  118.39840   71.35570  117.49290   -0.00350    2.39330    2.50770    4.00430    3.59860    4.56510   63.57630    0.12500
 4878.50000    8.43800    0.09240  118.91600   72.14530   71.09420   72.78480  121.89910  125.37750  118.69350   71.35980  119.43650   -0.00080    2.45650    2.55200    5.61520    4.46430    5.95490   59.47280    0.11000
 4879.00000    8.42050    0.04990  120.02880   70.36830   69.31730   71.43180  120.46920  123.72930  115.71640   69.86110  120.58480   -0.00030    2.58280    2.62480    9.14270    8.87790   13.58860   53.54860    0.09540
 4879.50000    8.40310    0.02360  119.96360   68.29080   67.10810   70.07870  116.71020  119.14810  111.65910   67.72880  119.06340    0.00020    2.67780    2.66970   27.19750   18.27300   51.92690   49.74620    0.08090
 4880.00000    8.38570    0.02420  117.93370   65.01110   64.25040   66.62710  112.95120  114.56700  107.60190   63.95600  115.51820    0.00070    2.76320    2.66870   28.14960   24.38280   56.25990   46.70370    0.06630
 4880.50000    8.42510    0.04100  113.44200   61.73140   61.39270   63.17540  109.19220  109.98590  103.54470   60.96690  111.71330    0.00100    2.70260    2.64000   16.23120   16.83200   19.67960   49.93520    0.07490
 4881.00000    8.47180    0.08160  109.81360   58.96660   58.53500   60.41410  105.43320  105.40480   99.48740   59.06380  106.59520    0.00100    2.56650    2.57050    9.86740    9.28120   10.77800   55.31930    0.09660
 4881.50000    8.51860    0.10410  107.85600   59.45540   57.69950   60.41410  103.45590  105.40480   97.05310   58.73940  106.92930    0.00100    2.49630    2.53210    3.46970    3.08650    4.99090   59.06490    0.11540
 4882.00000    8.52280    0.12290  109.80910   61.06820   58.74350   62.08440  109.56880  109.65020  104.00640   61.25670  107.84800   -0.00010    2.46160    2.49990    3.49640    3.05710    4.05590   61.66690    0.12140
 4882.50000    8.53710    0.13040  113.30850   64.34130   62.15400   66.26020  115.40320  116.72590  112.00230   64.74280  111.94370   -0.00150    2.43420    2.48710    3.62760    3.23290    3.97000   59.81770    0.12370
 4883.00000    8.55870    0.13320  117.18120   67.89110   66.46900   70.43610  121.23760  123.22160  119.99810   67.70800  116.14390   -0.00290    2.41310    2.48230    3.71660    3.33860    3.95720   59.30820    0.12600
 4883.50000    8.58310    0.13400  119.97330   69.67480   68.88490   71.48000  122.03920  123.33290  121.23200   70.08350  121.33590   -0.00250    2.39800    2.48090    3.60090    3.26080    3.87950   60.89350    0.13010
 4884.00000    8.60070    0.13820  122.12920   71.45850   71.12170   72.52400  120.42810  121.82970  119.62090   71.44550  123.25320   -0.00190    2.37690    2.47370    3.45600    3.13070    3.83920   62.47880    0.13410
 4884.50000    8.60690    0.14240  123.88290   71.98470   71.31940   73.14110  124.01300  124.04270  123.20590   72.01330  124.14390   -0.00130    2.36720    2.46650    3.34030    3.00060    3.72710   63.16710    0.13820
 4885.00000    8.61310    0.14520  125.38340   72.19640   71.51700   73.09460  124.39750  125.11490  123.59030   72.10380  125.03460   -0.00070    2.37680    2.46180    3.34580    2.97200    3.60900   61.85030    0.14230
 4885.50000    8.61930    0.14430  125.59130   72.40820   71.71470   73.04810  124.12660  124.84410  123.23980   72.60750  125.50730   -0.00040    2.38650    2.46320    3.36870    2.97230    3.57660   60.73270    0.14310
 4886.00000    8.62550    0.14180  125.79920   72.69110   71.93280   73.33090  125.33050  126.62080  124.04410   72.87530  126.08060   -0.00070    2.41620    2.46750    3.40220    2.97300    3.61760   60.73660    0.14100
 4886.50000    8.63630    0.13850  127.45430   72.27460   71.56260   72.91440  126.39270  127.67580  124.84840   72.49770  126.65380   -0.00100    2.45540    2.47320    3.43580    2.97350    3.65860   62.30200    0.13740
 4887.00000    8.62210    0.13500  128.48020   72.23280   71.52870   72.87250  126.88070  128.33510  125.56000   72.42090  127.19120   -0.00250    2.46790    2.47920    3.46930    3.09070    3.69970   64.82480    0.13380
 4887.50000    8.60800    0.13290  128.54750   72.17640   71.47590   72.81620  127.36870  128.99450  126.00530   72.14870  127.72870   -0.00290    2.45990    2.48290    3.51050    3.18460    3.74070   65.91390    0.13240
