~Version ---------------------------------------------------
VERS.   2.0 : CWLS log ASCII Standard -VERSION 2.0
WRAP.    NO : One line per depth step
DLM . SPACE : Column Data Section Delimiter
~Well ------------------------------------------------------
STRT .FT                 485.0 : START DEPTH
STOP .FT                8925.0 : STOP DEPTH
STEP .FT                   0.5 : STEP
NULL .                -9999.25 : NULL VALUE
COMP .                         : COMPANY
WELL .                         : WELL
FLD  .                         : FIELD
LOC  .                         : LOCATION
PROV .                         : PROVINCE
CNTY .                         : COUNTY
STAT .                         : STATE
CTRY .                         : COUNTRY
SRVC .                         : SERVICE COMPANY
DATE .                         : DATE
UWI  .                         : UNIQUE WELL ID
API  .                         : API NUMBER
SLAT .WGS84 2.6918399674321023 : SURFACE LATITUDE
SLON .WGS84   8.82974560431299 : SURFACE LONGITUDE
DATUM.F                    nan : DEPTH DATUM ELEV
~Curve Information -----------------------------------------
DEPT   .FT    : 
CALD   .IN    : CALIPER FROM DENSITY LOG
DPHZ_LS.DEC   : HGRD STANDARD RESOLUTION DENSITY POROSITY
DT1    .US/F  : DELTA-T SHEAR - LOWER DIPOLE
DT4P   .US/F  : DELTA-T COMPRESSIONAL - MONOPOLE P & S
DT4PR  .US/F  : AUTOMATICALLY ADDED BY PROCLASCURVE_INSERT.
DT4PT  .US/F  : AUTOMATICALLY ADDED BY PROCLASCURVE_INSERT.
DT4S   .US/F  : DELTA-T SHEAR - MONOPOLE P & S
DT4SR  .US/F  : AUTOMATICALLY ADDED BY PROCLASCURVE_INSERT.
DT4ST  .US/F  : AUTOMATICALLY ADDED BY PROCLASCURVE_INSERT.
DTCO   .US/F  : DELTA-T COMPRESSIONAL
DTSM   .US/F  : DELTA-T SHEAR
HDRA   .G/C3  : HRDD SPINE AND RIBS DENSITY CORRECTION
PEFZ   .B/E   : HRDD STANDARD RESOLUTION FORMATION PHOTOELECTRIC FACTOR
RHOZ   .G/C3  : HRDD STANDARD RESOLUTION FORMATION DENSITY
RLA3   .OHMM  : APPARENT RESISTIVITY FROM COMPUTED FOCUSING MODE 3
RLA5   .OHMM  : APPARENT RESISTIVITY FROM COMPUTED FOCUSING MODE 5
RXOZ   .OHMM  : INVADED FORMATION RESISTIVITY FILTERED AT 18 INCHES
SGRDD  .GAPI  : SPECTROSCOPY GAMMA RAY FROM DENSITY LOG
TNPH_LS.DEC   : THERMAL NEUTRON POROSITY [LIMESTONE]
~Params ----------------------------------------------------
~Other -----------------------------------------------------
~ASCII -----------------------------------------------------
# ...
 3260.00000    8.77850    0.15560  131.07790   74.62560   73.97320   75.26550  131.17890  131.89650  130.37170   74.86610  131.76120   -0.00050    2.30120    2.44370    2.93950    2.85430    4.56450   60.09830    0.15670
 3260.50000    8.78870    0.15850  131.07800   74.81600   74.15980   75.45580  131.37260  132.09010  130.56540   75.07760  132.15090    0.00060    2.31780    2.43890    2.81810    2.73650    4.46950   60.50290    0.16140
 3261.00000    8.80300    0.16130  131.07800   75.00260   74.34640   75.64240  131.80010  132.51760  130.84270   75.30160  132.65600    0.00040    2.32100    2.43400    2.72680    2.64770    4.27560   60.88770    0.16640
 3261.50000    8.81650    0.16700  131.57230   75.18920   74.53300   75.82900  132.57830  133.29580  131.24550   75.40340  133.41830   -0.00080    2.32080    2.42320    2.65530    2.57840    4.04420   60.33880    0.17150
 3262.00000    8.82670    0.17260  134.04380   75.37580   74.71960   76.01560  133.35660  134.07410  131.64830   75.38620  134.63620   -0.00200    2.32060    2.41240    2.60240    2.52700    3.94070   59.43840    0.17650
 3262.50000    8.83680    0.17680  134.03640   75.56240   74.90620   76.20210  133.95610  135.54930  131.72890   75.65820  135.85420   -0.00320    2.32040    2.40170    2.62330    2.54720    3.89640   59.78870    0.17890
 3263.00000    8.85020    0.17860  136.07420   75.93740   75.37550   76.59850  134.23450  137.02450  132.14670   76.10990  137.02790   -0.00330    2.30510    2.39090    2.48650    2.41440    3.71470   61.55290    0.18320
 3263.50000    8.87670    0.18450  138.81940   76.59510   76.03310   77.30960  136.84440  138.49970  134.97680   76.72780  138.21980   -0.00340    2.29630    2.38870    2.34790    2.27990    3.58090   61.22100    0.18740
 3264.00000    8.90370    0.18920  139.41420   77.23850   76.66230   78.02070  138.96710  139.97490  137.99280   77.34560  139.53840   -0.00350    2.29460    2.39190    2.29980    2.23310    3.49490   60.96110    0.18830
 3264.50000    8.90430    0.18560  140.00900   77.82480   77.24860   78.73180  140.63750  141.45010  140.08050   77.94400  140.85700   -0.00260    2.30460    2.39710    2.34930    2.28120    3.51780   59.03300    0.18250
 3265.00000    8.93110    0.18080  142.39180   78.41120   77.83490   79.08280  142.15600  142.92530  141.48200   78.51330  142.17550   -0.00090    2.31800    2.40240    2.29640    2.22990    3.29080   60.81190    0.17900
 3265.50000    8.96870    0.17800  144.47440   78.99750   78.22060   79.08280  143.67450  144.40050  142.88950   78.93990  144.24820    0.00070    2.33950    2.40600    2.04570    1.98640    2.85420   60.43770    0.18170
 3266.00000    8.96680    0.17490  144.47440   78.58040   77.80350   79.08280  143.76170  144.47900  142.95450   78.84160  144.53410    0.00070    2.36260    2.41080    2.11410    2.05290    2.79970   59.15880    0.18860
 3266.50000    8.96480    0.16760  144.47440   78.16330   77.38640   78.99000  142.67900  143.39640  141.87180   78.40660  144.64700    0.00020    2.35700    2.42320    2.41470    2.34480    3.11730   57.99320    0.18830
 3267.00000    8.91690    0.16040  143.61340   77.74620   76.96930   78.52610  141.59630  142.31380  140.78910   77.75410  144.06780   -0.00030    2.38440    2.43560    2.66680    2.58950    3.60470   59.83300    0.17960
 3267.50000    8.91850    0.15820  143.18520   77.32910   76.55220   78.06230  140.51360  141.23120  139.70640   77.25830  143.95610   -0.00080    2.39110    2.43620    2.64900    2.57220    3.87110   61.60620    0.16980
 3268.00000    8.92000    0.16470  142.76090   76.91200   76.13510   77.59850  139.52390  140.24140  138.71670   76.80150  142.81830   -0.00070    2.39790    2.41760    2.61230    2.53660    3.85030   62.49850    0.16980
 3268.50000    8.91460    0.17230  140.95360   76.49490   75.81130   77.13460  139.35710  140.07460  138.54990   76.54050  141.68050   -0.00010    2.40460    2.41710    2.57560    2.50090    3.87330   63.21190    0.17300
 3269.00000    8.92080    0.17150  140.00930   76.54430   75.86070   77.18410  139.19030  139.90780  138.38310   76.37090  140.54280    0.00050    2.38130    2.41610    2.57230    2.49770    3.89640   62.13820    0.17620
 3269.50000    8.90770    0.17060  139.80840   76.59370   75.91010   77.23360  139.02350  139.74100  138.21630   76.60760  140.08760    0.00110    2.35890    2.41220    2.48200    2.41010    3.86280   60.79670    0.17690
 3270.00000    8.89460    0.17190  139.25220   76.89190   76.29120   77.53940  139.17360  139.89110  138.36640   76.99010  140.08760    0.00100    2.33190    2.40830    2.39520    2.32580    3.80250   62.10060    0.18490
 3270.50000    8.90540    0.17670  140.23820   77.35600   76.75520   78.01610  139.79900  140.51650  138.99180   77.37250  140.57500    0.00100    2.32010    2.40430    2.50030    2.42780    3.74760   63.84120    0.18860
 3271.00000    8.91110    0.18050  140.21710   77.82000   77.21930   78.49280  140.23480  140.95230  139.42760   77.70060  141.06210    0.00010    2.30680    2.40120    2.46700    2.39550    3.78050   59.84790    0.18670
 3271.50000    8.90480    0.17850  140.19600   77.65780   76.90050   79.08300  139.97530  140.69280  139.16810   77.72810  141.06210   -0.00180    2.30030    2.40460    2.49120    2.41900    3.81750   57.03490    0.18050
 3272.00000    8.87900    0.17110  139.87250   77.33900   76.58170   79.08300  139.55380  140.27130  138.74660   77.74720  141.06210   -0.00220    2.31690    2.41730    2.60900    2.53340    3.92240   55.90970    0.17430
 3272.50000    8.85310    0.15500  139.17890   77.02020   76.26290   78.47100  139.13240  139.84990  138.32520   77.56780  140.54020   -0.00270    2.36330    2.44490    2.67840    2.60080    4.14870   59.76040    0.16700
 3273.00000    8.80070    0.13300  137.78360   76.30520   75.23720   77.49900  137.56640  138.28390  136.75930   76.72130  138.75390   -0.00320    2.40630    2.48240    3.24040    3.13230    5.01880   63.61100    0.15700
 3273.50000    8.74640    0.11960  135.95190   75.32600   74.03480   76.52710  133.83370  134.55110  133.02650   75.65860  136.95590   -0.00320    2.42510    2.50530    4.60930    4.39040    6.03510   67.46170    0.14690
 3274.00000    8.70320    0.12230  132.09920   74.34690   72.83230   75.55510  131.01760  131.73500  130.21040   74.54180  135.15800   -0.00320    2.44400    2.50080    4.92460    4.15040    6.39390   67.99570    0.14490
 3274.50000    8.70240    0.13050  128.33440   73.36770   71.62990   74.58320  128.70600  129.42360  127.89870   73.62770  131.46410   -0.00320    2.43570    2.48660    3.65980    3.55380    5.65800   66.81550    0.14770
 3275.00000    8.70790    0.13780  126.62090   72.38860   71.14890   73.61120  126.29220  127.00980  125.48460   72.67310  128.99500   -0.00340    2.40550    2.47420    3.43400    3.33450    4.92210   66.95710    0.15060
 3275.50000    8.71160    0.13960  126.01640   72.12320   71.14890   73.02800  125.02050  125.73810  124.21310   72.32720  127.73720   -0.00400    2.43120    2.47110    3.60490    3.50050    4.91470   68.79830    0.15350
 3276.00000    8.71420    0.14240  124.82910   72.05150   71.14890   73.02800  124.43390  125.15150  123.62670   72.19670  126.64810   -0.00460    2.45760    2.46640    3.72650    3.61860    4.95810   70.92280    0.15640
 3276.50000    8.71670    0.14070  124.93890   72.38910   71.51960   73.22530  125.30330  126.02080  124.49610   72.62120  126.23400   -0.00400    2.46590    2.46880    3.59110    3.48700    5.02000   70.61120    0.15730
 3277.00000    8.71930    0.13560  125.04880   72.72670   71.98290   73.42250  126.17270  126.89020  125.36550   72.98680  127.66710   -0.00260    2.46630    2.47570    3.72660    3.61860    5.03940   69.69060    0.15590
 3277.50000    8.70600    0.13000  125.51170   72.86510   72.17160   73.50490  126.37280  127.09020  125.56560   73.11710  128.33470   -0.00130    2.46680    2.49200    3.80510    3.69490    5.17560   69.81550    0.15340
 3278.00000    8.69280    0.12340  126.70510   72.83550   72.14200   73.47540  126.57280  127.29030  125.76570   73.24740  127.70010    0.00000    2.46730    2.50080    3.96700    3.85200    5.25010   71.36060    0.15100
