~Version ---------------------------------------------------
VERS.   2.0 : CWLS log ASCII Standard -VERSION 2.0
WRAP.    NO : One line per depth step
DLM . SPACE : Column Data Section Delimiter
~Well ------------------------------------------------------
STRT .FT                 485.0 : START DEPTH
STOP .FT                8925.0 : STOP DEPTH
STEP .FT                   0.5 : STEP
NULL .                -9999.25 : NULL VALUE
COMP .                         : COMPANY
WELL .                         : WELL
FLD  .                         : FIELD
LOC  .                         : LOCATION
PROV .                         : PROVINCE
CNTY .                         : COUNTY
STAT .                         : STATE
CTRY .                         : COUNTRY
SRVC .                         : SERVICE COMPANY
DATE .                         : DATE
UWI  .                         : UNIQUE WELL ID
API  .                         : API NUMBER
SLAT .WGS84 2.6918399674321023 : SURFACE LATITUDE
SLON .WGS84   8.82974560431299 : SURFACE LONGITUDE
DATUM.F                    nan : DEPTH DATUM ELEV
~Curve Information -----------------------------------------
DEPT   .FT    : 
CALD   .IN    : CALIPER FROM DENSITY LOG
DPHZ_LS.DEC   : HGRD STANDARD RESOLUTION DENSITY POROSITY
DT1    .US/F  : DELTA-T SHEAR - LOWER DIPOLE
DT4P   .US/F  : DELTA-T COMPRESSIONAL - MONOPOLE P & S
DT4PR  .US/F  : AUTOMATICALLY ADDED BY PROCLASCURVE_INSERT.
DT4PT  .US/F  : AUTOMATICALLY ADDED BY PROCLASCURVE_INSERT.
DT4S   .US/F  : DELTA-T SHEAR - MONOPOLE P & S
DT4SR  .US/F  : AUTOMATICALLY ADDED BY PROCLASCURVE_INSERT.
DT4ST  .US/F  : AUTOMATICALLY ADDED BY PROCLASCURVE_INSERT.
DTCO   .US/F  : DELTA-T COMPRESSIONAL
DTSM   .US/F  : DELTA-T SHEAR
HDRA   .G/C3  : HRDD SPINE AND RIBS DENSITY CORRECTION
PEFZ   .B/E   : HRDD STANDARD RESOLUTION FORMATION PHOTOELECTRIC FACTOR
RHOZ   .G/C3  : HRDD STANDARD RESOLUTION FORMATION DENSITY
RLA3   .OHMM  : APPARENT RESISTIVITY FROM COMPUTED FOCUSING MODE 3
RLA5   .OHMM  : APPARENT RESISTIVITY FROM COMPUTED FOCUSING MODE 5
RXOZ   .OHMM  : INVADED FORMATION RESISTIVITY FILTERED AT 18 INCHES
SGRDD  .GAPI  : SPECTROSCOPY GAMMA RAY FROM DENSITY LOG
TNPH_LS.DEC   : THERMAL NEUTRON POROSITY [LIMESTONE]
~Params ----------------------------------------------------
~Other -----------------------------------------------------
~ASCII -----------------------------------------------------
# ...
 7699.50000    8.13010    0.02210   98.90540   56.51920   55.82390   57.15880   99.42200  100.13960   98.61480   56.41590   99.01490    0.00190    4.40570    2.67250  546.45050  679.62240  468.59600   31.23020    0.04350
 7700.00000    8.13160    0.01760   98.71970   56.55760   55.86270   57.19720   99.76130  100.47890   98.95420   56.54300   99.11100    0.00300    4.38490    2.67990  610.26890  699.48830  422.94530   30.29420    0.04250
 7700.50000    8.13300    0.01580   99.26250   56.84530   56.15130   57.48490  100.16730  100.88480   99.36010   56.69650   98.97910    0.00310    4.37260    2.68290  433.36240  455.64440  380.23460   29.12420    0.04060
 7701.00000    8.13440    0.01680   98.82180   56.91930   56.22580   57.55890   99.92940  100.64700   99.12220   56.77080   98.77010    0.00310    4.42210    2.68140  385.70970  405.54170  337.52400   27.95430    0.03660
 7701.50000    8.13580    0.01910   98.90570   56.67250   55.97900   57.31230   99.45270  100.17050   98.64560   56.49530   99.15260    0.00110    4.49810    2.67720  345.34730  363.10470  301.09620   26.94290    0.03630
 7702.00000    8.13720    0.02180   98.61500   56.33390   55.64040   56.97380   99.36170  100.07950   98.55460   56.11890   99.62800    0.00110    4.60700    2.67250  330.83190  347.84280  268.85710   28.46830    0.03800
 7702.50000    8.13860    0.02220   97.64800   55.96960   55.27610   56.60930   99.27070   99.98850   98.46360   55.90960   99.74370    0.00110    4.71110    2.67110  261.08450  293.92440  236.61800   29.40920    0.04020
 7703.00000    8.14010    0.02090   97.73350   56.11740   55.42390   56.75710   99.17970   99.89750   98.37260   55.92580   99.43030    0.00110    4.74220    2.67330  246.21620  254.13680  214.13710   29.37930    0.04560
 7703.50000    8.14150    0.02030   98.21740   56.26520   55.57170   56.90480   99.22130   99.93900   98.41410   56.11130   99.04730    0.00060    4.63420    2.67870  255.27560  261.24340  211.14080   30.32900    0.04710
 7704.00000    8.14290    0.01700   99.29910   56.44850   55.76880   57.08810   99.29600  100.01360   98.48890   56.27700   99.55740    0.00150    4.50520    2.68410  264.33510  273.06620  212.33790   31.16220    0.04750
 7704.50000    8.14430    0.01350   98.63460   56.65540   55.99860   57.29510   99.37080  100.08830   98.56360   56.56410   99.74280    0.00230    4.42010    2.68730  262.86160  271.38690  194.88700   31.49430    0.04610
 7705.00000    8.14570    0.01730   98.00720   56.77820   56.09810   57.41790   99.44550  100.16290   98.63830   56.70010   98.62900    0.00320    4.41930    2.68320  251.50360  264.43820  187.60280   30.58180    0.04380
 7705.50000    8.14710    0.02270   97.70240   56.84500   56.16490   57.48470   99.52020  100.23760   98.71300   56.83620   98.62870    0.00190    4.45390    2.67290  258.18110  271.45950  191.48740   30.41230    0.04370
 7706.00000    8.14860    0.02970   97.78330   56.91180   56.23170   57.55150   99.59490  100.31220   98.78770   56.83670   99.04610   -0.00020    4.47780    2.66250  251.54450  264.48170  200.52530   31.30550    0.04470
 7706.50000    8.15000    0.02810   97.54440   56.97860   56.29850   57.61830   99.66840  100.38600   98.86130   56.80330   99.29640   -0.00230    4.43120    2.65840  240.45030  252.81710  201.83860   31.72160    0.04570
 7707.00000    8.15140    0.02130   97.62110   57.04540   56.36530   57.68510   99.55540  100.27290   98.74830   56.78920   99.42850   -0.00320    4.37890    2.65840  254.74970  261.36120  204.47180   30.98080    0.04490
 7707.50000    8.15280    0.01340   97.64760   57.08550   56.32660   57.72510   99.42370  100.14120   98.61660   56.73380   99.48480    0.00020    4.34840    2.68130  290.42200  343.56130  219.11770   29.17330    0.04180
 7708.00000    8.15420    0.00610   97.67410   56.75870   55.99980   57.39830   99.28740  100.00490   98.48030   56.53230   99.71040    0.00350    4.35830    2.69930  268.87090  414.58970  210.55370   28.41290    0.03660
 7708.50000    8.15560   -0.00040   97.70060   56.43180   55.67300   57.07140   99.15110   99.86860   98.34390   56.33070   99.10530    0.00680    4.36320    2.71040  237.08640  248.12360  194.78170   28.91450    0.03390
 7709.00000    8.15710   -0.00410   97.72710   56.25150   55.57400   56.89110   99.01480   99.73220   98.20760   56.19290   98.73450    0.00640    4.34920    2.71670  241.59470  257.50470  177.08840   30.63360    0.03740
 7709.50000    8.15850   -0.00300   97.75360   56.33060   55.65350   56.97020   98.87840   99.59590   98.07130   56.27550   99.33410    0.00600    4.33520    2.71480  243.42260  249.05610  186.74330   31.41220    0.03830
 7710.00000    8.15990    0.00090   97.78010   56.40970   55.73300   57.04930   98.74210   99.45960   97.93490   56.35820   99.01710    0.00560    4.24870    2.70820  261.05690  294.88040  212.27750   29.54190    0.04230
 7710.50000    8.16130    0.00370   98.07680   56.39710   55.64580   57.03680   98.44220   99.22800   97.77990   56.27760   98.32170    0.00530    4.20860    2.70350  343.37000  419.48780  255.47860   27.45870    0.03810
 7711.00000    8.16270    0.00390   97.53690   56.01790   55.30870   56.65760   98.14240   98.99650   97.62490   56.07410   97.62630    0.00530    4.16890    2.70310  425.68310  469.27900  296.63160   25.61340    0.02960
 7711.50000    8.16420    0.00640   97.21030   55.52360   54.83130   56.16330   97.84250   98.76490   97.50130   55.64030   96.93090    0.00530    4.15620    2.69880  425.60170  446.97070  337.78470   24.13260    0.02650
 7712.00000    8.16560    0.00990   96.14450   54.95260   54.26030   55.59240   97.54260   98.53340   96.37460   55.22750   96.65230    0.00530    4.09760    2.69290  399.03960  419.96300  354.20350   24.96920    0.02540
 7712.50000    8.16700    0.01620   96.19830   54.38160   53.68930   55.02140   97.24610   98.30180   95.24780   54.81480   96.65190    0.00500    4.09930    2.68210  315.62290  340.46790  303.85270   28.28680    0.03220
 7713.00000    8.16650    0.02140   96.25220   54.36410   53.67180   55.00390   97.12800   98.34450   95.40510   54.63670   96.65100    0.00430    4.15930    2.67320  236.95240  266.36770  253.50190   31.05930    0.03770
 7713.50000    8.15960    0.02440   96.30600   54.76750   54.11700   55.40720   97.34830   98.79850   96.18530   54.70630   96.83410    0.00360    4.21980    2.66800  259.63480  278.00430  211.14470   33.83190    0.04820
 7714.00000    8.15270    0.01930   96.89350   55.28960   54.69120   55.92920   97.89520   99.25260   96.96560   55.37910   97.50760    0.00310    4.28020    2.67670  265.09730  293.53200  223.72750   35.49600    0.05070
 7714.50000    8.14580    0.01450   97.42340   56.03570   55.40310   56.67540   98.44200   99.70660   97.74580   56.13310   99.15300    0.00310    4.32110    2.68490  247.84880  275.01010  255.24350   34.10660    0.04620
 7715.00000    8.13890    0.01350   97.73880   56.59390   55.90160   57.23360   98.98880  100.16060   98.16350   56.58550   99.43390    0.00310    4.28360    2.68660  389.07240  413.20000  338.74030   30.62960    0.04110
 7715.50000    8.13200    0.01670   97.94700   56.62090   55.92860   57.26070   99.41640  100.25160   98.16370   56.65520   99.80550    0.00300    4.31060    2.68120  473.13990  497.47150  435.23240   26.89230    0.03660
 7716.00000    8.12510    0.02010   97.89630   56.18870   55.49640   56.82840   99.41640  100.25170   98.30300   56.31280   98.66280    0.00150    4.39890    2.67540  500.69000  526.43750  460.50760   23.65110    0.03500
 7716.50000    8.11820    0.02160   97.67290   55.75650   55.06420   56.39620   99.41670  100.19960   98.58150   55.88470   97.52020   -0.00040    4.52950    2.67280  484.57120  509.48850  429.67750   24.24350    0.03460
 7717.00000    8.11130    0.02010   97.05530   55.32420   54.63190   55.96400   99.13850   99.93880   98.44250   55.43730   97.06270   -0.00230    4.66590    2.67530  484.49020  509.40280  453.25440   25.72870    0.03420
 7717.50000    8.10440    0.01630   96.27540   54.89200   54.19970   55.53180   98.79060   99.67800   97.97030   54.98500   97.06190   -0.00350    4.79500    2.68180  466.19060  490.16160  418.61230   28.35720    0.03340
