~Version ---------------------------------------------------
VERS.   2.0 : CWLS log ASCII Standard -VERSION 2.0
WRAP.    NO : One line per depth step
DLM . SPACE : Column Data Section Delimiter
~Well ------------------------------------------------------
STRT .FT                 485.0 : START DEPTH
STOP .FT                8925.0 : STOP DEPTH
STEP .FT                   0.5 : STEP
NULL .                -9999.25 : NULL VALUE
COMP .                         : COMPANY
WELL .                         : WELL
FLD  .                         : FIELD
LOC  .                         : LOCATION
PROV .                         : PROVINCE
CNTY .                         : COUNTY
STAT .                         : STATE
CTRY .                         : COUNTRY
SRVC .                         : SERVICE COMPANY
DATE .                         : DATE
UWI  .                         : UNIQUE WELL ID
API  .                         : API NUMBER
SLAT .WGS84 2.6918399674321023 : SURFACE LATITUDE
SLON .WGS84   8.82974560431299 : SURFACE LONGITUDE
DATUM.F                    nan : DEPTH DATUM ELEV
~Curve Information -----------------------------------------
DEPT   .FT    : 
CALD   .IN    : CALIPER FROM DENSITY LOG
DPHZ_LS.DEC   : HGRD STANDARD RESOLUTION DENSITY POROSITY
DT1    .US/F  : DELTA-T SHEAR - LOWER DIPOLE
DT4P   .US/F  : DELTA-T COMPRESSIONAL - MONOPOLE P & S
DT4PR  .US/F  : AUTOMATICALLY ADDED BY PROCLASCURVE_INSERT.
DT4PT  .US/F  : AUTOMATICALLY ADDED BY PROCLASCURVE_INSERT.
DT4S   .US/F  : DELTA-T SHEAR - MONOPOLE P & S
DT4SR  .US/F  : AUTOMATICALLY ADDED BY PROCLASCURVE_INSERT.
DT4ST  .US/F  : AUTOMATICALLY ADDED BY PROCLASCURVE_INSERT.
DTCO   .US/F  : DELTA-T COMPRESSIONAL
DTSM   .US/F  : DELTA-T SHEAR
HDRA   .G/C3  : HRDD SPINE AND RIBS DENSITY CORRECTION
PEFZ   .B/E   : HRDD STANDARD RESOLUTION FORMATION PHOTOELECTRIC FACTOR
RHOZ   .G/C3  : HRDD STANDARD RESOLUTION FORMATION DENSITY
RLA3   .OHMM  : APPARENT RESISTIVITY FROM COMPUTED FOCUSING MODE 3
RLA5   .OHMM  : APPARENT RESISTIVITY FROM COMPUTED FOCUSING MODE 5
RXOZ   .OHMM  : INVADED FORMATION RESISTIVITY FILTERED AT 18 INCHES
SGRDD  .GAPI  : SPECTROSCOPY GAMMA RAY FROM DENSITY LOG
TNPH_LS.DEC   : THERMAL NEUTRON POROSITY [LIMESTONE]
~Params ----------------------------------------------------
~Other -----------------------------------------------------
~ASCII -----------------------------------------------------
# ...
 5683.00000    8.23130    0.04080   99.38470   55.07010   54.38080   55.70980  100.04100  100.72370   99.58510   54.62840   99.26460   -0.00220    4.55860    2.64010 1633.30710 1702.60910 1087.65330   28.37370    0.03260
 5683.50000    8.23060    0.04060   99.45600   55.26900   54.59010   55.90870  100.50280  101.17760  100.12760   54.76860   99.00160   -0.00130    4.55190    2.64050 1723.99010 1797.14230 1096.87800   27.05110    0.03140
 5684.00000    8.22990    0.04050   99.04980   55.46780   54.79950   56.10750  100.96460  101.62830  100.67020   54.91990   98.99740   -0.00080    4.55020    2.64070 1637.52160 1707.00690 1098.71410   26.30980    0.03170
 5684.50000    8.22920    0.03960   99.49390   55.66670   55.00880   56.30630  101.60620  102.16290  101.21280   54.98390   99.45200   -0.00190    4.55610    2.64230 1826.17950 1903.67170 1179.37870   27.74880    0.03190
 5685.00000    8.22850    0.04070   99.47670   55.79410   55.10460   56.43390  101.58400  102.70070  100.95300   54.93170  100.23040   -0.00400    4.56200    2.64030 2337.24900 2436.43130 1293.17340   26.55260    0.03040
 5685.50000    8.22780    0.04460   99.45950   55.68150   54.96520   56.32150  101.56180  102.58030  100.75110   54.83370  100.50180   -0.00610    4.59060    2.63360 2263.12000 2359.16340 1386.02010   22.99850    0.02860
 5686.00000    8.22710    0.04740   99.44230   55.53580   54.82590   56.17570  101.35840  102.32670  100.54920   54.84610  100.34850   -0.00660    4.58890    2.62890 1924.34710 2006.01350 1270.48130   19.44450    0.02670
 5686.50000    8.22640    0.04500   99.42510   55.39010   54.68650   56.03000  101.15510  102.07320  100.34730   54.85860   99.91970   -0.00470    4.56100    2.63290 1881.35990 1961.20300 1209.14360   18.02280    0.02700
 5687.00000    8.22570    0.04130   99.40790   55.24440   54.54710   55.88430  101.05790  101.81960  100.25070   54.87110   99.12700   -0.00290    4.53300    2.63930 1882.21220 1962.09340 1213.17100   19.43920    0.02720
 5687.50000    8.22500    0.03980   99.18880   55.09000   54.39650   55.72980  100.61650  101.33390   99.80930   54.76310   98.71540   -0.00110    4.51310    2.64180 2682.20200 2796.03840 1283.78530   19.32590    0.02740
 5688.00000    8.22430    0.04350   99.40180   54.92240   54.22890   55.56220   99.89670  100.61420   99.08950   54.52510   99.08870   -0.00100    4.50220    2.63540 2160.35670 2252.04850 1316.74300   18.80180    0.02750
 5688.50000    8.22360    0.04660   99.36460   54.75490   54.06140   55.39470   99.41000  100.12770   98.60290   54.28720   99.59910   -0.00100    4.51570    2.63030 1861.17250 1940.16860 1186.09820   20.11900    0.02700
 5689.00000    8.22290    0.04300   99.32740   54.58730   53.89380   55.22710   98.92140   99.63900   98.11420   54.32300   99.25570   -0.00100    4.48990    2.63640 1334.31040 1617.84700 1054.39610   21.67700    0.02450
 5689.50000    8.22220    0.03700   99.29020   54.99890   54.30530   55.63850   98.71330   99.43090   97.90610   54.42730   98.82690   -0.00100    4.48260    2.64660 1886.48860 1966.56160 1120.15920   21.45120    0.02140
 5690.00000    8.22150    0.03100   98.31940   55.14000   54.44640   55.77960   98.69110   99.87450   97.88390   54.53150   98.73580   -0.00090    4.45170    2.65680 2090.72960 2179.47230 1292.05820   18.76450    0.01840
 5690.50000    8.22080    0.03050   98.01820   54.87550   54.18200   55.51520   99.15190   99.86960   98.34470   54.61430   98.93480   -0.00090    4.43480    2.65770 1933.38620 2001.48530 1213.03690   16.51100    0.01530
 5691.00000    8.22010    0.03130   97.83300   54.61100   53.91750   55.25080   98.77620   99.49390   97.96900   54.31890   98.43020   -0.00090    4.43200    2.65630 1747.88130 1857.80480 1036.06500   15.88220    0.01470
 5691.50000    8.21940    0.03130   97.82160   54.23880   53.54520   54.87850   97.89280   98.61040   97.08570   54.02350   97.18500   -0.00090    4.47470    2.65630 1576.47060 1679.11870 1023.88440   15.42640    0.01470
 5692.00000    8.21870    0.02640   97.27950   53.82400   53.13050   54.46370   97.00940   97.72690   96.20230   53.75950   96.68580   -0.00090    4.50400    2.66470 1624.91530 1693.88230 1014.22630   14.68790    0.01540
 5692.50000    8.22460    0.02710   96.60460   53.52680   52.83340   54.16650   96.12610   96.84350   95.31890   53.51630   96.95200   -0.00080    4.48040    2.66350 1873.54710 1953.06700 1007.42020   14.68900    0.01580
 5693.00000    8.23170    0.02840   96.72620   53.22960   52.53620   53.86940   95.41380   96.13120   94.60660   53.27310   96.24620   -0.00080    4.45670    2.66120 1612.89210 1681.34870 1004.97010   14.98130    0.01650
 5693.50000    8.23680    0.02820   96.72730   53.08230   52.38750   53.72200   95.12430   95.84180   94.31710   53.03000   96.71930   -0.00080    4.43530    2.66150 1818.62160 1895.80940 1016.98390   15.66100    0.01690
 5694.00000    8.24190    0.02700   96.60820   53.03480   52.33770   53.67450   95.09390   95.81150   94.28680   52.99670   96.95240   -0.00080    4.39860    2.66360 1854.63510 1933.35210 1039.51430   15.98170    0.01720
 5694.50000    8.23470    0.02470   96.56920   52.98730   52.28790   53.62700   95.07190   95.78940   94.26470   53.09390   96.34760   -0.00070    4.42580    2.66760 1836.10820 1914.03880 1052.33590   16.38280    0.01710
 5695.00000    8.22550    0.02370   96.34000   52.93980   52.23810   53.57950   95.07180   95.78930   94.26460   53.19120   95.17610   -0.00110    4.42120    2.66920 1907.88250 1988.85940 1051.54130   16.80970    0.01680
 5695.50000    8.23070    0.02320   96.22960   52.95400   52.31260   53.59370   95.08080   95.79830   94.27360   53.28850   96.00300   -0.00020    4.37470    2.67010 1792.97410 1869.07390 1002.41810   17.23670    0.01660
 5696.00000    8.23140    0.02560   94.75150   53.21490   52.57360   53.85470   95.08980   95.80730   94.28260   53.30590   96.41400    0.00070    4.33740    2.66610 1624.56900 1693.52100  966.51000   17.29920    0.01630
 5696.50000    8.22670    0.03050   96.07540   53.34020   52.65270   53.97990   95.09880   95.81630   94.29160   53.30590   96.40410    0.00030    4.37070    2.65750 1918.99870 2000.44730 1016.12710   16.76370    0.01600
 5697.00000    8.22770    0.03550   96.47480   53.37490   52.68630   54.01460   95.10780   95.82530   94.30060   53.30590   95.68590   -0.00130    4.43060    2.64900 2141.25870 2232.14460 1085.40670   16.58130    0.01570
 5697.50000    8.22870    0.03610   96.30880   53.40960   52.72000   54.04930   95.11680   95.83430   94.30960   53.30590   95.67770   -0.00200    4.43130    2.64800 2660.30420 2773.22100 1149.53570   16.75130    0.01550
 5698.00000    8.23050    0.04180   95.00250   53.44430   52.75360   54.08400   95.12580   95.84320   94.31860   53.24850   95.96180   -0.00260    4.47620    2.63820 2303.59810 2657.13570 1173.18860   17.10780    0.01650
 5698.50000    8.22440    0.04320   96.23560   53.47900   52.78720   54.11880   95.13480   95.85220   94.32760   53.20010   96.16070   -0.00320    4.52120    2.63590 1965.97480 2041.32920  935.24540   17.63270    0.01930
 5699.00000    8.22920    0.04450   96.73920   53.51380   52.82080   54.15350   95.14380   95.86120   94.33660   53.16070   96.15900   -0.00260    4.55790    2.63370 1981.42800 1599.52490  793.25410   17.94650    0.02320
 5699.50000    8.22970    0.04140   96.33720   53.66190   52.96850   54.30160   95.14370   96.13680   94.33650   53.41150   96.14410   -0.00200    4.52480    2.63890 1563.35900 1676.59250  785.36860   17.15200    0.02320
 5700.00000    8.23040    0.03900   96.28500   53.88560   53.19210   54.52530   95.67830   96.39580   94.87110   53.66230   96.19810   -0.00150    4.46390    2.64310 2353.71280 2755.55060  964.71590   16.16040    0.02320
 5700.50000    8.22740    0.03930   96.60390   54.10930   53.41580   54.74900   96.75430   97.47200   95.94710   53.91310   96.21960   -0.00100    4.41500    2.64260 1881.71370 1961.58400 1193.63790   15.36720    0.02210
 5701.00000    8.22450    0.04050   96.73250   54.00200   53.30850   54.64160   97.04410   97.76160   96.23690   54.01000   96.35600   -0.00090    4.41300    2.64050  722.57970  807.27380 1015.01520   15.93370    0.02100
