~Version ---------------------------------------------------
VERS.   2.0 : CWLS log ASCII Standard -VERSION 2.0
WRAP.    NO : One line per depth step
DLM . SPACE : Column Data Section Delimiter
~Well ------------------------------------------------------
STRT .F                 904.0 : START DEPTH
STOP .F                7603.0 : STOP DEPTH
STEP .F                   0.5 : STEP
NULL .               -9999.25 : NULL VALUE
COMP .                        : COMPANY
WELL .                        : WELL
FLD  .                        : FIELD
LOC  .                        : LOCATION
PROV .                        : PROVINCE
CNTY .                        : COUNTY
STAT .                        : STATE
CTRY .                        : COUNTRY
SRVC .                        : SERVICE COMPANY
DATE .                        : DATE
UWI  .                        : UNIQUE WELL ID
API  .                        : API NUMBER
SLAT .WGS84 6.983165863716202 : SURFACE LATITUDE
SLON .WGS84 4.694349069349002 : SURFACE LONGITUDE
DATUM.F                2341.0 : DEPTH DATUM ELEV
~Curve Information -----------------------------------------
DEPT   .F     : 1 MEASURED DEPTH
NPHI_LS.DEC   : NEUTRON POROSITY LIMESTONE
DPHZ_LS.DEC   : HGRD STANDARD RESOLUTION DENSITY POROSITY
HDRA   .G/C3  : HRDD SPINE AND RIBS DENSITY CORRECTION
PEFZ   .B/E   : HRDD STANDARD RESOLUTION FORMATION PHOTOELECTRIC FACTOR
RHOZ   .G/C3  : HRDD STANDARD RESOLUTION FORMATION DENSITY
GRR    .GAPI  : GAMMA RAY FROM RESISTIVITY LOG
HCALR  .IN    : HRCC CALIPER CALIBRATED FROM RESISTIVITY LOG
AT30   .OHMM  : ARRAY INDUCTION TWO FOOT RESISTIVITY A30
AT90   .OHMM  : ARRAY INDUCTION TWO FOOT RESISTIVITY A90
AT10   .OHMM  : ARRAY INDUCTION TWO FOOT RESISTIVITY A10
SPR    .MV    : SPONTANEOUS POTENTIAL FROM RESISTIVITY LOG
DTCO   .US/F  : DELTA-T COMPRESSIONAL
DTSM   .US/F  : DELTA-T SHEAR
~Params ----------------------------------------------------
~Other -----------------------------------------------------
~ASCII -----------------------------------------------------
# ...
 5350.00000    0.23460    0.05850   -0.00650    3.44630    2.61080  118.06540    8.10330    5.87120    6.06040    5.80240   10.47470   -9999.25   -9999.25
 5350.50000    0.23660    0.05980   -0.00740    3.43320    2.60890  115.31640    8.11740    5.87470    6.01310    5.79940   10.71010   -9999.25   -9999.25
 5351.00000    0.24420    0.06270   -0.00660    3.44180    2.60280  118.66900    8.12250    5.84440    5.95150    5.62760   10.91750   -9999.25   -9999.25
 5351.50000    0.24540    0.06400   -0.00540    3.43500    2.60140  123.11160    8.12440    5.81430    5.91240    5.60540   11.04460   -9999.25   -9999.25
 5352.00000    0.24400    0.06080   -0.00380    3.39630    2.60600  124.27370    8.12640    5.78440    5.91130    5.74450   11.09830   -9999.25   -9999.25
 5352.50000    0.25010    0.05260   -0.00190    3.36220    2.61870  122.50630    8.11010    5.75460    5.91020    5.59490   11.14970   -9999.25   -9999.25
 5353.00000    0.26400    0.04610    0.00000    3.37350    2.63110  120.57070    8.09560    5.78690    5.92520    5.57620   10.98900   -9999.25   -9999.25
 5353.50000    0.26420    0.04640    0.00030    3.38490    2.63230  121.90060    8.09200    5.83190    6.00540    5.66760   10.70190   -9999.25   -9999.25
 5354.00000    0.25690    0.04920   -0.00050    3.40310    2.62680  126.42580    8.09210    5.87730    6.07590    5.83080   10.57260   -9999.25   -9999.25
 5354.50000    0.24960    0.04980   -0.00130    3.42630    2.62530  129.93300    8.09150    5.76290    5.90080    5.63880   10.58310   -9999.25   -9999.25
 5355.00000    0.25230    0.05060   -0.00200    3.44690    2.62460  128.74250    8.08900    5.60770    5.74720    5.57590   10.59360   -9999.25   -9999.25
 5355.50000    0.25830    0.04780   -0.00200    3.42340    2.62890  126.32580    8.10310    5.64830    5.74820    5.61070   10.60410   -9999.25   -9999.25
 5356.00000    0.26620    0.05270    0.00200    3.42700    2.62060  123.99290    8.12530    5.69000    5.82830    5.63680   10.61460   -9999.25   -9999.25
 5356.50000    0.27570    0.05490    0.00340    3.42330    2.61670  122.67470    8.13480    5.73200    5.88130    5.63710   10.62510   -9999.25   -9999.25
 5357.00000    0.28350    0.05810    0.00060    3.41970    2.61110  123.09670    8.10000    5.77440    5.90770    5.61790   10.60910   -9999.25   -9999.25
 5357.50000    0.27690    0.06150   -0.00270    3.42420    2.60570  122.96800    8.11210    5.80010    5.93420    5.63050   10.44060   -9999.25   -9999.25
 5358.00000    0.26680    0.06140   -0.00360    3.41520    2.60730  120.67770    8.10970    5.81930    5.96090    5.69520   10.44070   -9999.25   -9999.25
 5358.50000    0.26570    0.05870   -0.00390    3.42300    2.61150  117.42560    8.09710    5.81960    5.96100    5.65920   10.42480   -9999.25   -9999.25
 5359.00000    0.27310    0.05450   -0.00400    3.43200    2.61810  115.43300    8.09010    5.79090    5.90100    5.63380   10.37630   -9999.25   -9999.25
 5359.50000    0.29200    0.05210   -0.00410    3.48260    2.62090  117.13200    8.09280    5.76230    5.79640    5.62730    9.96680   -9999.25   -9999.25
 5360.00000    0.29790    0.05400   -0.00390    3.57480    2.61830  118.08890    8.09730    5.76290    5.79620    5.62090    9.92870   -9999.25   -9999.25
 5360.50000    0.29480    0.05450   -0.00360    3.64430    2.61680  116.43120    8.17400    5.85600    5.89150    5.71550    9.92050   -9999.25   -9999.25
 5361.00000    0.27860    0.05880   -0.00280    3.61610    2.60990  114.28930    8.17640    5.95540    5.99150    5.88390    9.83360   -9999.25   -9999.25
 5361.50000    0.26430    0.05470    0.00160    3.51290    2.61800  113.58720    8.09740    6.05650    6.09330    5.93100    9.89140   -9999.25   -9999.25
 5362.00000    0.25530    0.04590    0.01110    3.43390    2.63330  114.00960    8.09340    6.10780    6.19670    5.90610    9.92800   -9999.25   -9999.25
 5362.50000    0.25060    0.03020    0.02010    3.39800    2.66020  114.77230    8.08900    6.15950    6.30190    5.90460    9.96460   -9999.25   -9999.25
 5363.00000    0.24550    0.03110    0.02140    3.39040    2.65770  115.79530    8.08160    6.21170    6.40890    5.90440    9.82800   -9999.25   -9999.25
 5363.50000    0.24030    0.04040    0.01370    3.38380    2.64250  117.71570    8.08220    6.38030    6.51070    5.90430    9.64610   -9999.25   -9999.25
 5364.00000    0.24000    0.04490    0.00400    3.33040    2.63470  120.90440    8.08090    6.30330    6.35190    5.87150    9.26060   -9999.25   -9999.25
 5364.50000    0.24340    0.03960    0.00170    3.25970    2.64250  124.44380    8.09250    6.04560    6.09330    5.67540    8.77610   -9999.25   -9999.25
 5365.00000    0.25150    0.03670   -0.00050    3.22280    2.64930  128.80810    8.19120    5.79830    5.84530    5.53760    8.50350   -9999.25   -9999.25
 5365.50000    0.26530    0.04320   -0.00280    3.28370    2.63830  131.85650    8.20990    5.69210    5.77680    5.50240    9.22210   -9999.25   -9999.25
 5366.00000    0.28070    0.04260    0.00740    3.37380    2.63820  131.31870    8.12360    5.64120    5.79130    5.50750    9.53890   -9999.25   -9999.25
 5366.50000    0.29240    0.04910    0.03270    3.45640    2.62810  129.18220    8.08670    5.64000    5.81680    5.36070    9.27460   -9999.25   -9999.25
 5367.00000    0.30140    0.05460    0.07070    3.52810    2.61800  126.76820    8.08970    5.62860    5.66990    5.25910    8.85550   -9999.25   -9999.25
 5367.50000    0.30610    0.06780    0.09650    3.57110    2.59500  127.51640    8.04750    5.42230    5.46220    5.14480    8.78580   -9999.25   -9999.25
 5368.00000    0.30790    0.06830    0.09960    3.52130    2.59330  130.49100    8.13100    5.41090    5.44520    5.23100    9.23120   -9999.25   -9999.25
 5368.50000    0.29420    0.07960    0.06530    3.41750    2.57520  134.19530    7.94390    5.53370    5.56870    5.36750   10.04420   -9999.25   -9999.25
 5369.00000    0.28330    0.08770    0.03100    3.33460    2.56000  131.47480    7.96850    5.65920    5.69500    5.36760   10.07790   -9999.25   -9999.25
 5369.50000    0.28370    0.09970    0.00680    3.30010    2.53700  124.18130    7.99070    5.78760    5.82420    5.36770    9.79680   -9999.25   -9999.25
 5370.00000    0.28760    0.09450    0.00720    3.26570    2.54490  120.80350    7.98750    5.79140    5.84590    5.36780    9.15950   -9999.25   -9999.25
 5370.50000    0.28490    0.08030    0.01240    3.28720    2.57360  119.50260    8.04380    5.45490    5.50590    5.23930    9.09590   -9999.25   -9999.25
 5371.00000    0.27880    0.05740    0.01410    3.31770    2.61410  121.32660    8.22380    5.57520    5.61980    5.41050   10.20840   -9999.25   -9999.25
 5371.50000    0.27080    0.03810    0.01490    3.32160    2.64500  122.85520    8.01390    5.83950    5.88610    5.63500   11.19180   -9999.25   -9999.25
 5372.00000    0.27350    0.03940    0.01290    3.32480    2.64030  123.01620    7.95220    5.90050    5.93710    5.68420   12.02340   -9999.25   -9999.25
 5372.50000    0.28510    0.04820    0.00950    3.32560    2.62470  122.87290    7.89120    5.77840    5.81430    5.53730   12.48420   -9999.25   -9999.25
 5373.00000    0.30180    0.05870    0.00510    3.32640    2.60960  124.08640    7.87210    5.64190    5.67390    5.51640   13.22310   -9999.25   -9999.25
 5373.50000    0.31850    0.05770    0.00220    3.33040    2.61350  126.96250    7.86560    5.61950    5.65150    5.49550   13.47340   -9999.25   -9999.25
 5374.00000    0.31570    0.05000    0.00130    3.33870    2.62730  130.02810    7.85850    5.59730    5.62910    5.47730   13.71740   -9999.25   -9999.25
 5374.50000    0.29730    0.04020    0.00040    3.34930    2.64030  131.21150    7.85130    5.59080    5.62240    5.46010   13.60340   -9999.25   -9999.25
 5375.00000    0.28210    0.03390   -0.00040    3.36590    2.65240  129.24640    7.92240    5.61300    5.64480    5.43480   12.89890   -9999.25   -9999.25
 5375.50000    0.27490    0.03470    0.00160    3.38250    2.65170  125.68100    8.10840    5.72740    5.77800    5.51090   12.92570   -9999.25   -9999.25
