~Version ---------------------------------------------------
VERS.   2.0 : CWLS log ASCII Standard -VERSION 2.0
WRAP.    NO : One line per depth step
DLM . SPACE : Column Data Section Delimiter
~Well ------------------------------------------------------
STRT .F                 904.0 : START DEPTH
STOP .F                7603.0 : STOP DEPTH
STEP .F                   0.5 : STEP
NULL .               -9999.25 : NULL VALUE
COMP .                        : COMPANY
WELL .                        : WELL
FLD  .                        : FIELD
LOC  .                        : LOCATION
PROV .                        : PROVINCE
CNTY .                        : COUNTY
STAT .                        : STATE
CTRY .                        : COUNTRY
SRVC .                        : SERVICE COMPANY
DATE .                        : DATE
UWI  .                        : UNIQUE WELL ID
API  .                        : API NUMBER
SLAT .WGS84 6.983165863716202 : SURFACE LATITUDE
SLON .WGS84 4.694349069349002 : SURFACE LONGITUDE
DATUM.F                2341.0 : DEPTH DATUM ELEV
~Curve Information -----------------------------------------
DEPT   .F     : 1 MEASURED DEPTH
NPHI_LS.DEC   : NEUTRON POROSITY LIMESTONE
DPHZ_LS.DEC   : HGRD STANDARD RESOLUTION DENSITY POROSITY
HDRA   .G/C3  : HRDD SPINE AND RIBS DENSITY CORRECTION
PEFZ   .B/E   : HRDD STANDARD RESOLUTION FORMATION PHOTOELECTRIC FACTOR
RHOZ   .G/C3  : HRDD STANDARD RESOLUTION FORMATION DENSITY
GRR    .GAPI  : GAMMA RAY FROM RESISTIVITY LOG
HCALR  .IN    : HRCC CALIPER CALIBRATED FROM RESISTIVITY LOG
AT30   .OHMM  : ARRAY INDUCTION TWO FOOT RESISTIVITY A30
AT90   .OHMM  : ARRAY INDUCTION TWO FOOT RESISTIVITY A90
AT10   .OHMM  : ARRAY INDUCTION TWO FOOT RESISTIVITY A10
SPR    .MV    : SPONTANEOUS POTENTIAL FROM RESISTIVITY LOG
DTCO   .US/F  : DELTA-T COMPRESSIONAL
DTSM   .US/F  : DELTA-T SHEAR
~Params ----------------------------------------------------
~Other -----------------------------------------------------
~ASCII -----------------------------------------------------
# ...
 4102.00000    0.20360    0.08050    0.03810    3.62570    2.57020   29.30170    7.53010    3.91650    2.58230   10.65720  -72.33560   -9999.25   -9999.25
 4102.50000    0.20360    0.07910    0.05190    3.68300    2.57800   31.93400    7.47470    3.83770    2.61150   10.06010  -72.74210   -9999.25   -9999.25
 4103.00000    0.19660    0.09130    0.05470    3.88410    2.55950   33.56790    7.53170    3.74320    2.58510    9.59840  -73.34150   -9999.25   -9999.25
 4103.50000    0.19390    0.08760    0.05670    4.03870    2.55530   34.34200    7.52960    3.68330    2.48360    9.13940  -73.89060   -9999.25   -9999.25
 4104.00000    0.19400    0.07000    0.05990    4.01620    2.58220   34.18560    7.48610    3.55280    2.35930    8.76350  -74.28610   -9999.25   -9999.25
 4104.50000    0.19480    0.04390    0.06180    3.84200    2.62790   32.95660    7.34980    3.26300    2.21100    7.65670  -74.47080   -9999.25   -9999.25
 4105.00000    0.19890    0.04200    0.05070    3.70100    2.64010   31.75180    7.32610    3.00800    2.05550    6.14930  -74.76500   -9999.25   -9999.25
 4105.50000    0.20600    0.04780    0.03420    3.52660    2.63050   31.57630    7.23330    2.77290    1.93090    4.99780  -75.18520   -9999.25   -9999.25
 4106.00000    0.21490    0.05760    0.01890    3.55480    2.61460   32.46550    7.27680    2.75000    1.88540    4.24290  -75.32750   -9999.25   -9999.25
 4106.50000    0.22580    0.06580    0.01080    3.58000    2.60220   33.21920    7.41220    2.78210    1.95430    3.85180  -74.97160   -9999.25   -9999.25
 4107.00000    0.22600    0.07790    0.00730    3.60760    2.58080   34.51310    7.41040    3.15840    2.12040    4.32090  -74.52000   -9999.25   -9999.25
 4107.50000    0.21100    0.08280    0.00620    3.65380    2.57320   38.33050    7.43040    3.43970    2.44370    4.90340  -74.08450   -9999.25   -9999.25
 4108.00000    0.16330    0.07850    0.00510    3.82020    2.56870   45.75660    7.49540    3.72550    2.92390    6.44960  -73.50260   -9999.25   -9999.25
 4108.50000    0.10860    0.06290    0.00400    4.04940    2.59330   54.48660    7.52610    4.43300    3.49890    8.51820  -71.98390   -9999.25   -9999.25
 4109.00000    0.06370    0.04100    0.00560    4.49480    2.63330   58.77880    7.58170    6.42440    5.95580   12.53780  -70.96230   -9999.25   -9999.25
 4109.50000    0.03240    0.02440    0.00870    4.78670    2.67030   56.43930    7.75940   11.33230   10.87620   26.15330  -70.97200   -9999.25   -9999.25
 4110.00000    0.01970    0.00860    0.00710    4.99480    2.69310   48.88150    7.77150   20.96870   18.86070   49.29920  -71.15360   -9999.25   -9999.25
 4110.50000    0.01930    0.00890    0.00560    5.07610    2.69470   40.72580    7.79410   36.48420   32.70670   72.62900  -71.47860   -9999.25   -9999.25
 4111.00000    0.02030    0.01560    0.00470    5.10210    2.68240   34.37140    7.80130   57.24340   54.05490   68.79990  -71.64190   -9999.25   -9999.25
 4111.50000    0.02140    0.03250    0.00410    5.10660    2.65730   29.76880    7.77930   93.88680  100.39140   66.66100  -72.03520   -9999.25   -9999.25
 4112.00000    0.02430    0.04510    0.00350    5.07970    2.63950   27.28130    7.69830  102.66820  220.07330   60.06050  -72.40120   -9999.25   -9999.25
 4112.50000    0.02820    0.05590    0.00280    5.05290    2.61740   25.62670    7.61740  102.21610  251.73190   56.85650  -72.80830   -9999.25   -9999.25
 4113.00000    0.03310    0.06490    0.00220    5.01190    2.60550   26.54280    7.55370   99.11720  145.89970   55.74050  -73.21540   -9999.25   -9999.25
 4113.50000    0.03630    0.06410    0.00860    4.99070    2.59880   28.39610    7.56290   80.24580   81.12830   55.99390  -73.90080   -9999.25   -9999.25
 4114.00000    0.03640    0.05790    0.02140    5.05130    2.60900   31.50910    7.65880   61.30940   57.83730   55.88990  -73.96900   -9999.25   -9999.25
 4114.50000    0.03470    0.04930    0.03510    5.12640    2.62430   34.74890    7.74470   58.37030   49.63910   54.92750  -74.02390   -9999.25   -9999.25
 4115.00000    0.03220    0.04300    0.04700    5.20810    2.63600   36.33940    7.79510   57.01680   45.88580   53.98160  -74.10210   -9999.25   -9999.25
 4115.50000    0.03050    0.03530    0.05710    5.23200    2.64970   35.19870    7.82300   54.47090   42.76660   54.03710  -74.85490   -9999.25   -9999.25
 4116.00000    0.02920    0.03330    0.05550    5.20240    2.65640   32.65220    7.84290   51.00720   39.27850   54.60940  -75.60550   -9999.25   -9999.25
 4116.50000    0.02900    0.03950    0.03690    5.09370    2.64520   30.29520    7.84950   50.07890   36.64500   56.19420  -76.82480   -9999.25   -9999.25
 4117.00000    0.02980    0.04960    0.01770    5.05440    2.63000   29.85820    7.85210   49.03340   34.55660   56.82990  -78.31860   -9999.25   -9999.25
 4117.50000    0.03080    0.05350    0.00110    5.08580    2.61850   29.31800    7.87480   47.57150   33.03230   56.46920  -79.78660   -9999.25   -9999.25
 4118.00000    0.03130    0.05440   -0.00450    5.11720    2.61940   28.19000    7.86820   45.45450   31.80280   55.94620  -80.78670   -9999.25   -9999.25
 4118.50000    0.03150    0.05510   -0.00600    5.14120    2.61600   27.53790    7.86170   44.42130   31.54170   56.41520  -81.78690   -9999.25   -9999.25
 4119.00000    0.03090    0.05190   -0.00390    5.12440    2.62040   27.29950    7.85520   45.27300   33.53580   59.96230  -82.78700   -9999.25   -9999.25
 4119.50000    0.03220    0.05250    0.00100    5.11470    2.62040   27.51020    7.73250   45.27600   35.04080   60.43580  -83.28370   -9999.25   -9999.25
 4120.00000    0.03500    0.05180    0.00730    5.12000    2.62130   26.26320    7.56890   43.70080   34.98790   59.76900  -83.56380   -9999.25   -9999.25
 4120.50000    0.03870    0.05280    0.01560    5.13420    2.62030   24.35800    7.44860   43.23010   35.04740   58.96110  -83.68580   -9999.25   -9999.25
 4121.00000    0.04130    0.05790    0.01500    5.12210    2.61160   23.48340    7.41740   43.06820   35.16590   58.47740  -83.47380   -9999.25   -9999.25
 4121.50000    0.03950    0.05430    0.01620    5.11550    2.61520   22.85650    7.39660   43.01320   35.54370   57.96850  -83.32860   -9999.25   -9999.25
 4122.00000    0.03520    0.04150    0.01950    5.10410    2.62970   22.63470    7.46190   43.52060   35.74290   58.70370  -82.94430   -9999.25   -9999.25
 4122.50000    0.03080    0.03100    0.02270    5.09920    2.65560   22.56210    7.56780   44.13010   35.71090   59.07840  -82.92730   -9999.25   -9999.25
 4123.00000    0.02720    0.03550    0.01640    5.09750    2.65280   23.27760    7.67370   44.38390   35.20800   63.00930  -82.81480   -9999.25   -9999.25
 4123.50000    0.02580    0.04810    0.00660    5.09580    2.63120   24.09200    7.77000   42.84690   34.51530   60.03930  -83.02720   -9999.25   -9999.25
 4124.00000    0.02810    0.05570    0.00690    5.05340    2.61530   24.93320    7.79870   37.90340   30.98320   52.96010  -82.83840   -9999.25   -9999.25
 4124.50000    0.03490    0.05530    0.00730    4.91720    2.61510   24.55620    7.78350   34.88410   29.01960   47.46930  -82.64970   -9999.25   -9999.25
 4125.00000    0.04620    0.05200    0.01350    4.84520    2.62140   23.06550    7.64270   33.22990   27.10910   42.03900  -82.58320   -9999.25   -9999.25
 4125.50000    0.05180    0.04930    0.02260    4.87690    2.62410   21.38090    7.51380   30.47200   24.74030   38.16400  -82.48160   -9999.25   -9999.25
 4126.00000    0.05310    0.04360    0.03400    4.98610    2.63660   19.90680    7.51970   29.30400   23.28880   36.35320  -82.10660   -9999.25   -9999.25
 4126.50000    0.05160    0.03910    0.03700    5.05280    2.64230   19.37570    7.56070   30.45290   23.27910   38.22510  -81.91110   -9999.25   -9999.25
 4127.00000    0.04730    0.02920    0.03600    5.09970    2.65960   20.49050    7.60180   32.35440   23.96340   41.57310  -81.71570   -9999.25   -9999.25
 4127.50000    0.04300    0.03270    0.02550    5.05580    2.65610   22.05190    7.64080   35.45510   25.49400   45.12290  -81.71410   -9999.25   -9999.25
