~Version ---------------------------------------------------
VERS.   2.0 : CWLS log ASCII Standard -VERSION 2.0
WRAP.    NO : One line per depth step
DLM . SPACE : Column Data Section Delimiter
~Well ------------------------------------------------------
STRT .F                 904.0 : START DEPTH
STOP .F                7603.0 : STOP DEPTH
STEP .F                   0.5 : STEP
NULL .               -9999.25 : NULL VALUE
COMP .                        : COMPANY
WELL .                        : WELL
FLD  .                        : FIELD
LOC  .                        : LOCATION
PROV .                        : PROVINCE
CNTY .                        : COUNTY
STAT .                        : STATE
CTRY .                        : COUNTRY
SRVC .                        : SERVICE COMPANY
DATE .                        : DATE
UWI  .                        : UNIQUE WELL ID
API  .                        : API NUMBER
SLAT .WGS84 6.983165863716202 : SURFACE LATITUDE
SLON .WGS84 4.694349069349002 : SURFACE LONGITUDE
DATUM.F                2341.0 : DEPTH DATUM ELEV
~Curve Information -----------------------------------------
DEPT   .F     : 1 MEASURED DEPTH
NPHI_LS.DEC   : NEUTRON POROSITY LIMESTONE
DPHZ_LS.DEC   : HGRD STANDARD RESOLUTION DENSITY POROSITY
HDRA   .G/C3  : HRDD SPINE AND RIBS DENSITY CORRECTION
PEFZ   .B/E   : HRDD STANDARD RESOLUTION FORMATION PHOTOELECTRIC FACTOR
RHOZ   .G/C3  : HRDD STANDARD RESOLUTION FORMATION DENSITY
GRR    .GAPI  : GAMMA RAY FROM RESISTIVITY LOG
HCALR  .IN    : HRCC CALIPER CALIBRATED FROM RESISTIVITY LOG
AT30   .OHMM  : ARRAY INDUCTION TWO FOOT RESISTIVITY A30
AT90   .OHMM  : ARRAY INDUCTION TWO FOOT RESISTIVITY A90
AT10   .OHMM  : ARRAY INDUCTION TWO FOOT RESISTIVITY A10
SPR    .MV    : SPONTANEOUS POTENTIAL FROM RESISTIVITY LOG
DTCO   .US/F  : DELTA-T COMPRESSIONAL
DTSM   .US/F  : DELTA-T SHEAR
~Params ----------------------------------------------------
~Other -----------------------------------------------------
~ASCII -----------------------------------------------------
# ...
 3764.00000    0.31850    0.17870    0.09640    3.75480    2.38000   84.33720    9.84690    3.16360    3.43170    2.71800  -14.57150   -9999.25   -9999.25
 3764.50000    0.24550    0.12330    0.07820    4.07600    2.48940   71.78430    9.86690    5.63750    6.19740    4.82500  -17.47930   -9999.25   -9999.25
 3765.00000    0.15210    0.08620    0.03960    4.34510    2.55910   52.18790    9.58870   12.39800   13.62850    9.58830  -20.77720   -9999.25   -9999.25
 3765.50000    0.09970    0.07110    0.01800    4.54380    2.58880   37.73440    9.52930   21.94100   29.14090   15.02490  -23.77400   -9999.25   -9999.25
 3766.00000    0.06970    0.08850    0.01740    4.54620    2.56440   28.95610    9.47460   23.01950   22.86110    9.95950  -25.82510   -9999.25   -9999.25
 3766.50000    0.08280    0.12380    0.03240    4.45550    2.49870   28.78740    9.32840   15.95120   12.68660    8.91550  -27.35930   -9999.25   -9999.25
 3767.00000    0.12850    0.15580    0.05760    4.39360    2.44430   33.83390    9.17050    8.27670    6.66650    9.33760  -30.53550   -9999.25   -9999.25
 3767.50000    0.13160    0.15060    0.09380    4.38090    2.45060   36.96910    9.03410    8.41810    7.00620   10.19310  -35.45290   -9999.25   -9999.25
 3768.00000    0.12440    0.13520    0.10690    4.43680    2.47050   34.59490    8.55680   17.10470   11.07570   17.81650  -41.17040   -9999.25   -9999.25
 3768.50000    0.11610    0.12800    0.11040    4.50450    2.49570   31.21680    8.58000   17.19680   10.93060   18.16340  -46.48050   -9999.25   -9999.25
 3769.00000    0.11400    0.14500    0.09390    4.57690    2.46600   30.27130    8.71590   14.89850   10.22050   15.87340  -50.62280   -9999.25   -9999.25
 3769.50000    0.10780    0.14620    0.08230    4.65450    2.46000   30.52370    8.79950   14.75310    9.96390   15.31330  -53.57250   -9999.25   -9999.25
 3770.00000    0.09770    0.12880    0.08190    4.76850    2.49150   30.51560    8.64930   15.40890   10.20210   16.09050  -56.53440   -9999.25   -9999.25
 3770.50000    0.08890    0.09870    0.08200    4.87680    2.54370   30.50450    8.25430   16.09370   10.61060   17.17590  -58.54630   -9999.25   -9999.25
 3771.00000    0.08130    0.08250    0.08270    4.93480    2.57180   31.07480    8.25740   17.04770   11.25180   18.50970  -60.00390   -9999.25   -9999.25
 3771.50000    0.07820    0.08490    0.07570    4.94060    2.56500   30.74520    8.47580   18.63450   12.05900   22.03480  -61.60980   -9999.25   -9999.25
 3772.00000    0.06920    0.08470    0.06480    4.91610    2.56730   30.22720    8.64840   21.58360   14.30820   27.30700  -63.25210   -9999.25   -9999.25
 3772.50000    0.05690    0.08190    0.05490    4.87830    2.57320   30.14500    8.77190   24.05450   16.53850   32.66380  -64.52270   -9999.25   -9999.25
 3773.00000    0.04270    0.06790    0.03770    4.81640    2.59460   35.48520    8.86870   20.82850   14.70400   31.66860  -65.75070   -9999.25   -9999.25
 3773.50000    0.03510    0.06150    0.02170    4.74430    2.60500   40.87470    8.89790   18.09470   13.49800   31.13250  -66.80180   -9999.25   -9999.25
 3774.00000    0.03660    0.05970    0.01240    4.71800    2.60990   42.69100    8.86730   17.42190   12.76360   31.27660  -67.69690   -9999.25   -9999.25
 3774.50000    0.04050    0.07340    0.00610    4.70830    2.58690   41.36270    8.83660   17.22540   11.85870   30.38420  -68.48240   -9999.25   -9999.25
 3775.00000    0.05310    0.08710    0.01250    4.70800    2.56120   38.14890    8.72860   15.97420   10.22180   28.80120  -69.23530   -9999.25   -9999.25
 3775.50000    0.06740    0.09680    0.03420    4.67720    2.54460   34.70720    8.55280   13.23320    8.84630   23.68000  -69.98820   -9999.25   -9999.25
 3776.00000    0.09190    0.11370    0.05730    4.65050    2.52240   31.44030    8.30140   10.45040    6.86920   17.65810  -71.17550   -9999.25   -9999.25
 3776.50000    0.11680    0.13140    0.07150    4.61970    2.48290   28.71980    8.25350    8.72800    5.56700   14.06880  -71.75510   -9999.25   -9999.25
 3777.00000    0.14160    0.16080    0.07390    4.56510    2.43830   27.49000    8.44970    7.86920    4.93050   12.08870  -71.98250   -9999.25   -9999.25
 3777.50000    0.15860    0.16830    0.07370    4.56040    2.42280   29.95830    8.49770    7.34440    4.64050   11.28110  -71.81580   -9999.25   -9999.25
 3778.00000    0.15750    0.15640    0.07410    4.55570    2.43820   33.63310    8.44620    7.44710    4.60210   11.44970  -70.93840   -9999.25   -9999.25
 3778.50000    0.14110    0.13230    0.07500    4.57100    2.47670   37.45320    8.38820    7.66270    4.68840   11.50040  -69.99690   -9999.25   -9999.25
 3779.00000    0.12490    0.10640    0.07510    4.62650    2.52570   39.38480    8.32920    7.65270    4.77840   11.16990  -68.53410   -9999.25   -9999.25
 3779.50000    0.11590    0.09340    0.07010    4.70600    2.54980   41.69010    8.33780    7.39170    4.87920   10.50880  -66.59170   -9999.25   -9999.25
 3780.00000    0.11360    0.08610    0.06180    4.74410    2.56350   47.12970    8.45400    7.27940    5.04400   10.09600  -64.49400   -9999.25   -9999.25
 3780.50000    0.11710    0.08150    0.05310    4.68730    2.57160   57.93100    8.57320    7.31860    5.27150    9.39610  -62.81050   -9999.25   -9999.25
 3781.00000    0.12730    0.07770    0.04390    4.58730    2.57800   68.41610    8.52760    6.99730    5.52970    8.44100  -61.59250   -9999.25   -9999.25
 3781.50000    0.12990    0.07100    0.03630    4.47310    2.59090   75.75810    8.53750    6.98960    5.38210    7.65260  -60.37450   -9999.25   -9999.25
 3782.00000    0.11990    0.05900    0.02610    4.47930    2.60980   70.42810    8.46730    8.06830    6.68870   10.58530  -60.05460   -9999.25   -9999.25
 3782.50000    0.09650    0.05160    0.02140    4.56330    2.62270   59.47130    8.41600   10.26530    8.65130   14.32960  -60.57940   -9999.25   -9999.25
 3783.00000    0.07210    0.05280    0.01920    4.65600    2.61950   48.73220    8.25970   13.64880   11.18890   19.32720  -61.47140   -9999.25   -9999.25
 3783.50000    0.05690    0.05840    0.01610    4.75410    2.60850   40.60310    8.29390   16.29420   13.06900   26.30910  -62.32940   -9999.25   -9999.25
 3784.00000    0.04430    0.06020    0.02150    4.80420    2.60750   38.04940    8.32540   17.65290   12.78990   31.85840  -63.13480   -9999.25   -9999.25
 3784.50000    0.04120    0.06000    0.03680    4.86970    2.60640   37.39300    8.31130   16.49750   10.74950   34.44210  -64.64960   -9999.25   -9999.25
 3785.00000    0.04760    0.06590    0.05020    4.92150    2.59550   37.38050    8.23020   13.52400    8.54040   31.74840  -66.32160   -9999.25   -9999.25
 3785.50000    0.07380    0.07570    0.06120    4.91570    2.57250   37.91480    8.14910   10.60320    6.80390   23.80630  -68.24570   -9999.25   -9999.25
 3786.00000    0.11010    0.09790    0.05760    4.84780    2.53710   39.23950    8.07670    8.68210    5.36030   18.42680  -69.82650   -9999.25   -9999.25
 3786.50000    0.14620    0.12620    0.05250    4.70850    2.48460   40.72170    8.02170    7.43100    4.49590   14.55900  -71.25680   -9999.25   -9999.25
 3787.00000    0.17990    0.16280    0.04240    4.57870    2.42500   40.08910    7.98430    6.75680    3.84890   12.27510  -72.50880   -9999.25   -9999.25
 3787.50000    0.20360    0.20210    0.03270    4.48190    2.37360   36.73640    7.96540    6.08310    3.39730   11.02900  -73.40590   -9999.25   -9999.25
 3788.00000    0.21160    0.22150    0.02410    4.42040    2.33250   32.68670    7.94760    5.47820    3.08090   10.49480  -73.93610   -9999.25   -9999.25
 3788.50000    0.21060    0.22450    0.01650    4.35970    2.32640   29.79730    7.94730    4.97460    2.78690    9.95930  -74.35600   -9999.25   -9999.25
 3789.00000    0.20750    0.22730    0.01140    4.34870    2.32210   27.24740    7.93370    4.64140    2.63700    9.46110  -74.48560   -9999.25   -9999.25
 3789.50000    0.20510    0.22350    0.01880    4.38100    2.32840   25.62660    7.94050    4.66660    2.58400    9.02950  -74.52270   -9999.25   -9999.25
