~Version ---------------------------------------------------
VERS.   2.0 : CWLS log ASCII Standard -VERSION 2.0
WRAP.    NO : One line per depth step
DLM . SPACE : Column Data Section Delimiter
~Well ------------------------------------------------------
STRT .F                 904.0 : START DEPTH
STOP .F                7603.0 : STOP DEPTH
STEP .F                   0.5 : STEP
NULL .               -9999.25 : NULL VALUE
COMP .                        : COMPANY
WELL .                        : WELL
FLD  .                        : FIELD
LOC  .                        : LOCATION
PROV .                        : PROVINCE
CNTY .                        : COUNTY
STAT .                        : STATE
CTRY .                        : COUNTRY
SRVC .                        : SERVICE COMPANY
DATE .                        : DATE
UWI  .                        : UNIQUE WELL ID
API  .                        : API NUMBER
SLAT .WGS84 6.983165863716202 : SURFACE LATITUDE
SLON .WGS84 4.694349069349002 : SURFACE LONGITUDE
DATUM.F                2341.0 : DEPTH DATUM ELEV
~Curve Information -----------------------------------------
DEPT   .F     : 1 MEASURED DEPTH
NPHI_LS.DEC   : NEUTRON POROSITY LIMESTONE
DPHZ_LS.DEC   : HGRD STANDARD RESOLUTION DENSITY POROSITY
HDRA   .G/C3  : HRDD SPINE AND RIBS DENSITY CORRECTION
PEFZ   .B/E   : HRDD STANDARD RESOLUTION FORMATION PHOTOELECTRIC FACTOR
RHOZ   .G/C3  : HRDD STANDARD RESOLUTION FORMATION DENSITY
GRR    .GAPI  : GAMMA RAY FROM RESISTIVITY LOG
HCALR  .IN    : HRCC CALIPER CALIBRATED FROM RESISTIVITY LOG
AT30   .OHMM  : ARRAY INDUCTION TWO FOOT RESISTIVITY A30
AT90   .OHMM  : ARRAY INDUCTION TWO FOOT RESISTIVITY A90
AT10   .OHMM  : ARRAY INDUCTION TWO FOOT RESISTIVITY A10
SPR    .MV    : SPONTANEOUS POTENTIAL FROM RESISTIVITY LOG
DTCO   .US/F  : DELTA-T COMPRESSIONAL
DTSM   .US/F  : DELTA-T SHEAR
~Params ----------------------------------------------------
~Other -----------------------------------------------------
~ASCII -----------------------------------------------------
# ...
 5038.00000    0.13570    0.03080   -0.00050    4.05910    2.65930   77.73280    7.88910   12.54280   13.89230   11.48190    7.41140   -9999.25   -9999.25
 5038.50000    0.14370    0.03120   -0.00230    3.90790    2.65550   78.51990    7.86250    9.26630    9.61040    8.39090    7.63150   -9999.25   -9999.25
 5039.00000    0.17260    0.03570   -0.00130    3.74320    2.64840   88.75870    7.92550    7.22960    7.35210    6.95120    8.20180   -9999.25   -9999.25
 5039.50000    0.19310    0.04460   -0.00040    3.61720    2.63180   98.37300    7.96490    6.56100    6.62020    6.16750    8.80030   -9999.25   -9999.25
 5040.00000    0.21120    0.04900    0.00060    3.55350    2.62500  102.38560    7.96470    6.18260    6.25030    5.85080    8.94930   -9999.25   -9999.25
 5040.50000    0.21880    0.05130    0.00150    3.50440    2.62380  102.52390    7.96640    5.82560    6.01410    5.49860    8.70020   -9999.25   -9999.25
 5041.00000    0.21970    0.04360    0.00310    3.46330    2.63520  101.80340    7.98840    5.69130    5.84300    5.34090    8.74620   -9999.25   -9999.25
 5041.50000    0.21490    0.04110    0.00480    3.42000    2.64050  104.31910    7.99380    5.41710    5.49510    5.14200    8.58650   -9999.25   -9999.25
 5042.00000    0.21320    0.05550    0.00590    3.41470    2.60970  112.05830    7.99290    4.96540    5.02690    4.68620    8.45130   -9999.25   -9999.25
 5042.50000    0.22680    0.08600    0.00950    3.40170    2.55790  120.95610    7.99240    4.50740    4.59870    4.25410    7.89940   -9999.25   -9999.25
 5043.00000    0.24540    0.11160    0.02040    3.36250    2.51870  128.13810    8.01800    4.03490    4.20690    3.86070    7.07300   -9999.25   -9999.25
 5043.50000    0.27970    0.11800    0.04460    3.36720    2.50700  134.32410    8.02040    3.66490    4.01750    3.36960    6.24660   -9999.25   -9999.25
 5044.00000    0.30530    0.12100    0.06870    3.37190    2.50330  140.57590    8.06670    3.87530    4.04940    3.47130    7.55570   -9999.25   -9999.25
 5044.50000    0.33090    0.12120    0.07170    3.39660    2.49970  146.57400    7.94810    4.28170    4.33620    4.26580    8.87500   -9999.25   -9999.25
 5045.00000    0.35210    0.13910    0.06070    3.41650    2.47420  159.39810    7.81340    4.68280    4.75520    4.67700    9.84110   -9999.25   -9999.25
 5045.50000    0.39720    0.16100    0.04260    3.44020    2.43460  196.86490    7.82120    5.62790    5.89460    5.38850   10.61520   -9999.25   -9999.25
 5046.00000    0.43980    0.21410    0.02450    3.42870    2.33240  260.01820    7.83190    8.19380    8.58030    7.22510   11.24370   -9999.25   -9999.25
 5046.50000    0.47210    0.27310    0.00610    3.42570    2.24160  300.43660    7.83020   11.91400   12.00880   10.13020   11.67390   -9999.25   -9999.25
 5047.00000    0.47620    0.28410   -0.00400    3.42590    2.23090  300.67680    7.82720   10.45470   11.07590    9.18990   11.14300   -9999.25   -9999.25
 5047.50000    0.42980    0.22610    0.00590    3.44340    2.32380  300.56460    7.84040    7.74760    8.03970    7.25540   11.23740   -9999.25   -9999.25
 5048.00000    0.37580    0.15910    0.00690    3.47880    2.46980  276.12750    7.86860    6.33540    6.16080    5.97130   11.42670   -9999.25   -9999.25
 5048.50000    0.31290    0.10030    0.00480    3.54300    2.54480  186.90680    7.89680    6.00220    6.04650    5.82170   11.60740   -9999.25   -9999.25
 5049.00000    0.25380    0.07470    0.00180    3.60640    2.58460  136.59560    7.92500    6.23250    6.48350    5.88240   11.78800   -9999.25   -9999.25
 5049.50000    0.22770    0.06030   -0.00180    3.66980    2.60880  115.76050    7.86360    6.74040    7.01610    6.32610   12.17580   -9999.25   -9999.25
 5050.00000    0.20570    0.05450   -0.00050    3.69010    2.61530  109.15920    7.86770    6.99440    7.34920    6.47670   12.54690   -9999.25   -9999.25
 5050.50000    0.21880    0.06500    0.00190    3.67170    2.60130  112.75710    7.89630    6.32280    6.45570    6.29720   12.63030   -9999.25   -9999.25
 5051.00000    0.25640    0.10360    0.00390    3.61060    2.53930  123.92290    7.88400    5.71330    5.74670    5.65680   12.58680   -9999.25   -9999.25
 5051.50000    0.29750    0.12560    0.00830    3.50710    2.49800  135.52860    7.85820    5.67920    5.71140    5.28230   12.21550   -9999.25   -9999.25
 5052.00000    0.28060    0.11070    0.01600    3.52270    2.52240  139.13370    7.80920    5.98900    6.08560    5.83140   11.70520   -9999.25   -9999.25
 5052.50000    0.23210    0.07840    0.01830    3.64220    2.57630  126.30550    7.80750    6.76910    6.87830    6.68630   11.18620   -9999.25   -9999.25
 5053.00000    0.18370    0.04570    0.01440    3.80060    2.63820  108.90040    7.79720    7.70850    7.80450    7.73610   10.67570   -9999.25   -9999.25
 5053.50000    0.16500    0.03810    0.00680    3.87380    2.64510   97.65150    7.81470    8.20210    8.25630    7.63740   10.50690   -9999.25   -9999.25
 5054.00000    0.16840    0.03660    0.00450    3.86140    2.65000   96.25610    7.86480    8.37420    8.42490    7.80420   10.88850   -9999.25   -9999.25
 5054.50000    0.18380    0.03400    0.00410    3.84780    2.65260   96.99830    7.86890    8.52060    8.57220    8.07370   11.45570   -9999.25   -9999.25
 5055.00000    0.19920    0.03570    0.00600    3.77230    2.64870   96.70570    7.85200    8.62530    8.70700    8.12860   11.98170   -9999.25   -9999.25
 5055.50000    0.21040    0.03730    0.00350    3.72010    2.64670   98.01420    7.85860    8.21980    8.29810    7.43680   12.25770   -9999.25   -9999.25
 5056.00000    0.20720    0.04700    0.00200    3.69830    2.63130  101.45400    7.82890    8.03480    8.08170    7.49560   12.33850   -9999.25   -9999.25
 5056.50000    0.19950    0.04460    0.00060    3.70240    2.63550  105.75950    7.80530    8.15130    8.20000    7.64810   12.37240   -9999.25   -9999.25
 5057.00000    0.20890    0.04560   -0.00090    3.67970    2.63160  110.71280    7.81470    7.13510    7.31820    6.92690   12.49060   -9999.25   -9999.25
 5057.50000    0.23060    0.05580   -0.00240    3.58450    2.61280  117.59940    7.85940    5.83370    5.98410    5.69160   12.53420   -9999.25   -9999.25
 5058.00000    0.24650    0.07070   -0.00390    3.51350    2.58710  124.95280    7.86650    5.29980    5.48700    5.21590   12.47300   -9999.25   -9999.25
 5058.50000    0.25360    0.07760   -0.00390    3.48870    2.57680  130.27380    7.95050    5.51770    5.66500    5.40000   12.40820   -9999.25   -9999.25
 5059.00000    0.26030    0.08280    0.00030    3.49040    2.56870  134.97260    7.93910    5.61900    5.74980    5.53810   12.38080   -9999.25   -9999.25
 5059.50000    0.28360    0.08200    0.00780    3.47570    2.56850  138.88420    7.92630    5.49070    5.52060    5.39100   12.49160   -9999.25   -9999.25
 5060.00000    0.30420    0.09260    0.00890    3.46090    2.55210  142.43730    7.91350    5.49350    5.65670    5.36830   12.55590   -9999.25   -9999.25
 5060.50000    0.31600    0.10100    0.00840    3.44540    2.53730  144.83260    7.91840    5.73990    5.79610    5.62280   12.62030   -9999.25   -9999.25
 5061.00000    0.30350    0.11200    0.00530    3.42640    2.51890  144.94950    7.93360    5.90140    5.93900    5.78240   12.59860   -9999.25   -9999.25
 5061.50000    0.29600    0.11560    0.00250    3.44610    2.51330  143.32870    7.87450    5.72840    5.77400    5.78080   12.52460   -9999.25   -9999.25
 5062.00000    0.29600    0.10830    0.00320    3.46280    2.52680  141.36670    7.85100    5.47240    5.51610    5.39030   12.66850   -9999.25   -9999.25
 5062.50000    0.29960    0.10060    0.00490    3.47570    2.54110  138.95730    7.84420    5.36120    5.39600    5.26410   12.68400   -9999.25   -9999.25
 5063.00000    0.30540    0.09990    0.00670    3.44370    2.54080  137.08690    7.87400    5.52750    5.58270    5.32280   13.09540   -9999.25   -9999.25
 5063.50000    0.32020    0.12520    0.00570    3.41390    2.49350  136.12950    7.92180    6.18490    6.28170    6.05680   14.01690   -9999.25   -9999.25
