~Version ---------------------------------------------------
VERS.   2.0 : CWLS log ASCII Standard -VERSION 2.0
WRAP.    NO : One line per depth step
DLM . SPACE : Column Data Section Delimiter
~Well ------------------------------------------------------
STRT .F                 904.0 : START DEPTH
STOP .F                7603.0 : STOP DEPTH
STEP .F                   0.5 : STEP
NULL .               -9999.25 : NULL VALUE
COMP .                        : COMPANY
WELL .                        : WELL
FLD  .                        : FIELD
LOC  .                        : LOCATION
PROV .                        : PROVINCE
CNTY .                        : COUNTY
STAT .                        : STATE
CTRY .                        : COUNTRY
SRVC .                        : SERVICE COMPANY
DATE .                        : DATE
UWI  .                        : UNIQUE WELL ID
API  .                        : API NUMBER
SLAT .WGS84 6.983165863716202 : SURFACE LATITUDE
SLON .WGS84 4.694349069349002 : SURFACE LONGITUDE
DATUM.F                2341.0 : DEPTH DATUM ELEV
~Curve Information -----------------------------------------
DEPT   .F     : 1 MEASURED DEPTH
NPHI_LS.DEC   : NEUTRON POROSITY LIMESTONE
DPHZ_LS.DEC   : HGRD STANDARD RESOLUTION DENSITY POROSITY
HDRA   .G/C3  : HRDD SPINE AND RIBS DENSITY CORRECTION
PEFZ   .B/E   : HRDD STANDARD RESOLUTION FORMATION PHOTOELECTRIC FACTOR
RHOZ   .G/C3  : HRDD STANDARD RESOLUTION FORMATION DENSITY
GRR    .GAPI  : GAMMA RAY FROM RESISTIVITY LOG
HCALR  .IN    : HRCC CALIPER CALIBRATED FROM RESISTIVITY LOG
AT30   .OHMM  : ARRAY INDUCTION TWO FOOT RESISTIVITY A30
AT90   .OHMM  : ARRAY INDUCTION TWO FOOT RESISTIVITY A90
AT10   .OHMM  : ARRAY INDUCTION TWO FOOT RESISTIVITY A10
SPR    .MV    : SPONTANEOUS POTENTIAL FROM RESISTIVITY LOG
DTCO   .US/F  : DELTA-T COMPRESSIONAL
DTSM   .US/F  : DELTA-T SHEAR
~Params ----------------------------------------------------
~Other -----------------------------------------------------
~ASCII -----------------------------------------------------
# ...
 5662.00000    0.29810    0.10260    0.16180    3.38620    2.53450  111.42570   10.38220    4.81690    4.86840    4.00500    5.90830   -9999.25   -9999.25
 5662.50000    0.29930    0.10690    0.15900    3.40710    2.52720  112.77930   10.48670    4.71180    4.68060    3.92970    5.75420   -9999.25   -9999.25
 5663.00000    0.31170    0.11060    0.16980    3.41210    2.52090  111.87410   10.57960    4.60890    4.63050    3.88660    5.77610   -9999.25   -9999.25
 5663.50000    0.32840    0.10340    0.18310    3.41710    2.53270  109.06700   10.62830    4.61740    4.64950    3.88420    5.27680   -9999.25   -9999.25
 5664.00000    0.33360    0.10200    0.18150    3.41270    2.53600  107.23540   10.38120    4.47880    4.50880    3.71080    5.00050   -9999.25   -9999.25
 5664.50000    0.32770    0.11490    0.16400    3.38540    2.51600  108.44190   10.84220    4.36440    4.39240    3.66990    4.63230   -9999.25   -9999.25
 5665.00000    0.31900    0.14380    0.15440    3.38430    2.47050  110.08850   10.59180    4.26500    4.28860    3.61190    4.26410   -9999.25   -9999.25
 5665.50000    0.31290    0.15610    0.16660    3.40610    2.44490  110.08740   10.51090    4.27860    4.35670    3.56370    3.92310   -9999.25   -9999.25
 5666.00000    0.31290    0.14810    0.20070    3.40600    2.45720  109.23870   10.01850    4.26240    4.36460    3.44670    3.64350   -9999.25   -9999.25
 5666.50000    0.33610    0.13940    0.21820    3.35560    2.47060  108.41640   10.34410    4.13010    4.23480    3.40510    3.75120   -9999.25   -9999.25
 5667.00000    0.35610    0.14570    0.21100    3.28460    2.46320  108.08190   10.75150    4.15500    4.24210    3.40470    4.42960   -9999.25   -9999.25
 5667.50000    0.35730    0.15670    0.18480    3.23860    2.44270  107.62170   11.00890    4.35690    4.38720    3.61210    5.05460   -9999.25   -9999.25
 5668.00000    0.34320    0.14950    0.17820    3.23380    2.45430  109.54850   10.84930    4.56870    4.60470    3.78770    5.92080   -9999.25   -9999.25
 5668.50000    0.32820    0.12240    0.17600    3.26310    2.49350  114.19210   10.52530    4.79330    4.83300    3.96420    6.50470   -9999.25   -9999.25
 5669.00000    0.31670    0.10710    0.17770    3.29240    2.52700  117.20510   10.78160    5.01740    5.07260    4.14950    6.94360   -9999.25   -9999.25
 5669.50000    0.30850    0.09570    0.16930    3.34640    2.54420  116.40090   10.24060    5.12260    5.30460    4.44850    7.82110   -9999.25   -9999.25
 5670.00000    0.30880    0.09930    0.16060    3.40420    2.54320  112.53830    9.64920    5.11970    5.25980    4.33410    8.65650   -9999.25   -9999.25
 5670.50000    0.31930    0.10190    0.15930    3.39870    2.53660  108.36020   10.15690    4.93870    5.04570    4.28100    9.24770   -9999.25   -9999.25
 5671.00000    0.32800    0.10350    0.17250    3.37520    2.53470  105.87930   10.02590    4.76410    4.84560    4.26320    9.83900   -9999.25   -9999.25
 5671.50000    0.32730    0.10950    0.19360    3.35920    2.52390  105.47790   10.20870    4.59570    4.67730    4.27550   10.51240   -9999.25   -9999.25
 5672.00000    0.30790    0.10210    0.20580    3.36900    2.52980  106.76990    9.71590    4.53750    4.67060    4.33620   11.35710   -9999.25   -9999.25
 5672.50000    0.28710    0.08890    0.19690    3.43510    2.54910  110.28990    9.43370    4.69380    4.99180    4.44120   12.21570   -9999.25   -9999.25
 5673.00000    0.26770    0.05340    0.16490    3.55370    2.59530  114.07020    9.72300    5.18870    5.37120    4.72370   13.22330   -9999.25   -9999.25
 5673.50000    0.25680    0.04110    0.11000    3.68830    2.63720  115.25840    9.15140    5.71290    5.77940    5.39400   14.24760   -9999.25   -9999.25
 5674.00000    0.25100    0.03680    0.04640    3.79940    2.64590  113.22370    9.08170    5.88920    6.08520    5.43910   15.04160   -9999.25   -9999.25
 5674.50000    0.24500    0.04580    0.00960    3.81950    2.64100  108.58750    9.01210    6.07090    6.17490    5.54860   16.10280   -9999.25   -9999.25
 5675.00000    0.24230    0.05000   -0.00320    3.83400    2.62620  105.29980    9.00130    6.19290    6.36140    5.66300   16.49630   -9999.25   -9999.25
 5675.50000    0.24270    0.05710   -0.00570    3.84940    2.61900  105.87440    8.99180    6.10010    6.23020    5.70070   16.55080   -9999.25   -9999.25
 5676.00000    0.24880    0.05840   -0.00650    3.85350    2.60770  107.28620    8.98100    6.02590    6.08560    5.85350   16.85410   -9999.25   -9999.25
 5676.50000    0.24510    0.05330   -0.00660    3.79800    2.61430  106.86760    8.97970    6.12220    6.13450    5.99290   17.17450   -9999.25   -9999.25
 5677.00000    0.23480    0.04340   -0.00320    3.75950    2.62880  105.55090    8.98000    6.23470    6.27470    6.02800   17.37980   -9999.25   -9999.25
 5677.50000    0.22360    0.03750   -0.00060    3.72490    2.64280  104.40160    8.95610    6.40410    6.44610    6.08500   17.47790   -9999.25   -9999.25
 5678.00000    0.22310    0.03530   -0.00120    3.72380    2.64840  103.26930    8.93750    6.58160    6.62480    6.13150   17.71450   -9999.25   -9999.25
 5678.50000    0.22950    0.03860   -0.00170    3.73470    2.64610  101.10100    8.89400    6.76130    6.80340    6.23760   17.55150   -9999.25   -9999.25
 5679.00000    0.23240    0.04270   -0.00230    3.75510    2.63850   98.22270    8.91040    6.90880    6.95180    6.41120   17.51820   -9999.25   -9999.25
 5679.50000    0.23230    0.04190   -0.00290    3.74040    2.63750   96.57170    8.89150    7.03850    7.08010    6.56030   17.35110   -9999.25   -9999.25
 5680.00000    0.22500    0.03810   -0.00350    3.71860    2.64560   96.43460    8.87260    7.36010    7.45980    6.79240   17.51770   -9999.25   -9999.25
 5680.50000    0.21600    0.03950   -0.00180    3.68950    2.64360   96.70310    8.84980    7.86900    7.92790    7.03270   17.50030   -9999.25   -9999.25
 5681.00000    0.21160    0.05070   -0.00010    3.62780    2.62480   97.83390    8.81660    7.35690    7.49410    6.95220   17.45830   -9999.25   -9999.25
 5681.50000    0.20790    0.05930    0.00160    3.60580    2.60860  101.24730    8.79690    6.84820    6.91580    6.55720   17.45010   -9999.25   -9999.25
 5682.00000    0.20190    0.05780    0.00330    3.55180    2.61020  104.26420    8.81230    6.61110    6.65500    6.26710   17.47850   -9999.25   -9999.25
 5682.50000    0.19960    0.05290    0.00280    3.55470    2.61900  106.04180    8.84730    6.48640    6.52320    6.02700   17.50690   -9999.25   -9999.25
 5683.00000    0.20250    0.05410   -0.00160    3.64140    2.61790  104.40690    8.87950    6.46530    6.50200    5.97720   17.29320   -9999.25   -9999.25
 5683.50000    0.21800    0.05120   -0.00410    3.71300    2.62330  102.72250    8.90740    6.17320    6.24040    5.92780   17.04840   -9999.25   -9999.25
 5684.00000    0.23180    0.04520   -0.00100    3.71050    2.63230  104.19860    8.93530    6.01530    6.05120    5.85590   16.99990   -9999.25   -9999.25
 5684.50000    0.22940    0.03790   -0.00060    3.69000    2.64570  107.66750    8.96310    6.06400    6.10520    5.76380   17.04090   -9999.25   -9999.25
 5685.00000    0.22410    0.03630   -0.00090    3.68650    2.64880  110.88600    8.99080    6.04390    6.14970    5.71510   17.07810   -9999.25   -9999.25
 5685.50000    0.21860    0.03280   -0.00110    3.68300    2.65490  111.89470    9.01490    6.00970    6.14600    5.69790   16.77880   -9999.25   -9999.25
 5686.00000    0.22000    0.03020   -0.00140    3.66270    2.65810  112.11310    9.03640    5.86260    5.94800    5.55310   16.58600   -9999.25   -9999.25
 5686.50000    0.22620    0.03200   -0.00160    3.61370    2.65590  113.29670    9.03370    5.70840    5.74860    5.39620   16.44250   -9999.25   -9999.25
 5687.00000    0.23620    0.03840   -0.00180    3.51150    2.64430  114.38490    9.01370    5.51710    5.55580    5.19710   15.79620   -9999.25   -9999.25
 5687.50000    0.24450    0.05090    0.00190    3.41080    2.62420  114.89680    9.04100    5.36470    5.39660    5.03070   14.35870   -9999.25   -9999.25
