~Version ---------------------------------------------------
VERS.   2.0 : CWLS log ASCII Standard -VERSION 2.0
WRAP.    NO : One line per depth step
DLM . SPACE : Column Data Section Delimiter
~Well ------------------------------------------------------
STRT .F                 904.0 : START DEPTH
STOP .F                7603.0 : STOP DEPTH
STEP .F                   0.5 : STEP
NULL .               -9999.25 : NULL VALUE
COMP .                        : COMPANY
WELL .                        : WELL
FLD  .                        : FIELD
LOC  .                        : LOCATION
PROV .                        : PROVINCE
CNTY .                        : COUNTY
STAT .                        : STATE
CTRY .                        : COUNTRY
SRVC .                        : SERVICE COMPANY
DATE .                        : DATE
UWI  .                        : UNIQUE WELL ID
API  .                        : API NUMBER
SLAT .WGS84 6.983165863716202 : SURFACE LATITUDE
SLON .WGS84 4.694349069349002 : SURFACE LONGITUDE
DATUM.F                2341.0 : DEPTH DATUM ELEV
~Curve Information -----------------------------------------
DEPT   .F     : 1 MEASURED DEPTH
NPHI_LS.DEC   : NEUTRON POROSITY LIMESTONE
DPHZ_LS.DEC   : HGRD STANDARD RESOLUTION DENSITY POROSITY
HDRA   .G/C3  : HRDD SPINE AND RIBS DENSITY CORRECTION
PEFZ   .B/E   : HRDD STANDARD RESOLUTION FORMATION PHOTOELECTRIC FACTOR
RHOZ   .G/C3  : HRDD STANDARD RESOLUTION FORMATION DENSITY
GRR    .GAPI  : GAMMA RAY FROM RESISTIVITY LOG
HCALR  .IN    : HRCC CALIPER CALIBRATED FROM RESISTIVITY LOG
AT30   .OHMM  : ARRAY INDUCTION TWO FOOT RESISTIVITY A30
AT90   .OHMM  : ARRAY INDUCTION TWO FOOT RESISTIVITY A90
AT10   .OHMM  : ARRAY INDUCTION TWO FOOT RESISTIVITY A10
SPR    .MV    : SPONTANEOUS POTENTIAL FROM RESISTIVITY LOG
DTCO   .US/F  : DELTA-T COMPRESSIONAL
DTSM   .US/F  : DELTA-T SHEAR
~Params ----------------------------------------------------
~Other -----------------------------------------------------
~ASCII -----------------------------------------------------
# ...
 5974.00000    0.19260    0.07170   -0.00180    3.19270    2.58820   88.69550   10.30800    3.55430    3.57550    3.52610   16.78070   -9999.25   -9999.25
 5974.50000    0.19880    0.06900   -0.00120    3.16220    2.59160   87.79910   10.21360    3.50060    3.52220    3.47130   16.42670   -9999.25   -9999.25
 5975.00000    0.21160    0.06820    0.00230    3.13170    2.59430   87.44890   10.21350    3.41500    3.43690    3.38470   16.50240   -9999.25   -9999.25
 5975.50000    0.22160    0.06790    0.00750    3.13560    2.59500   88.09750   10.14030    3.33820    3.35720    3.30230   15.97310   -9999.25   -9999.25
 5976.00000    0.21770    0.06970    0.01330    3.15360    2.59200   89.13470   10.24730    3.33090    3.34980    3.31930   15.90100   -9999.25   -9999.25
 5976.50000    0.20860    0.07140    0.02420    3.16590    2.58840   89.67120   10.24190    3.30980    3.32860    3.30120   15.84810   -9999.25   -9999.25
 5977.00000    0.19910    0.07270    0.03590    3.18090    2.58580   90.20760   10.24710    3.30190    3.32070    3.26490   15.53790   -9999.25   -9999.25
 5977.50000    0.20060    0.07480    0.05550    3.17890    2.58300   91.26450   10.26960    3.26610    3.28540    3.22900   15.07660   -9999.25   -9999.25
 5978.00000    0.21340    0.07170    0.06770    3.20200    2.58830   92.15080   10.44950    3.22040    3.23940    3.19300   14.96900   -9999.25   -9999.25
 5978.50000    0.22510    0.06970    0.07550    3.20480    2.59210   92.23370   10.42160    3.22170    3.24000    3.15530   15.12300   -9999.25   -9999.25
 5979.00000    0.22160    0.06850    0.07340    3.21550    2.59380   90.87850   10.27560    3.23370    3.25200    3.16370   15.06060   -9999.25   -9999.25
 5979.50000    0.21410    0.08190    0.06740    3.23720    2.57310   89.21690   10.22460    3.24610    3.26460    3.19330   14.60820   -9999.25   -9999.25
 5980.00000    0.21790    0.09930    0.07220    3.27990    2.53810   88.35000   10.17870    3.16820    3.19470    3.15520   14.19420   -9999.25   -9999.25
 5980.50000    0.23260    0.10690    0.07800    3.32970    2.52820   87.72720    9.90990    3.01450    3.03960    3.01090   13.98590   -9999.25   -9999.25
 5981.00000    0.23760    0.10480    0.08360    3.30140    2.53270   87.63840   10.10320    2.93760    2.95460    2.92620   14.34720   -9999.25   -9999.25
 5981.50000    0.23860    0.09510    0.08680    3.25530    2.54920   87.91280   10.11230    2.95960    2.97700    2.94360   14.43390   -9999.25   -9999.25
 5982.00000    0.24620    0.09940    0.08730    3.22210    2.53090   88.81440   10.02450    2.99580    3.01340    2.97230   14.21340   -9999.25   -9999.25
 5982.50000    0.25670    0.11040    0.09910    3.22430    2.52180   89.44530    9.92710    2.99230    3.00980    2.97400   14.44660   -9999.25   -9999.25
 5983.00000    0.26800    0.11380    0.11560    3.23040    2.51560   89.45240    9.84930    2.95330    2.97060    2.92660   14.60850   -9999.25   -9999.25
 5983.50000    0.26920    0.11130    0.12140    3.22910    2.52220   89.59520    9.93770    2.91470    2.93180    2.87990   15.02370   -9999.25   -9999.25
 5984.00000    0.26670    0.10560    0.10970    3.23060    2.53060   91.09900    9.77460    2.91590    2.94500    2.83530   15.04000   -9999.25   -9999.25
 5984.50000    0.26840    0.10980    0.10260    3.24440    2.52280   94.90220    9.69390    2.94030    3.02810    2.84210   14.74760   -9999.25   -9999.25
 5985.00000    0.27010    0.11450    0.10980    3.29110    2.51360   97.81260    9.77780    3.00680    3.12480    2.85520   14.37500   -9999.25   -9999.25
 5985.50000    0.27180    0.11920    0.12780    3.33090    2.50830   96.65040    9.82390    3.07470    3.22000    2.92090   14.34050   -9999.25   -9999.25
 5986.00000    0.27570    0.11530    0.13840    3.38410    2.51500   92.78670   10.13580    3.16070    3.22000    3.04360   14.30600   -9999.25   -9999.25
 5986.50000    0.27830    0.10950    0.13180    3.42490    2.53100   90.77170    9.94530    3.25230    3.27290    3.14400   14.37140   -9999.25   -9999.25
 5987.00000    0.26130    0.08250    0.12070    3.56120    2.57280   90.40140   10.28930    3.71940    3.84150    3.54210   14.44200   -9999.25   -9999.25
 5987.50000    0.23500    0.06570    0.11460    3.71770    2.60680   90.80780    9.94620    4.81680    4.97610    4.28800   14.37810   -9999.25   -9999.25
 5988.00000    0.22180    0.04690    0.10480    3.83370    2.62650   92.70590    9.29270    6.46580    7.34510    5.90870   14.40070   -9999.25   -9999.25
 5988.50000    0.22460    0.05790    0.08690    3.84290    2.60960   96.19090    8.93260    7.38690    7.88120    6.06710   14.54650   -9999.25   -9999.25
 5989.00000    0.22770    0.05900    0.05840    3.78120    2.61050   96.85220    8.92570    8.03900    8.66590    7.14000   14.32600   -9999.25   -9999.25
 5989.50000    0.20910    0.05400    0.02970    3.69830    2.62080   90.27830    8.83060   10.33570   11.77730    9.27890   14.32870   -9999.25   -9999.25
 5990.00000    0.18010    0.04380    0.01040    3.65280    2.63750   83.15050    8.80440   12.53260   14.22660   10.66710   13.78990   -9999.25   -9999.25
 5990.50000    0.15260    0.04660    0.00080    3.69850    2.62890   75.42400    8.77290   13.30370   14.84790   11.73930   12.60040   -9999.25   -9999.25
 5991.00000    0.12540    0.05100   -0.00420    3.81830    2.62260   67.56690    8.70910   16.00240   15.89010   14.37760   11.59420   -9999.25   -9999.25
 5991.50000    0.09340    0.05150   -0.00600    4.00610    2.62350   56.51410    8.64570   22.52890   23.76190   19.48160   10.65500   -9999.25   -9999.25
 5992.00000    0.06520    0.04230   -0.00410    4.18730    2.64330   47.39290    8.59060   34.68690   36.63260   28.90720    9.68660   -9999.25   -9999.25
 5992.50000    0.05060    0.03210   -0.00230    4.23730    2.65650   42.99970    8.54050   53.99830   56.05560   32.14090    8.65310   -9999.25   -9999.25
 5993.00000    0.04970    0.03160   -0.00170    4.13720    2.65630   44.05360    8.47910   47.07090   48.51720   29.64360    7.93590   -9999.25   -9999.25
 5993.50000    0.05340    0.03670   -0.00120    3.98210    2.64780   44.05350    8.43410   45.49700   45.76220   27.79580    7.43730   -9999.25   -9999.25
 5994.00000    0.05260    0.03510   -0.00060    3.86020    2.65310   42.92670    8.38170   44.35660   44.75360   27.96500    6.97340   -9999.25   -9999.25
 5994.50000    0.04750    0.03260   -0.00020    3.89370    2.65720   40.27890    8.34730   41.74550   42.15050   28.35540    6.48120   -9999.25   -9999.25
 5995.00000    0.04540    0.02300   -0.00010    3.93660    2.67170   41.03480    8.32620   39.26780   39.65500   28.97930    6.61180   -9999.25   -9999.25
 5995.50000    0.05160    0.02700   -0.00000    3.89660    2.66430   45.53810    8.30290   32.72460   33.46660   25.27680    6.95140   -9999.25   -9999.25
 5996.00000    0.06420    0.02830    0.00010    3.78900    2.66220   50.16290    8.27410   26.23800   28.26600   21.44900    7.00000   -9999.25   -9999.25
 5996.50000    0.06570    0.03040    0.00010    3.73760    2.65820   49.77320    8.24630   28.10480   30.78940   23.88260    7.15700   -9999.25   -9999.25
 5997.00000    0.06000    0.02420    0.00020    3.71840    2.66910   44.53730    8.22820   32.35560   34.72940   26.66110    7.52750   -9999.25   -9999.25
 5997.50000    0.05610    0.02500    0.00030    3.70740    2.66790   41.01800    8.22990   37.24940   39.17360   29.12210    7.89800   -9999.25   -9999.25
 5998.00000    0.05480    0.03330    0.00040    3.65130    2.65270   42.60050    8.24340   37.10930   37.74730   29.25810    8.52320   -9999.25   -9999.25
 5998.50000    0.05250    0.04060    0.00030    3.66350    2.64130   44.10930    8.25340   35.16840   36.32470   32.05110    9.23040   -9999.25   -9999.25
 5999.00000    0.04710    0.03640    0.00010    3.82620    2.64720   43.91760    8.26440   32.77850   35.96010   27.41940   10.15180   -9999.25   -9999.25
 5999.50000    0.04550    0.03530   -0.00010    3.95910    2.64910   42.67270    8.28680   26.55780   27.53640   20.57240   11.00180   -9999.25   -9999.25
