~Version ---------------------------------------------------
VERS.   2.0 : CWLS log ASCII Standard -VERSION 2.0
WRAP.    NO : One line per depth step
DLM . SPACE : Column Data Section Delimiter
~Well ------------------------------------------------------
STRT .F                 904.0 : START DEPTH
STOP .F                7603.0 : STOP DEPTH
STEP .F                   0.5 : STEP
NULL .               -9999.25 : NULL VALUE
COMP .                        : COMPANY
WELL .                        : WELL
FLD  .                        : FIELD
LOC  .                        : LOCATION
PROV .                        : PROVINCE
CNTY .                        : COUNTY
STAT .                        : STATE
CTRY .                        : COUNTRY
SRVC .                        : SERVICE COMPANY
DATE .                        : DATE
UWI  .                        : UNIQUE WELL ID
API  .                        : API NUMBER
SLAT .WGS84 6.983165863716202 : SURFACE LATITUDE
SLON .WGS84 4.694349069349002 : SURFACE LONGITUDE
DATUM.F                2341.0 : DEPTH DATUM ELEV
~Curve Information -----------------------------------------
DEPT   .F     : 1 MEASURED DEPTH
NPHI_LS.DEC   : NEUTRON POROSITY LIMESTONE
DPHZ_LS.DEC   : HGRD STANDARD RESOLUTION DENSITY POROSITY
HDRA   .G/C3  : HRDD SPINE AND RIBS DENSITY CORRECTION
PEFZ   .B/E   : HRDD STANDARD RESOLUTION FORMATION PHOTOELECTRIC FACTOR
RHOZ   .G/C3  : HRDD STANDARD RESOLUTION FORMATION DENSITY
GRR    .GAPI  : GAMMA RAY FROM RESISTIVITY LOG
HCALR  .IN    : HRCC CALIPER CALIBRATED FROM RESISTIVITY LOG
AT30   .OHMM  : ARRAY INDUCTION TWO FOOT RESISTIVITY A30
AT90   .OHMM  : ARRAY INDUCTION TWO FOOT RESISTIVITY A90
AT10   .OHMM  : ARRAY INDUCTION TWO FOOT RESISTIVITY A10
SPR    .MV    : SPONTANEOUS POTENTIAL FROM RESISTIVITY LOG
DTCO   .US/F  : DELTA-T COMPRESSIONAL
DTSM   .US/F  : DELTA-T SHEAR
~Params ----------------------------------------------------
~Other -----------------------------------------------------
~ASCII -----------------------------------------------------
# ...
 2828.00000   -9999.25   -9999.25   -9999.25   -9999.25   -9999.25   10.79160    9.69820   43.22070   43.36780   28.06260  -50.34700   -9999.25   -9999.25
 2828.50000   -9999.25   -9999.25   -9999.25   -9999.25   -9999.25   11.77670    9.70370   30.71000   26.68890   21.89500  -49.77490   -9999.25   -9999.25
 2829.00000   -9999.25   -9999.25   -9999.25   -9999.25   -9999.25   15.38440    9.72100   13.12400   12.93320   10.68320  -48.56810   -9999.25   -9999.25
 2829.50000   -9999.25   -9999.25   -9999.25   -9999.25   -9999.25   22.29860    9.71300    5.57090    6.06910    4.74740  -47.06270   -9999.25   -9999.25
 2830.00000   -9999.25   -9999.25   -9999.25   -9999.25   -9999.25   30.24130    9.70800    3.14890    3.29230    2.87890  -45.66340   -9999.25   -9999.25
 2830.50000   -9999.25   -9999.25   -9999.25   -9999.25   -9999.25   39.13270    9.70430    2.41100    2.51370    2.42760  -44.51660   -9999.25   -9999.25
 2831.00000   -9999.25   -9999.25   -9999.25   -9999.25   -9999.25   46.37250    9.71330    2.34370    2.35680    2.31320  -43.21980   -9999.25   -9999.25
 2831.50000   -9999.25   -9999.25   -9999.25   -9999.25   -9999.25   51.25210    9.72620    2.35000    2.34200    2.26600  -41.27990   -9999.25   -9999.25
 2832.00000   -9999.25   -9999.25   -9999.25   -9999.25   -9999.25   51.96140    9.75010    2.56180    2.53090    2.43080  -39.44070   -9999.25   -9999.25
 2832.50000   -9999.25   -9999.25   -9999.25   -9999.25   -9999.25   48.46540    9.76670    4.30110    4.01380    3.48590  -37.60150   -9999.25   -9999.25
 2833.00000   -9999.25   -9999.25   -9999.25   -9999.25   -9999.25   42.22750    9.80100    7.40900    8.05290    7.46850  -35.76230   -9999.25   -9999.25
 2833.50000   -9999.25   -9999.25   -9999.25   -9999.25   -9999.25   35.26620    9.85670   13.34770   16.03670    9.44930  -34.08020   -9999.25   -9999.25
 2834.00000   -9999.25   -9999.25   -9999.25   -9999.25   -9999.25   31.72570    9.89940   14.46860   18.11760    8.64990  -33.30080   -9999.25   -9999.25
 2834.50000   -9999.25   -9999.25   -9999.25   -9999.25   -9999.25   29.64550    9.95560   17.74710   17.06100   10.86890  -32.83850   -9999.25   -9999.25
 2835.00000   -9999.25   -9999.25   -9999.25   -9999.25   -9999.25   25.32380    9.91900   30.77670   27.44530   16.51900  -32.41870   -9999.25   -9999.25
 2835.50000   -9999.25   -9999.25   -9999.25   -9999.25   -9999.25   18.78490    9.89140   53.37260   51.33610   23.77100  -31.79460   -9999.25   -9999.25
 2836.00000   -9999.25   -9999.25   -9999.25   -9999.25   -9999.25   14.42800    9.87030   78.75650   79.86550   25.72370  -31.19820   -9999.25   -9999.25
 2836.50000   -9999.25   -9999.25   -9999.25   -9999.25   -9999.25   13.36410    9.85490   91.77590   79.77260   24.43580  -30.78730   -9999.25   -9999.25
 2837.00000   -9999.25   -9999.25   -9999.25   -9999.25   -9999.25   15.14510    9.84670   90.24240   65.06510   25.22550  -30.19170   -9999.25   -9999.25
 2837.50000   -9999.25   -9999.25   -9999.25   -9999.25   -9999.25   17.58310    9.85080   78.50260   53.06930   25.53630  -30.19500   -9999.25   -9999.25
 2838.00000   -0.00350   -0.13890   -9999.25   -9999.25   -9999.25   19.88510    9.85210   59.88660   43.28500   22.93020  -30.19830   -9999.25   -9999.25
 2838.50000   -0.00250   -0.13910   -9999.25   -9999.25   -9999.25   20.45510    9.83280   45.68510   36.97770   21.78080  -30.23190   -9999.25   -9999.25
 2839.00000    0.00250   -0.13840    0.01060    5.49490    2.94210   19.96030    9.82020   35.84990   32.85740   20.47500  -30.74780   -9999.25   -9999.25
 2839.50000    0.00850   -0.10830    0.01630    5.32400    2.88850   20.04330    9.82690   29.00620   30.38170   18.83260  -31.15720   -9999.25   -9999.25
 2840.00000    0.02960   -0.07420    0.05030    5.15510    2.83760   21.68260    9.83890   23.46900   19.09060   12.40920  -31.90010   -9999.25   -9999.25
 2840.50000    0.06350   -0.04020    0.05790    4.95190    2.77920   24.17350    9.85050   13.59930   12.51450    8.75410  -32.75750   -9999.25   -9999.25
 2841.00000    0.09750   -0.03770    0.05940    4.74390    2.76740   27.60840    9.86690   10.04470    9.14810    7.47260  -33.74660   -9999.25   -9999.25
 2841.50000    0.13290   -0.01910    0.05930    4.53930    2.73220   33.41970    9.82780    7.39370    6.93240    6.20550  -34.73570   -9999.25   -9999.25
 2842.00000    0.17700   -0.00300    0.05370    4.45590    2.69970   39.78440    9.80370    5.04600    5.45800    4.50570  -35.39040   -9999.25   -9999.25
 2842.50000    0.17590    0.01330    0.03880    4.45440    2.70100   40.85410    9.81090    4.40400    5.91660    4.30560  -36.16040   -9999.25   -9999.25
 2843.00000    0.12380   -0.01660    0.01840    4.65570    2.77470   34.61480    9.76000   11.16910   10.86740    8.26280  -36.01860   -9999.25   -9999.25
 2843.50000    0.05410   -0.05470    0.00050    5.02610    2.86240   25.06240    9.65650   31.39960   27.69180   21.83460  -35.87690   -9999.25   -9999.25
 2844.00000    0.00680   -0.12390   -0.00380    5.41950    2.92080   14.94050    9.63850   83.76940  120.54380   39.68470  -35.65040   -9999.25   -9999.25
 2844.50000   -0.00480   -0.13380   -0.00640    5.56720    2.93820    9.69950    9.62900  142.90400  410.01780   49.90290  -35.04830   -9999.25   -9999.25
 2845.00000   -0.00030   -0.12970   -0.00470    5.47670    2.93490    9.34170    9.63790  124.13320  164.91010   43.34490  -34.40190   -9999.25   -9999.25
 2845.50000    0.00190   -0.11950   -0.00440    5.36530    2.91730   12.11360    9.60220   71.95800   80.20560   31.02330  -33.76830   -9999.25   -9999.25
 2846.00000    0.00560   -0.10230   -0.00170    5.24730    2.88190   17.38340    9.59420   48.71400   52.26650   23.41790  -32.90820   -9999.25   -9999.25
 2846.50000    0.01320   -0.08510    0.00530    5.05540    2.85190   21.44250    9.60640   32.99400   36.01030   19.34060  -31.87120   -9999.25   -9999.25
 2847.00000    0.02210   -0.07340    0.00910    4.89840    2.83310   24.53990    9.61210   24.22690   24.48970   15.20500  -30.97750   -9999.25   -9999.25
 2847.50000    0.02850   -0.07760    0.01220    4.80090    2.85690   25.31770    9.60390   19.99710   21.69510   15.85370  -30.10530   -9999.25   -9999.25
 2848.00000    0.02870   -0.09990    0.00990    4.77810    2.88230   25.56780    9.59910   24.07180   27.73910   17.48290  -29.33520   -9999.25   -9999.25
 2848.50000    0.03350   -0.10540    0.00830    4.80030    2.89290   27.62690    9.60150   23.47220   26.65280   14.31430  -28.83260   -9999.25   -9999.25
 2849.00000    0.05640   -0.09510    0.01430    4.81600    2.87050   34.40240    9.60820   16.47550   15.68180    9.55130  -28.48310   -9999.25   -9999.25
 2849.50000    0.09170   -0.07380    0.02350    4.77300    2.83730   41.27600    9.65110    9.41250    8.63890    7.03330  -28.13350   -9999.25   -9999.25
 2850.00000    0.09680   -0.06660    0.02050    4.76800    2.82680   42.53520    9.75350   10.21490   12.10620    8.26680  -28.41630   -9999.25   -9999.25
 2850.50000    0.07830   -0.07410    0.01500    4.80970    2.84750   36.65210    9.63100   20.44130   20.72160   14.19500  -28.95740   -9999.25   -9999.25
 2851.00000    0.05120   -0.09000    0.00440    4.92400    2.88070   29.91900    9.59830   40.68280   38.78270   24.35860  -29.93670   -9999.25   -9999.25
 2851.50000    0.02820   -0.11910    0.00320    5.01810    2.91550   26.80140    9.57270   48.92880   52.51980   25.27150  -30.97560   -9999.25   -9999.25
 2852.00000    0.01760   -0.12210    0.00100    5.20670    2.92060   26.64020    9.55740   47.51600   53.10060   26.44640  -31.73590   -9999.25   -9999.25
 2852.50000    0.01260   -0.12040   -0.00160    5.41530    2.91640   26.81810    9.54340   43.97930   52.48710   28.23120  -32.55860   -9999.25   -9999.25
 2853.00000    0.00900   -0.12850   -0.00810    5.54760    2.92830   25.73180    9.53410   42.55910   49.72480   27.63800  -33.34140   -9999.25   -9999.25
 2853.50000    0.00830   -0.13660   -0.00760    5.47470    2.94440   23.95500    9.52680   42.08820   43.80370   25.10100  -33.82450   -9999.25   -9999.25
