~Version ---------------------------------------------------
VERS.   2.0 : CWLS log ASCII Standard -VERSION 2.0
WRAP.    NO : One line per depth step
DLM . SPACE : Column Data Section Delimiter
~Well ------------------------------------------------------
STRT .F                 904.0 : START DEPTH
STOP .F                7603.0 : STOP DEPTH
STEP .F                   0.5 : STEP
NULL .               -9999.25 : NULL VALUE
COMP .                        : COMPANY
WELL .                        : WELL
FLD  .                        : FIELD
LOC  .                        : LOCATION
PROV .                        : PROVINCE
CNTY .                        : COUNTY
STAT .                        : STATE
CTRY .                        : COUNTRY
SRVC .                        : SERVICE COMPANY
DATE .                        : DATE
UWI  .                        : UNIQUE WELL ID
API  .                        : API NUMBER
SLAT .WGS84 6.983165863716202 : SURFACE LATITUDE
SLON .WGS84 4.694349069349002 : SURFACE LONGITUDE
DATUM.F                2341.0 : DEPTH DATUM ELEV
~Curve Information -----------------------------------------
DEPT   .F     : 1 MEASURED DEPTH
NPHI_LS.DEC   : NEUTRON POROSITY LIMESTONE
DPHZ_LS.DEC   : HGRD STANDARD RESOLUTION DENSITY POROSITY
HDRA   .G/C3  : HRDD SPINE AND RIBS DENSITY CORRECTION
PEFZ   .B/E   : HRDD STANDARD RESOLUTION FORMATION PHOTOELECTRIC FACTOR
RHOZ   .G/C3  : HRDD STANDARD RESOLUTION FORMATION DENSITY
GRR    .GAPI  : GAMMA RAY FROM RESISTIVITY LOG
HCALR  .IN    : HRCC CALIPER CALIBRATED FROM RESISTIVITY LOG
AT30   .OHMM  : ARRAY INDUCTION TWO FOOT RESISTIVITY A30
AT90   .OHMM  : ARRAY INDUCTION TWO FOOT RESISTIVITY A90
AT10   .OHMM  : ARRAY INDUCTION TWO FOOT RESISTIVITY A10
SPR    .MV    : SPONTANEOUS POTENTIAL FROM RESISTIVITY LOG
DTCO   .US/F  : DELTA-T COMPRESSIONAL
DTSM   .US/F  : DELTA-T SHEAR
~Params ----------------------------------------------------
~Other -----------------------------------------------------
~ASCII -----------------------------------------------------
# ...
 7560.00000    0.36050    0.12700    0.12060    3.03640    2.49340  119.18800    7.50880    1.26330    1.25270    1.28900   26.75960   -9999.25   -9999.25
 7560.50000    0.36690    0.12800    0.12230    2.97550    2.49180  119.00800    7.55740    1.25660    1.24920    1.28760   26.75650   -9999.25   -9999.25
 7561.00000    0.37330    0.12940    0.11230    2.94420    2.48960  118.33460    7.56300    1.24990    1.24140    1.27780   26.69350   -9999.25   -9999.25
 7561.50000    0.36850    0.13080    0.10240    2.92910    2.48710  117.55260    7.57790    1.24320    1.23350    1.26800   26.60410   -9999.25   -9999.25
 7562.00000    0.36170    0.13370    0.10400    2.93210    2.48330  116.69730    7.62970    1.23660    1.22580    1.25830   26.68260   -9999.25   -9999.25
 7562.50000    0.35480    0.13610    0.10660    2.94830    2.47750  116.49560    7.63030    1.22990    1.21810    1.24870   26.75180   -9999.25   -9999.25
 7563.00000    0.34770    0.13500    0.11270    2.96440    2.47960  116.44930    7.59440    1.22340    1.21040    1.23920   26.82100   -9999.25   -9999.25
 7563.50000    0.34510    0.12990    0.11840    3.00620    2.48870  117.24480    7.67060    1.22480    1.21010    1.22970   27.02180   -9999.25   -9999.25
 7564.00000    0.34830    0.12620    0.11850    2.99870    2.49350  118.48360    7.66690    1.23750    1.21660    1.23210   27.11060   -9999.25   -9999.25
 7564.50000    0.36270    0.12560    0.10910    2.99120    2.49540  120.43850    7.64650    1.25020    1.22980    1.24500   27.42240   -9999.25   -9999.25
 7565.00000    0.36770    0.12260    0.10050    2.98370    2.50140  122.80130    7.60730    1.26310    1.24450    1.26400   27.75190   -9999.25   -9999.25
 7565.50000    0.36210    0.11820    0.09400    2.95970    2.50840  124.51580    7.61730    1.27620    1.25940    1.28320   27.95710   -9999.25   -9999.25
 7566.00000    0.34880    0.11800    0.09340    2.96240    2.50900  125.17070    7.64440    1.28940    1.27450    1.30280   27.99910   -9999.25   -9999.25
 7566.50000    0.34650    0.11900    0.09300    2.97560    2.50760  125.73280    7.67300    1.28620    1.27520    1.29200   27.95670   -9999.25   -9999.25
 7567.00000    0.35120    0.11850    0.09160    2.98020    2.50930  125.96430    7.65510    1.27660    1.25770    1.27020   27.93690   -9999.25   -9999.25
 7567.50000    0.35500    0.11480    0.09100    2.98220    2.51420   -9999.25    7.65720    1.26780    1.25520    1.26900   28.00940   -9999.25   -9999.25
 7568.00000    0.35460    0.11570    0.09300    2.97210    2.51260   -9999.25    7.64810    1.25990    1.25520    1.27500   28.10200   -9999.25   -9999.25
 7568.50000    0.34980    0.12720    0.09410    2.96330    2.49350   -9999.25    7.59660    1.25200    1.24620    1.26480   28.11090   -9999.25   -9999.25
 7569.00000    0.35080    0.13500    0.09910    2.96310    2.48040   -9999.25    7.53610    1.24420    1.23200    1.24290   28.10300   -9999.25   -9999.25
 7569.50000    0.35670    0.13430    0.10810    2.96500    2.48130   -9999.25    7.41650    1.23650    1.21960    1.22480   27.92760   -9999.25   -9999.25
 7570.00000    0.36560    0.12430    0.10570    2.98130    2.51150   -9999.25    7.43700    1.23150    1.22770    1.23230   28.24620   -9999.25   -9999.25
 7570.50000    0.36980    0.11430    0.09670    2.99800    2.51620   -9999.25    7.51300    1.24440    1.24360    1.26070   28.41850   -9999.25   -9999.25
 7571.00000    0.36780    0.11030    0.08710    3.01360    2.52240   -9999.25    7.51840    1.25730    1.25990    1.29160   28.36700   -9999.25   -9999.25
 7571.50000    0.36570    0.11000    0.08630    3.02820    2.52220   -9999.25    7.53400    1.27040    1.27080    1.30610   28.05330   -9999.25   -9999.25
 7572.00000    0.37460    0.11150    0.08470    3.03380    2.51970   -9999.25    7.58710    1.26440    1.25370    1.28890   28.11570   -9999.25   -9999.25
 7572.50000    0.38490    0.11360    0.08270    3.03450    2.51620   -9999.25    7.57580    1.25560    1.24780    1.27140   28.36500   -9999.25   -9999.25
 7573.00000    0.39110    0.11630    0.07850    3.01720    2.51200   -9999.25    7.51570    1.25720    1.24660    1.27210   28.38650   -9999.25   -9999.25
 7573.50000   -9999.25    0.11890    0.07210    3.00330    2.50760   -9999.25    7.51480    1.26960    1.25840    1.28320   28.44410   -9999.25   -9999.25
 7574.00000   -9999.25    0.11790    0.07230    3.00730    2.51010   -9999.25    7.55300    1.28210    1.27570    1.29430   28.49270   -9999.25   -9999.25
 7574.50000   -9999.25    0.11480    0.07690    3.02540    2.51540   -9999.25    7.57430    1.29480    1.29330    1.31810   28.54130   -9999.25   -9999.25
 7575.00000   -9999.25    0.11490    0.09300    3.02930    2.51420   -9999.25    7.54280    1.30750    1.31120    1.34530   28.41320   -9999.25   -9999.25
 7575.50000   -9999.25    0.12360    0.10780    2.99850    2.49670   -9999.25    7.44580    1.31560    1.31320    1.32470   28.34220   -9999.25   -9999.25
 7576.00000   -9999.25    0.13600    0.12280    2.96710    2.47680   -9999.25    7.34090    1.31560    1.29860    1.30440   28.15050   -9999.25   -9999.25
 7576.50000   -9999.25    0.13880    0.13390    2.93430    2.47330   -9999.25    7.28790    1.32030    1.30480    1.31510   28.34510   -9999.25   -9999.25
 7577.00000   -9999.25    0.13600    0.13730    2.90860    2.48310   -9999.25    7.36390    1.32900    1.33620    1.34720   28.37330   -9999.25   -9999.25
 7577.50000   -9999.25    0.12850    0.13050    2.92600    2.49330   -9999.25    7.35680    1.33770    1.32580    1.34040   28.20030   -9999.25   -9999.25
 7578.00000   -9999.25    0.12530    0.11800    2.94140    2.49990   -9999.25    7.29670    1.31650    1.30820    1.31670   28.15310   -9999.25   -9999.25
 7578.50000   -9999.25    0.12060    0.10580    2.96520    2.50700   -9999.25    7.34260    1.29510    1.29470    1.29660   28.09490   -9999.25   -9999.25
 7579.00000   -9999.25    0.11440    0.10130    3.00160    2.51640   -9999.25    7.38500    1.28540    1.28990    1.30140   28.01060   -9999.25   -9999.25
 7579.50000   -9999.25    0.10920    0.09820    3.01280    2.52430   -9999.25    7.53620    1.29130    1.28400    1.30850   27.99030   -9999.25   -9999.25
 7580.00000   -9999.25    0.10800    0.09440    3.04100    2.52570   -9999.25    7.54170    1.26700    1.25170    1.27450   28.00510   -9999.25   -9999.25
 7580.50000   -9999.25    0.10970    0.09030    3.00630    2.52410   -9999.25    7.52970    1.22310    1.21360    1.23010   28.02000   -9999.25   -9999.25
 7581.00000   -9999.25    0.11170    0.08890    2.96420    2.52040   -9999.25    7.42960    1.22540    1.23780    1.24280   27.04350   -9999.25   -9999.25
 7581.50000   -9999.25    0.11560    0.09290    2.94720    2.51480   -9999.25    7.52750    1.33310    1.28950    1.32790   28.06510   -9999.25   -9999.25
 7582.00000   -9999.25    0.11990    0.09760    2.93010    2.50720   -9999.25    7.44450    1.47020    1.42600    1.43410   27.66760   -9999.25   -9999.25
 7582.50000   -9999.25    0.12680    0.10340    2.94350    2.49670   -9999.25    7.38790    1.55590    1.53580    1.56770   27.62640   -9999.25   -9999.25
 7583.00000   -9999.25    0.12960    0.10260    2.92780    2.49010   -9999.25    7.40670    1.48330    1.47690    1.50080   27.77570   -9999.25   -9999.25
 7583.50000   -9999.25    0.12820    0.09840    2.90250    2.48960   -9999.25    7.39110    1.40380    1.37560    1.39990   28.07140   -9999.25   -9999.25
 7584.00000   -9999.25    0.12490    0.09490    2.90690    2.49340   -9999.25    7.46820    1.34250    1.32500    1.33300   28.37510   -9999.25   -9999.25
 7584.50000   -9999.25    0.11900    0.09550    2.96640    2.50520   -9999.25    7.45830    1.33120    1.32650    1.33920   28.40050   -9999.25   -9999.25
 7585.00000   -9999.25    0.11630    0.09580    2.96470    2.51700   -9999.25    7.46130    1.34300    1.33760    1.34960   28.40440   -9999.25   -9999.25
 7585.50000   -9999.25    0.12170    0.09030    2.95290    2.51050   -9999.25   -9999.25    1.35500    1.34660    1.36010   28.40250   -9999.25   -9999.25
