~Version ---------------------------------------------------
VERS.   2.0 : CWLS log ASCII Standard -VERSION 2.0
WRAP.    NO : One line per depth step
DLM . SPACE : Column Data Section Delimiter
~Well ------------------------------------------------------
STRT .F                 904.0 : START DEPTH
STOP .F                7603.0 : STOP DEPTH
STEP .F                   0.5 : STEP
NULL .               -9999.25 : NULL VALUE
COMP .                        : COMPANY
WELL .                        : WELL
FLD  .                        : FIELD
LOC  .                        : LOCATION
PROV .                        : PROVINCE
CNTY .                        : COUNTY
STAT .                        : STATE
CTRY .                        : COUNTRY
SRVC .                        : SERVICE COMPANY
DATE .                        : DATE
UWI  .                        : UNIQUE WELL ID
API  .                        : API NUMBER
SLAT .WGS84 6.983165863716202 : SURFACE LATITUDE
SLON .WGS84 4.694349069349002 : SURFACE LONGITUDE
DATUM.F                2341.0 : DEPTH DATUM ELEV
~Curve Information -----------------------------------------
DEPT   .F     : 1 MEASURED DEPTH
NPHI_LS.DEC   : NEUTRON POROSITY LIMESTONE
DPHZ_LS.DEC   : HGRD STANDARD RESOLUTION DENSITY POROSITY
HDRA   .G/C3  : HRDD SPINE AND RIBS DENSITY CORRECTION
PEFZ   .B/E   : HRDD STANDARD RESOLUTION FORMATION PHOTOELECTRIC FACTOR
RHOZ   .G/C3  : HRDD STANDARD RESOLUTION FORMATION DENSITY
GRR    .GAPI  : GAMMA RAY FROM RESISTIVITY LOG
HCALR  .IN    : HRCC CALIPER CALIBRATED FROM RESISTIVITY LOG
AT30   .OHMM  : ARRAY INDUCTION TWO FOOT RESISTIVITY A30
AT90   .OHMM  : ARRAY INDUCTION TWO FOOT RESISTIVITY A90
AT10   .OHMM  : ARRAY INDUCTION TWO FOOT RESISTIVITY A10
SPR    .MV    : SPONTANEOUS POTENTIAL FROM RESISTIVITY LOG
DTCO   .US/F  : DELTA-T COMPRESSIONAL
DTSM   .US/F  : DELTA-T SHEAR
~Params ----------------------------------------------------
~Other -----------------------------------------------------
~ASCII -----------------------------------------------------
# ...
 6936.00000    0.34950    0.15970    0.12220    2.70640    2.42230  131.14910    8.15920    3.75710    3.95070    3.21620   11.04690  138.79630  189.21990
 6936.50000    0.33380    0.12620    0.13480    2.85730    2.48660  131.48680    8.27100    3.51330    3.56400    3.15460   11.26210  137.28400  185.91800
 6937.00000    0.33530    0.08750    0.14910    3.21660    2.54930  129.58860    8.32060    3.17050    3.18520    3.04520   11.35720  137.20050  184.48780
 6937.50000    0.34310    0.04920    0.18230    3.45550    2.62050  127.29520    8.04640    3.00150    2.99070    2.79050   11.44660  138.84640  184.26540
 6938.00000    0.34880    0.06670    0.17860    3.48510    2.60790  125.39910    8.11890    3.00150    2.99520    2.82190   11.74910  139.61720  184.87010
 6938.50000    0.35310    0.07930    0.16270    3.39180    2.57870  123.55710    8.08750    3.14370    3.01140    3.03960   11.79980  139.61490  186.15190
 6939.00000    0.35250    0.07750    0.13780    3.29120    2.57710  122.32930    7.85990    3.33120    3.02770    3.16140   11.81030  138.62190  187.43360
 6939.50000    0.35220    0.06310    0.13310    3.30510    2.60030  123.03780    7.91740    3.47510    3.06450    3.29840   11.82510  136.41750  188.76990
 6940.00000    0.35200    0.06510    0.13330    3.39270    2.59930  124.63150    7.91600    3.41600    3.14190    3.44220   11.84550  136.01890  190.20130
 6940.50000    0.34990    0.06020    0.13590    3.53590    2.60520  125.36830    7.81840    3.35790    3.22130    3.52860   11.84850  138.00440  191.90300
 6941.00000    0.34570    0.03310    0.14800    3.70260    2.65380  125.34220    7.85720    3.30610    3.24570    3.54200   11.80240  139.59600  194.55820
 6941.50000    0.34340    0.01430    0.15250    3.74270    2.68460  126.57520    7.98550    3.26810    3.22910    3.42850   11.72990  139.74950  197.54290
 6942.00000    0.35330    0.03530    0.14500    3.74720    2.65160  127.02980    8.17010    3.19470    3.04670    3.20450   11.48310  139.74790  198.82260
 6942.50000    0.36990    0.08160    0.13470    3.70050    2.57920  125.09820    8.27860    2.90200    2.84250    2.82250   11.35380  139.74640  197.77640
 6943.00000    0.38540    0.11120    0.13010    3.62380    2.52840  120.26210    8.23550    2.63610    2.65200    2.48770   10.94850  139.74490  194.62930
 6943.50000    0.39450    0.12360    0.13020    3.49820    2.50110  117.72040    8.33550    2.62400    2.66320    2.45240   10.48020  139.74340  189.65720
 6944.00000    0.39850    0.14010    0.13000    3.32470    2.47680  117.81360    8.49150    2.73090    2.87700    2.54800   10.30770  139.74190  184.04590
 6944.50000    0.40030    0.18750    0.13020    3.14550    2.41160  118.81420    8.64820    2.88750    2.97320    2.63650   10.22360  139.73600  180.22380
 6945.00000    0.39880    0.22250    0.13690    2.99750    2.33820  118.84350    8.64230    2.98640    3.03640    2.64760    9.82430  139.64720  176.78360
 6945.50000    0.38890    0.22750    0.15030    2.90520    2.31720  118.37700    8.56680    3.13890    3.41190    2.80060    9.34330  137.91530  173.74810
 6946.00000    0.37510    0.19470    0.15830    2.75960    2.36320  119.69710    8.63100    3.77840    4.19720    3.31990    8.86550  136.70050  171.57230
 6946.50000    0.35050    0.15080    0.15910    2.72040    2.43640  122.58480    9.02180    4.38550    4.53310    3.53100    8.42300  136.74530  171.96050
 6947.00000    0.33030    0.13210    0.14830    2.78730    2.48040  127.15730    8.94410    3.97200    4.02750    3.26810    8.26470  137.60660  174.86330
 6947.50000    0.31710    0.12700    0.13540    2.87900    2.49230  126.01000    8.85080    3.94900    4.07510    3.28770    8.15230  138.34250  180.11280
 6948.00000    0.31630    0.12970    0.12700    2.97440    2.48960  125.78600    8.94880    3.99590    4.12870    3.23500    8.04000  138.84190  186.29810
 6948.50000    0.32720    0.13700    0.11900    3.03910    2.48060  123.95990    8.97930    3.90450    4.08400    3.20620    7.99920  138.00260  188.99540
 6949.00000    0.33820    0.14690    0.10980    3.10040    2.46110  124.69270    8.87680    3.81520    4.05590    3.18320    7.99920  135.32130  191.69260
 6949.50000    0.34750    0.14700    0.09740    3.24280    2.45930  126.00590    9.01410    3.85130    4.05590    3.20590    7.99920  132.94100  189.74100
 6950.00000    0.34790    0.12320    0.10030    3.48450    2.48450  126.82190    8.90040    3.93670    4.07360    3.28970    7.99920  130.45080  186.66680
 6950.50000    0.33950    0.08730    0.10380    3.76590    2.55580  125.77450    8.85100    4.02390    4.11180    3.38270    8.25760  128.79020  183.88100
 6951.00000    0.33090    0.05090    0.10720    4.01220    2.62290  123.14500    8.80740    4.11310    4.40070    3.51670    8.73680  128.11110  181.84530
 6951.50000    0.32520    0.02020    0.11020    4.08890    2.67690  121.61600    8.84980    4.43980    4.67190    3.69270    9.21600  128.12500  179.80970
 6952.00000    0.32220    0.03020    0.11160    3.99140    2.65670  121.63600    8.97850    4.24780    4.34840    3.58420    9.81360  128.09570  179.63790
 6952.50000    0.32660    0.05130    0.11500    3.68760    2.61500  123.21340    8.91010    4.03840    4.08130    3.50160    9.77000  128.29340  180.39470
 6953.00000    0.33190    0.09120    0.11690    3.28660    2.54710  125.61040    8.82220    4.04450    4.13340    3.56200    9.91240  128.19510  181.40800
 6953.50000    0.33490    0.10960    0.11490    3.12410    2.52280  125.98800    8.74910    4.20790    4.27700    3.74610   10.13010  128.02930  182.02580
 6954.00000    0.33350    0.10800    0.11570    3.10920    2.52550  124.92630    8.64920    4.37800    4.42560    3.91380   10.18670  128.59210  182.03750
 6954.50000    0.31810    0.09170    0.12190    3.11880    2.55120  121.25120    8.45980    4.53670    4.56960    4.06020   10.23410  128.83650  181.52550
 6955.00000    0.30140    0.08060    0.12000    3.08290    2.57230  117.67430    8.58420    4.58170    4.61830    4.14660   10.43220  126.41890  179.56220
 6955.50000    0.29430    0.07820    0.11530    3.03500    2.57730  115.75930    8.61010    4.32340    4.37000    4.01170   10.54100  122.43890  176.29490
 6956.00000    0.29010    0.07620    0.11470    3.02790    2.58090  114.65840    8.57080    4.21730    4.25750    4.08060   11.26760  121.01610  172.12260
 6956.50000    0.28650    0.06750    0.12670    3.09070    2.59550  113.17320    8.56300    4.48790    4.53060    4.37800   11.37320  123.17650  166.23260
 6957.00000    0.28200    0.06590    0.14400    3.13530    2.59840  111.66700    8.41930    4.68900    4.72390    4.75480   11.43290  125.82270  162.34610
 6957.50000    0.27680    0.08290    0.15240    3.16400    2.56910  111.36390    8.15580    4.53170    4.56400    4.51000   11.49260  126.48330  162.81240
 6958.00000    0.26880    0.10580    0.16120    3.15420    2.52500  112.84170    8.13230    4.53150    4.56760    4.53820   11.32440  126.29890  164.78400
 6958.50000    0.26370    0.12330    0.17330    3.18160    2.50240  115.02530    8.02890    4.68590    4.78230    4.61940   11.41610  126.24060  166.34710
 6959.00000    0.26790    0.11180    0.18620    3.27360    2.52080  113.96240    8.01220    4.73080    4.82170    4.62760   11.31840  126.16630  167.38630
 6959.50000    0.27740    0.07940    0.19140    3.43150    2.57070  111.78750    8.08310    4.65530    4.69440    4.60780   11.03640  125.87090  168.30200
 6960.00000    0.28250    0.05800    0.17750    3.55260    2.61160  111.18810    8.29810    4.56220    4.58840    4.51020   11.16370  125.74170  168.53760
 6960.50000    0.28390    0.04780    0.15080    3.58810    2.62870  111.65670    8.40290    4.51650    4.56940    4.41730   11.44780  126.16020  168.97900
 6961.00000    0.28600    0.04640    0.12950    3.54260    2.63230  113.24050    8.23680    4.42540    4.43290    4.32630   11.83940  127.31070  169.91430
 6961.50000    0.29260    0.04160    0.11190    3.45930    2.64040  114.88940    8.27570    4.33750    4.38800    4.24890   12.28520  128.08290  170.82860
