~Version ---------------------------------------------------
VERS.   2.0 : CWLS log ASCII Standard -VERSION 2.0
WRAP.    NO : One line per depth step
DLM . SPACE : Column Data Section Delimiter
~Well ------------------------------------------------------
STRT .F                 904.0 : START DEPTH
STOP .F                7603.0 : STOP DEPTH
STEP .F                   0.5 : STEP
NULL .               -9999.25 : NULL VALUE
COMP .                        : COMPANY
WELL .                        : WELL
FLD  .                        : FIELD
LOC  .                        : LOCATION
PROV .                        : PROVINCE
CNTY .                        : COUNTY
STAT .                        : STATE
CTRY .                        : COUNTRY
SRVC .                        : SERVICE COMPANY
DATE .                        : DATE
UWI  .                        : UNIQUE WELL ID
API  .                        : API NUMBER
SLAT .WGS84 6.983165863716202 : SURFACE LATITUDE
SLON .WGS84 4.694349069349002 : SURFACE LONGITUDE
DATUM.F                2341.0 : DEPTH DATUM ELEV
~Curve Information -----------------------------------------
DEPT   .F     : 1 MEASURED DEPTH
NPHI_LS.DEC   : NEUTRON POROSITY LIMESTONE
DPHZ_LS.DEC   : HGRD STANDARD RESOLUTION DENSITY POROSITY
HDRA   .G/C3  : HRDD SPINE AND RIBS DENSITY CORRECTION
PEFZ   .B/E   : HRDD STANDARD RESOLUTION FORMATION PHOTOELECTRIC FACTOR
RHOZ   .G/C3  : HRDD STANDARD RESOLUTION FORMATION DENSITY
GRR    .GAPI  : GAMMA RAY FROM RESISTIVITY LOG
HCALR  .IN    : HRCC CALIPER CALIBRATED FROM RESISTIVITY LOG
AT30   .OHMM  : ARRAY INDUCTION TWO FOOT RESISTIVITY A30
AT90   .OHMM  : ARRAY INDUCTION TWO FOOT RESISTIVITY A90
AT10   .OHMM  : ARRAY INDUCTION TWO FOOT RESISTIVITY A10
SPR    .MV    : SPONTANEOUS POTENTIAL FROM RESISTIVITY LOG
DTCO   .US/F  : DELTA-T COMPRESSIONAL
DTSM   .US/F  : DELTA-T SHEAR
~Params ----------------------------------------------------
~Other -----------------------------------------------------
~ASCII -----------------------------------------------------
# ...
 4726.00000    0.35460    0.12220    0.15250    3.33580    2.50560  120.77020    8.62070    3.96910    4.04930    3.36800   -1.01130   -9999.25   -9999.25
 4726.50000    0.36210    0.11420    0.14840    3.27180    2.51450  118.01960    8.90790    3.87270    4.01710    3.27450   -1.00790   -9999.25   -9999.25
 4727.00000    0.37870    0.10800    0.15170    3.22680    2.52580  118.55080    9.11370    3.76200    3.94960    3.18890   -0.90400   -9999.25   -9999.25
 4727.50000    0.38570    0.11370    0.14670    3.22540    2.52000  121.48630    9.41220    3.68710    3.84810    3.09220   -0.80090   -9999.25   -9999.25
 4728.00000    0.37980    0.13000    0.14460    3.23380    2.48940  121.90310    9.59440    3.64650    3.75450    2.98450   -0.80410   -9999.25   -9999.25
 4728.50000    0.36450    0.13920    0.14970    3.28030    2.47350  118.74880    9.70590    3.60630    3.66470    2.98310   -0.57940   -9999.25   -9999.25
 4729.00000    0.36250    0.15270    0.16790    3.35560    2.44990  114.70690    9.88080    3.44380    3.62360    2.88370   -1.05800   -9999.25   -9999.25
 4729.50000    0.37340    0.18260    0.17970    3.39640    2.40440  111.68540   10.22040    3.32430    3.52060    2.86170   -0.40360   -9999.25   -9999.25
 4730.00000    0.37300    0.19380    0.15230    3.45640    2.38110  110.55310   10.06050    3.23030    3.37510    2.91890    0.88940   -9999.25   -9999.25
 4730.50000    0.35480    0.16980    0.11850    3.56740    2.41530  109.22410    9.39430    4.18290    4.35270    3.72080    2.82080   -9999.25   -9999.25
 4731.00000    0.29730    0.11060    0.07530    3.72500    2.52120  104.95930    7.96950    5.95900    6.25120    5.83340    4.77760   -9999.25   -9999.25
 4731.50000    0.25250    0.07360    0.03120    3.94790    2.57990   98.55770    7.95700    8.55900    9.23930    6.47850    5.19910   -9999.25   -9999.25
 4732.00000    0.21540    0.05060    0.00530    4.08980    2.62290   89.52770    7.96320    9.83500   10.33810    6.55660    5.11750   -9999.25   -9999.25
 4732.50000    0.18050    0.04920   -0.00610    4.12640    2.62780   81.34190    7.96820    9.27840    9.44920    7.47140    4.64870   -9999.25   -9999.25
 4733.00000    0.16010    0.04050   -0.00770    4.01540    2.64240   77.34810    7.96840    8.24850    8.49850    7.13710    4.18960   -9999.25   -9999.25
 4733.50000    0.15360    0.03370   -0.00200    3.82420    2.65460   78.35840    7.96360    7.16740    7.37070    6.06690    3.82710   -9999.25   -9999.25
 4734.00000    0.15940    0.03020    0.01310    3.68810    2.65800   84.82220    7.98210    6.23280    6.39260    5.29360    3.09760   -9999.25   -9999.25
 4734.50000    0.19320    0.05350    0.04310    3.60610    2.60470   93.69740    7.99810    5.04530    5.50600    4.68980    1.62180   -9999.25   -9999.25
 4735.00000    0.25540    0.10300    0.07970    3.56840    2.51950  104.33300    8.00590    4.01300    4.58540    3.65690    0.13560   -9999.25   -9999.25
 4735.50000    0.29470    0.15900    0.09920    3.42970    2.43090  111.94390    8.02990    3.65480    4.05390    3.23780   -0.98230   -9999.25   -9999.25
 4736.00000    0.33390    0.17010    0.07260    3.26340    2.42470  116.93580    8.33440    4.55840    4.82010    3.88010   -0.08030   -9999.25   -9999.25
 4736.50000    0.32550    0.15380    0.03250    3.19540    2.45500  122.17650    8.09270    5.18510    5.32290    4.47550    0.82170   -9999.25   -9999.25
 4737.00000    0.30570    0.12830    0.01700    3.27790    2.50370  127.48070    7.92370    5.30480    5.46320    4.65900   -0.58370   -9999.25   -9999.25
 4737.50000    0.29440    0.09880    0.03230    3.43510    2.54580  130.56270    7.91950    5.40700    5.74150    4.47350   -2.11310   -9999.25   -9999.25
 4738.00000    0.29890    0.09230    0.07240    3.51990    2.55100  129.25730    7.91340    4.51060    4.72420    3.85500   -3.04280   -9999.25   -9999.25
 4738.50000    0.31360    0.09330    0.11030    3.67750    2.55000  126.73610    7.90740    3.80780    3.88400    3.28220   -3.79240   -9999.25   -9999.25
 4739.00000    0.32200    0.09600    0.12660    3.58070    2.54790  125.76340    8.12010    3.81640    3.99250    3.11670   -4.19660   -9999.25   -9999.25
 4739.50000    0.32050    0.08510    0.12860    3.48900    2.56520  126.21530    8.44070    3.93420    4.26800    3.25850   -4.46140   -9999.25   -9999.25
 4740.00000    0.31140    0.07400    0.12760    3.38370    2.58650  126.96940    8.16110    4.04900    4.28040    3.39660   -4.39900   -9999.25   -9999.25
 4740.50000    0.30460    0.06800    0.12550    3.28510    2.59460  128.16660    8.09590    4.02130    4.09730    3.22260   -3.81360   -9999.25   -9999.25
 4741.00000    0.30450    0.06580    0.11230    3.18360    2.59780  130.65890    8.09100    3.96080    3.98300    3.10790   -3.76020   -9999.25   -9999.25
 4741.50000    0.31650    0.09250    0.10780    3.18030    2.54180  134.51720    7.99900    3.95190    3.99180    2.96350   -4.80410   -9999.25   -9999.25
 4742.00000    0.34120    0.14940    0.12110    3.21340    2.44040  136.25330    8.04830    3.80030    3.83350    2.76980   -7.58070   -9999.25   -9999.25
 4742.50000    0.36800    0.22220    0.16290    3.23340    2.32390  134.32070    8.13850    3.51760    3.54470    2.52220  -10.23700   -9999.25   -9999.25
 4743.00000    0.38290    0.25920    0.20000    3.20540    2.26840  126.98780    8.33290    3.47300    3.68550    2.52050  -11.79320   -9999.25   -9999.25
 4743.50000    0.38110    0.27490    0.21570    3.11270    2.24120  118.37610    8.88490    4.00770    4.06020    2.62310  -12.38370   -9999.25   -9999.25
 4744.00000    0.36310    0.26910    0.19850    3.02720    2.24950  113.50850    8.89660    4.20450    4.59560    2.74950  -12.92510   -9999.25   -9999.25
 4744.50000    0.33680    0.23810    0.17050    3.00100    2.29970  110.78270    8.05290    4.37560    5.56990    2.98870  -13.00760   -9999.25   -9999.25
 4745.00000    0.30330    0.19810    0.15600    3.06300    2.36020  108.42160    8.21140    5.00110    7.35370    3.57010  -12.67110   -9999.25   -9999.25
 4745.50000    0.27440    0.18610    0.16860    3.15770    2.39400  106.67060    7.91140    5.03340    6.80530    3.56170  -11.70940   -9999.25   -9999.25
 4746.00000    0.28230    0.19580    0.18290    3.20680    2.37480  111.18480    8.19950    4.60610    5.08560    2.98720  -10.39490   -9999.25   -9999.25
 4746.50000    0.31770    0.20600    0.20830    3.18610    2.35030  118.96560    8.33350    3.45860    3.87640    2.75120   -8.86220   -9999.25   -9999.25
 4747.00000    0.34890    0.22140    0.21580    3.15610    2.33430  128.37530    8.14700    3.40390    3.51720    2.44710   -6.74920   -9999.25   -9999.25
 4747.50000    0.36890    0.21290    0.21250    3.16770    2.35990  139.11830    8.47060    3.56300    3.69920    2.66290   -3.92520   -9999.25   -9999.25
 4748.00000    0.37540    0.19480    0.19450    3.21970    2.38190  143.03650    8.53040    3.85340    4.10780    3.05860   -1.76130   -9999.25   -9999.25
 4748.50000    0.37960    0.17800    0.17360    3.27580    2.40650  142.67720    8.09840    4.08100    4.19050    3.31340   -0.16070   -9999.25   -9999.25
 4749.00000    0.38950    0.17740    0.16160    3.31090    2.40920  140.88050    8.25230    3.82290    3.96580    3.20590    1.36240   -9999.25   -9999.25
 4749.50000    0.39260    0.15440    0.14990    3.34600    2.44840  140.52320    8.37350    3.55860    3.59660    3.04420    2.88550   -9999.25   -9999.25
 4750.00000    0.36900    0.12640    0.11280    3.37520    2.49610  139.75500    8.16850    3.47660    3.74490    3.22420    3.97430   -9999.25   -9999.25
 4750.50000    0.33130    0.09000    0.06760    3.40640    2.55350  135.82920    8.05300    3.94460    4.14630    3.49640    4.75560   -9999.25   -9999.25
 4751.00000    0.30020    0.07790    0.03990    3.47230    2.57870  128.59500    7.94760    4.04820    4.47580    3.79750    4.57280   -9999.25   -9999.25
 4751.50000    0.29050    0.08480    0.05720    3.53240    2.56500  122.03670    7.99510    4.62920    4.75590    3.97510    2.57210   -9999.25   -9999.25
