~Version ---------------------------------------------------
VERS.   2.0 : CWLS log ASCII Standard -VERSION 2.0
WRAP.    NO : One line per depth step
DLM . SPACE : Column Data Section Delimiter
~Well ------------------------------------------------------
STRT .F                 904.0 : START DEPTH
STOP .F                7603.0 : STOP DEPTH
STEP .F                   0.5 : STEP
NULL .               -9999.25 : NULL VALUE
COMP .                        : COMPANY
WELL .                        : WELL
FLD  .                        : FIELD
LOC  .                        : LOCATION
PROV .                        : PROVINCE
CNTY .                        : COUNTY
STAT .                        : STATE
CTRY .                        : COUNTRY
SRVC .                        : SERVICE COMPANY
DATE .                        : DATE
UWI  .                        : UNIQUE WELL ID
API  .                        : API NUMBER
SLAT .WGS84 6.983165863716202 : SURFACE LATITUDE
SLON .WGS84 4.694349069349002 : SURFACE LONGITUDE
DATUM.F                2341.0 : DEPTH DATUM ELEV
~Curve Information -----------------------------------------
DEPT   .F     : 1 MEASURED DEPTH
NPHI_LS.DEC   : NEUTRON POROSITY LIMESTONE
DPHZ_LS.DEC   : HGRD STANDARD RESOLUTION DENSITY POROSITY
HDRA   .G/C3  : HRDD SPINE AND RIBS DENSITY CORRECTION
PEFZ   .B/E   : HRDD STANDARD RESOLUTION FORMATION PHOTOELECTRIC FACTOR
RHOZ   .G/C3  : HRDD STANDARD RESOLUTION FORMATION DENSITY
GRR    .GAPI  : GAMMA RAY FROM RESISTIVITY LOG
HCALR  .IN    : HRCC CALIPER CALIBRATED FROM RESISTIVITY LOG
AT30   .OHMM  : ARRAY INDUCTION TWO FOOT RESISTIVITY A30
AT90   .OHMM  : ARRAY INDUCTION TWO FOOT RESISTIVITY A90
AT10   .OHMM  : ARRAY INDUCTION TWO FOOT RESISTIVITY A10
SPR    .MV    : SPONTANEOUS POTENTIAL FROM RESISTIVITY LOG
DTCO   .US/F  : DELTA-T COMPRESSIONAL
DTSM   .US/F  : DELTA-T SHEAR
~Params ----------------------------------------------------
~Other -----------------------------------------------------
~ASCII -----------------------------------------------------
# ...
 6286.00000    0.01150    0.00980    0.00500    4.96310    2.69220   53.34750    8.28690  216.77610  151.81910   67.25860   -3.86760   70.25590   95.57470
 6286.50000    0.00850    0.00430    0.00040    4.93390    2.70290   53.42160    8.26460  213.37420  155.88660   68.31200   -3.82700   68.71910   94.81890
 6287.00000    0.00860    0.01040    0.00040    4.88970    2.69090   52.98550    8.24230  221.58020  157.77940   70.33780   -3.83310   67.74470   94.06310
 6287.50000    0.00830    0.01390    0.00040    4.72320    2.68540   50.70400    8.24000  237.87100  167.35010   74.29390   -4.08620   67.66610   93.78590
 6288.00000    0.00820    0.01630    0.00040    4.50990    2.68250   47.83910    8.24000  262.14920  176.92580   74.98750   -4.19870   68.26140   94.55480
 6288.50000    0.01060    0.01670    0.00040    4.37210    2.68090   49.21780    8.24030  266.18180  144.06440   64.31590   -3.97920   70.01000   97.45870
 6289.00000    0.01170    0.02460    0.00020    4.44660    2.66620   56.83040    8.24200  160.26730   85.00820   51.92670   -3.55340   75.15000  100.36270
 6289.50000    0.01160    0.02840   -0.00020    4.63260    2.66250   63.85100    8.23330  103.81790   59.15920   40.44800   -2.81650   82.66710  104.41850
 6290.00000    0.01590    0.02220    0.00720    4.78400    2.67080   66.16630    8.24110   68.07520   50.35470   29.07850   -1.19360   88.72090  110.85390
 6290.50000    0.03430    0.02440    0.01920    4.78840    2.66990   68.67590    8.28400   30.93570   31.51400   19.03160    0.44860   91.25150  117.28930
 6291.00000    0.06000    0.04470    0.02330    4.65060    2.64210   77.64810    8.38000   17.68270   18.69220   13.55550    1.84810   99.14050  123.72470
 6291.50000    0.09190    0.06400    0.01690    4.27720    2.60240   88.69320    8.42970   13.65840   13.88140   13.00280    3.06400  116.66080  130.17230
 6292.00000    0.09690    0.07550    0.00610    4.04480    2.58460   92.35360    8.37050   14.55650   14.73320   12.48090    4.27990  126.44360  135.65050
 6292.50000    0.08700    0.07270    0.01260    3.95110    2.58380   87.81160    8.33420   14.37320   15.81330   13.13150    5.53750  125.74560  140.18890
 6293.00000    0.09420    0.09580    0.06320    3.89040    2.56820   84.34000    8.41680   10.08730   10.64890    9.66850    6.16640  119.59120  143.15930
 6293.50000    0.14220    0.14130    0.10590    3.72980    2.47770   88.90720    8.46670    6.03810    6.37960    5.26720    6.50910  119.19950  144.87940
 6294.00000    0.20800    0.17650    0.14470    3.61440    2.39650  101.11380    8.60630    4.11220    4.15410    4.13470    6.86280  120.61320  144.88480
 6294.50000    0.27810    0.18230    0.15890    3.32400    2.39470  108.52240    8.67730    4.24200    4.33210    3.81210    6.92280  116.19840  143.13630
 6295.00000    0.27160    0.11840    0.15000    3.29610    2.48330  107.27670    8.66130    4.98890    5.09490    4.73960    6.49630  105.70790  138.83210
 6295.50000    0.23950    0.06690    0.10590    3.32310    2.58730   96.48050    8.53730    5.92810    6.14680    6.30550    6.01160   98.24700  131.31610
 6296.00000    0.19070    0.05230    0.04290    3.43290    2.61900   82.33860    8.52200    7.90440    8.05460    7.19160    5.03560   90.83950  123.43520
 6296.50000    0.15590    0.04670    0.00780    3.56790    2.62910   70.79470    8.40510    8.70300    8.76610    7.62660    3.97840   85.08330  116.44000
 6297.00000    0.13660    0.04250    0.00350    3.75480    2.63730   65.02810    8.40210    8.96400    9.01760    7.96230    2.17960   79.43800  109.44480
 6297.50000    0.09590    0.03740   -0.00040    4.10520    2.64550   57.66400    8.43460   13.81120   14.73650   11.49380    0.38090   75.11980  102.44960
 6298.00000    0.04790    0.03150   -0.00400    4.49450    2.65480   45.22300    8.43180   25.36410   27.66030   19.41450   -1.48950   70.98600   97.48810
 6298.50000    0.01270    0.02190   -0.00460    4.85610    2.67130   31.77230    8.39740   46.37640   49.70100   46.71270   -3.44380   68.63950   94.91430
 6299.00000    0.00470    0.01080   -0.00310    4.99840    2.69240   23.57390    8.38060   75.65690   79.61480   48.04470   -5.34290   67.75040   93.04810
 6299.50000    0.00210    0.00420   -0.00280    5.05490    2.70450   21.29050    8.38240   98.92490   99.50800   50.74420   -7.21580   67.92600   91.88230
 6300.00000    0.00220    0.00920   -0.00420    5.09030    2.69380   22.58420    8.36980  100.27160  101.33440   55.38670   -8.97580   68.79010   92.27780
 6300.50000    0.00430    0.01490   -0.00570    5.15420    2.68440   24.88430    8.35000  107.73000  108.86630   54.69180  -10.51480   69.75630   93.30420
 6301.00000    0.00630    0.02190   -0.00620    5.10810    2.67270   28.14220    8.34730  101.50840  103.44480   50.43220  -11.64720   70.96830   94.33050
 6301.50000    0.00870    0.02170   -0.00480    4.87120    2.67410   31.25870    8.32620   87.45560   89.12550   45.32830  -13.10630   73.15160   95.49470
 6302.00000    0.01120    0.01520   -0.00390    4.52750    2.68530   32.88520    8.31040   75.34830   76.78840   42.24740  -14.31150   74.33920   96.65760
 6302.50000    0.01280    0.00910   -0.00330    4.29200    2.69660   33.45020    8.29700   68.25630   68.97050   40.15570  -15.72110   75.20850   97.64400
 6303.00000    0.01330    0.00710   -0.00270    4.34520    2.69730   34.54630    8.28800   62.19830   63.63390   38.80780  -17.13080   76.26030   97.34060
 6303.50000    0.01370    0.01620   -0.00300    4.49050    2.68160   36.80070    8.27970   51.96460   53.15930   36.36520  -18.21990   76.41740   96.88240
 6304.00000    0.01450    0.02020   -0.00450    4.64290    2.67650   37.71090    8.27130   47.00560   47.38150   35.44910  -19.94140   75.63170   96.42430
 6304.50000    0.01600    0.02040   -0.00500    4.67370    2.67530   36.99200    8.27220   52.39180   53.43450   37.10520  -21.76590   74.88770   95.98650
 6305.00000    0.01540    0.01630   -0.00450    4.61670    2.68550   35.58300    8.26110   63.30840   64.87170   45.22540  -23.74160   73.31950   95.25160
 6305.50000    0.01320    0.01270   -0.00290    4.54760    2.69360   35.36910    8.21990   76.85890   78.75700   52.21580  -25.18840   71.50430   94.48690
 6306.00000    0.01070    0.00820   -0.00130    4.50180    2.69820   36.70780    8.21850   93.30970   95.61440   64.49760  -26.76600   70.82570   94.19210
 6306.50000    0.00840    0.00690    0.00030    4.47840    2.70000   37.29330    8.22620  113.28170  116.07990   68.54750  -27.98140   70.90630   94.29590
 6307.00000    0.00670    0.00570    0.00190    4.49120    2.70190   37.15700    8.18860  125.95010  132.43570   71.49350  -29.17040   71.84560   95.16290
 6307.50000    0.00730    0.00240    0.00340    4.50050    2.71010   38.81820    8.21190  103.97470  117.60070   62.82570  -30.30780   73.37140   96.02980
 6308.00000    0.00900   -0.00470    0.00480    4.51750    2.71970   45.00400    8.22390   87.24120   91.50500   50.59770  -30.56200   74.17980   96.89670
 6308.50000    0.01250   -0.00740    0.00580    4.53440    2.72370   54.17360    8.22990   60.80000   71.20000   41.07390  -30.46010   74.33600   97.76370
 6309.00000    0.01590   -0.00830    0.00620    4.59730    2.72550   64.20970    8.22970   43.51650   55.40070   34.98670  -30.37490   73.81660   98.66720
 6309.50000    0.01840   -0.01030    0.00330    4.64470    2.72870   70.81390    8.21820   47.66190   57.79140   37.65370  -31.38870   72.71600   98.19060
 6310.00000    0.01790   -0.01200    0.00250    4.69450    2.73130   71.54270    8.21040   65.22910   92.64110   46.06670  -32.35380   71.39840   97.71390
 6310.50000    0.01520   -0.00890    0.00180    4.71910    2.72590   66.21480    8.20070   89.27120  136.12460   54.11660  -33.62920   70.34510   96.80900
 6311.00000    0.01240   -0.00390    0.00020    4.72750    2.71730   57.23190    8.18670  116.26620  242.20810   63.01960  -35.52840   69.56350   95.38930
 6311.50000    0.01000   -0.00340   -0.00160    4.75230    2.71680   48.37870    8.19110  129.68010  325.08090   69.84750  -37.23010   69.14500   94.03560
