~Version ---------------------------------------------------
VERS.   2.0 : CWLS log ASCII Standard -VERSION 2.0
WRAP.    NO : One line per depth step
DLM . SPACE : Column Data Section Delimiter
~Well ------------------------------------------------------
STRT .F                 904.0 : START DEPTH
STOP .F                7603.0 : STOP DEPTH
STEP .F                   0.5 : STEP
NULL .               -9999.25 : NULL VALUE
COMP .                        : COMPANY
WELL .                        : WELL
FLD  .                        : FIELD
LOC  .                        : LOCATION
PROV .                        : PROVINCE
CNTY .                        : COUNTY
STAT .                        : STATE
CTRY .                        : COUNTRY
SRVC .                        : SERVICE COMPANY
DATE .                        : DATE
UWI  .                        : UNIQUE WELL ID
API  .                        : API NUMBER
SLAT .WGS84 6.983165863716202 : SURFACE LATITUDE
SLON .WGS84 4.694349069349002 : SURFACE LONGITUDE
DATUM.F                2341.0 : DEPTH DATUM ELEV
~Curve Information -----------------------------------------
DEPT   .F     : 1 MEASURED DEPTH
NPHI_LS.DEC   : NEUTRON POROSITY LIMESTONE
DPHZ_LS.DEC   : HGRD STANDARD RESOLUTION DENSITY POROSITY
HDRA   .G/C3  : HRDD SPINE AND RIBS DENSITY CORRECTION
PEFZ   .B/E   : HRDD STANDARD RESOLUTION FORMATION PHOTOELECTRIC FACTOR
RHOZ   .G/C3  : HRDD STANDARD RESOLUTION FORMATION DENSITY
GRR    .GAPI  : GAMMA RAY FROM RESISTIVITY LOG
HCALR  .IN    : HRCC CALIPER CALIBRATED FROM RESISTIVITY LOG
AT30   .OHMM  : ARRAY INDUCTION TWO FOOT RESISTIVITY A30
AT90   .OHMM  : ARRAY INDUCTION TWO FOOT RESISTIVITY A90
AT10   .OHMM  : ARRAY INDUCTION TWO FOOT RESISTIVITY A10
SPR    .MV    : SPONTANEOUS POTENTIAL FROM RESISTIVITY LOG
DTCO   .US/F  : DELTA-T COMPRESSIONAL
DTSM   .US/F  : DELTA-T SHEAR
~Params ----------------------------------------------------
~Other -----------------------------------------------------
~ASCII -----------------------------------------------------
# ...
 6624.00000    0.32950    0.18620    0.13930    3.37240    2.39670   80.57090    8.50340    3.20310    3.45800    2.99270    9.08970  136.65250  187.22030
 6624.50000    0.29660    0.13860    0.14010    3.38370    2.46400   84.10660    8.55260    3.01650    2.99660    2.88730    9.73030  134.94960  190.72400
 6625.00000    0.27880    0.12340    0.12080    3.39110    2.49900   93.87170    8.42380    2.75660    2.75970    2.66780   10.37100  135.01080  193.00420
 6625.50000    0.27320    0.10970    0.10750    3.41440    2.51850  111.02670    8.13280    2.51730    2.56390    2.43760   11.06090  135.17770  195.04920
 6626.00000    0.27790    0.09220    0.11060    3.45820    2.55170  129.37520    7.96230    2.13450    2.15480    2.11950   11.90220  135.70340  197.09420
 6626.50000    0.28730    0.08450    0.11500    3.47430    2.56660  141.55430    7.87690    2.05460    2.06680    1.87760   12.49290  137.65000  199.50240
 6627.00000    0.29830    0.08140    0.11670    3.45680    2.57170  145.77280    8.06410    2.03520    2.04750    1.83060   12.69490  137.77160  202.70600
 6627.50000    0.30010    0.09330    0.11640    3.41240    2.55150  141.87880    8.09810    2.06950    2.08200    1.85380   13.12720  134.54480  201.54860
 6628.00000    0.30100    0.09770    0.12830    3.35240    2.54490  134.52520    8.14090    2.08770    2.10370    1.99450   13.01950  127.62100  194.21530
 6628.50000    0.30470    0.10580    0.14370    3.32790    2.53080  128.92620    8.03450    2.02440    2.03930    1.94730   13.39990  118.49310  186.07280
 6629.00000    0.31250    0.10940    0.13520    3.29990    2.52360  124.64330    8.14380    1.98170    1.99320    1.85130   13.53570  107.36640  168.05590
 6629.50000    0.30230    0.10060    0.10750    3.26170    2.53410  120.44300    8.28500    2.07120    2.15750    1.87150   13.07020   96.82000  148.24660
 6630.00000    0.27200    0.07860    0.07950    3.23420    2.57280  111.36290    8.13940    3.27870    3.48130    2.49640   11.58590   91.74730  128.43720
 6630.50000    0.19900    0.05060    0.04150    3.20660    2.62090  100.15980    7.94370    6.12040    6.69030    5.39800   10.14780   89.56490  121.11530
 6631.00000    0.13090    0.04060    0.02090    3.17900    2.63950   89.96600    7.84050   12.43700   13.40940   10.61910    8.76600   90.34250  115.29510
 6631.50000    0.09550    0.03190    0.01540    3.22910    2.65560   83.38250    7.82880   18.79790   19.53770   10.46710    7.71090   92.18640  113.12630
 6632.00000    0.08820    0.02710    0.01290    3.26930    2.66210   81.34260    7.82510   15.63780   16.19340   10.71360    6.71570   93.53910  113.77230
 6632.50000    0.09220    0.03010    0.00980    3.25470    2.65960   79.97590    7.81960   13.31690   13.44320   11.60100    6.08590   94.85790  115.81130
 6633.00000    0.09830    0.04870    0.00640    3.24150    2.62790   78.63350    7.82350   12.59120   12.68320   11.79510    5.57880   96.51370  117.76560
 6633.50000    0.10480    0.06500    0.00580    3.29580    2.59980   78.27610    7.83030   12.71240   12.99720   11.63560    5.18040   97.40870  119.24990
 6634.00000    0.10850    0.07770    0.00520    3.38660    2.57880   80.62970    7.83170   12.84880   12.79680   11.49280    5.00360   97.71690  120.71480
 6634.50000    0.11280    0.07540    0.00450    3.37460    2.58140   84.47110    7.82930   12.14550   12.26310   11.12540    5.73580   98.17940  123.74180
 6635.00000    0.11840    0.06740    0.00010    3.26910    2.59430   86.79240    7.81380   11.48060   11.87740   10.11870    6.27420   99.91010  125.66450
 6635.50000    0.11630    0.06140   -0.00040    3.17530    2.60540   84.94100    7.81370   10.89100   12.20070   10.44230    6.60810  101.73640  127.52890
 6636.00000    0.11180    0.06000   -0.00040    3.11920    2.60800   81.92550    7.79980   12.56310   13.35330   11.10840    7.68240  104.00240  129.12840
 6636.50000    0.11350    0.05520   -0.00040    3.06310    2.61630   83.24750    7.79020   10.67100   11.05130   10.06400    8.84510  106.68890  130.99250
 6637.00000    0.12890    0.05280   -0.00050    3.04080    2.62070   88.91080    7.80070    8.40060    8.66920    7.98600   10.14070  108.18560  132.95630
 6637.50000    0.14760    0.05290    0.00300    3.04940    2.62010   92.99120    7.83470    7.20420    7.26800    6.94020   11.02820  108.76920  134.68890
 6638.00000    0.15550    0.05330    0.01130    3.13020    2.61900   92.86200    7.80480    7.00510    7.05030    6.94650   11.74570  109.03730  135.10030
 6638.50000    0.15540    0.04980    0.02080    3.24310    2.62640   92.16540    7.76240    6.83480    6.87890    6.72350   12.49290  108.95010  135.49770
 6639.00000    0.15560    0.04580    0.03020    3.33430    2.63140   94.62570    7.77890    6.51490    6.57330    6.46590   13.29300  108.94230  136.84470
 6639.50000    0.16380    0.04980    0.03250    3.41740    2.62820  103.77960    7.78070    6.10350    6.14660    5.93930   13.91590  110.53380  139.12310
 6640.00000    0.17340    0.04790    0.03080    3.47600    2.62790  115.88630    7.76850    5.90040    5.94180    5.72330   14.51480  112.63820  141.79610
 6640.50000    0.17620    0.04720    0.02800    3.53680    2.62840  125.73830    7.79470    5.75040    5.79120    5.59180   15.11460  114.30660  143.45350
 6641.00000    0.17710    0.04890    0.02660    3.59850    2.62860  127.72900    7.80860    5.52360    5.56530    5.41720   16.03140  115.28590  144.15330
 6641.50000    0.17860    0.03940    0.03810    3.62180    2.64540  121.92210    7.75360    5.29880    5.33970    5.17680   16.43770  116.44050  144.85300
 6642.00000    0.18480    0.03170    0.04580    3.64000    2.65770  115.64900    7.83870    5.03370    5.07460    4.94710   16.49020  117.73790  146.69460
 6642.50000    0.19330    0.02490    0.05180    3.64110    2.66710  110.91890    7.90480    4.84820    4.87650    4.67630   16.54280  119.47910  151.05940
 6643.00000    0.19970    0.02660    0.04980    3.66760    2.66350  108.29600    7.88860    4.75860    4.78780    4.55880   16.04770  121.00000  157.56030
 6643.50000    0.20140    0.03070    0.04940    3.67440    2.65570  107.61200    7.83640    4.64520    4.67810    4.47020   15.16450  122.55280  163.57770
 6644.00000    0.20770    0.03940    0.05520    3.67150    2.63470  109.62100    7.79650    4.45020    4.50020    4.34360   13.86120  127.60840  169.55260
 6644.50000    0.23000    0.06030    0.06560    3.66430    2.59900  114.38350    7.76960    3.79450    3.89510    3.75470   12.53310  136.90260  177.95270
 6645.00000    0.26330    0.08400    0.09280    3.64380    2.55310  123.20420    7.83570    3.20280    3.26980    3.01140   11.76850  140.01760  188.73510
 6645.50000    0.30250    0.10420    0.12860    3.60470    2.53210  130.70280    8.04600    2.71660    2.77340    2.59650   11.27370   -9999.25  192.40040
 6646.00000    0.32950    0.10340    0.15760    3.53250    2.53460  136.53570    8.09050    2.39450    2.43960    2.26070   10.88110   -9999.25  195.67710
 6646.50000    0.33610    0.10070    0.16590    3.51050    2.53810  139.55840    8.17000    2.29240    2.36680    2.21150   10.66360   -9999.25  198.38880
 6647.00000    0.33570    0.09120    0.16390    3.51530    2.55510  141.31950    7.99780    2.31390    2.37180    2.20590   10.72910   -9999.25  200.48780
 6647.50000    0.33190    0.09660    0.15080    3.52010    2.54490  142.88870    7.96080    2.30190    2.37460    2.20850   10.53920   -9999.25  202.34200
 6648.00000    0.31850    0.09960    0.14040    3.59930    2.53710  142.81480    7.99310    2.28610    2.34550    2.20530   10.33970   -9999.25  203.13880
 6648.50000    0.30450    0.10820    0.13420    3.62640    2.52500  138.92670    8.04260    2.23080    2.29680    2.14400   10.06790   -9999.25  203.45430
 6649.00000    0.30180    0.10380    0.14300    3.62410    2.53190  134.52010    8.04970    2.17680    2.24790    2.08570    9.36140   -9999.25  203.76970
 6649.50000    0.31300    0.09670    0.15370    3.61200    2.54490  132.17600    8.10130    2.12410    2.20010    2.04480    9.08300   -9999.25  203.37770
