~Version ---------------------------------------------------
VERS.   2.0 : CWLS log ASCII Standard -VERSION 2.0
WRAP.    NO : One line per depth step
DLM . SPACE : Column Data Section Delimiter
~Well ------------------------------------------------------
STRT .F                 904.0 : START DEPTH
STOP .F                7603.0 : STOP DEPTH
STEP .F                   0.5 : STEP
NULL .               -9999.25 : NULL VALUE
COMP .                        : COMPANY
WELL .                        : WELL
FLD  .                        : FIELD
LOC  .                        : LOCATION
PROV .                        : PROVINCE
CNTY .                        : COUNTY
STAT .                        : STATE
CTRY .                        : COUNTRY
SRVC .                        : SERVICE COMPANY
DATE .                        : DATE
UWI  .                        : UNIQUE WELL ID
API  .                        : API NUMBER
SLAT .WGS84 6.983165863716202 : SURFACE LATITUDE
SLON .WGS84 4.694349069349002 : SURFACE LONGITUDE
DATUM.F                2341.0 : DEPTH DATUM ELEV
~Curve Information -----------------------------------------
DEPT   .F     : 1 MEASURED DEPTH
NPHI_LS.DEC   : NEUTRON POROSITY LIMESTONE
DPHZ_LS.DEC   : HGRD STANDARD RESOLUTION DENSITY POROSITY
HDRA   .G/C3  : HRDD SPINE AND RIBS DENSITY CORRECTION
PEFZ   .B/E   : HRDD STANDARD RESOLUTION FORMATION PHOTOELECTRIC FACTOR
RHOZ   .G/C3  : HRDD STANDARD RESOLUTION FORMATION DENSITY
GRR    .GAPI  : GAMMA RAY FROM RESISTIVITY LOG
HCALR  .IN    : HRCC CALIPER CALIBRATED FROM RESISTIVITY LOG
AT30   .OHMM  : ARRAY INDUCTION TWO FOOT RESISTIVITY A30
AT90   .OHMM  : ARRAY INDUCTION TWO FOOT RESISTIVITY A90
AT10   .OHMM  : ARRAY INDUCTION TWO FOOT RESISTIVITY A10
SPR    .MV    : SPONTANEOUS POTENTIAL FROM RESISTIVITY LOG
DTCO   .US/F  : DELTA-T COMPRESSIONAL
DTSM   .US/F  : DELTA-T SHEAR
~Params ----------------------------------------------------
~Other -----------------------------------------------------
~ASCII -----------------------------------------------------
# ...
 4414.00000    0.22360    0.12830    0.02170    2.89790    2.49780  106.34160    7.59200    6.44290    5.37890   10.39030  -49.57580   -9999.25   -9999.25
 4414.50000    0.21160    0.10030    0.02360    2.98760    2.53920  105.02170    7.59110    6.73100    5.51430   11.26640  -49.43530   -9999.25   -9999.25
 4415.00000    0.19180    0.08550    0.03170    3.11530    2.56360  100.59600    7.59170    6.87620    5.56950   11.81620  -48.49280   -9999.25   -9999.25
 4415.50000    0.18590    0.09300    0.05080    3.22910    2.55120   98.19460    7.58240    6.30780    5.09900   10.04720  -47.64020   -9999.25   -9999.25
 4416.00000    0.20620    0.10910    0.07270    3.22550    2.52270  100.34450    7.52570    5.50030    4.63580    7.95140  -46.78750   -9999.25   -9999.25
 4416.50000    0.22680    0.12680    0.07960    3.16230    2.49270  105.22790    7.55570    5.40690    4.47880    7.74860  -46.03440   -9999.25   -9999.25
 4417.00000    0.23970    0.13770    0.07820    3.06030    2.47500  108.90350    7.49800    5.43470    4.49160    8.00640  -45.85010   -9999.25   -9999.25
 4417.50000    0.24670    0.14520    0.05820    2.96770    2.46150  108.50270    7.47190    5.46240    4.38800    7.77390  -45.38380   -9999.25   -9999.25
 4418.00000    0.24950    0.14700    0.04800    2.89270    2.45890  106.98510    7.48830    5.20010    4.24520    7.39050  -44.84560   -9999.25   -9999.25
 4418.50000    0.25620    0.14280    0.03770    2.86450    2.46550  106.84160    7.56030    5.14670    4.21130    7.16720  -44.40590   -9999.25   -9999.25
 4419.00000    0.26110    0.12920    0.03480    2.86500    2.48810  108.53150    7.61500    5.21050    4.27390    7.48720  -42.95870   -9999.25   -9999.25
 4419.50000    0.26310    0.12180    0.03650    2.88070    2.50130  110.39050    7.59330    5.33490    4.36950    7.39070  -40.79270   -9999.25   -9999.25
 4420.00000    0.26010    0.13050    0.03300    2.89790    2.49110  110.59230    7.58130    5.52910    4.66250    7.81520  -39.28660   -9999.25   -9999.25
 4420.50000    0.25500    0.13910    0.02880    2.92650    2.47450  110.58430    7.58110    5.63960    4.83510    7.98600  -37.69680   -9999.25   -9999.25
 4421.00000    0.25500    0.13510    0.02840    2.99460    2.47980  112.25270    7.62100    5.30590    4.58930    7.17550  -34.74250   -9999.25   -9999.25
 4421.50000    0.26040    0.11560    0.03860    3.11360    2.51150  116.55440    7.65240    4.83920    4.33880    6.51180  -31.99540   -9999.25   -9999.25
 4422.00000    0.26580    0.09470    0.04470    3.20090    2.54880  118.28810    7.61780    4.67750    4.20890    6.00990  -30.50730   -9999.25   -9999.25
 4422.50000    0.25780    0.09270    0.04890    3.22480    2.55190  115.33830    7.62590    4.87470    4.37170    6.54840  -31.25740   -9999.25   -9999.25
 4423.00000    0.23730    0.10090    0.05180    3.18470    2.54170  107.88530    7.56910    5.48390    5.18640    7.85570  -33.47290   -9999.25   -9999.25
 4423.50000    0.22570    0.11570    0.05450    3.13700    2.51680  101.68560    7.49120    6.43630    5.50280    9.32590  -35.44500   -9999.25   -9999.25
 4424.00000    0.23430    0.11460    0.05710    3.14840    2.51060   98.27470    7.45880    6.05310    5.17530    8.55710  -35.83040   -9999.25   -9999.25
 4424.50000    0.25160    0.09930    0.05930    3.23700    2.53400   95.08470    7.47060    5.66530    4.77280    8.06290  -35.76690   -9999.25   -9999.25
 4425.00000    0.25150    0.08140    0.06090    3.34440    2.56820   91.37370    7.61970    6.23390    5.14160    9.35040  -35.69200   -9999.25   -9999.25
 4425.50000    0.24150    0.07250    0.05750    3.42010    2.58820   88.86890    7.63620    6.70040    5.50880   10.39360  -35.57790   -9999.25   -9999.25
 4426.00000    0.22950    0.08580    0.04900    3.34570    2.56690   91.43640    7.63220    6.19350    5.06160    9.37500  -35.22040   -9999.25   -9999.25
 4426.50000    0.22730    0.12000    0.03790    3.18560    2.51250   97.62590    7.61340    5.65360    4.67280    8.16540  -33.78310   -9999.25   -9999.25
 4427.00000    0.23510    0.13230    0.03090    3.05420    2.48520  107.05260    7.59660    5.19980    4.35060    7.36350  -32.16030   -9999.25   -9999.25
 4427.50000    0.25350    0.12790    0.03540    3.02950    2.49210  117.61710    7.61740    4.79300    4.04550    6.56900  -28.91800   -9999.25   -9999.25
 4428.00000    0.26800    0.11340    0.05610    3.08130    2.51360  125.59790    7.64530    4.76900    3.98990    6.58360  -27.17360   -9999.25   -9999.25
 4428.50000    0.26900    0.11830    0.06820    3.12020    2.51010  125.29090    7.64010    4.89160    4.00130    6.86440  -26.99040   -9999.25   -9999.25
 4429.00000    0.26260    0.12190    0.07740    3.09070    2.50150  118.40340    7.64500    4.99740    4.04710    7.31670  -27.41260   -9999.25   -9999.25
 4429.50000    0.25530    0.12510    0.07370    3.02820    2.49700  111.57320    7.64450    5.02880    4.06720    7.25230  -27.81090   -9999.25   -9999.25
 4430.00000    0.24410    0.13640    0.05680    2.96670    2.48270  109.28370    7.64820    5.33950    4.20000    7.66260  -27.82360   -9999.25   -9999.25
 4430.50000    0.23730    0.15130    0.03740    2.90990    2.45490  109.30510    7.70750    5.79910    4.52200    8.43880  -27.60720   -9999.25   -9999.25
 4431.00000    0.24090    0.15630    0.02950    2.91660    2.44290  110.19390    7.63570    5.53860    4.46370    7.95680  -26.76150   -9999.25   -9999.25
 4431.50000    0.25400    0.14910    0.03520    2.98650    2.45410  111.04100    7.57440    4.84570    3.96180    6.73870  -26.22640   -9999.25   -9999.25
 4432.00000    0.26210    0.14060    0.04230    3.06400    2.46930  108.37220    7.62480    5.15170    4.18210    7.13110  -27.40430   -9999.25   -9999.25
 4432.50000    0.25900    0.13700    0.04250    3.05140    2.47640  102.24860    7.63550    5.72370    4.68330    7.94750  -29.16740   -9999.25   -9999.25
 4433.00000    0.25170    0.13450    0.03900    3.02610    2.48100   98.65780    7.62540    5.77170    4.53400    7.50230  -29.24600   -9999.25   -9999.25
 4433.50000    0.24900    0.12330    0.03400    3.02880    2.49730  102.02400    7.64440    5.19390    4.28450    6.76520  -28.03970   -9999.25   -9999.25
 4434.00000    0.25410    0.11740    0.02560    3.06880    2.50840  111.83030    7.67170    4.91770    4.11610    6.05370  -26.83760   -9999.25   -9999.25
 4434.50000    0.26140    0.12430    0.01500    3.07250    2.49780  119.67660    7.60860    4.81190    4.10910    6.26430  -26.04390   -9999.25   -9999.25
 4435.00000    0.26890    0.13320    0.01170    3.09660    2.48220  120.26790    7.66370    5.17680    4.53170    6.85840  -25.35740   -9999.25   -9999.25
 4435.50000    0.26970    0.13400    0.02480    3.14700    2.48160  116.68370    7.69340    5.45360    4.71330    6.86300  -24.29440   -9999.25   -9999.25
 4436.00000    0.26960    0.12190    0.04810    3.19610    2.50200  113.85420    7.70870    5.21800    4.44870    6.33480  -22.93060   -9999.25   -9999.25
 4436.50000    0.27110    0.10810    0.06570    3.23100    2.52520  114.48040    7.66000    4.99660    4.37140    6.28310  -22.10920   -9999.25   -9999.25
 4437.00000    0.27280    0.10360    0.06850    3.23170    2.53310  117.52770    7.63780    5.10950    4.44390    6.53990  -21.70460   -9999.25   -9999.25
 4437.50000    0.26890    0.09800    0.06660    3.21770    2.54280  119.33020    7.70420    5.14840    4.45080    6.61500  -21.30000   -9999.25   -9999.25
 4438.00000    0.26600    0.09440    0.06590    3.22120    2.54940  119.09230    7.69420    5.00880    4.33420    6.36170  -20.96970   -9999.25   -9999.25
 4438.50000    0.26860    0.09100    0.07140    3.27820    2.55590  117.36910    7.69410    4.86260    4.21500    6.04420  -20.66760   -9999.25   -9999.25
 4439.00000    0.27680    0.09500    0.07480    3.30950    2.54770  113.75580    7.67800    4.94210    4.15950    6.36030  -21.79980   -9999.25   -9999.25
 4439.50000    0.27210    0.10860    0.06260    3.30660    2.52600  110.05830    7.64830    5.38200    4.32050    7.16900  -23.90980   -9999.25   -9999.25
