~Version ---------------------------------------------------
VERS.   2.0 : CWLS log ASCII Standard -VERSION 2.0
WRAP.    NO : One line per depth step
DLM . SPACE : Column Data Section Delimiter
~Well ------------------------------------------------------
STRT .F                 904.0 : START DEPTH
STOP .F                7603.0 : STOP DEPTH
STEP .F                   0.5 : STEP
NULL .               -9999.25 : NULL VALUE
COMP .                        : COMPANY
WELL .                        : WELL
FLD  .                        : FIELD
LOC  .                        : LOCATION
PROV .                        : PROVINCE
CNTY .                        : COUNTY
STAT .                        : STATE
CTRY .                        : COUNTRY
SRVC .                        : SERVICE COMPANY
DATE .                        : DATE
UWI  .                        : UNIQUE WELL ID
API  .                        : API NUMBER
SLAT .WGS84 6.983165863716202 : SURFACE LATITUDE
SLON .WGS84 4.694349069349002 : SURFACE LONGITUDE
DATUM.F                2341.0 : DEPTH DATUM ELEV
~Curve Information -----------------------------------------
DEPT   .F     : 1 MEASURED DEPTH
NPHI_LS.DEC   : NEUTRON POROSITY LIMESTONE
DPHZ_LS.DEC   : HGRD STANDARD RESOLUTION DENSITY POROSITY
HDRA   .G/C3  : HRDD SPINE AND RIBS DENSITY CORRECTION
PEFZ   .B/E   : HRDD STANDARD RESOLUTION FORMATION PHOTOELECTRIC FACTOR
RHOZ   .G/C3  : HRDD STANDARD RESOLUTION FORMATION DENSITY
GRR    .GAPI  : GAMMA RAY FROM RESISTIVITY LOG
HCALR  .IN    : HRCC CALIPER CALIBRATED FROM RESISTIVITY LOG
AT30   .OHMM  : ARRAY INDUCTION TWO FOOT RESISTIVITY A30
AT90   .OHMM  : ARRAY INDUCTION TWO FOOT RESISTIVITY A90
AT10   .OHMM  : ARRAY INDUCTION TWO FOOT RESISTIVITY A10
SPR    .MV    : SPONTANEOUS POTENTIAL FROM RESISTIVITY LOG
DTCO   .US/F  : DELTA-T COMPRESSIONAL
DTSM   .US/F  : DELTA-T SHEAR
~Params ----------------------------------------------------
~Other -----------------------------------------------------
~ASCII -----------------------------------------------------
# ...
 3452.00000    0.14100    0.14520    0.04380    4.73180    2.46220   17.17530    8.24480   20.92290   12.72840   18.89660  -46.92820   -9999.25   -9999.25
 3452.50000    0.17090    0.17870    0.03320    4.69730    2.41490   17.60050    8.22750   16.33420   10.46690   17.03580  -51.04110   -9999.25   -9999.25
 3453.00000    0.20470    0.21360    0.02080    4.62190    2.34760   18.15880    8.23870   14.19560    9.29720   17.04090  -54.20160   -9999.25   -9999.25
 3453.50000    0.21460    0.22460    0.01540    4.58710    2.32570   19.17400    8.26780   13.30450    8.68170   17.84730  -56.73510   -9999.25   -9999.25
 3454.00000    0.20210    0.20170    0.02120    4.66080    2.36170   20.66700    8.28910   14.37790    8.87060   20.36690  -58.28700   -9999.25   -9999.25
 3454.50000    0.16630    0.16020    0.03040    4.80150    2.43650   22.25100    8.27850   15.98720    9.37430   22.60540  -59.41700   -9999.25   -9999.25
 3455.00000    0.13580    0.13220    0.03900    4.92630    2.50480   24.47040    8.25180   17.03890    9.77370   25.60320  -60.54710   -9999.25   -9999.25
 3455.50000    0.11680    0.11300    0.03750    4.97700    2.52000   25.58420    8.21110   16.09680    9.08870   25.21070  -61.67720   -9999.25   -9999.25
 3456.00000    0.11390    0.11880    0.03370    4.96030    2.50630   25.54890    8.22350   14.90450    8.50480   23.73930  -62.80090   -9999.25   -9999.25
 3456.50000    0.11710    0.12970    0.03140    4.90820    2.48890   25.32890    8.25560   13.83560    8.04260   22.40600  -63.27960   -9999.25   -9999.25
 3457.00000    0.12560    0.13720    0.02880    4.85860    2.47530   25.49290    8.28840   12.92560    7.50810   20.81580  -63.03730   -9999.25   -9999.25
 3457.50000    0.12790    0.14210    0.02470    4.80900    2.46730   25.76470    8.26130   12.12900    7.01190   18.26280  -62.15360   -9999.25   -9999.25
 3458.00000    0.12300    0.14110    0.02290    4.75110    2.46730   27.64240    8.32290   11.49690    6.62670   16.12510  -60.45930   -9999.25   -9999.25
 3458.50000    0.10990    0.12150    0.02590    4.77500    2.50270   31.77360    8.41960   10.89770    6.40920   14.53360  -58.76500   -9999.25   -9999.25
 3459.00000    0.09640    0.10880    0.03030    4.84110    2.52760   40.54860    8.42220   10.39030    6.26400   13.25370  -56.77930   -9999.25   -9999.25
 3459.50000    0.08520    0.09820    0.03020    4.91600    2.54810   48.60710    8.33640   10.13760    6.25120   12.35630  -53.84960   -9999.25   -9999.25
 3460.00000    0.07350    0.09340    0.02580    4.90430    2.55080   58.29850    8.37930    9.89110    6.46040   12.13300  -48.61350   -9999.25   -9999.25
 3460.50000    0.06070    0.08620    0.02060    4.87870    2.56630   68.30860    8.47680    9.59450    6.78080   12.09710  -43.08320   -9999.25   -9999.25
 3461.00000    0.05240    0.06260    0.02260    4.78920    2.60680   82.54420    8.42060    9.30120    7.00050   10.43760  -37.98210   -9999.25   -9999.25
 3461.50000    0.05860    0.04490    0.01900    4.63730    2.63880   96.15730    8.63590    7.85250    6.98720    8.22980  -28.19790   -9999.25   -9999.25
 3462.00000    0.08730    0.03550    0.01330    4.40440    2.64740  108.96420    8.73460    5.93230    5.72970    6.30630  -22.08860   -9999.25   -9999.25
 3462.50000    0.11060    0.04610   -0.00240    4.21020    2.62700  108.31050    8.75780    5.29180    5.26080    5.39310  -20.56550   -9999.25   -9999.25
 3463.00000    0.12340    0.05430   -0.00530    4.23920    2.61740   94.27610    8.73040    6.62630    6.43340    6.42480  -20.10490   -9999.25   -9999.25
 3463.50000    0.10980    0.05060   -0.00450    4.40920    2.62840   74.54410    8.70300   10.20810   10.97700    9.94000  -19.90860   -9999.25   -9999.25
 3464.00000    0.07090    0.03940   -0.00320    4.60950    2.64760   62.46710    8.67250   17.69080   18.21360   17.30650  -20.20310   -9999.25   -9999.25
 3464.50000    0.04970    0.02830   -0.00000    4.76850    2.66580   51.37530    8.64100   21.99650   23.01600   18.54600  -21.18630   -9999.25   -9999.25
 3465.00000    0.03250    0.01930    0.00420    4.85180    2.68350   42.44000    8.71980   25.14050   28.23030   21.83510  -22.29750   -9999.25   -9999.25
 3465.50000    0.02610    0.00960    0.00770    4.84850    2.69520   35.89540    8.66840   23.83070   26.83280   21.83840  -23.19180   -9999.25   -9999.25
 3466.00000    0.03300    0.01690    0.01100    4.84520    2.68200   34.92900    8.58430   17.37490   18.56030   20.95970  -23.88860   -9999.25   -9999.25
 3466.50000    0.06860    0.03550    0.01120    4.81620    2.64180   35.69680    8.58100   13.83470   14.29700   21.12980  -24.97130   -9999.25   -9999.25
 3467.00000    0.09150    0.06580    0.00830    4.72540    2.59730   34.56400    8.58410   17.36700   18.56520   22.84610  -26.05410   -9999.25   -9999.25
 3467.50000    0.09530    0.08270    0.00340    4.68660    2.56980   30.02890    8.47610   21.91510   21.03280   23.66060  -27.25510   -9999.25   -9999.25
 3468.00000    0.09020    0.07910   -0.00070    4.64740    2.57620   26.55740    8.41540   16.44770   15.06790   22.53800  -27.95530   -9999.25   -9999.25
 3468.50000    0.08840    0.06260   -0.00390    4.57240    2.60600   26.81340    8.55260   10.61880   10.67090   11.37190  -27.79750   -9999.25   -9999.25
 3469.00000    0.08960    0.03960   -0.00280    4.45830    2.64470   30.72880    8.60790    6.99530    7.44030    7.06510  -26.39010   -9999.25   -9999.25
 3469.50000    0.08720    0.03500   -0.00160    4.44340    2.64880   36.58090    8.60750    6.65380    6.70480    6.10460  -23.57090   -9999.25   -9999.25
 3470.00000    0.07960    0.03790   -0.00110    4.52780    2.64520   39.22360    8.61550    7.41060    7.94310    7.21810  -20.51400   -9999.25   -9999.25
 3470.50000    0.06590    0.03730   -0.00250    4.59090    2.64640   39.49750    8.62350    8.78740    9.41010    8.59340  -18.63130   -9999.25   -9999.25
 3471.00000    0.05060    0.02440   -0.00250    4.69370    2.66700   37.03680    8.63150   10.41990   11.14800    9.40690  -16.69060   -9999.25   -9999.25
 3471.50000    0.03960    0.00780    0.00320    4.71990    2.69530   35.72760    8.63890   12.35580   13.20700    9.90570  -14.23880   -9999.25   -9999.25
 3472.00000    0.05320    0.00140    0.00690    4.64320    2.70910   39.28990    8.64340   10.19470   10.36540    8.75760  -11.31300   -9999.25   -9999.25
 3472.50000    0.07930    0.00660    0.00700    4.45800    2.70060   47.50410    8.65650    6.03420    6.17550    5.63310   -8.70520   -9999.25   -9999.25
 3473.00000    0.11380    0.01740    0.00610    4.19800    2.67930   57.34710    8.66910    4.85640    5.04470    4.22580   -6.64760   -9999.25   -9999.25
 3473.50000    0.13690    0.03080    0.00210    4.01350    2.65640   66.51830    8.67020    4.32500    4.43570    3.82770   -5.63470   -9999.25   -9999.25
 3474.00000    0.15100    0.03970    0.00010    3.88890    2.63790   75.61520    8.67510    3.95080    3.98050    3.56230   -4.51060   -9999.25   -9999.25
 3474.50000    0.16890    0.05510   -0.00190    3.78560    2.61160   85.52050    8.68360    3.79590    3.82270    3.34580   -4.26640   -9999.25   -9999.25
 3475.00000    0.19280    0.06720   -0.00390    3.72230    2.59420   89.08270    8.70020    3.72260    3.74370    3.24740   -5.24380   -9999.25   -9999.25
 3475.50000    0.19870    0.07330   -0.00220    3.78470    2.58590   84.72910    8.70140    4.17650    4.32800    3.90540   -7.06660   -9999.25   -9999.25
 3476.00000    0.16180    0.05820    0.00810    4.00310    2.61310   74.84960    8.68400    5.80320    6.28630    5.03830   -9.62070   -9999.25   -9999.25
 3476.50000    0.12020    0.02850    0.03040    4.36990    2.65420   67.01810    8.62950   11.16320   12.11040    8.05350  -12.42180   -9999.25   -9999.25
 3477.00000    0.08350    0.01200    0.04460    4.57300    2.68620   61.52220    8.60570   13.29560   18.65350   10.54060  -16.00000   -9999.25   -9999.25
 3477.50000    0.08040    0.01280    0.04840    4.83770    2.69030   56.39200    8.60670   12.48690   16.46700    8.68520  -19.01210   -9999.25   -9999.25
