~Version ---------------------------------------------------
VERS.   2.0 : CWLS log ASCII Standard -VERSION 2.0
WRAP.    NO : One line per depth step
DLM . SPACE : Column Data Section Delimiter
~Well ------------------------------------------------------
STRT .F                 904.0 : START DEPTH
STOP .F                7603.0 : STOP DEPTH
STEP .F                   0.5 : STEP
NULL .               -9999.25 : NULL VALUE
COMP .                        : COMPANY
WELL .                        : WELL
FLD  .                        : FIELD
LOC  .                        : LOCATION
PROV .                        : PROVINCE
CNTY .                        : COUNTY
STAT .                        : STATE
CTRY .                        : COUNTRY
SRVC .                        : SERVICE COMPANY
DATE .                        : DATE
UWI  .                        : UNIQUE WELL ID
API  .                        : API NUMBER
SLAT .WGS84 6.983165863716202 : SURFACE LATITUDE
SLON .WGS84 4.694349069349002 : SURFACE LONGITUDE
DATUM.F                2341.0 : DEPTH DATUM ELEV
~Curve Information -----------------------------------------
DEPT   .F     : 1 MEASURED DEPTH
NPHI_LS.DEC   : NEUTRON POROSITY LIMESTONE
DPHZ_LS.DEC   : HGRD STANDARD RESOLUTION DENSITY POROSITY
HDRA   .G/C3  : HRDD SPINE AND RIBS DENSITY CORRECTION
PEFZ   .B/E   : HRDD STANDARD RESOLUTION FORMATION PHOTOELECTRIC FACTOR
RHOZ   .G/C3  : HRDD STANDARD RESOLUTION FORMATION DENSITY
GRR    .GAPI  : GAMMA RAY FROM RESISTIVITY LOG
HCALR  .IN    : HRCC CALIPER CALIBRATED FROM RESISTIVITY LOG
AT30   .OHMM  : ARRAY INDUCTION TWO FOOT RESISTIVITY A30
AT90   .OHMM  : ARRAY INDUCTION TWO FOOT RESISTIVITY A90
AT10   .OHMM  : ARRAY INDUCTION TWO FOOT RESISTIVITY A10
SPR    .MV    : SPONTANEOUS POTENTIAL FROM RESISTIVITY LOG
DTCO   .US/F  : DELTA-T COMPRESSIONAL
DTSM   .US/F  : DELTA-T SHEAR
~Params ----------------------------------------------------
~Other -----------------------------------------------------
~ASCII -----------------------------------------------------
# ...
 7248.00000    0.02060    0.02300    0.00610    4.88950    2.67450   18.24590    7.83450   88.52190   90.30810   70.32840  -22.77180   72.22610  101.55800
 7248.50000    0.01940    0.02080    0.00690    4.86510    2.67500   20.32410    7.92450  103.48800  105.58140   75.75910  -21.12570   71.31140  100.08620
 7249.00000    0.01920    0.02250    0.00610    4.84060    2.67250   23.30690    7.85070  112.03510  112.86920   82.75910  -20.18220   70.49730   98.87210
 7249.50000    0.01940    0.02230    0.00710    4.84990    2.67290   23.61450    7.80930  108.84140  109.45730   85.95690  -19.48150   69.62880   97.65810
 7250.00000    0.01890    0.01690    0.00950    4.89920    2.68130   21.50210    7.79920  119.38050  121.54140   87.27920  -18.78090   68.97820   96.16280
 7250.50000    0.01720    0.01110    0.01270    4.95020    2.69160   18.72990    7.78930  125.34630  127.62330   90.09740  -18.17190   68.89170   95.15980
 7251.00000    0.01610    0.00870    0.01510    4.96810    2.69710   16.86160    7.78920  143.34820  144.57210   90.43770  -17.79750   69.73730   95.29150
 7251.50000    0.01800    0.01060    0.01590    4.96010    2.69260   16.75700    7.75250  136.98440  137.78240   81.71380  -17.25980   70.73970   97.41300
 7252.00000    0.01860    0.00800    0.01690    4.94560    2.69780   17.99000    7.71550  130.06640  131.76060   89.27800  -16.67710   70.70460  100.22880
 7252.50000    0.01900    0.00040    0.01900    4.94060    2.70990   19.15760    7.72160  118.26230  119.79020   80.47010  -15.96400   70.20370  103.04460
 7253.00000    0.01970   -0.00290    0.01770    4.92320    2.71610   19.49230    7.69910   99.00970  101.30890   74.88470  -15.57950   70.38810  105.64420
 7253.50000    0.02060    0.00350    0.00950    4.87920    2.70280   19.24170    7.69800   87.38970   87.98550   68.79750  -14.83600   70.79760  104.91310
 7254.00000    0.02150    0.01020    0.00590    4.83330    2.69140   18.79670    7.71350   87.22530   87.74670   64.20400  -13.98220   70.28060  102.97170
 7254.50000    0.02230    0.01380    0.00500    4.84420    2.68680   18.01160    7.69880   89.90160   90.55770   66.60060  -13.26180   69.60410  101.03020
 7255.00000    0.02010    0.01370    0.00320    4.85510    2.68700   16.97250    7.69480   93.29800   93.97850   71.95540  -11.88520   68.89720   99.49290
 7255.50000    0.01570    0.01390    0.00080    4.91320    2.68700   16.17440    7.72350   96.82280   97.52860   78.79600  -11.09660   67.84940   97.69670
 7256.00000    0.01100    0.01070   -0.00080    4.92270    2.69420   16.33460    7.74080  103.13000  104.97720   91.46730  -10.30800   66.53020   96.52530
 7256.50000    0.00870    0.00670   -0.00000    4.93870    2.69970   17.47030    7.75770  127.73150  132.51010  108.97690   -9.48060   65.95140   95.37650
 7257.00000    0.00750    0.00140    0.00070    4.94910    2.70690   18.91720    7.76890  171.51540  177.95750  131.00850   -8.54850   65.95260   94.15350
 7257.50000    0.00790    0.00290    0.00150    5.01050    2.70550   21.68400    7.77470  176.33150  179.76520  106.93100   -7.68130   66.26330   93.37700
 7258.00000    0.00910    0.00330    0.00230    5.01560    2.70530   27.11280    7.78050  128.68040  133.74760   80.41050   -6.57000   66.69080   92.71640
 7258.50000    0.01090    0.00090    0.00410    4.97280    2.71020   33.17340    7.78630   93.90640   97.59950   57.48720   -5.68740   66.88410   91.94880
 7259.00000    0.01170   -0.00140    0.00610    4.93070    2.71380   33.00560    7.75360   86.36230   92.00680   58.87160   -4.90540   66.94480   91.30030
 7259.50000    0.01000   -0.00190    0.00670    4.91340    2.71200   26.77630    7.75240  144.90570  154.40560  101.21420   -3.96980   67.28150   93.45000
 7260.00000    0.00790    0.00570    0.00660    4.93960    2.69490   20.25110    7.77040  243.13480  259.12330  133.43090   -3.10710   68.07400   98.19720
 7260.50000    0.00790    0.01190    0.00640    4.96510    2.68940   16.81870    7.79550  175.44870  189.73430  109.05830   -1.83240   70.03450  103.08950
 7261.00000    0.01090    0.01430    0.00800    4.91270    2.68240   18.89580    7.79970  108.92930  115.34870   65.83880   -0.68560   72.84170  105.96780
 7261.50000    0.01900    0.01770    0.01260    4.84650    2.68040   24.53540    7.79550   68.70190   72.75750   37.99700    0.44990   74.85820  107.87740
 7262.00000    0.03410    0.02700    0.01560    4.76600    2.66510   31.79530    7.94140   43.33040   45.89270   28.73170    1.38540   76.16160  110.83830
 7262.50000    0.04620    0.03040    0.01420    4.70880    2.65790   38.70470    7.86780   40.76790   40.99870   27.16180    2.23780   76.45500  114.05720
 7263.00000    0.04700    0.03360    0.01000    4.71160    2.65040   39.31130    7.74050   45.50320   46.57850   33.74060    2.46850   76.31970  115.44330
 7263.50000    0.03640    0.03450    0.00940    4.76810    2.66230   34.88760    7.83810   54.65550   55.94660   42.23870    3.27250   76.10140  115.19930
 7264.00000    0.02450    0.01980    0.01280    4.85510    2.68680   30.51130    7.71400   51.38310   53.68370   39.82830    3.80360   75.38490  114.61710
 7264.50000    0.02180    0.01020    0.01480    4.86310    2.69240   26.81700    7.72750   38.22930   39.80700   28.35730    4.47060   74.25020  112.55810
 7265.00000    0.02430    0.01650    0.01530    4.80080    2.67740   26.01840    7.75080   28.71520   29.51730   25.34190    5.30820   72.85810  109.58250
 7265.50000    0.02700    0.03140    0.00960    4.83380    2.65360   25.97940    7.72530   37.86250   39.87210   35.07190    6.14430   71.94150  106.61290
 7266.00000    0.02420    0.03390    0.00600    4.87590    2.65500   24.76140    7.70940   57.45520   60.50840   56.01160    6.99370   71.42860  104.71870
 7266.50000    0.01890    0.02670    0.00480    4.91630    2.67060   21.64840    7.74350  100.50330  109.30190   89.45330    7.72470   71.27420  103.26500
 7267.00000    0.01180    0.01270    0.00360    4.97210    2.69580   20.32460    7.78780  190.81710  215.36380  104.23160    8.47080   73.52510  103.05980
 7267.50000    0.00850    0.00390    0.00400    5.03030    2.70600   23.02660    7.81290  168.22510  221.55560   99.56880    9.28470   77.12810  103.06740
 7268.00000    0.01280    0.00130    0.00810    4.99810    2.70520   31.11810    7.80570   57.66030   62.10250   49.52810   10.38520   79.58500  104.64930
 7268.50000    0.02240    0.01150    0.00990    4.94800    2.68530   41.41590    7.80560   31.65010   33.92910   26.32860   11.27600   80.90040  107.53370
 7269.00000    0.03770    0.02860    0.00890    4.84030    2.66240   51.51500    7.84940   18.67300   17.62720   17.00240   12.15680   82.81560  111.36870
 7269.50000    0.05380    0.03850    0.00430    4.70470    2.63810   56.55030    7.86720   12.53810   12.16130   13.12980   12.44540   84.46900  115.20360
 7270.00000    0.05870    0.05010    0.00290    4.59730    2.62590   55.92010    7.87270   13.26790   12.11950   12.77090   12.91830   85.21260  116.45350
 7270.50000    0.05800    0.05000    0.02500    4.63490    2.62470   51.49400    7.87470   14.12000   12.72390   13.38760   13.35750   85.38860  116.68700
 7271.00000    0.05990    0.05030    0.05070    4.67250    2.62440   45.35990    7.76800   13.74140   12.11040   12.09410   13.75680   85.06960  115.56510
 7271.50000    0.06610    0.03970    0.07330    4.69030    2.64450   42.45390    7.57830   13.13350   11.29560   10.65070   13.92870   83.70830  114.21920
 7272.00000    0.06810    0.02990    0.07730    4.68010    2.65980   41.04430    7.62180   14.11500   11.63230   11.70330   13.98390   80.52490  113.25570
 7272.50000    0.06630    0.03080    0.04980    4.63620    2.65750   39.87780    7.70200   14.22810   11.71310   11.44590   14.16110   78.76580  112.29210
 7273.00000    0.05880    0.03680    0.02240    4.62530    2.64720   37.24270    7.71390   13.84770   12.45500   11.28230   14.33830   78.53900  113.27830
 7273.50000    0.05000    0.03850    0.00320    4.60850    2.64430   33.37790    7.72220   16.14690   17.31220   13.92560   14.34770   77.51170  114.79190
