~Version ---------------------------------------------------
VERS.   2.0 : CWLS log ASCII Standard -VERSION 2.0
WRAP.    NO : One line per depth step
DLM . SPACE : Column Data Section Delimiter
~Well ------------------------------------------------------
STRT .F                 904.0 : START DEPTH
STOP .F                7603.0 : STOP DEPTH
STEP .F                   0.5 : STEP
NULL .               -9999.25 : NULL VALUE
COMP .                        : COMPANY
WELL .                        : WELL
FLD  .                        : FIELD
LOC  .                        : LOCATION
PROV .                        : PROVINCE
CNTY .                        : COUNTY
STAT .                        : STATE
CTRY .                        : COUNTRY
SRVC .                        : SERVICE COMPANY
DATE .                        : DATE
UWI  .                        : UNIQUE WELL ID
API  .                        : API NUMBER
SLAT .WGS84 6.983165863716202 : SURFACE LATITUDE
SLON .WGS84 4.694349069349002 : SURFACE LONGITUDE
DATUM.F                2341.0 : DEPTH DATUM ELEV
~Curve Information -----------------------------------------
DEPT   .F     : 1 MEASURED DEPTH
NPHI_LS.DEC   : NEUTRON POROSITY LIMESTONE
DPHZ_LS.DEC   : HGRD STANDARD RESOLUTION DENSITY POROSITY
HDRA   .G/C3  : HRDD SPINE AND RIBS DENSITY CORRECTION
PEFZ   .B/E   : HRDD STANDARD RESOLUTION FORMATION PHOTOELECTRIC FACTOR
RHOZ   .G/C3  : HRDD STANDARD RESOLUTION FORMATION DENSITY
GRR    .GAPI  : GAMMA RAY FROM RESISTIVITY LOG
HCALR  .IN    : HRCC CALIPER CALIBRATED FROM RESISTIVITY LOG
AT30   .OHMM  : ARRAY INDUCTION TWO FOOT RESISTIVITY A30
AT90   .OHMM  : ARRAY INDUCTION TWO FOOT RESISTIVITY A90
AT10   .OHMM  : ARRAY INDUCTION TWO FOOT RESISTIVITY A10
SPR    .MV    : SPONTANEOUS POTENTIAL FROM RESISTIVITY LOG
DTCO   .US/F  : DELTA-T COMPRESSIONAL
DTSM   .US/F  : DELTA-T SHEAR
~Params ----------------------------------------------------
~Other -----------------------------------------------------
~ASCII -----------------------------------------------------
# ...
 3140.00000    0.19290    0.11910    0.04600    4.48590    2.50780   36.64810    9.38920    4.56990    3.19640    6.44390  -61.68470   -9999.25   -9999.25
 3140.50000    0.18790    0.12930    0.05420    4.51550    2.49090   34.26000    9.40730    4.61830    3.09400    6.80520  -63.58200   -9999.25   -9999.25
 3141.00000    0.18090    0.13530    0.06270    4.53080    2.48030   32.04160    9.42420    4.67600    3.06920    7.49480  -64.37720   -9999.25   -9999.25
 3141.50000    0.17490    0.13420    0.06540    4.55620    2.48000   29.78960    9.46830    4.89110    3.09160    8.21820  -65.00670   -9999.25   -9999.25
 3142.00000    0.16790    0.13190    0.06550    4.56440    2.48330   28.44150    9.51130    5.08700    3.14590    9.58550  -64.93870   -9999.25   -9999.25
 3142.50000    0.16110    0.12310    0.06560    4.51620    2.49540   28.45100    9.55510    5.29140    3.18280   10.56930  -64.85130   -9999.25   -9999.25
 3143.00000    0.16500    0.11690    0.06640    4.46210    2.50860   28.49100    9.59810    5.40890    3.22530   10.43140  -63.78720   -9999.25   -9999.25
 3143.50000    0.17430    0.11270    0.06660    4.32250    2.51740   27.81970    9.62140    5.34190    3.17810    9.12090  -62.41470   -9999.25   -9999.25
 3144.00000    0.18490    0.11980    0.06130    4.20150    2.50560   27.04760    9.62640    5.05170    3.11970    7.40730  -61.04220   -9999.25   -9999.25
 3144.50000    0.19090    0.12840    0.05550    4.09940    2.49140   27.94450    9.62770    4.70980    3.09900    6.25200  -59.66970   -9999.25   -9999.25
 3145.00000    0.19300    0.12760    0.05720    4.02860    2.49050   30.11750    9.61060    4.42290    3.07850    5.63010  -57.33340   -9999.25   -9999.25
 3145.50000    0.18600    0.11780    0.05950    3.98060    2.50420   32.38750    9.60530    4.32140    3.06080    5.15320  -53.86900   -9999.25   -9999.25
 3146.00000    0.17590    0.10590    0.07200    3.97330    2.52720   33.91010    9.65570    4.09760    3.09110    4.83420  -49.20430   -9999.25   -9999.25
 3146.50000    0.17820    0.10270    0.08830    3.99820    2.53310   38.36830    9.73870    3.66260    3.06830    4.09740  -44.54290   -9999.25   -9999.25
 3147.00000    0.20140    0.09700    0.10880    4.00310    2.54260   48.40720    9.89200    2.99480    2.74160    3.38360  -40.89730   -9999.25   -9999.25
 3147.50000    0.22880    0.09110    0.10270    3.99140    2.55150   56.43230    9.99480    2.97770    2.92240    3.12920  -37.61540   -9999.25   -9999.25
 3148.00000    0.23210    0.07680    0.08260    3.97960    2.57940   56.77160    9.98450    4.77200    4.25770    3.70140  -39.11560   -9999.25   -9999.25
 3148.50000    0.19500    0.07190    0.05870    4.13680    2.58740   48.70860    9.97410    8.52750    7.05190    6.78260  -42.81740   -9999.25   -9999.25
 3149.00000    0.16020    0.07090    0.05050    4.43770    2.58870   36.82290    9.86480   14.35660   11.67990   11.13100  -46.94090   -9999.25   -9999.25
 3149.50000    0.13380    0.07760    0.05310    4.65970    2.57710   29.98240    9.77180   20.49580   18.93870   18.09550  -50.41410   -9999.25   -9999.25
 3150.00000    0.12230    0.07980    0.06290    4.76200    2.57290   27.17490    9.71680   20.69740   18.21340   20.60420  -52.72900   -9999.25   -9999.25
 3150.50000    0.12060    0.08400    0.07730    4.82340    2.56730   26.80620    9.68490   18.87750   13.76090   20.49240  -55.07910   -9999.25   -9999.25
 3151.00000    0.12170    0.09060    0.08190    4.87770    2.55610   27.61270    9.67460   15.69310   10.67920   18.86700  -57.42920   -9999.25   -9999.25
 3151.50000    0.12070    0.09740    0.08140    4.93210    2.54410   28.19790    9.68350   13.03250    8.64940   16.51610  -59.77930   -9999.25   -9999.25
 3152.00000    0.12060    0.09550    0.08250    4.98640    2.54640   28.47770    9.71800   10.75020    7.20940   14.35000  -61.97580   -9999.25   -9999.25
 3152.50000    0.12110    0.09530    0.08630    5.01350    2.54700   28.96420    9.75610    9.27920    6.16060   12.53190  -63.47680   -9999.25   -9999.25
 3153.00000    0.12430    0.09600    0.09010    4.94390    2.54600   29.17500    9.78530    8.26340    5.09890   10.77180  -65.28330   -9999.25   -9999.25
 3153.50000    0.13300    0.09980    0.09110    4.84230    2.53880   29.66190    9.78700    7.43370    4.60880    9.97360  -66.56770   -9999.25   -9999.25
 3154.00000    0.14960    0.10440    0.08570    4.72890    2.53150   30.73970    9.79190    7.23490    4.36890    9.84490  -67.56150   -9999.25   -9999.25
 3154.50000    0.16330    0.10720    0.07650    4.65440    2.52730   32.49670    9.78770    7.13990    4.21080    9.90860  -68.49570   -9999.25   -9999.25
 3155.00000    0.17340    0.11660    0.06220    4.59670    2.50980   34.37540    9.77750    7.04610    4.10960    9.98530  -69.14380   -9999.25   -9999.25
 3155.50000    0.17940    0.12880    0.05020    4.54160    2.48900   35.51940    9.77940    6.95360    4.06850    9.98870  -69.64460   -9999.25   -9999.25
 3156.00000    0.18510    0.14450    0.04990    4.50080    2.46420   35.67530    9.76000    6.92070    4.07480   10.69190  -70.08630   -9999.25   -9999.25
 3156.50000    0.18960    0.14640    0.05350    4.49980    2.46010   34.81290    9.70600    7.07270    4.18040   11.76120  -70.10700   -9999.25   -9999.25
 3157.00000    0.18670    0.14190    0.05700    4.49890    2.46880   32.28640    9.64190    7.25370    4.20510   12.63320  -70.17860   -9999.25   -9999.25
 3157.50000    0.17970    0.13180    0.06150    4.57090    2.48490   29.38900    9.69990    7.21600    4.21510   12.65150  -70.36430   -9999.25   -9999.25
 3158.00000    0.17520    0.13090    0.06090    4.61570    2.48610   26.21200    9.70490    7.03130    4.10350   12.63680  -70.29610   -9999.25   -9999.25
 3158.50000    0.17180    0.12970    0.05440    4.62360    2.48850   23.91510    9.70470    6.83390    3.98710   12.24260  -69.96630   -9999.25   -9999.25
 3159.00000    0.16860    0.13030    0.04570    4.59010    2.48770   23.72010    9.70410    6.48330    3.73480   10.97390  -69.38240   -9999.25   -9999.25
 3159.50000    0.16440    0.12900    0.03950    4.51070    2.49030   26.84940    9.70000    5.83380    3.41130    9.17490  -68.04560   -9999.25   -9999.25
 3160.00000    0.16200    0.12210    0.04220    4.41460    2.50400   32.84720    9.71880    5.00550    3.07570    7.47070  -66.41700   -9999.25   -9999.25
 3160.50000    0.16320    0.11730    0.04730    4.31370    2.50910   38.78210    9.72430    4.38200    2.83930    6.22450  -65.02010   -9999.25   -9999.25
 3161.00000    0.16440    0.12150    0.04970    4.29260    2.50080   38.32720    9.69720    4.35560    2.83650    6.33850  -63.90870   -9999.25   -9999.25
 3161.50000    0.16390    0.12310    0.05270    4.33580    2.49880   34.02370    9.58890    4.87300    3.04200    6.89690  -62.22750   -9999.25   -9999.25
 3162.00000    0.16140    0.12250    0.05880    4.52680    2.50360   32.31090    9.52550    5.25010    3.25820    7.18820  -60.68010   -9999.25   -9999.25
 3162.50000    0.15990    0.11550    0.06650    4.68930    2.51340   33.97850    9.47100    5.45190    3.42780    7.21180  -59.13260   -9999.25   -9999.25
 3163.00000    0.15700    0.10930    0.06430    4.73850    2.52590   37.14810    9.38840    5.61700    3.68810    7.20530  -55.47670   -9999.25   -9999.25
 3163.50000    0.14930    0.09390    0.05700    4.71420    2.55210   40.35300    9.35420    5.70850    4.01840    7.05640  -51.31920   -9999.25   -9999.25
 3164.00000    0.13540    0.07220    0.04190    4.64350    2.59770   43.97790    9.44800    5.80010    4.46660    6.88880  -46.63670   -9999.25   -9999.25
 3164.50000    0.12200    0.04390    0.02710    4.55800    2.64150   48.79620    9.45190    6.14210    5.18820    7.29730  -43.25500   -9999.25   -9999.25
 3165.00000    0.11250    0.02700    0.01330    4.49820    2.66720   53.48940    9.45900    6.91150    6.02630    8.97180  -40.90430   -9999.25   -9999.25
 3165.50000    0.10690    0.02110    0.00670    4.48300    2.67380   55.49390    9.45830    7.61060    6.81450   10.83730  -41.75760   -9999.25   -9999.25
