~Version ---------------------------------------------------
VERS.   2.0 : CWLS log ASCII Standard -VERSION 2.0
WRAP.    NO : One line per depth step
DLM . SPACE : Column Data Section Delimiter
~Well ------------------------------------------------------
STRT .FT                   0.0 : START DEPTH
STOP .FT               10320.0 : STOP DEPTH
STEP .FT                   0.5 : STEP
NULL .                -9999.25 : NULL VALUE
COMP .                         : COMPANY
WELL .                         : WELL
FLD  .                         : FIELD
LOC  .                         : LOCATION
PROV .                         : PROVINCE
CNTY .                         : COUNTY
STAT .                         : STATE
CTRY .                         : COUNTRY
SRVC .                         : SERVICE COMPANY
DATE .                         : DATE
UWI  .                         : UNIQUE WELL ID
API  .                         : API NUMBER
SLAT .WGS84 6.0498442064033995 : SURFACE LATITUDE
SLON .WGS84  2.802371128346195 : SURFACE LONGITUDE
DATUM.F                    nan : DEPTH DATUM ELEV
~Curve Information -----------------------------------------
DEPT   .FT    : 
AT10   .OHMM  : ARRAY INDUCTION TWO FOOT RESISTIVITY A10
AT20   .OHMM  : ARRAY INDUCTION TWO FOOT RESISTIVITY A20
AT30   .OHMM  : ARRAY INDUCTION TWO FOOT RESISTIVITY A30
AT90   .OHMM  : ARRAY INDUCTION TWO FOOT RESISTIVITY A90
DPHZ_LS.DEC   : HGRD STANDARD RESOLUTION DENSITY POROSITY
DTCO   .US/F  : DELTA-T COMPRESSIONAL
DTSM   .US/F  : DELTA-T SHEAR
ECGRS  .GAPI  : ENVIRONMENTALLY CORRECTED GAMMA RAY FROM SONIC LOG
HCALR  .IN    : HRCC CALIPER CALIBRATED FROM RESISTIVITY LOG
HCALS  .IN    : HRCC CALIPER CALIBRATED FROM SONIC LOG
HDRA   .G/C3  : HRDD SPINE AND RIBS DENSITY CORRECTION
PEFZ   .B/E   : HRDD STANDARD RESOLUTION FORMATION PHOTOELECTRIC FACTOR
RHOZ   .G/C3  : HRDD STANDARD RESOLUTION FORMATION DENSITY
SPR    .MV    : SPONTANEOUS POTENTIAL FROM RESISTIVITY LOG
TNPH_LS.DEC   : THERMAL NEUTRON POROSITY [LIMESTONE]
~Params ----------------------------------------------------
~Other -----------------------------------------------------
~ASCII -----------------------------------------------------
# ...
 5635.00000   -9999.25    7.20120    7.88310    8.80470    0.08350   69.08860  122.94110   86.27050   12.07730   12.12310    0.06080    2.84770    2.56200  -44.66640    0.13800
 5635.50000   -9999.25    6.20100    6.84240    7.11170    0.10290   69.35280  123.93630   94.07670   12.03650   12.02060    0.06790    2.85520    2.53520  -44.63300    0.16540
 5636.00000   -9999.25    6.59490    7.58920    8.25870    0.09770   70.02590  124.64010   95.23900   12.00250   11.98120    0.08350    2.83230    2.54170  -45.27640    0.18770
 5636.50000   -9999.25    7.38290    8.83390    9.08340    0.08850   70.47100  126.02030   92.12920   11.99540   12.00040    0.07500    2.81240    2.55690  -45.48040    0.17080
 5637.00000   -9999.25    7.73420    9.38910    9.67250    0.08490   72.19740  128.34800   84.29290   12.06240   12.07310    0.06770    2.81240    2.56360  -45.46210    0.15580
 5637.50000   -9999.25    7.85750    9.69930   10.01830    0.08370   72.53890  130.35000   86.57850   12.10250   12.12490    0.06610    2.85960    2.56510  -44.98370    0.15110
 5638.00000   -9999.25    6.77610    8.27450    8.40930    0.08360   73.30430  133.06070   95.04660   12.10210   12.11500    0.07250    2.98130    2.56530  -43.84770    0.16760
 5638.50000   -9999.25    5.43510    6.31850    6.60040    0.08710   75.64700  134.69410  107.66260   12.34420   12.25420    0.08820    3.07550    2.55980  -42.71160    0.19870
 5639.00000   -9999.25    4.91720    5.26700    5.57680    0.08600   76.12900  135.55470  119.90050   12.28990   12.33170    0.10380    3.10550    2.55990  -42.13720    0.22890
 5639.50000   -9999.25    5.03480    5.50180    6.00080    0.08980   76.65490  137.15870  120.38390   12.48490   12.41950    0.11870    3.11380    2.55530  -42.07370    0.25180
 5640.00000   -9999.25    5.15240    6.04080    6.53390    0.09140   78.01190  139.18490  116.79670   12.12620   12.10920    0.13070    3.12200    2.55280  -42.11410    0.25300
 5640.50000   -9999.25    5.14380    5.80770    6.45210    0.09660   81.02000  141.21100  113.05600   12.56550   12.51040    0.14260    3.13030    2.54180  -42.15440    0.25450
 5641.00000   -9999.25    4.95560    5.51640    6.08410    0.10380   79.74570  143.23720  117.65370   12.16130   12.10920    0.15330    3.13940    2.53150  -42.22810    0.24660
 5641.50000   -9999.25    4.98880    5.55070    6.22320    0.09420   79.59510  144.62140  120.83390   12.28500   12.47960    0.15920    3.14490    2.55080  -42.22930    0.23510
 5642.00000   -9999.25    5.31140    5.92780    6.75480    0.08170   79.21200  142.73190  126.14300   12.14750   12.23270    0.16510    3.11390    2.57510  -42.23400    0.24030
 5642.50000   -9999.25    5.44050    5.97840    7.12610    0.06970   78.72370  141.11960  127.96120   12.16080   12.08860    0.16750    3.09400    2.58920  -42.43900    0.25350
 5643.00000   -9999.25    5.20830    5.33300    6.07310    0.07230   79.14090  139.50740  129.48200   12.24150   12.29440    0.15510    3.06740    2.58150  -42.42850    0.26200
 5643.50000   -9999.25    5.54310    5.93130    6.62930    0.07000   76.53170  139.18490  126.58790   12.29520   12.16060    0.13660    3.06110    2.58880  -42.71700    0.23780
 5644.00000   -9999.25    6.99690    7.50980    8.44050    0.06140   75.44310  137.37410  109.60980   12.20620   12.03720    0.10350    3.01950    2.59960  -43.07040    0.20790
 5644.50000   -9999.25    8.31090    9.36630   11.34790    0.06060   75.00000  134.35600   95.06210   12.07940   11.98570    0.06930    2.96910    2.60580  -43.42380    0.16880
 5645.00000   -9999.25    8.46750    9.40240   10.73130    0.06560   74.75540  131.75590   85.71020   12.07930   12.12980    0.04130    2.90850    2.59600  -43.41990    0.15130
 5645.50000   -9999.25    7.51800    8.70470    8.83030    0.07150   73.91750  130.15770   88.22790   12.13300   12.15030    0.02280    2.86980    2.58700  -42.86150    0.16650
 5646.00000   -9999.25    6.89380    7.94610    8.11790    0.07410   72.41100  128.71690   96.07550   12.15300   12.14300    0.01810    2.83110    2.58250  -42.68190    0.18650
 5646.50000   -9999.25    6.55180    7.26260    7.50570    0.08010   72.09620  126.64850  102.57250   12.16410   12.13570    0.01300    2.79240    2.57230  -42.42380    0.19690
 5647.00000   -9999.25    6.12420    6.75390    6.89350    0.07870   71.44040  124.99300  105.23820   12.14600   12.12980    0.02470    2.85270    2.57430  -42.06230    0.19500
 5647.50000   -9999.25    6.12420    6.59140    7.13550    0.07950   70.82790  124.66720  105.94730   12.12160   12.12540    0.03260    2.94230    2.57290  -42.06230    0.19300
 5648.00000   -9999.25    7.52560    8.29500    9.28530    0.08220   70.19580  124.82180   97.47840   12.09790   12.11950    0.04920    2.99060    2.56930  -42.06230    0.17710
 5648.50000   -9999.25    9.53170   10.42460   12.60890    0.08640   69.93110  124.05010   88.72640   12.07940   12.09200    0.04880    3.01150    2.56080  -42.06230    0.15180
 5649.00000   -9999.25    9.35110   11.35250   12.84450    0.08280   70.02730  123.91380   79.51130   12.06460   12.02350    0.04970    3.00230    2.56660  -42.06230    0.13850
 5649.50000   -9999.25    8.74440    9.28540   10.54150    0.07440   70.12360  124.39380   78.58540   12.05100   11.99600    0.05050    3.02050    2.58180  -41.80430    0.14320
 5650.00000   -9999.25    7.90660    9.60950   10.66240    0.06760   70.60440  124.87370   81.91450   12.08190   12.04750    0.04130    3.04060    2.59450  -41.35150    0.15810
 5650.50000   -9999.25    7.42170    9.42060   10.04460    0.06650   71.77480  125.71560   86.98560   12.12450   12.05780    0.03300    3.06610    2.59290  -40.89870    0.17700
 5651.00000   -9999.25    6.84970    8.33160    8.83180    0.06920   73.38130  128.00520   96.30240   12.15150   12.12690    0.03130    3.09400    2.58850  -39.59970    0.19120
 5651.50000   -9999.25    6.30330    7.24270    7.61890    0.07290   74.37820  130.90990  103.47160   12.10210   12.00930    0.03000    3.12840    2.58520  -38.66290    0.20840
 5652.00000   -9999.25    5.56640    6.46710    6.76430    0.06970   74.64430  133.19580  109.26060   12.09310   11.94460    0.05080    3.15100    2.58980  -38.10100    0.25070
 5652.50000   -9999.25    5.21000    5.94030    6.34390    0.06730   77.39410  135.81750  116.20520   12.21880   12.22240    0.06900    3.16690    2.59370  -37.91200    0.25560
 5653.00000   -9999.25    5.13800    5.49900    5.97010    0.06380   77.86410  137.65460  121.12150   12.13800   12.00640    0.08650    3.18060    2.59960  -37.91690    0.25850
 5653.50000   -9999.25    5.20520    5.49860    6.23930    0.06440   77.62680  139.08560  124.16830   12.09760   12.26010    0.08530    3.18170    2.59870  -37.89540    0.25710
 5654.00000   -9999.25    5.38270    6.11270    6.72610    0.06260   78.60500  139.81590  118.87370   12.32920   12.39730    0.06730    3.16640    2.60240  -37.67680    0.25060
 5654.50000   -9999.25    5.67860    6.26600    6.97440    0.06410   77.73190  140.09280  115.71620   12.33780   12.34590    0.06430    3.15960    2.60020  -37.47480    0.24280
 5655.00000   -9999.25    5.63880    6.16890    6.69540    0.06380   77.46440  140.47260  116.65120   11.98990   12.11950    0.06130    3.18530    2.59730  -37.51960    0.23630
 5655.50000   -9999.25    5.57260    6.07350    6.39770    0.06700   77.27850  139.79480  119.94460   12.09590   12.03720    0.05880    3.18930    2.59290  -37.57580    0.23850
 5656.00000   -9999.25    5.52610    5.99710    6.37260    0.07960   77.04330  139.46620  118.23450   12.20100   12.28410    0.05820    3.19710    2.56730  -37.63190    0.23460
 5656.50000   -9999.25    5.50650    6.07170    6.42950    0.11200   76.93680  140.00000  114.64950   12.14600   12.33560    0.05770    3.15600    2.49560  -37.67680    0.22950
 5657.00000   -9999.25    5.44350    5.95870    6.24590    0.14450   77.08180  139.73670  109.92020   12.05720   12.21010    0.07540    3.15440    2.44400  -37.69060    0.22500
 5657.50000   -9999.25    5.36970    5.95840    6.22350    0.16420   77.09930  140.85090  107.97400   11.86860   11.73890    0.09690    3.15280    2.43810  -37.31370    0.23200
