~Version ---------------------------------------------------
VERS.   2.0 : CWLS log ASCII Standard -VERSION 2.0
WRAP.    NO : One line per depth step
DLM . SPACE : Column Data Section Delimiter
~Well ------------------------------------------------------
STRT .FT                   0.0 : START DEPTH
STOP .FT               10320.0 : STOP DEPTH
STEP .FT                   0.5 : STEP
NULL .                -9999.25 : NULL VALUE
COMP .                         : COMPANY
WELL .                         : WELL
FLD  .                         : FIELD
LOC  .                         : LOCATION
PROV .                         : PROVINCE
CNTY .                         : COUNTY
STAT .                         : STATE
CTRY .                         : COUNTRY
SRVC .                         : SERVICE COMPANY
DATE .                         : DATE
UWI  .                         : UNIQUE WELL ID
API  .                         : API NUMBER
SLAT .WGS84 6.0498442064033995 : SURFACE LATITUDE
SLON .WGS84  2.802371128346195 : SURFACE LONGITUDE
DATUM.F                    nan : DEPTH DATUM ELEV
~Curve Information -----------------------------------------
DEPT   .FT    : 
AT10   .OHMM  : ARRAY INDUCTION TWO FOOT RESISTIVITY A10
AT20   .OHMM  : ARRAY INDUCTION TWO FOOT RESISTIVITY A20
AT30   .OHMM  : ARRAY INDUCTION TWO FOOT RESISTIVITY A30
AT90   .OHMM  : ARRAY INDUCTION TWO FOOT RESISTIVITY A90
DPHZ_LS.DEC   : HGRD STANDARD RESOLUTION DENSITY POROSITY
DTCO   .US/F  : DELTA-T COMPRESSIONAL
DTSM   .US/F  : DELTA-T SHEAR
ECGRS  .GAPI  : ENVIRONMENTALLY CORRECTED GAMMA RAY FROM SONIC LOG
HCALR  .IN    : HRCC CALIPER CALIBRATED FROM RESISTIVITY LOG
HCALS  .IN    : HRCC CALIPER CALIBRATED FROM SONIC LOG
HDRA   .G/C3  : HRDD SPINE AND RIBS DENSITY CORRECTION
PEFZ   .B/E   : HRDD STANDARD RESOLUTION FORMATION PHOTOELECTRIC FACTOR
RHOZ   .G/C3  : HRDD STANDARD RESOLUTION FORMATION DENSITY
SPR    .MV    : SPONTANEOUS POTENTIAL FROM RESISTIVITY LOG
TNPH_LS.DEC   : THERMAL NEUTRON POROSITY [LIMESTONE]
~Params ----------------------------------------------------
~Other -----------------------------------------------------
~ASCII -----------------------------------------------------
# ...
 4255.00000   -9999.25    3.79340    4.63840    5.07620    0.15860   79.13740  149.48450  111.18380   12.26610   12.23710    0.11540    2.81880    2.42900  -43.94950    0.21700
 4255.50000   -9999.25    3.20130    3.75640    4.21090    0.21150   78.96910  155.61860  120.61290   12.62690   12.77160    0.14290    2.85680    2.34820  -43.51610    0.26680
 4256.00000   -9999.25    2.60910    3.06360    3.39610    0.24820   79.26130  157.06570  126.58640   13.64110   13.68870    0.17150    2.85210    2.28530  -42.86270    0.29980
 4256.50000   -9999.25    2.46160    2.81770    3.08660    0.27980   79.44840  159.42940  124.41880   13.07560   12.95600    0.18700    2.80540    2.23130  -42.01110    0.35830
 4257.00000   -9999.25    2.40610    2.87080    3.19730    0.29400   81.84330  164.11800  124.40740   13.26460   13.14220    0.20440    2.79140    2.20710  -40.53650    0.39710
 4257.50000   -9999.25    2.46680    2.98020    3.34100    0.27510   82.93360  167.76780  124.14360   12.40260   12.92810    0.20600    2.81130    2.23930  -39.20520    0.37320
 4258.00000   -9999.25    2.60740    3.29260    3.81590    0.26600   84.92800  170.90540  121.95070   13.97230   13.25400    0.20800    2.82900    2.25480  -38.36900    0.37170
 4258.50000   -9999.25    2.86000    3.70640    4.31260    0.26600   84.26900  173.91750  118.20360   12.72000   13.31160    0.21860    2.80520    2.25490  -38.12790    0.36850
 4259.00000   -9999.25    2.97520    3.32070    4.43720    0.29990   83.66890  171.77830  115.20690   13.29700   13.41430    0.22810    2.74330    2.13270  -38.03520    0.39300
 4259.50000   -9999.25    2.41540    2.76550    3.43720    0.29990   83.02240  168.71290  120.79700   15.99320   15.56890    0.22810    2.68140    2.06780  -38.41690    0.38580
 4260.00000   -9999.25    2.25200    2.58230    2.95200    0.29990   84.52510  170.35440  124.24330   16.10770   16.10020    0.24970    2.69070    2.13160  -38.97220    0.40760
 4260.50000   -9999.25    2.55510    2.87540    3.74660    0.25910   86.02790  175.10310  128.55030   16.00000   16.09680    0.29050    2.73780    2.23880  -39.26250    0.38240
 4261.00000   -9999.25    2.85820    3.30990    4.73990    0.19140   86.85590  178.97000  124.56400   13.20530   13.42960    0.30840    2.77430    2.37520  -38.87120    0.39990
 4261.50000   -9999.25    2.86470    3.33390    4.38590    0.22360   87.01030  179.35120  125.61900   13.94340   14.21590    0.29320    2.82860    2.34990  -38.15700    0.36970
 4262.00000   -9999.25    2.75930    3.10180    4.00600    0.27760   87.24440  180.98430  122.20230   13.60940   13.92380    0.25150    2.91100    2.27000  -37.26160    0.38830
 4262.50000   -9999.25    2.67220    3.01750    3.83510    0.29940   86.91950  181.02730  120.06410   14.45790   14.48640    0.16670    2.97690    2.18280  -36.36610    0.38370
 4263.00000   -9999.25    2.58500    2.87080    3.49280    0.29940   88.33880  174.71150  127.31770   15.73730   15.81010    0.10800    3.04290    2.14320  -35.95960    0.41380
 4263.50000   -9999.25    2.49780    2.85300    3.47110    0.29030   90.10300  172.57420  123.67610   16.09420   15.98300    0.09470    3.10890    2.20680  -35.95960    0.39210
 4264.00000   -9999.25    2.51340    3.01750    3.58150    0.26610   92.31590  173.36910  127.03140   16.10770   16.13450    0.11450    3.13570    2.24040  -36.16160    0.37040
 4264.50000   -9999.25    2.60910    2.90680    3.62590    0.24380   93.41570  176.36480  124.23240   16.01340   15.99420    0.15630    3.13660    2.28060  -36.33730    0.36500
 4265.00000   -9999.25    2.60910    2.99880    3.62590    0.23580   92.97170  176.36480  127.04150   14.81480   14.95190    0.16970    3.13740    2.30580  -36.07460    0.37600
 4265.50000   -9999.25    2.39120    2.76030    3.30160    0.25840   91.79230  171.47410  125.92150   13.31310   13.48510    0.14730    3.13830    2.26770  -35.70580    0.41430
 4266.00000   -9999.25    2.30340    2.52170    3.20110    0.29980   90.87620  166.58330  127.45580   14.24240   14.15740    0.11200    3.14860    2.17350  -35.55560    0.38900
 4266.50000   -9999.25    2.10370    2.33800    2.51050    0.29980   92.47100  161.69250  135.88270   15.65650   15.90380    0.10840    3.17310    2.14850  -35.75760    0.34710
 4267.00000   -9999.25    2.13580    2.42230    2.81590    0.29930   95.01210  161.33770  129.96260   15.93940   15.96300    0.12430    3.25100    2.18530  -36.67230    0.32910
 4267.50000   -9999.25    3.01500    3.29260    4.03920    0.26330   95.83200  162.97710  121.30260   15.05050   14.20000    0.14570    3.27910    2.26300  -38.39030    0.30540
 4268.00000   -9999.25    4.89550    6.02580    7.59260    0.26670   65.84850  165.01230  110.73490   13.28460   12.04210    0.15100    3.19030    2.26060  -40.10830    0.26360
 4268.50000   -9999.25    3.94440    4.63840    5.19750    0.29960   69.53600  166.12800  119.44330   12.04730   12.13950    0.15100    2.97670    2.11570  -41.44620    0.26880
 4269.00000   -9999.25    2.95410    3.70660    4.13550    0.29970   71.68180  166.52140  133.70090   13.23230   13.38010    0.15200    2.86920    1.99980  -42.65660    0.27990
 4269.50000   -9999.25    2.72540    3.22240    3.07090    0.29970   72.67470  158.93230  150.06590   14.41070   15.91080    0.15630    2.69550    1.87950  -43.65950    0.33160
 4270.00000   -9999.25    2.57280    3.03650    3.14330    0.29970   74.94540  154.40570  149.92200   19.87490   20.48130    0.16020    2.76430    1.96640  -44.59750    0.40220
 4270.50000   -9999.25    2.54490    2.92500    3.24120    0.29980   77.31950  152.32300  134.87150   21.06760   21.52340    0.15860    2.92080    2.05100  -45.21800    0.47980
 4271.00000   -9999.25    2.51340    3.05860    3.93400    0.29980   80.58410  157.68980  126.55220   21.60220   21.41380    0.15810    2.97790    2.08920  -45.25530    0.57160
 4271.50000   -9999.25    2.70430    3.23160    4.33810    0.29980   86.00510  160.48120  125.34730   21.72760   21.97320    0.17000    2.97000    2.12480  -44.87830    0.66330
 4272.00000   -9999.25    2.53990    2.94330    4.10710    0.29980   89.19750  161.51550  119.64710   22.20750   19.93370    0.16320    2.96280    1.99870  -44.50130    0.70010
 4272.50000   -9999.25    2.03360    2.29400    3.30240    0.29990   89.16300  163.08970  122.37870   20.29530   20.72880    0.12690    2.93010    1.85350  -43.94440    0.58020
 4273.00000   -9999.25    2.43730    2.53450    4.08110    0.29990   88.56900  164.75690  126.70500   20.76630   20.78380    0.13200    2.87010    1.81570  -44.20850    0.50230
 4273.50000   -9999.25    3.11030    3.54350    5.13810    0.29990   89.25780  166.63230  126.47240   17.15780   15.98630    0.18350    2.82070    1.96490  -44.24260    0.40470
 4274.00000   -9999.25    4.40350    4.55250    6.76960    0.29990   72.59220  165.66910  120.53450   13.83540   14.06020    0.22670    2.78080    2.17630  -44.17400    0.35870
 4274.50000   -9999.25    3.89060    4.06510    5.50160    0.29080   75.55750  164.73870  120.96110   14.73690   15.16520    0.23660    2.74090    2.21730  -44.03700    0.33230
 4275.00000   -9999.25    3.03570    3.25280    3.26590    0.29970   77.00050  163.52610  123.57690   16.03380   15.97940    0.21050    2.77170    2.13650  -43.85610    0.35910
 4275.50000   -9999.25    2.46680    2.64340    2.82970    0.29970   76.61030  163.29670  124.08210   17.45340   17.41240    0.19250    2.85090    2.07680  -43.85610    0.35110
 4276.00000   -9999.25    2.49780    2.84320    3.08320   -9999.25   78.36340  164.37850  122.90010   17.08970   17.09710    0.20070    2.93890    2.11430  -43.65960    0.37610
 4276.50000   -9999.25    2.63940    3.13980    3.28610   -9999.25   79.34390  162.49460  124.24780   18.55330   19.01600    0.21250    3.02690    2.17560  -43.15650    0.38060
 4277.00000   -9999.25    2.54490    2.98020    3.24540   -9999.25   82.07050  166.88660  123.43960   18.82620   18.87940    0.16480    3.11490    2.12710  -42.90860    0.43870
 4277.50000   -9999.25    2.49550    2.94330    3.46210   -9999.25   90.05150  170.51130  127.26710   21.08700   21.03560    0.11310    3.20290    2.07160  -42.53840    0.49670
