~Version ---------------------------------------------------
VERS.   2.0 : CWLS log ASCII Standard -VERSION 2.0
WRAP.    NO : One line per depth step
DLM . SPACE : Column Data Section Delimiter
~Well ------------------------------------------------------
STRT .FT                   0.0 : START DEPTH
STOP .FT               10320.0 : STOP DEPTH
STEP .FT                   0.5 : STEP
NULL .                -9999.25 : NULL VALUE
COMP .                         : COMPANY
WELL .                         : WELL
FLD  .                         : FIELD
LOC  .                         : LOCATION
PROV .                         : PROVINCE
CNTY .                         : COUNTY
STAT .                         : STATE
CTRY .                         : COUNTRY
SRVC .                         : SERVICE COMPANY
DATE .                         : DATE
UWI  .                         : UNIQUE WELL ID
API  .                         : API NUMBER
SLAT .WGS84 6.0498442064033995 : SURFACE LATITUDE
SLON .WGS84  2.802371128346195 : SURFACE LONGITUDE
DATUM.F                    nan : DEPTH DATUM ELEV
~Curve Information -----------------------------------------
DEPT   .FT    : 
AT10   .OHMM  : ARRAY INDUCTION TWO FOOT RESISTIVITY A10
AT20   .OHMM  : ARRAY INDUCTION TWO FOOT RESISTIVITY A20
AT30   .OHMM  : ARRAY INDUCTION TWO FOOT RESISTIVITY A30
AT90   .OHMM  : ARRAY INDUCTION TWO FOOT RESISTIVITY A90
DPHZ_LS.DEC   : HGRD STANDARD RESOLUTION DENSITY POROSITY
DTCO   .US/F  : DELTA-T COMPRESSIONAL
DTSM   .US/F  : DELTA-T SHEAR
ECGRS  .GAPI  : ENVIRONMENTALLY CORRECTED GAMMA RAY FROM SONIC LOG
HCALR  .IN    : HRCC CALIPER CALIBRATED FROM RESISTIVITY LOG
HCALS  .IN    : HRCC CALIPER CALIBRATED FROM SONIC LOG
HDRA   .G/C3  : HRDD SPINE AND RIBS DENSITY CORRECTION
PEFZ   .B/E   : HRDD STANDARD RESOLUTION FORMATION PHOTOELECTRIC FACTOR
RHOZ   .G/C3  : HRDD STANDARD RESOLUTION FORMATION DENSITY
SPR    .MV    : SPONTANEOUS POTENTIAL FROM RESISTIVITY LOG
TNPH_LS.DEC   : THERMAL NEUTRON POROSITY [LIMESTONE]
~Params ----------------------------------------------------
~Other -----------------------------------------------------
~ASCII -----------------------------------------------------
# ...
 6095.00000   -9999.25    6.46840    6.96880    7.26980    0.04710   71.13170  124.18870  105.49090   12.20460   12.20500   -0.00200    2.80920    2.62740  -38.24330    0.15490
 6095.50000   -9999.25    6.47570    6.96880    7.27480    0.05490   71.01520  124.39690  104.54440   12.20270   12.20420   -0.00030    2.80290    2.61480  -38.08080    0.15550
 6096.00000   -9999.25    6.49410    6.98500    7.27980    0.06820   71.08020  124.55730  104.12520   12.20080   12.18930    0.01470    2.85710    2.59520  -38.00290    0.15460
 6096.50000   -9999.25    6.50880    7.05060    7.30080    0.07500   71.19100  124.59080  103.54950   12.19890   12.16060    0.04020    2.93320    2.58120  -37.80810    0.15470
 6097.00000   -9999.25    6.48860    7.11680    7.33500    0.07260   71.18380  124.79190  102.34740   12.10420   12.09610    0.06570    3.01880    2.58460  -37.74410    0.15100
 6097.50000   -9999.25    6.48860    7.06710    7.35220    0.06360   71.17880  124.86400  101.84450   11.99150   11.98850    0.07800    3.02770    2.60250  -37.65040    0.14690
 6098.00000   -9999.25    6.43290    6.98110    7.30080    0.05960   71.16970  124.89280  101.34790   11.96120   11.91370    0.05850    3.01490    2.60720  -37.60650    0.14610
 6098.50000   -9999.25    6.38830    6.93030    7.20220    0.06770   71.17580  124.89280  103.57800   11.98140   11.95490    0.03410    3.00220    2.59480  -37.56260    0.14640
 6099.00000   -9999.25    6.38830    6.92010    7.18240    0.08290   71.25010  124.89280  108.60020   12.00670   12.03720    0.02120    2.99080    2.56990  -37.51870    0.14960
 6099.50000   -9999.25    6.38830    6.96880    7.18240    0.08900   71.27140  124.80990  109.07940   12.04200   12.09890    0.00760    2.98120    2.55660  -37.47480    0.15340
 6100.00000   -9999.25    6.44830    7.01770    7.18240    0.08660   71.20360  124.86770  105.88900   12.07740   12.09580    0.00270    2.97170    2.55850  -37.36350    0.15940
 6100.50000   -9999.25    6.59040    7.05060    7.24990    0.08420   71.32050  124.81550  101.23500   12.12280   12.18310   -0.00220    2.97490    2.56540  -37.26710    0.16450
 6101.00000   -9999.25    6.59040    7.05060    7.33500    0.07990   71.36460  124.73580   99.52420   12.16470   12.19100   -0.00560    3.00210    2.57190  -37.07550    0.16840
 6101.50000   -9999.25    6.59040    7.08360    7.36930    0.07360   71.34990  124.66260   99.89460   12.19310   12.19260   -0.00540    3.02930    2.58470  -37.03840    0.16600
 6102.00000   -9999.25    6.56990    7.08360    7.36930    0.06730   71.33530  124.52850  105.67010   12.18770   12.19420   -0.00380    3.05110    2.59700  -36.87640    0.16510
 6102.50000   -9999.25    6.54950    7.08360    7.36930    0.05790   71.38240  124.72540  108.94520   12.18630   12.19580   -0.00220    3.01950    2.61050  -36.87640    0.16660
 6103.00000   -9999.25    6.52910    7.10020    7.36930    0.05810   71.43220  124.92230  110.80910   12.18480   12.19740   -0.00060    2.97520    2.60940  -36.88330    0.16400
 6103.50000   -9999.25    6.52910    7.11680    7.36930    0.06180   71.56180  124.94730  107.82550   12.18340   12.20370   -0.00030    2.99600    2.60260  -36.79870    0.15300
 6104.00000   -9999.25    6.53330    7.11380    7.36930    0.06760   71.57500  125.27170  104.17060   12.18190   12.20020   -0.00100    2.98200    2.59420  -36.74970    0.15020
 6104.50000   -9999.25    6.54380    7.10620    7.36680    0.06360   71.63330  125.51520  102.57190   12.18050   12.19670   -0.00300    2.96810    2.60330  -36.50540    0.15420
 6105.00000   -9999.25    6.55430    7.09870    7.35410    0.05290   71.73980  125.75870  103.08690   12.19260   12.19310   -0.00300    2.93010    2.61800  -36.26110    0.15790
 6105.50000   -9999.25    6.56480    7.09110    7.34140    0.04810   71.79960  126.01060  107.87080   12.18440   12.19040   -0.00110    2.90500    2.62820  -36.04850    0.15980
 6106.00000   -9999.25    6.57530    7.08360    7.32870    0.04660   71.93010  126.29650  111.90030   12.18410   12.19840    0.00040    2.88600    2.62890  -35.78580    0.16350
 6106.50000   -9999.25    6.58570    7.01770    7.31610    0.04790   72.03810  126.47490  115.69490   12.18390   12.20280    0.00190    2.85050    2.62710  -35.68750    0.17170
 6107.00000   -9999.25    6.59620    7.01770    7.30340    0.04890   72.17490  126.62640  115.64740   12.18370   12.19910    0.00330    2.84220    2.62580  -35.68750    0.18000
 6107.50000   -9999.25    6.60670    7.01770    7.28380    0.05210   72.23500  126.76540  115.79530   12.18350   12.20010    0.00450    2.87010    2.61960  -35.68750    0.18500
 6108.00000   -9999.25    6.61720    7.01770    7.19920    0.05230   72.20510  126.90130  113.30910   12.18320   12.20120    0.00590    2.90970    2.61970  -35.81810    0.18380
 6108.50000   -9999.25    6.62770    7.08360    7.16570    0.04960   72.13400  127.14910  110.59540   12.18930   12.20220    0.00590    2.94940    2.62480  -35.89980    0.17660
 6109.00000   -9999.25    6.63820    7.11680    7.31790    0.04730   72.23520  126.94740  105.44440   12.18930   12.20330    0.00520    2.96300    2.62810  -36.10580    0.17300
 6109.50000   -9999.25    6.61770    7.11680    7.42120    0.04460   72.20860  126.88630  105.67340   12.18930   12.19880    0.00340    2.96930    2.63300  -36.49490    0.16680
 6110.00000   -9999.25    6.55600    7.11660    7.40070    0.04500   72.31580  127.00220  109.94330   12.19430   12.20390    0.00120    2.97820    2.63210  -36.58280    0.17640
 6110.50000   -9999.25    6.49420    7.11560    7.34970    0.04540   72.56890  127.11810  113.76540   12.19020   12.20510   -0.00090    2.98700    2.63160  -36.57010    0.18150
 6111.00000   -9999.25    6.46600    7.06480    7.29860    0.04750   72.57630  127.23390  112.62730   12.18600   12.20630   -0.00160    2.93960    2.62680  -36.55730    0.18170
 6111.50000   -9999.25    6.46080    7.03110    7.36010    0.05270   72.58380  127.34980  108.88850   12.18180   12.20750   -0.00160    2.92460    2.61820  -36.54450    0.17460
 6112.00000   -9999.25    6.42220    7.01360    7.48640    0.05610   72.71870  127.45230  107.52000   12.15770   12.19630    0.00540    2.93040    2.61350  -36.53170    0.16990
 6112.50000   -9999.25    6.38360    7.01250    7.32110    0.05930   72.79610  127.63530  108.96980   12.11890   12.12640    0.01410    2.96680    2.60740  -36.51890    0.16990
 6113.00000   -9999.25    6.38270    7.01230    7.17620    0.05700   72.99590  127.95960  109.97070   12.11870   12.13580    0.02100    2.99110    2.60970  -36.15280    0.16850
 6113.50000   -9999.25    6.42170    7.01060    7.25250    0.05580   73.00590  128.28380  111.53700   12.13130   12.15290    0.01690    2.99240    2.61420  -36.13100    0.17180
 6114.00000   -9999.25    6.50120    7.12530    7.36090    0.05740   72.99300  128.60960  109.46300   12.13580   12.16810    0.01280    2.99360    2.60960  -35.95950    0.16890
 6114.50000   -9999.25    6.46000    7.09090    7.27470    0.05740   73.11680  128.86500  109.40480   12.14020   12.18310    0.01040    2.99490    2.60990  -36.12460    0.17490
 6115.00000   -9999.25    6.39900    7.04050    7.13880    0.05740   73.12490  128.58790  108.37210   12.13770   12.16300    0.00930    2.99610    2.61040  -36.13780    0.17570
 6115.50000   -9999.25    6.39810    7.03950    7.18800    0.05060   73.13300  128.67490  110.13890   12.15260   12.15180    0.00820    2.99740    2.62030  -36.15100    0.17120
 6116.00000   -9999.25    6.45720    7.05490    7.28000    0.04950   73.18490  129.09370  109.76850   12.16500   12.18120    0.00640    2.99860    2.62410  -36.17220    0.16490
 6116.50000   -9999.25    6.51680    7.07040    7.30430    0.04950   73.11790  129.00680  113.38890   12.17350   12.19980    0.00250    3.03870    2.62450  -36.22540    0.16680
 6117.00000   -9999.25    6.45530    7.08600    7.23610    0.05620   73.02550  128.93850  113.48390   12.18200   12.19480    0.00040    3.11890    2.61390  -36.27850    0.17540
 6117.50000   -9999.25    6.33490    7.00280    7.15130    0.06220   73.13120  129.23930  114.03680   12.18180   12.19340   -0.00010    3.17550    2.60190  -36.33170    0.18000
