~Version ---------------------------------------------------
VERS.   2.0 : CWLS log ASCII Standard -VERSION 2.0
WRAP.    NO : One line per depth step
DLM . SPACE : Column Data Section Delimiter
~Well ------------------------------------------------------
STRT .FT                   0.0 : START DEPTH
STOP .FT               10320.0 : STOP DEPTH
STEP .FT                   0.5 : STEP
NULL .                -9999.25 : NULL VALUE
COMP .                         : COMPANY
WELL .                         : WELL
FLD  .                         : FIELD
LOC  .                         : LOCATION
PROV .                         : PROVINCE
CNTY .                         : COUNTY
STAT .                         : STATE
CTRY .                         : COUNTRY
SRVC .                         : SERVICE COMPANY
DATE .                         : DATE
UWI  .                         : UNIQUE WELL ID
API  .                         : API NUMBER
SLAT .WGS84 6.0498442064033995 : SURFACE LATITUDE
SLON .WGS84  2.802371128346195 : SURFACE LONGITUDE
DATUM.F                    nan : DEPTH DATUM ELEV
~Curve Information -----------------------------------------
DEPT   .FT    : 
AT10   .OHMM  : ARRAY INDUCTION TWO FOOT RESISTIVITY A10
AT20   .OHMM  : ARRAY INDUCTION TWO FOOT RESISTIVITY A20
AT30   .OHMM  : ARRAY INDUCTION TWO FOOT RESISTIVITY A30
AT90   .OHMM  : ARRAY INDUCTION TWO FOOT RESISTIVITY A90
DPHZ_LS.DEC   : HGRD STANDARD RESOLUTION DENSITY POROSITY
DTCO   .US/F  : DELTA-T COMPRESSIONAL
DTSM   .US/F  : DELTA-T SHEAR
ECGRS  .GAPI  : ENVIRONMENTALLY CORRECTED GAMMA RAY FROM SONIC LOG
HCALR  .IN    : HRCC CALIPER CALIBRATED FROM RESISTIVITY LOG
HCALS  .IN    : HRCC CALIPER CALIBRATED FROM SONIC LOG
HDRA   .G/C3  : HRDD SPINE AND RIBS DENSITY CORRECTION
PEFZ   .B/E   : HRDD STANDARD RESOLUTION FORMATION PHOTOELECTRIC FACTOR
RHOZ   .G/C3  : HRDD STANDARD RESOLUTION FORMATION DENSITY
SPR    .MV    : SPONTANEOUS POTENTIAL FROM RESISTIVITY LOG
TNPH_LS.DEC   : THERMAL NEUTRON POROSITY [LIMESTONE]
~Params ----------------------------------------------------
~Other -----------------------------------------------------
~ASCII -----------------------------------------------------
# ...
 1955.00000   -9999.25    1.05130    1.10230    1.31310    0.24820   99.88240  208.39620   92.65620   12.60260   12.58920    0.19490    3.55530    2.30910   -3.61600    0.38220
 1955.50000   -9999.25    0.99040    1.13420    1.31030    0.29910  100.36070  211.92120   94.33200   12.51150   12.56960    0.16840    3.44170    2.19800   -3.55760    0.37770
 1956.00000   -9999.25    0.92950    1.07920    1.31830    0.29920  100.62470  212.55800   95.75250   13.18900   13.02230    0.15000    3.35180    2.13550   -3.36000    0.38980
 1956.50000   -9999.25    0.89170    0.99510    1.19190    0.29920  102.23700  210.75590   97.27380   12.83360   12.99520    0.13160    3.31310    2.08540   -3.40480    0.41290
 1957.00000   -9999.25    0.87030    0.99560    1.15090    0.29920  103.56690  205.63590  100.60000   13.63320   12.71120    0.09620    3.26310    2.02360   -3.44950    0.48880
 1957.50000   -9999.25    0.99480    1.17250    1.29150    0.29930  100.62100  201.78030  110.54400   15.95420   15.41670    0.08530    3.26020    2.08410   -2.63340    0.41600
 1958.00000   -9999.25    1.26420    1.54570    1.93970    0.27340   95.41220  202.57410  110.68090   15.98370   16.03230    0.08340    3.24230    2.23270   -1.72210    0.34100
 1958.50000   -9999.25    1.47960    1.80440    2.45830    0.22110   93.69750  209.18000  102.42470   13.16120   13.07710    0.09950    3.21450    2.33210   -1.71710    0.30010
 1959.00000   -9999.25    1.22770    1.35450    1.73090    0.27340   95.05850  213.50810   91.23640   12.46710   12.48730    0.12310    3.18680    2.24950   -3.72910    0.34630
 1959.50000   -9999.25    0.92170    1.02130    1.30500    0.29960  101.88730  214.19940   91.54500   13.63870   13.31640    0.15860    3.04220    2.11180   -3.66270    0.42860
 1960.00000   -9999.25    0.83660    0.90660    1.13390    0.29960  108.77560  221.19850  100.61000   15.93190   15.18360    0.16360    2.81990    2.00170   -2.98370    0.51300
 1960.50000   -9999.25    0.86120    1.10680    1.37410    0.29960  154.31470  224.74270  112.51830   19.82580   19.58520    0.16920    2.70900    1.77030   -2.44080    0.52200
 1961.00000   -9999.25    0.85290    1.16920    1.72480    0.29960  149.86430  233.38560  118.10340   19.27030   19.27850    0.16400    2.59810    1.78780   -3.12300    0.56170
 1961.50000   -9999.25    0.81960    0.92670    1.27560    0.29960  150.08190  238.49450  117.99520   20.01970   19.93420    0.15890    2.54930    1.80530   -4.09090    0.59350
 1962.00000   -9999.25    0.78630    0.85630    1.10650    0.29960  150.81690  239.80230  122.77160   21.33010   21.42980    0.14170    2.52880    1.71170   -4.93620    0.58110
 1962.50000   -9999.25    0.78920    0.88670    1.18250    0.29960  154.29910  237.24240  123.42130   22.87120   22.92530    0.09480    2.59020    1.59450   -4.89450    0.54200
 1963.00000   -9999.25    0.83660    0.92750    1.27750    0.29960  149.60240  232.72810  115.29690   19.61330   19.05900    0.06080    2.69730    1.57110   -3.55640    0.56400
 1963.50000   -9999.25    0.91020    0.95970    1.33670    0.29960  142.67250  226.68740  112.47720   17.64000   17.44030    0.05220    2.81100    1.87580   -1.88540    0.50730
 1964.00000   -9999.25    1.08890    1.14390    1.38300    0.29960  140.27420  221.86440  110.34050   16.91050   16.71330    0.04150    3.01360    2.11640    1.19160    0.41270
 1964.50000   -9999.25    1.26760    1.32800    1.71530    0.24570  122.47190  216.15490  106.32850   16.00210   16.00000    0.02780    3.22240    2.25900    5.14820    0.37430
 1965.00000   -9999.25    1.41730    1.55370    1.92030    0.16690  106.14520  210.44530   91.51350   12.63600   12.32380    0.02290    3.37250    2.40160    6.37030    0.35330
 1965.50000   -9999.25    1.36240    1.60990    1.83290    0.14610   96.47340  208.60780   85.95790   12.22120   12.25520    0.06040    3.52690    2.45870    5.96290    0.35790
 1966.00000   -9999.25    1.25520    1.41870    1.60330    0.17690   94.87190  206.85810   82.87240   12.30710   12.47470    0.09080    3.55680    2.35360    2.12170    0.36350
 1966.50000   -9999.25    1.06180    1.20150    1.38570    0.29920   93.10950  200.63190   83.88620   12.51510   12.58440    0.10230    3.56430    2.17840   -1.58020    0.44690
 1967.00000   -9999.25    0.89140    0.99360    1.18630    0.29930   94.84920  195.26540   86.36290   13.85540   14.12070    0.09040    3.57180    2.00330   -5.28210    0.53570
 1967.50000   -9999.25    0.99610    1.00480    1.23400    0.29930   99.54180  191.41010   91.11460   15.93190   16.01370    0.08130    3.52400    1.94980   -5.02850    0.58140
 1968.00000   -9999.25    1.12160    1.28830    1.62260    0.29940  102.96360  186.05220   94.47340   18.78770   18.81210    0.08080    3.51760    2.06060   -2.78640    0.44040
 1968.50000   -9999.25    1.35480    1.80920    3.57560    0.22640  104.95250  207.30410   91.12090   13.84560   15.98620    0.08930    3.52800    2.34710   -0.74130    0.38200
 1969.00000   -9999.25    1.53230    1.98850    2.71580    0.17770  107.44120  202.98460   87.80090   12.99830   13.03710    0.06810    3.55090    2.36320    0.27840    0.33320
 1969.50000   -9999.25    1.20780    1.52680    1.73600    0.27870  106.59290  208.66350   85.27880   12.34040   12.22770    0.03200    3.61450    2.16400   -1.81890    0.35870
 1970.00000   -9999.25    0.89970    1.06510    1.13580    0.29890  104.67020  219.69550   90.45310   12.24200   12.69140    0.01640    3.66060    2.00460   -4.44050    0.42340
 1970.50000   -9999.25    0.65330    0.69290    0.90630    0.29900  103.63750  225.08730  107.24170   14.30420   14.64880    0.01010    3.61810    1.87290   -3.82790    0.42830
 1971.00000   -9999.25    0.94610    1.03570    1.15870    0.29910   99.38520  205.90390  123.33520   18.76180   18.74340    0.04030    3.55890    1.99790    0.84420    0.37580
 1971.50000   -9999.25    1.41300    1.45360    1.82450    0.24330   84.99990  209.70600  110.11500   16.04160   16.01370    0.05980    3.49560    2.30360    5.51640    0.32330
 1972.00000   -9999.25    1.88000    2.04740    2.72990    0.16290   81.84610  204.11810   99.05540   12.25770   12.29630    0.07590    3.43710    2.43760    6.61760    0.32010
 1972.50000   -9999.25    2.26430    2.75600    3.63530    0.13310   78.88650  195.38090   93.39810   12.63540   12.58430    0.07950    3.41610    2.48180    5.85830    0.30010
 1973.00000   -9999.25    2.00030    2.39200    3.44760    0.13980   79.64990  205.50890   93.55120   12.07130   11.99450    0.08600    3.42060    2.46840    4.13240    0.27970
 1973.50000   -9999.25    1.19320    1.48680    1.92060    0.15330   82.62880  220.13710   96.29040   12.00680   11.99450    0.09280    3.44460    2.44320    0.21900    0.28000
 1974.00000   -9999.25    1.01900    1.08450    1.16540    0.17800   86.53520  234.76530  106.90000   12.19180   12.17280    0.10310    3.49620    2.39810   -3.66400    0.29850
 1974.50000   -9999.25    0.95310    1.08010    1.19680    0.20360   92.73190  199.16380  115.77350   12.74690   12.82440    0.10730    3.48960    2.36790   -6.43220    0.36630
 1975.00000   -9999.25    0.88710    1.06700    1.24380    0.25700   95.57090  206.59520  123.65580   14.24930   13.95610    0.10750    3.40340    2.24950   -7.59670    0.42300
 1975.50000   -9999.25    0.79950    0.93410    1.12110    0.29970   97.26800  207.45930  125.49570   15.92180   15.98630    0.10630    3.12120    2.04490   -8.76120    0.51790
 1976.00000   -9999.25    0.70860    0.80560    0.99830    0.29980  100.78010  214.71790  125.64700   17.57220   18.43070    0.09640    2.85880    1.79060   -9.12800    0.69920
 1976.50000   -9999.25    0.70860    0.79580    1.00640    0.29990  102.98960  217.13740  130.12540   22.20010   21.72970    0.08810    2.58910    1.58200   -9.29530    0.69920
 1977.00000   -9999.25    0.78020    0.87110    1.20360    0.29990  111.18550  220.76670  126.14220   23.59990   23.73660    0.08330    2.48130    1.57050   -8.28330    0.67720
 1977.50000   -9999.25    0.85190    0.94640    1.40080    0.30000  118.86590  227.27630  127.74100   23.55290   23.90120    0.07850    2.54400    1.63190   -6.76570    0.69950
