~Version ---------------------------------------------------
VERS.   2.0 : CWLS log ASCII Standard -VERSION 2.0
WRAP.    NO : One line per depth step
DLM . SPACE : Column Data Section Delimiter
~Well ------------------------------------------------------
STRT .FT                   0.0 : START DEPTH
STOP .FT               10320.0 : STOP DEPTH
STEP .FT                   0.5 : STEP
NULL .                -9999.25 : NULL VALUE
COMP .                         : COMPANY
WELL .                         : WELL
FLD  .                         : FIELD
LOC  .                         : LOCATION
PROV .                         : PROVINCE
CNTY .                         : COUNTY
STAT .                         : STATE
CTRY .                         : COUNTRY
SRVC .                         : SERVICE COMPANY
DATE .                         : DATE
UWI  .                         : UNIQUE WELL ID
API  .                         : API NUMBER
SLAT .WGS84 6.0498442064033995 : SURFACE LATITUDE
SLON .WGS84  2.802371128346195 : SURFACE LONGITUDE
DATUM.F                    nan : DEPTH DATUM ELEV
~Curve Information -----------------------------------------
DEPT   .FT    : 
AT10   .OHMM  : ARRAY INDUCTION TWO FOOT RESISTIVITY A10
AT20   .OHMM  : ARRAY INDUCTION TWO FOOT RESISTIVITY A20
AT30   .OHMM  : ARRAY INDUCTION TWO FOOT RESISTIVITY A30
AT90   .OHMM  : ARRAY INDUCTION TWO FOOT RESISTIVITY A90
DPHZ_LS.DEC   : HGRD STANDARD RESOLUTION DENSITY POROSITY
DTCO   .US/F  : DELTA-T COMPRESSIONAL
DTSM   .US/F  : DELTA-T SHEAR
ECGRS  .GAPI  : ENVIRONMENTALLY CORRECTED GAMMA RAY FROM SONIC LOG
HCALR  .IN    : HRCC CALIPER CALIBRATED FROM RESISTIVITY LOG
HCALS  .IN    : HRCC CALIPER CALIBRATED FROM SONIC LOG
HDRA   .G/C3  : HRDD SPINE AND RIBS DENSITY CORRECTION
PEFZ   .B/E   : HRDD STANDARD RESOLUTION FORMATION PHOTOELECTRIC FACTOR
RHOZ   .G/C3  : HRDD STANDARD RESOLUTION FORMATION DENSITY
SPR    .MV    : SPONTANEOUS POTENTIAL FROM RESISTIVITY LOG
TNPH_LS.DEC   : THERMAL NEUTRON POROSITY [LIMESTONE]
~Params ----------------------------------------------------
~Other -----------------------------------------------------
~ASCII -----------------------------------------------------
# ...
 7015.00000   -9999.25    6.57870    7.18100    7.83380    0.04290   76.35530  139.54870  130.76410   12.35670   12.48980    0.10200    3.74350    2.64060  -39.46800    0.24900
 7015.50000   -9999.25    6.51740    7.00420    7.60890    0.03770   75.51500  139.13050  127.13430   12.38210   12.43330    0.10000    3.81280    2.64560  -39.46670    0.26330
 7016.00000   -9999.25    6.51570    7.05570    7.60890    0.03520   74.34230  136.10210  125.53110   12.31660   12.35610    0.09760    3.82090    2.65030  -39.39380    0.26800
 7016.50000   -9999.25    6.56220    7.18100    7.89720    0.03300   73.91710  134.03400  127.31500   12.54100   12.50010    0.08760    3.77590    2.65270  -39.21370    0.25060
 7017.00000   -9999.25    6.60860    7.52470    7.99010    0.03140   73.67460  132.30060  118.90010   12.35220   12.32520    0.06390    3.65320    2.65630  -38.87210    0.21750
 7017.50000   -9999.25    9.01580   10.07090   11.02870    0.02790   73.04750  131.69700  108.53930   12.52920   12.39720    0.04320    3.48800    2.66310  -38.91540    0.16960
 7018.00000   -9999.25   11.42300   14.21130   14.59090    0.03030   72.68890  131.09620   94.73860   12.35760   12.26350    0.02390    3.42660    2.65340  -38.95870    0.14350
 7018.50000   -9999.25   12.73820   14.30020   15.41100    0.04100   72.43330  130.20550   90.56390   12.23650   12.22750    0.01890    3.44920    2.63680  -39.00200    0.14030
 7019.00000   -9999.25   11.25810   12.57520   13.12880    0.04510   72.06140  129.79330   98.32900   12.23210   12.23260    0.03820    3.57100    2.63150  -39.04530    0.15910
 7019.50000   -9999.25    9.37840   10.43170   10.83960    0.03890   70.91980  127.92650  109.09660   12.22770   12.24810    0.07420    3.71860    2.64680  -39.39000    0.20570
 7020.00000   -9999.25    7.49880    8.23660    8.55050    0.03110   70.22450  126.05960  115.87850   12.24410   12.25320    0.08870    3.81430    2.65920  -39.14130    0.23370
 7020.50000   -9999.25    7.40580    8.41830    8.87640    0.02480   69.89660  124.05160  118.85820   12.23430   12.41780    0.08600    3.82130    2.66710  -39.01260    0.24010
 7021.00000   -9999.25    7.64030    8.23660    8.77320    0.01780   68.90960  122.57350  117.61920   12.20940   12.40750    0.07410    3.77200    2.67850  -38.98690    0.22000
 7021.50000   -9999.25    9.52050   10.53620   12.70390    0.00950   68.44310  121.28070  108.71600   12.22490   12.31150    0.05700    3.69550    2.69290  -38.98690    0.17240
 7022.00000   -9999.25   12.73820   14.43450   19.30380    0.00260   68.10570  120.06210   93.13170   12.22530   12.22230    0.04070    3.60610    2.70570  -38.98690    0.12350
 7022.50000   -9999.25   19.95410   23.40010   26.82430    0.01060   67.77660  119.42890   81.32730   12.22570   12.24290    0.02190    3.51680    2.69360  -38.98690    0.08730
 7023.00000   -9999.25   17.75160   20.59410   24.04140    0.02310   67.58730  118.33650   75.59470   12.22600   12.25320    0.00310    3.40340    2.66930  -38.98690    0.08180
 7023.50000   -9999.25   13.47380   16.79440   19.69710    0.03390   67.50520  117.24410   80.84170   12.22630   12.25320    0.00130    3.23660    2.64790  -39.26890    0.09480
 7024.00000   -9999.25   10.02020   12.65990   15.35280    0.04290   67.50740  117.50760   87.83870   12.24180   12.25320    0.00080    3.09680    2.63490  -39.63700    0.12270
 7024.50000   -9999.25    9.29800   10.37330   10.95710    0.04740   68.34690  118.97960   96.95050   12.24220   12.24640    0.00660    3.06760    2.62630  -40.00510    0.14100
 7025.00000   -9999.25    8.87330    9.96140   10.55480    0.05390   69.86540  119.70120  103.85820   12.20380   12.23010    0.01750    3.12490    2.61620  -40.37320    0.14880
 7025.50000   -9999.25    8.65480    9.59570   10.12050    0.05050   70.38650  120.48480  102.31500   12.18050   12.21720    0.02640    3.18680    2.62500  -40.91310    0.15510
 7026.00000   -9999.25    8.46800    9.30120    9.88610    0.04590   70.38410  121.56230  105.90990   12.28290   12.20520    0.03380    3.21210    2.63320  -40.98260    0.15750
 7026.50000   -9999.25    8.46800    9.30120    9.77120    0.03880   70.34910  122.43220  108.40080   12.36480   12.32520    0.03450    3.23730    2.64540  -40.98390    0.15700
 7027.00000   -9999.25    8.62790    9.47680    9.81700    0.03530   70.10300  123.02660  107.97630   12.25410   12.29440    0.01900    3.26260    2.64870  -40.98190    0.16090
 7027.50000   -9999.25    8.84570    9.80730   10.28690    0.03140   69.79700  122.41310  102.02900   12.25850   12.29440    0.01170    3.27820    2.65860  -40.90920    0.16050
 7028.00000   -9999.25    9.15420   10.32760   10.63650    0.03220   69.53800  121.28750  100.37390   12.27960   12.29440    0.00710    3.26220    2.65410  -40.97880    0.15120
 7028.50000   -9999.25    9.44410   10.88620   11.01320    0.03940   69.29130  119.84940  100.91730   12.29670   12.29440    0.01000    3.25720    2.64120  -40.97880    0.14120
 7029.00000   -9999.25    9.62230   11.07670   11.37470    0.04400   69.16280  118.49450  101.43530   12.26960   12.29440    0.02140    3.23320    2.63240  -41.15020    0.12870
 7029.50000   -9999.25    9.59240   10.73890   10.98050    0.04850   68.89920  119.18940   99.63820   12.22320   12.22750    0.03030    3.18670    2.62660  -41.57490    0.12970
 7030.00000   -9999.25    9.41470   10.40740   10.45660    0.04860   68.46900  119.60080  101.18210   12.17690   12.22230    0.03630    3.13920    2.62680  -41.99960    0.13080
 7030.50000   -9999.25    9.35620    9.92740   10.50560    0.04580   68.35430  119.90340  104.73560   12.20320   12.22910    0.02310    3.09410    2.63030  -42.42430    0.13760
 7031.00000   -9999.25    9.21150    9.41790   10.36410    0.04450   67.93490  120.20610  105.55270   12.26260   12.29410    0.01540    3.06040    2.63310  -42.90910    0.13920
 7031.50000   -9999.25    8.75240    9.21460    9.90160    0.03920   67.51980  121.03080  105.61700   12.31010   12.34790    0.00860    3.11210    2.64090  -43.53340    0.14660
 7032.00000   -9999.25    8.28590    9.12890    9.43920    0.04330   68.02980  125.21950  105.68120   12.30530   12.35550    0.00390    3.26710    2.63300  -44.23260    0.14950
 7032.50000   -9999.25    8.00600    9.33020    9.49060    0.04470   70.74380  128.27620  105.52530   12.30830   12.35530    0.00860    3.42220    2.63610  -44.59310    0.15140
 7033.00000   -9999.25    8.55000    9.36910    9.70290    0.03680   73.00430  131.27810  102.71650   12.29960   12.30370    0.01370    3.54190    2.64920  -45.25260    0.15450
 7033.50000   -9999.25    9.24020   10.42820   11.58940    0.03650   74.69150  132.84200  102.56840   12.31970   12.28300    0.03110    3.61140    2.64180  -46.00760    0.16630
 7034.00000   -9999.25    8.18560   10.61400   10.75330    0.04660   75.63260  134.02480  106.46940   12.33980   12.33430    0.05680    3.62050    2.61990  -47.16160    0.19490
 7034.50000   -9999.25    6.04770    7.74480    8.86540    0.06020   76.49110  135.36070  121.36340   12.40400   12.59480    0.08250    3.61510    2.59550  -48.32040    0.23070
 7035.00000   -9999.25    4.97010    6.12650    6.97760    0.06850   76.49330  134.71410  131.42670   13.08250   13.03380    0.10860    3.60970    2.59650  -48.87120    0.26640
 7035.50000   -9999.25    4.29220    4.78690    5.08980    0.05680   75.93350  132.93120  135.52230   12.76930   12.87910    0.11400    3.55230    2.61610  -49.42200    0.28830
 7036.00000   -9999.25    4.42810    5.11070    5.22230    0.04420   74.52240  131.44320  131.64220   12.79460   12.83780    0.08260    3.38580    2.63900  -49.97290    0.26210
 7036.50000   -9999.25    6.29470    7.06700    7.73070    0.03300   73.74670  130.30390  118.19270   12.66830   12.63870    0.04970    3.19560    2.65070  -50.15150    0.21990
 7037.00000   -9999.25    8.36310    9.02330   11.61600    0.03370   72.52570  128.68590  102.72280   12.49150   12.34370    0.02790    3.04420    2.65080  -50.13470    0.16640
 7037.50000   -9999.25   11.71010   14.70180   20.31030    0.03220   70.19580  127.36580   88.46940   12.32490   12.31260    0.01080    2.96740    2.65350  -50.42510    0.11280
