~Version ---------------------------------------------------
VERS.   2.0 : CWLS log ASCII Standard -VERSION 2.0
WRAP.    NO : One line per depth step
DLM . SPACE : Column Data Section Delimiter
~Well ------------------------------------------------------
STRT .FT                   0.0 : START DEPTH
STOP .FT               10320.0 : STOP DEPTH
STEP .FT                   0.5 : STEP
NULL .                -9999.25 : NULL VALUE
COMP .                         : COMPANY
WELL .                         : WELL
FLD  .                         : FIELD
LOC  .                         : LOCATION
PROV .                         : PROVINCE
CNTY .                         : COUNTY
STAT .                         : STATE
CTRY .                         : COUNTRY
SRVC .                         : SERVICE COMPANY
DATE .                         : DATE
UWI  .                         : UNIQUE WELL ID
API  .                         : API NUMBER
SLAT .WGS84 6.0498442064033995 : SURFACE LATITUDE
SLON .WGS84  2.802371128346195 : SURFACE LONGITUDE
DATUM.F                    nan : DEPTH DATUM ELEV
~Curve Information -----------------------------------------
DEPT   .FT    : 
AT10   .OHMM  : ARRAY INDUCTION TWO FOOT RESISTIVITY A10
AT20   .OHMM  : ARRAY INDUCTION TWO FOOT RESISTIVITY A20
AT30   .OHMM  : ARRAY INDUCTION TWO FOOT RESISTIVITY A30
AT90   .OHMM  : ARRAY INDUCTION TWO FOOT RESISTIVITY A90
DPHZ_LS.DEC   : HGRD STANDARD RESOLUTION DENSITY POROSITY
DTCO   .US/F  : DELTA-T COMPRESSIONAL
DTSM   .US/F  : DELTA-T SHEAR
ECGRS  .GAPI  : ENVIRONMENTALLY CORRECTED GAMMA RAY FROM SONIC LOG
HCALR  .IN    : HRCC CALIPER CALIBRATED FROM RESISTIVITY LOG
HCALS  .IN    : HRCC CALIPER CALIBRATED FROM SONIC LOG
HDRA   .G/C3  : HRDD SPINE AND RIBS DENSITY CORRECTION
PEFZ   .B/E   : HRDD STANDARD RESOLUTION FORMATION PHOTOELECTRIC FACTOR
RHOZ   .G/C3  : HRDD STANDARD RESOLUTION FORMATION DENSITY
SPR    .MV    : SPONTANEOUS POTENTIAL FROM RESISTIVITY LOG
TNPH_LS.DEC   : THERMAL NEUTRON POROSITY [LIMESTONE]
~Params ----------------------------------------------------
~Other -----------------------------------------------------
~ASCII -----------------------------------------------------
# ...
 3795.00000   -9999.25    2.12130    4.12770    4.68400    0.13220   72.78340  136.18110  120.65950   12.49350   12.45360    0.13990    2.92370    2.43810  -49.53360    0.22380
 3795.50000   -9999.25    1.66570    2.62890    3.88640    0.18360   90.29890  141.50220  123.61110   13.41520   13.37330    0.10610    2.87860    2.34110  -50.62670    0.21680
 3796.00000   -9999.25    1.21000    1.80930    2.88940    0.25380  102.86080  156.94070  127.09420   14.08150   14.08750    0.05000    2.83360    2.23840  -50.68040    0.26390
 3796.50000   -9999.25    1.12080    1.45520    2.45040    0.29920  106.39420  172.37920  127.27780   14.77010   14.65020    0.02340    2.81660    2.14960  -50.73420    0.29920
 3797.00000   -9999.25    1.11630    1.41510    2.52130    0.29940  106.32980  187.81770  126.09970   14.39250   14.77280    0.01270    2.81840    2.13440  -50.68040    0.39210
 3797.50000   -9999.25    1.16040    1.52280    3.02950    0.29960  105.26310  196.36110  127.47900   14.69230   14.67180    0.01500    2.86050    2.15210  -49.49860    0.43840
 3798.00000   -9999.25    1.20460    1.63050    3.75650    0.29980  105.61020  211.85040  129.43830   15.51410   15.45080    0.01730    2.89260    2.17820  -48.49790    0.44050
 3798.50000   -9999.25    1.24880    1.68350    4.20720    0.29990  103.21580  231.75250  124.82620   13.54850   13.42660    0.01860    2.89880    2.19330  -48.09760    0.44240
 3799.00000   -9999.25    1.29300    1.72280    4.55220    0.29810  100.91230  237.32080  126.69750   13.66750   13.77520    0.02240    2.90080    2.20120  -48.36540    0.44960
 3799.50000   -9999.25    1.31950    1.76210    4.53370    0.28920  100.30140  240.00000  133.03100   14.08150   14.23990    0.02610    2.92970    2.22060  -48.63320    0.42640
 3800.00000   -9999.25    1.31950    1.77780    4.16710    0.27140   99.98550  239.90070  138.09780   14.47160   14.43920    0.04250    2.96510    2.25240  -48.72430    0.42810
 3800.50000   -9999.25    1.31950    1.74380    3.67770    0.26660   98.64030  239.80140  137.17190   14.60340   14.41210    0.04610    3.00050    2.25050  -48.77120    0.41240
 3801.00000   -9999.25    1.31950    1.65880    3.00410    0.27950   96.60960  239.70210  140.10400   15.24750   15.37520    0.04450    3.02590    2.22970  -48.81820    0.42330
 3801.50000   -9999.25    1.40360    1.76880    3.20910    0.29330   93.39360  239.62190  134.84490   13.75950   13.59520    0.04290    3.06470    2.20520  -48.86850    0.43850
 3802.00000   -9999.25    1.48940    1.99270    3.62910    0.29950   92.66550  234.69640  132.62660   13.08200   13.13890    0.03150    3.06720    2.19700  -48.59590    0.41660
 3802.50000   -9999.25    1.57520    2.09390    3.85180    0.29390   92.51890  229.77090  129.71070   13.44710   13.42740    0.02450    3.02650    2.20830  -47.47470    0.38880
 3803.00000   -9999.25    1.66100    2.19510    3.74240    0.29980   92.48450  219.17870  125.14550   13.64840   13.68170    0.02900    3.03500    2.15150  -47.47470    0.37770
 3803.50000   -9999.25    1.67440    2.21540    3.56000    0.30000   92.66500  208.63100  122.97440   13.57070   13.57890    0.03510    2.94020    2.09780  -47.86320    0.39790
 3804.00000   -9999.25    1.62150    2.15050    3.43650    0.29990   93.15430  213.59520  125.28920   14.22590   14.29310    0.04850    2.94200    2.02800  -47.75990    0.40800
 3804.50000   -9999.25    1.56850    2.06930    3.38010    0.29970   93.89370  213.15590  129.14720   14.08780   13.88190    0.05210    2.96200    2.07290  -47.46280    0.38180
 3805.00000   -9999.25    1.51560    1.98810    3.23750    0.29940   94.60960  210.35050  131.79630   13.90380   13.87110    0.05570    3.07310    2.17310  -47.16580    0.38070
 3805.50000   -9999.25    1.50030    1.90700    3.17620    0.28440   95.14370  212.94430  130.05420   14.35910   14.33640    0.05480    3.09420    2.24540  -46.86870    0.34870
 3806.00000   -9999.25    1.48510    1.86690    3.16760    0.25940   95.74040  205.59800  131.77070   14.08150   14.28230    0.04050    3.09810    2.27060  -45.85860    0.37660
 3806.50000   -9999.25    1.47300    1.86020    3.14180    0.24880   95.94590  205.96490  130.99910   13.93160   13.82940    0.02630    3.10200    2.28740  -45.45450    0.37020
 3807.00000   -9999.25    1.54350    1.90270    3.46460    0.24060   95.56050  211.43190  132.90130   13.02650   13.18400    0.01810    3.07690    2.29900  -45.65650    0.38310
 3807.50000   -9999.25    1.63170    1.95250    3.35350    0.23350   95.39340  220.65590  131.80930   13.17090   13.41390    0.01330    3.07970    2.30930  -45.43280    0.37020
 3808.00000   -9999.25    1.71990    2.03580    3.59400    0.22820   95.62460  226.84670  131.56640   13.96380   13.92110    0.01310    3.08500    2.32690  -44.65680    0.37680
 3808.50000   -9999.25    1.80810    2.12110    3.49440    0.21440   95.39070  231.09170  128.52990   14.74040   14.27580    0.02610    3.10450    2.34850  -44.24240    0.36000
 3809.00000   -9999.25    1.89630    2.20640    3.38090    0.20140   94.93980  231.93730  128.37560   14.00380   15.16960    0.04080    3.15020    2.37020  -44.42820    0.35740
 3809.50000   -9999.25    2.16100    2.56450    4.53660    0.19400   94.84580  213.74090  130.07310   14.16760   14.32490    0.06290    3.22730    2.37710  -44.64640    0.35480
 3810.00000   -9999.25    2.38240    2.92270    5.98120    0.19980   94.46920  225.37440  135.47450   15.72510   15.38430    0.07630    3.29230    2.36850  -44.35780    0.35190
 3810.50000   -9999.25    2.28820    2.78320    4.98880    0.19750   93.99900  223.43640  134.54870   15.68810   15.68900    0.08960    3.34150    2.37130  -44.06920    0.33600
 3811.00000   -9999.25    2.14750    2.43440    3.60500    0.19380   93.08130  219.82050  135.78320   15.88060   15.94870    0.08610    3.31210    2.37830  -43.83280    0.32190
 3811.50000   -9999.25    2.09120    2.37430    3.25920    0.19250   91.75860  215.04320  131.02500   14.32580   14.94390    0.07440    3.26310    2.37800  -43.52710    0.33260
 3812.00000   -9999.25    2.16040    2.56300    3.72330    0.19920   90.43590  212.84960  128.49290   14.20370   14.20660    0.06140    3.21410    2.36700  -42.88270    0.32970
 3812.50000   -9999.25    2.53000    2.88950    4.09460    0.19750   89.36780  211.30190  123.85510   13.15980   13.08120    0.05800    3.16340    2.37060  -42.18850    0.31030
 3813.00000   -9999.25    2.95880    3.36420    4.57050    0.18270   88.16080  199.61090  120.68850   13.35750   13.44910    0.05470    3.14870    2.40280  -41.38670    0.27790
 3813.50000   -9999.25    3.16200    3.71220    4.76090    0.16190   87.37110  187.24540  118.73480   13.20980   13.16780    0.06940    3.18370    2.43010  -40.28540    0.25320
 3814.00000   -9999.25    3.19280    3.85590    4.14420    0.15000   86.46340  174.88000  114.15180   13.34860   13.27600    0.08740    3.22590    2.45690  -39.21570    0.23230
 3814.50000   -9999.25    3.22360    3.49780    3.78960    0.14190   81.33500  162.51450  115.26910   13.13760   13.15690    0.10380    3.22520    2.46670  -38.92960    0.22760
 3815.00000   -9999.25    3.25430    3.41220    3.70780    0.13900   78.64550  161.52720  116.05920   13.65030   13.57890    0.11370    3.17530    2.46990  -39.63910    0.22680
 3815.50000   -9999.25    3.24720    3.41220    3.46460    0.14370   78.64300  160.46850  119.57950   13.43740   13.53570    0.09530    3.09510    2.46100  -40.34860    0.22190
 3816.00000   -9999.25    3.03410    3.19150    3.62850    0.15630   79.29640  158.70410  112.79060   13.17830   13.13660    0.07690    3.04830    2.43720  -41.05810    0.22000
 3816.50000   -9999.25    2.78420    2.97070    3.52790    0.17960   79.90460  157.45360  110.12360   12.32690   12.29130    0.07320    3.09860    2.39460  -41.76760    0.22900
 3817.00000   -9999.25    2.53430    2.98900    3.02690    0.19870   82.26800  158.61790  114.96750   13.18640   13.18400    0.09820    3.20290    2.36320  -42.24230    0.25570
 3817.50000   -9999.25    2.33440    3.00730    2.62620    0.21450   82.64600  161.33380  121.55920   14.29990   14.49870    0.12480    3.30720    2.32830  -41.61600    0.28620
