~Version ---------------------------------------------------
VERS.   2.0 : CWLS log ASCII Standard -VERSION 2.0
WRAP.    NO : One line per depth step
DLM . SPACE : Column Data Section Delimiter
~Well ------------------------------------------------------
STRT .FT                   0.0 : START DEPTH
STOP .FT               10320.0 : STOP DEPTH
STEP .FT                   0.5 : STEP
NULL .                -9999.25 : NULL VALUE
COMP .                         : COMPANY
WELL .                         : WELL
FLD  .                         : FIELD
LOC  .                         : LOCATION
PROV .                         : PROVINCE
CNTY .                         : COUNTY
STAT .                         : STATE
CTRY .                         : COUNTRY
SRVC .                         : SERVICE COMPANY
DATE .                         : DATE
UWI  .                         : UNIQUE WELL ID
API  .                         : API NUMBER
SLAT .WGS84 6.0498442064033995 : SURFACE LATITUDE
SLON .WGS84  2.802371128346195 : SURFACE LONGITUDE
DATUM.F                    nan : DEPTH DATUM ELEV
~Curve Information -----------------------------------------
DEPT   .FT    : 
AT10   .OHMM  : ARRAY INDUCTION TWO FOOT RESISTIVITY A10
AT20   .OHMM  : ARRAY INDUCTION TWO FOOT RESISTIVITY A20
AT30   .OHMM  : ARRAY INDUCTION TWO FOOT RESISTIVITY A30
AT90   .OHMM  : ARRAY INDUCTION TWO FOOT RESISTIVITY A90
DPHZ_LS.DEC   : HGRD STANDARD RESOLUTION DENSITY POROSITY
DTCO   .US/F  : DELTA-T COMPRESSIONAL
DTSM   .US/F  : DELTA-T SHEAR
ECGRS  .GAPI  : ENVIRONMENTALLY CORRECTED GAMMA RAY FROM SONIC LOG
HCALR  .IN    : HRCC CALIPER CALIBRATED FROM RESISTIVITY LOG
HCALS  .IN    : HRCC CALIPER CALIBRATED FROM SONIC LOG
HDRA   .G/C3  : HRDD SPINE AND RIBS DENSITY CORRECTION
PEFZ   .B/E   : HRDD STANDARD RESOLUTION FORMATION PHOTOELECTRIC FACTOR
RHOZ   .G/C3  : HRDD STANDARD RESOLUTION FORMATION DENSITY
SPR    .MV    : SPONTANEOUS POTENTIAL FROM RESISTIVITY LOG
TNPH_LS.DEC   : THERMAL NEUTRON POROSITY [LIMESTONE]
~Params ----------------------------------------------------
~Other -----------------------------------------------------
~ASCII -----------------------------------------------------
# ...
 2415.00000   -9999.25    0.39430    0.45220    0.53950    0.29950  120.94580   -9999.25  127.63130   14.57000   14.48510    0.06880    3.81510    2.08020  -50.82820    0.45720
 2415.50000   -9999.25    0.40170    0.44760    0.54400    0.29940  119.04550   -9999.25  127.66460   14.94760   14.25400    0.06520    3.80820    2.10860  -49.80710    0.49590
 2416.00000   -9999.25    0.42880    0.51770    0.63630    0.29940  117.57730   -9999.25  117.33520   12.80430   12.57590    0.04950    3.69490    2.17960  -48.57310    0.53860
 2416.50000   -9999.25    0.49410    0.58770    0.72410    0.26820  115.00000   -9999.25  114.82480   13.00420   13.32850    0.03380    3.60180    2.25060  -47.37360    0.50810
 2417.00000   -9999.25    0.54900    0.61580    0.72970    0.27880  114.30410   -9999.25  113.19190   12.45260   12.66110    0.04250    3.62720    2.23990  -46.89890    0.48400
 2417.50000   -9999.25    0.54460    0.60320    0.69190    0.29970  114.12370   -9999.25  113.72400   12.16020   12.27140    0.06740    3.77260    2.16790  -47.86030    0.54940
 2418.00000   -9999.25    0.52180    0.58750    0.65410    0.30010  114.25220   -9999.25  115.87380   12.64440   12.24720    0.10150    3.90560    2.09120  -49.63720    0.61060
 2418.50000   -9999.25    0.49910    0.56970    0.65160   -9999.25  113.90720   -9999.25  116.89260   13.33740   13.11180    0.10720    3.95250    2.02110  -51.41410    0.61180
 2419.00000   -9999.25    0.47630    0.55320    0.63140   -9999.25  114.52520   -9999.25  121.02470   13.92590   14.11290    0.11090    3.99940    2.02790  -51.54400    0.54820
 2419.50000   -9999.25    0.45400    0.52890    0.60610   -9999.25  116.90720   -9999.25  123.81290   14.52560   14.51150    0.09980    3.97990    2.07390  -51.41410    0.44910
 2420.00000   -9999.25    0.43230    0.49290    0.56720   -9999.25  118.70600   -9999.25  119.97400   13.91260   13.84530    0.08640    3.79820    2.11410  -51.11970    0.43970
 2420.50000   -9999.25    0.42780    0.47130    0.53840   -9999.25  120.19270   -9999.25  119.32140   13.21520   13.48350    0.07330    3.63200    2.13960  -50.57810    0.47800
 2421.00000   -9999.25    0.44830    0.50840    0.57900   -9999.25  121.92560   -9999.25  120.76400   12.92640   13.00550    0.06210    3.49400    2.15660  -48.49190    0.51600
 2421.50000   -9999.25    0.46880    0.55470    0.61950   -9999.25  123.51190   -9999.25  125.00140   12.52670   12.55950    0.05540    3.41460    2.17050  -47.57570    0.49950
 2422.00000   -9999.25    0.47070    0.53930    0.64670   -9999.25  125.21350   -9999.25  125.69770   12.81540   12.82750    0.06030    3.41400    2.16260  -47.66100    0.47630
 2422.50000   -9999.25    0.45990    0.51370    0.60710   -9999.25  125.67010   -9999.25  125.01670   13.09300   13.04680    0.06570    3.42150    2.13760  -48.08750    0.48650
 2423.00000   -9999.25    0.44920    0.48810    0.59130   -9999.25  126.87600   -9999.25  127.31500   12.51560   12.73010    0.06270    3.44110    2.11510  -48.51390    0.47650
 2423.50000   -9999.25    0.43840    0.47880    0.59650   -9999.25  127.52240   -9999.25  127.25410   14.11470   14.03350    0.05810    3.46070    2.10170  -48.94030    0.44670
 2424.00000   -9999.25    0.42760    0.47360    0.59860   -9999.25  128.62830   -9999.25  127.19330   14.44790   14.56950    0.05320    3.50870    2.08770  -48.66810    0.43480
 2424.50000   -9999.25    0.41680    0.46490    0.57320   -9999.25  129.87040   -9999.25  120.77790   13.93700   13.72900    0.04770    3.59930    2.08270  -48.35740    0.47240
 2425.00000   -9999.25    0.41870    0.44700    0.56080   -9999.25  130.66640   -9999.25  116.85370   12.77100   12.85190    0.05070    3.64060    2.09880  -48.02560    0.52370
 2425.50000   -9999.25    0.42360    0.45500    0.56080   -9999.25  131.04630   -9999.25  121.06810   13.57050   13.68030    0.05100    3.60960    2.12950  -47.55330    0.56090
 2426.00000   -9999.25    0.42840    0.46300    0.55580    0.30030  130.84270   -9999.25  123.12370   12.82650   12.90060    0.05110    3.60380    2.16440  -46.96970    0.53570
 2426.50000   -9999.25    0.43330    0.47000    0.55400    0.29960  128.35050   -9999.25  122.35050   13.01530   13.20520    0.05390    3.60530    2.19020  -46.89900    0.50640
 2427.00000   -9999.25    0.43810    0.47300    0.55180    0.28890  123.94330   -9999.25  120.20740   13.10410   12.81070    0.06550    3.63390    2.21340  -47.49490    0.48670
 2427.50000   -9999.25    0.44290    0.47590    0.53330    0.27660  120.30920   -9999.25  119.18450   12.68490   12.67160    0.06550    3.60780    2.23800  -48.05530    0.53340
 2428.00000   -9999.25    0.47160    0.48780    0.52330    0.26270  119.17310   -9999.25  122.87230   13.52610   13.50970    0.05930    3.55800    2.26210  -47.65140    0.51420
 2428.50000   -9999.25    0.51310    0.53130    0.55640    0.24620  118.76280   -9999.25  117.16240   12.34900   12.36460    0.05420    3.51940    2.29210  -47.24740    0.48950
 2429.00000   -9999.25    0.55470    0.57190    0.58740    0.22460  116.54050   -9999.25  118.08830   12.36010   12.55950    0.05950    3.48070    2.32210  -46.84340    0.44360
 2429.50000   -9999.25    0.57960    0.60080    0.61840    0.20910  114.25750  240.22570  111.57430   12.73210   12.32810    0.06480    3.46620    2.35210  -45.65250    0.39940
 2430.00000   -9999.25    0.57680    0.60110    0.61170    0.21460  111.41230  240.22570  108.68220   12.26010   12.74230    0.07850    3.50060    2.34090  -45.81310    0.34710
 2430.50000   -9999.25    0.57400    0.58740    0.60060    0.21030  109.53200  240.22570  109.54980   12.90420   12.57160    0.08800    3.54170    2.35020  -46.41760    0.35920
 2431.00000   -9999.25    0.57700    0.60920    0.64260    0.19070  106.02440  223.22660  112.49720   12.51550   12.83940    0.08420    3.61710    2.38270  -46.35950    0.33990
 2431.50000   -9999.25    0.62910    0.69620    0.72980    0.15710  104.23700  218.17730  111.60210   12.87090   12.31540    0.06540    3.71460    2.45070  -45.95960    0.38760
 2432.00000   -9999.25    0.74180    0.83530    0.88770    0.12480  106.41260  211.75250  105.53610   13.71490   13.56410    0.05210    3.82520    2.49630  -43.87820    0.31900
 2432.50000   -9999.25    0.83870    1.00400    1.25450    0.14790  109.64420  204.37840  100.94720   12.24900   12.33140    0.03840    3.88660    2.48520  -45.04040    0.30930
 2433.00000   -9999.25    0.71680    0.84870    1.00780    0.20610  108.93790  194.21380  105.14970   12.26010   12.32720    0.03870    3.86790    2.38210  -47.18690    0.32420
 2433.50000   -9999.25    0.51940    0.59000    0.69950    0.26430  108.93050  206.04550  117.61880   12.30450   12.40010    0.04170    3.80290    2.25890  -50.35660    0.45150
 2434.00000   -9999.25    0.43960    0.47330    0.53630    0.29930  108.27130  221.32500  130.89080   13.72600   13.51720    0.07530    3.74070    2.16040  -51.07290    0.58240
 2434.50000   -9999.25    0.41940    0.45170    0.53680    0.29950  108.51300  227.43680  130.27280   13.73990   13.87420    0.09320    3.67850    2.18830  -51.15220    0.56310
 2435.00000   -9999.25    0.49190    0.54010    0.65120    0.26550  111.51080  220.86100  116.63490   12.78210   12.87470    0.10160    3.66150    2.25690  -50.46630    0.53160
 2435.50000   -9999.25    0.57830    0.72410    0.76560    0.22300  117.31950  214.28520  109.12070   12.38230   12.43600    0.09240    3.83030    2.41360  -48.98990    0.41570
 2436.00000   -9999.25    1.22920    1.44580    1.62760    0.10940  124.39960  209.22870   89.32860   12.99310   13.09760    0.08170    4.07330    2.57880  -48.46340    0.29970
 2436.50000   -9999.25    2.37070    3.89190    4.00200   -0.02300  136.75250  199.60970   66.32510   12.84650   12.86250    0.07010    4.44180    2.74960  -47.80520    0.07560
 2437.00000   -9999.25    4.09440    6.45610   11.10610   -0.09420  148.59610  201.68350   43.32160   12.18240   12.23250    0.02230    4.81430    2.88660  -47.14700    0.03250
 2437.50000   -9999.25    3.94830    6.99010   10.54910   -0.08030  149.43290  200.57250   34.67370   12.18360   12.21610   -0.02560    4.92450    2.84190  -46.56570    0.02330
