~Version ---------------------------------------------------
VERS.   2.0 : CWLS log ASCII Standard -VERSION 2.0
WRAP.    NO : One line per depth step
DLM . SPACE : Column Data Section Delimiter
~Well ------------------------------------------------------
STRT .FT                   0.0 : START DEPTH
STOP .FT               10320.0 : STOP DEPTH
STEP .FT                   0.5 : STEP
NULL .                -9999.25 : NULL VALUE
COMP .                         : COMPANY
WELL .                         : WELL
FLD  .                         : FIELD
LOC  .                         : LOCATION
PROV .                         : PROVINCE
CNTY .                         : COUNTY
STAT .                         : STATE
CTRY .                         : COUNTRY
SRVC .                         : SERVICE COMPANY
DATE .                         : DATE
UWI  .                         : UNIQUE WELL ID
API  .                         : API NUMBER
SLAT .WGS84 6.0498442064033995 : SURFACE LATITUDE
SLON .WGS84  2.802371128346195 : SURFACE LONGITUDE
DATUM.F                    nan : DEPTH DATUM ELEV
~Curve Information -----------------------------------------
DEPT   .FT    : 
AT10   .OHMM  : ARRAY INDUCTION TWO FOOT RESISTIVITY A10
AT20   .OHMM  : ARRAY INDUCTION TWO FOOT RESISTIVITY A20
AT30   .OHMM  : ARRAY INDUCTION TWO FOOT RESISTIVITY A30
AT90   .OHMM  : ARRAY INDUCTION TWO FOOT RESISTIVITY A90
DPHZ_LS.DEC   : HGRD STANDARD RESOLUTION DENSITY POROSITY
DTCO   .US/F  : DELTA-T COMPRESSIONAL
DTSM   .US/F  : DELTA-T SHEAR
ECGRS  .GAPI  : ENVIRONMENTALLY CORRECTED GAMMA RAY FROM SONIC LOG
HCALR  .IN    : HRCC CALIPER CALIBRATED FROM RESISTIVITY LOG
HCALS  .IN    : HRCC CALIPER CALIBRATED FROM SONIC LOG
HDRA   .G/C3  : HRDD SPINE AND RIBS DENSITY CORRECTION
PEFZ   .B/E   : HRDD STANDARD RESOLUTION FORMATION PHOTOELECTRIC FACTOR
RHOZ   .G/C3  : HRDD STANDARD RESOLUTION FORMATION DENSITY
SPR    .MV    : SPONTANEOUS POTENTIAL FROM RESISTIVITY LOG
TNPH_LS.DEC   : THERMAL NEUTRON POROSITY [LIMESTONE]
~Params ----------------------------------------------------
~Other -----------------------------------------------------
~ASCII -----------------------------------------------------
# ...
 7935.00000   -9999.25    7.96960    8.38190    8.58010    0.02850   71.37150  127.49460  116.97610   12.15370   12.11250    0.02950    3.35120    2.65980  -52.82300    0.20990
 7935.50000   -9999.25    8.01190    8.48190    8.68240    0.03240   71.63530  127.36960  118.96280   12.17860   12.15150    0.02490    3.33820    2.65340  -52.82830    0.20620
 7936.00000   -9999.25    8.05420    8.58180    8.78470    0.04290   71.58970  127.67860  122.40970   12.19280   12.15970    0.02080    3.32120    2.63920  -53.00670    0.20400
 7936.50000   -9999.25    7.95740    8.31960    8.51630    0.04570   71.94710  128.15940  123.22720   12.13130   12.12340    0.01770    3.29620    2.63070  -53.03030    0.21460
 7937.00000   -9999.25    7.65180    8.05740    8.24800    0.04270   72.62960  128.53240  119.37020   12.14390   12.12700    0.03350    3.27130    2.63470  -53.42960    0.22270
 7937.50000   -9999.25    7.34620    7.79520    7.97960    0.03610   72.91860  129.38140  116.97470   12.15020   12.13060    0.05520    3.25380    2.64610  -53.43440    0.22840
 7938.00000   -9999.25    7.21640    7.63820    7.81880    0.03950   73.28880  130.23050  116.63510   12.26490   12.22780    0.06680    3.30220    2.64390  -53.43440    0.23370
 7938.50000   -9999.25    7.20390    7.76070    7.94430    0.04310   73.54170  131.07950  116.57540   12.33310   12.38090    0.07510    3.33440    2.63600  -53.43440    0.23500
 7939.00000   -9999.25    7.19140    7.96450    8.15290    0.04360   73.84590  131.55280  122.06060   12.20200   12.24410    0.07600    3.36000    2.63270  -53.43440    0.24410
 7939.50000   -9999.25    7.20160    7.79760    7.98200    0.03430   74.13850  131.81610  120.22160   12.18110   12.13320    0.07690    3.38270    2.64900  -53.43440    0.24170
 7940.00000   -9999.25    7.30260    7.78690    7.97100    0.03040   74.22270  132.24130  122.06130   12.16760   12.14970    0.07780    3.41060    2.65650  -53.59420    0.24440
 7940.50000   -9999.25    7.40370    7.97300    8.16160    0.02760   74.32520  132.51770  120.45820   12.15420   12.20210    0.07610    3.42110    2.66050  -53.59460    0.24660
 7941.00000   -9999.25    7.50470    8.12230    8.31440    0.02890   74.17660  132.47170  118.95550   12.14780   12.16320    0.07430    3.44460    2.65870  -53.59500    0.24660
 7941.50000   -9999.25    7.42940    8.04910    8.23950    0.02670   73.97100  132.48670  116.96290   12.14320   12.13270    0.06890    3.44460    2.66190  -53.59550    0.24860
 7942.00000   -9999.25    7.35420    7.92650    8.11400    0.02530   73.80680  132.00690  119.60140   12.13080   12.11090    0.05460    3.44460    2.66530  -53.59590    0.24680
 7942.50000   -9999.25    7.27890    7.80390    7.98850    0.02410   73.74060  132.05540  119.16670   12.13140   12.16980    0.04250    3.42030    2.66660  -53.59640    0.24290
 7943.00000   -9999.25    7.20360    7.71930    7.90180    0.02600   73.66410  132.37900  117.52030   12.11110   12.13150    0.04530    3.39600    2.66510  -53.59680    0.23460
 7943.50000   -9999.25    7.11470    7.77220    7.95600    0.02520   73.94830  132.58830  114.64200   12.11380   12.15600    0.05800    3.37160    2.66530  -53.26230    0.23920
 7944.00000   -9999.25    7.02240    7.74120    7.92430    0.02660   74.69500  132.79750  117.71260   12.10770   12.15210    0.06220    3.36370    2.66360  -53.08810    0.24370
 7944.50000   -9999.25    6.93010    7.47830    7.65520    0.03040   74.64890  133.00680  120.54730   12.10170   12.16090    0.06480    3.36210    2.65650  -53.18430    0.24710
 7945.00000   -9999.25    6.83780    7.29110    7.46350    0.03350   74.55890  133.17160  122.26100   12.13730   12.14030    0.05850    3.37040    2.65140  -53.28050    0.24290
 7945.50000   -9999.25    6.74550    7.37190    7.54630    0.03340   74.69500  133.15870  118.89520   12.12380   12.13470    0.04870    3.37090    2.65140  -53.37670    0.25400
 7946.00000   -9999.25    6.65320    7.37250    7.54680    0.03070   74.51490  133.06950  116.85970   12.13220   12.15340    0.04210    3.36900    2.65660  -53.43440    0.25580
 7946.50000   -9999.25    6.68550    7.47800    7.65490    0.03000   73.94530  132.86170  114.55570   12.17800   12.20010    0.03600    3.35300    2.65690  -53.32640    0.26500
 7947.00000   -9999.25    6.93660    7.68740    8.00930    0.03150   73.88690  132.91510  117.11850   12.14320   12.16000    0.03430    3.33530    2.65390  -53.27340    0.26520
 7947.50000   -9999.25    7.18770    7.89680    8.36380    0.03130   73.94420  132.87530  121.13000   12.24240   12.22920    0.03820    3.34230    2.65460  -53.03030    0.27040
 7948.00000   -9999.25    7.27280    8.10610    8.64740    0.02780   74.39860  133.15560  123.48810   12.17800   12.21290    0.04200    3.37240    2.66160  -53.03030    0.25770
 7948.50000   -9999.25    7.24730    8.12980    8.44510    0.02940   74.10840  132.79820  123.23580   12.08080   12.10260    0.04510    3.37020    2.65770  -53.03030    0.25800
 7949.00000   -9999.25    7.22180    8.06420    8.25480    0.03040   73.51670  132.51100  119.16910   12.07640   12.12200    0.04810    3.36790    2.65650  -53.03030    0.25840
 7949.50000   -9999.25    7.20640    8.06540    8.25600    0.03340   73.91370  132.40410  115.24100   12.06810   12.08670    0.05030    3.36570    2.65100  -53.03030    0.25350
 7950.00000   -9999.25    7.23180    7.98270    8.17140    0.03030   73.69550  132.29720  115.37430   12.07640   12.08140    0.04620    3.37170    2.65720  -53.06430    0.25710
 7950.50000   -9999.25    7.25730    7.89990    8.08670    0.02990   73.89460  132.19020  114.59850   12.05690   12.07330    0.03960    3.37990    2.65780  -53.11120    0.26900
 7951.00000   -9999.25    7.28270    7.81720    8.00200    0.02850   74.23390  132.39770  114.89340   12.04280   12.07850    0.03430    3.40810    2.65840  -53.31320    0.28050
 7951.50000   -9999.25    7.30810    7.73450    7.91740    0.02900   74.12330  132.16430  114.26800   12.04740   12.05480    0.03710    3.45280    2.65860  -53.51520    0.28020
 7952.00000   -9999.25    7.33360    7.91580    8.10300    0.02770   74.00720  132.54410  119.85440   12.05680   12.06760    0.04050    3.49060    2.66030  -53.71720    0.25600
 7952.50000   -9999.25    7.35900    8.14250    8.33500    0.03120   73.89390  132.23360  118.61220   12.10200   12.09190    0.05450    3.50810    2.65590  -54.01260    0.27980
 7953.00000   -9999.25    7.38440    7.95620    8.14430    0.02890   73.57170  132.15390  121.05060   12.12520   12.12230    0.07780    3.51870    2.65990  -54.21010    0.27760
 7953.50000   -9999.25    7.03410    7.49040    7.66750    0.02830   73.77960  132.00880  119.36850   12.04440   12.03540    0.08320    3.51870    2.66290  -54.22810    0.28900
 7954.00000   -9999.25    6.68380    7.21090    7.38140    0.02130   73.95750  131.52580  120.80630   12.05450   12.21830    0.08820    3.47860    2.67320  -54.11230    0.27200
 7954.50000   -9999.25    7.15470    7.88640    8.07290    0.01720   73.63730  131.74280  120.31710   12.17550   12.10460    0.06720    3.42800    2.67930  -53.79590    0.27690
 7955.00000   -9999.25    7.62570    8.56190    8.76430    0.01570   72.77280  131.32140  117.99890   12.13580   12.08350    0.04860    3.37750    2.68240  -53.61660    0.27690
 7955.50000   -9999.25    8.00740    9.23740    9.45580    0.02500   73.06880  130.89990  115.83200   12.04600   12.05220    0.02460    3.33540    2.66870  -53.43440    0.26470
 7956.00000   -9999.25    8.00190    9.12530    9.34100    0.03050   73.58620  130.47850  112.93930   12.00200   12.04140    0.00960    3.32770    2.65900  -53.46590    0.26190
 7956.50000   -9999.25    7.98810    8.56470    8.76720    0.03080   72.71950  130.26700  113.66530   12.00420   11.98940    0.01300    3.37180    2.65560  -53.22750    0.26240
 7957.00000   -9999.25    7.97430    8.48130    8.85690    0.02800   72.21810  129.94010  115.66380   12.03780   12.06080    0.01870    3.41850    2.66190  -53.20320    0.27540
 7957.50000   -9999.25    7.96050    8.68810    9.11230    0.03230   72.10630  129.00110  113.72380   12.06810   12.07580    0.02240    3.43050    2.65420  -53.17900    0.27210
