~Version ---------------------------------------------------
VERS.   2.0 : CWLS log ASCII Standard -VERSION 2.0
WRAP.    NO : One line per depth step
DLM . SPACE : Column Data Section Delimiter
~Well ------------------------------------------------------
STRT .FT                   0.0 : START DEPTH
STOP .FT               10320.0 : STOP DEPTH
STEP .FT                   0.5 : STEP
NULL .                -9999.25 : NULL VALUE
COMP .                         : COMPANY
WELL .                         : WELL
FLD  .                         : FIELD
LOC  .                         : LOCATION
PROV .                         : PROVINCE
CNTY .                         : COUNTY
STAT .                         : STATE
CTRY .                         : COUNTRY
SRVC .                         : SERVICE COMPANY
DATE .                         : DATE
UWI  .                         : UNIQUE WELL ID
API  .                         : API NUMBER
SLAT .WGS84 6.0498442064033995 : SURFACE LATITUDE
SLON .WGS84  2.802371128346195 : SURFACE LONGITUDE
DATUM.F                    nan : DEPTH DATUM ELEV
~Curve Information -----------------------------------------
DEPT   .FT    : 
AT10   .OHMM  : ARRAY INDUCTION TWO FOOT RESISTIVITY A10
AT20   .OHMM  : ARRAY INDUCTION TWO FOOT RESISTIVITY A20
AT30   .OHMM  : ARRAY INDUCTION TWO FOOT RESISTIVITY A30
AT90   .OHMM  : ARRAY INDUCTION TWO FOOT RESISTIVITY A90
DPHZ_LS.DEC   : HGRD STANDARD RESOLUTION DENSITY POROSITY
DTCO   .US/F  : DELTA-T COMPRESSIONAL
DTSM   .US/F  : DELTA-T SHEAR
ECGRS  .GAPI  : ENVIRONMENTALLY CORRECTED GAMMA RAY FROM SONIC LOG
HCALR  .IN    : HRCC CALIPER CALIBRATED FROM RESISTIVITY LOG
HCALS  .IN    : HRCC CALIPER CALIBRATED FROM SONIC LOG
HDRA   .G/C3  : HRDD SPINE AND RIBS DENSITY CORRECTION
PEFZ   .B/E   : HRDD STANDARD RESOLUTION FORMATION PHOTOELECTRIC FACTOR
RHOZ   .G/C3  : HRDD STANDARD RESOLUTION FORMATION DENSITY
SPR    .MV    : SPONTANEOUS POTENTIAL FROM RESISTIVITY LOG
TNPH_LS.DEC   : THERMAL NEUTRON POROSITY [LIMESTONE]
~Params ----------------------------------------------------
~Other -----------------------------------------------------
~ASCII -----------------------------------------------------
# ...
 4715.00000   -9999.25    3.31220    3.72310    4.29880    0.11580   92.06490  178.05670  131.90550   12.40720   12.28410    0.10010    3.38280    2.51300  -33.33220    0.29870
 4715.50000   -9999.25    3.37570    3.64300    4.09970    0.11210   92.28510  170.82450  132.56230   12.52590   12.59890    0.09650    3.32280    2.51310  -33.76510    0.26250
 4716.00000   -9999.25    2.76090    2.88670    3.31800    0.12460   90.05810  163.53710  132.41760   12.85110   12.95080    0.08920    3.31330    2.49410  -34.35930    0.26770
 4716.50000   -9999.25    2.39930    2.60160    2.88400    0.12240   87.37090  160.74780  132.83790   12.91140   12.91170    0.07780    3.43100    2.50460  -34.59750    0.27600
 4717.00000   -9999.25    3.73180    4.19300    4.89000    0.10880   84.66650  156.45860  130.86480   13.63070   13.75530    0.05980    3.66350    2.52970  -34.52050    0.26880
 4717.50000   -9999.25    5.38810    6.18240    8.01960    0.06910   82.19630  151.66390  118.05610   12.73850   13.04030    0.05370    3.94760    2.58570  -34.32180    0.22230
 4718.00000   -9999.25    5.90060    7.14710    9.89680    0.05650   78.61820  147.30510  106.38380   12.20320   12.18120    0.04830    4.19790    2.61190  -34.12310    0.20680
 4718.50000   -9999.25    6.08540    6.57800    8.22670    0.04520   70.36060  138.16480  100.10000   12.18470   12.24290    0.05170    4.32850    2.63180  -33.92440    0.19750
 4719.00000   -9999.25    6.44300    6.74310    8.60620    0.03610   68.44310  134.03470   95.98810   12.17540   12.58240    0.05500    4.37650    2.64610  -33.14670    0.18310
 4719.50000   -9999.25    6.67960    8.52130   10.59940    0.02480   68.84100  130.86110   88.91500   12.14650   12.20180    0.03960    4.39320    2.66540  -32.57260    0.14320
 4720.00000   -9999.25    8.00160   10.23370   10.65960    0.01870   68.87610  129.49890   82.30100   12.14220   12.17090    0.02700    4.38300    2.67550  -32.60080    0.12250
 4720.50000   -9999.25    7.51780   10.07650   10.26810    0.01650   67.45980  129.11620   75.10550   12.16800   12.21210    0.01440    4.33190    2.67870  -33.22940    0.10460
 4721.00000   -9999.25    8.25430   10.96210   12.14600    0.01400   69.50550  129.84180   70.71960   12.20130   12.20180    0.00370    4.26320    2.68330  -34.52600    0.09140
 4721.50000   -9999.25    9.33760   15.23990   17.20360    0.01580   70.43080  132.24820   72.93260   12.16280   12.19150    0.00270    4.11120    2.68150  -36.01760    0.08640
 4722.00000   -9999.25    8.42300   12.06780   13.37400    0.04130   71.32500  134.24020   83.65760   12.16440   12.19150    0.01610    3.84870    2.62520  -38.09920    0.10060
 4722.50000   -9999.25    4.06830    5.10410    8.81550    0.07530   71.99720  136.59510   98.76560   12.19470   12.20180    0.05840    3.50550    2.54450  -40.64020    0.13790
 4723.00000   -9999.25    2.72280    3.27210    4.25690    0.11730   73.90290  139.43790  114.00520   12.27390   12.29090    0.09660    3.21010    2.49250  -42.41180    0.20200
 4723.50000   -9999.25    2.70590    3.13170    3.52270    0.12040   78.81960  142.50910  129.71950   12.89310   13.01450    0.10970    3.10130    2.51950  -42.56920    0.24510
 4724.00000   -9999.25    3.52480    4.16510    4.72010    0.09660   84.61820  145.58030  128.73480   12.59650   12.44870    0.09780    3.11840    2.55170  -41.32820    0.24530
 4724.50000   -9999.25    4.15940    4.78510    5.66800    0.07940   85.45900  148.88860  126.38910   12.91940   12.94250    0.08660    3.14380    2.57600  -39.81050    0.23320
 4725.00000   -9999.25    4.03180    4.65820    5.86080    0.07950   84.60110  155.11210  120.72320   12.20520   12.20690    0.08550    3.16930    2.57130  -38.99510    0.24330
 4725.50000   -9999.25    3.89480    4.17220    5.15360    0.08450   83.98010  157.48620  123.42170   12.62240   12.70590    0.09460    3.18910    2.55990  -38.45180    0.24640
 4726.00000   -9999.25    3.80030    3.99410    4.53380    0.08570   82.17710  157.78140  129.91920   12.28530   12.36640    0.11250    3.18920    2.56480  -37.84820    0.25130
 4726.50000   -9999.25    3.70590    3.97580    4.19090    0.08060   81.93580  156.05300  130.48520   12.29170   12.27890    0.11660    3.21360    2.56730  -37.24460    0.25780
 4727.00000   -9999.25    3.67200    4.13120    4.37280    0.07850   82.36460  155.37840  132.92740   12.32500   12.41780    0.12080    3.23100    2.57180  -36.80220    0.25980
 4727.50000   -9999.25    3.83570    4.19830    4.46050    0.08170   82.18010  155.28940  135.69870   12.70170   12.73680    0.12330    3.26450    2.56860  -36.80520    0.25560
 4728.00000   -9999.25    3.76470    4.06110    4.39440    0.08400   82.22920  155.33800  138.23330   12.25690   12.19660    0.12660    3.30190    2.56500  -37.49480    0.24300
 4728.50000   -9999.25    3.69500    4.08750    4.49080    0.08100   81.94310  155.28190  139.55270   12.61570   12.56700    0.13000    3.30130    2.56920  -38.09010    0.23580
 4729.00000   -9999.25    3.81190    4.30420    4.56790    0.07110   81.38910  154.83680  134.41380   12.46900   12.53610    0.12930    3.29460    2.58510  -38.41610    0.23370
 4729.50000   -9999.25    3.81190    4.30420    4.67190    0.07480   80.80800  154.64490  130.16050   12.23340   12.43840    0.12410    3.27430    2.58060  -38.22980    0.23160
 4730.00000   -9999.25    3.81190    4.25100    4.76310    0.07810   80.88760  154.53520  129.44880   12.65960   12.18120    0.12390    3.27010    2.57590  -37.79380    0.22690
 4730.50000   -9999.25    3.84370    4.30430    4.72060    0.08700   81.03770  155.11290  131.38070   12.32990   12.27380    0.12830    3.26590    2.56300  -37.57560    0.22220
 4731.00000   -9999.25    3.90750    4.24190    4.65510    0.08760   81.28660  155.74730  133.34010   12.39730   12.24290    0.13280    3.26170    2.55790  -37.46750    0.22450
 4731.50000   -9999.25    3.81300    4.04900    4.47190    0.09700   81.45570  156.66540  132.47460   12.18850   12.19150    0.13390    3.25760    2.54370  -37.28730    0.23640
 4732.00000   -9999.25    3.63800    3.89470    4.40530    0.10410   82.56700  157.72840  127.18980   12.10790   12.07830    0.13130    3.22810    2.53080  -37.10710    0.25060
 4732.50000   -9999.25    3.57220    4.09340    4.33870    0.10830   82.96900  158.85480  121.28650   12.37050   12.46930    0.12860    3.22070    2.52410  -36.92700    0.26440
 4733.00000   -9999.25    3.52110    4.02130    4.28680    0.10580   83.48130  159.77710  119.23120   12.32000   12.80880    0.12710    3.22210    2.52490  -36.72790    0.26970
 4733.50000   -9999.25    3.47000    3.84180    4.20360    0.09530   84.21950  160.69470  123.28980   12.51200   12.69560    0.13400    3.23730    2.54130  -36.44630    0.27740
 4734.00000   -9999.25    3.46980    3.66230    4.03820    0.09150   85.48910  161.14420  131.68000   12.56250   12.72650    0.13720    3.25640    2.55210  -36.35560    0.26790
 4734.50000   -9999.25    3.48500    3.70750    4.12370    0.08980   85.92870  161.41800  137.15840   12.91090   12.46930    0.13060    3.25710    2.55490  -36.34240    0.25860
 4735.00000   -9999.25    3.50440    3.94170    4.42040    0.09130   84.37100  161.69350  139.20430   12.55470   12.83970    0.12390    3.25780    2.55220  -36.16150    0.25290
 4735.50000   -9999.25    3.57120    3.96600    4.47940    0.08820   84.31500  161.18340  137.48840   12.69360   12.38700    0.12050    3.25850    2.55800  -36.24330    0.25120
 4736.00000   -9999.25    3.63810    3.92480    4.45600    0.08160   84.42900  160.15560  136.34320   12.31650   12.45080    0.11590    3.24140    2.57130  -36.07350    0.25510
 4736.50000   -9999.25    3.69140    4.03700    4.70900    0.07540   85.38620  159.23720  133.65590   12.41760   12.62360    0.09670    3.19760    2.57870  -35.95940    0.24600
 4737.00000   -9999.25    3.85930    4.33820    4.82590    0.07620   82.65410  157.07720  132.53720   12.38570   12.45210    0.07770    3.15370    2.57800  -36.04780    0.23820
 4737.50000   -9999.25    4.10530    4.48630    5.23250    0.08540   82.11060  155.52470  130.45850   12.33010   12.14010    0.08120    3.11360    2.56090  -36.48970    0.23740
