~Version ---------------------------------------------------
VERS.   2.0 : CWLS log ASCII Standard -VERSION 2.0
WRAP.    NO : One line per depth step
DLM . SPACE : Column Data Section Delimiter
~Well ------------------------------------------------------
STRT .FT                   0.0 : START DEPTH
STOP .FT               10320.0 : STOP DEPTH
STEP .FT                   0.5 : STEP
NULL .                -9999.25 : NULL VALUE
COMP .                         : COMPANY
WELL .                         : WELL
FLD  .                         : FIELD
LOC  .                         : LOCATION
PROV .                         : PROVINCE
CNTY .                         : COUNTY
STAT .                         : STATE
CTRY .                         : COUNTRY
SRVC .                         : SERVICE COMPANY
DATE .                         : DATE
UWI  .                         : UNIQUE WELL ID
API  .                         : API NUMBER
SLAT .WGS84 6.0498442064033995 : SURFACE LATITUDE
SLON .WGS84  2.802371128346195 : SURFACE LONGITUDE
DATUM.F                    nan : DEPTH DATUM ELEV
~Curve Information -----------------------------------------
DEPT   .FT    : 
AT10   .OHMM  : ARRAY INDUCTION TWO FOOT RESISTIVITY A10
AT20   .OHMM  : ARRAY INDUCTION TWO FOOT RESISTIVITY A20
AT30   .OHMM  : ARRAY INDUCTION TWO FOOT RESISTIVITY A30
AT90   .OHMM  : ARRAY INDUCTION TWO FOOT RESISTIVITY A90
DPHZ_LS.DEC   : HGRD STANDARD RESOLUTION DENSITY POROSITY
DTCO   .US/F  : DELTA-T COMPRESSIONAL
DTSM   .US/F  : DELTA-T SHEAR
ECGRS  .GAPI  : ENVIRONMENTALLY CORRECTED GAMMA RAY FROM SONIC LOG
HCALR  .IN    : HRCC CALIPER CALIBRATED FROM RESISTIVITY LOG
HCALS  .IN    : HRCC CALIPER CALIBRATED FROM SONIC LOG
HDRA   .G/C3  : HRDD SPINE AND RIBS DENSITY CORRECTION
PEFZ   .B/E   : HRDD STANDARD RESOLUTION FORMATION PHOTOELECTRIC FACTOR
RHOZ   .G/C3  : HRDD STANDARD RESOLUTION FORMATION DENSITY
SPR    .MV    : SPONTANEOUS POTENTIAL FROM RESISTIVITY LOG
TNPH_LS.DEC   : THERMAL NEUTRON POROSITY [LIMESTONE]
~Params ----------------------------------------------------
~Other -----------------------------------------------------
~ASCII -----------------------------------------------------
# ...
 5175.00000   -9999.25    3.64310    3.80590    4.37320    0.14020   81.88650  140.79330  124.62960   12.96970   12.82930    0.15500    3.05750    2.47360  -44.80120    0.29950
 5175.50000   -9999.25    3.74510    3.96650    4.50790    0.12080   81.18810  139.33560  107.40740   12.82900   13.02480    0.13500    2.94850    2.51030  -48.04190    0.24380
 5176.00000   -9999.25    3.57310    3.79440    4.10800    0.08690   79.24800  135.86900   88.28710   12.41000   12.17090    0.09630    2.82190    2.55370  -53.06050    0.20000
 5176.50000   -9999.25    3.20000    3.42370    3.60780    0.09220   76.28020  129.58750   74.53700   12.22890   12.17090    0.03810    2.71910    2.54840  -56.21710    0.15670
 5177.00000   -9999.25    3.00870    3.15180    3.39220    0.10450   72.78340  127.27020   70.91380   12.20200   12.17090    0.00800    2.65050    2.52950  -58.85940    0.14410
 5177.50000   -9999.25    3.18380    3.53590    3.67960    0.10240   70.67000  126.86660   67.48970   12.19390   12.17530   -0.00540    2.67110    2.53460  -60.53030    0.13410
 5178.00000   -9999.25    3.65560    3.89090    4.13150    0.08480   69.44840  127.39470   62.26850   12.18850   12.18270   -0.00540    2.71230    2.56440  -61.75080    0.11950
 5178.50000   -9999.25    3.84490    4.17500    4.45850    0.07380   69.46040  127.91210   58.03740   12.18850   12.19000   -0.00050    2.73440    2.58170  -60.45660    0.09890
 5179.00000   -9999.25    3.69340    4.04510    4.37470    0.08000   69.58750  128.98940   59.47010   12.18850   12.19740    0.00380    2.75650    2.56830  -58.54790    0.10210
 5179.50000   -9999.25    3.63690    3.82810    4.03720    0.08620   70.32690  130.36420   69.52160   12.16750   12.20180    0.00900    2.77860    2.55930  -56.72270    0.12160
 5180.00000   -9999.25    3.72040    3.85280    4.03810    0.08750   72.38720  132.42350   78.99160   12.29460   12.20180    0.02050    2.80080    2.56150  -54.98720    0.14230
 5180.50000   -9999.25    3.82650    4.05810    4.18720    0.08740   73.61720  134.48280   82.54650   12.35520   12.32520    0.03490    2.80610    2.55090  -53.73740    0.15810
 5181.00000   -9999.25    3.93250    4.31470    4.49770    0.10410   74.69910  137.22930   84.47580   12.18250   12.17090    0.04040    2.80730    2.52640  -51.12810    0.17100
 5181.50000   -9999.25    4.01720    4.42930    4.76080    0.12050   75.75870  139.35060   88.55630   12.23230   12.17090    0.08630    2.83360    2.50060  -47.36190    0.18890
 5182.00000   -9999.25    4.02770    4.42930    4.79010    0.12940   77.02570  140.75200   96.94620   12.30800   12.28410    0.11540    2.91860    2.49210  -44.65230    0.20420
 5182.50000   -9999.25    4.17920    4.55300    4.71520    0.11430   78.31010  143.06660  107.02180   12.33670   12.38700    0.15620    2.98020    2.51420  -42.66640    0.22700
 5183.00000   -9999.25    4.35530    4.97070    5.48560    0.10610   80.15990  146.76340  116.55710   12.67340   12.67500    0.14790    3.07410    2.53300  -41.41420    0.23520
 5183.50000   -9999.25    4.54760    5.38840    5.88120    0.09260   82.28650  148.68450  120.21620   12.26930   12.25320    0.13970    3.11800    2.55140  -40.38300    0.23960
 5184.00000   -9999.25    4.26810    4.96490    5.53860    0.09640   82.15670  149.51140  122.95340   12.26930   12.78820    0.13190    3.14100    2.54250  -39.17710    0.24550
 5184.50000   -9999.25    3.98860    4.43590    5.16560    0.10070   82.05020  149.93230  125.62980   12.32320   12.57470    0.12870    3.16390    2.53700  -38.78790    0.25150
 5185.00000   -9999.25    4.07480    4.30350    4.95250    0.09960   81.44320  149.57270  126.57430   13.02350   12.91170    0.12190    3.18680    2.54240  -38.38390    0.25930
 5185.50000   -9999.25    4.19130    5.14480    5.87810    0.08770   79.43080  150.48480  121.05570   12.26930   12.33550    0.11580    3.21490    2.55870  -37.97850    0.23780
 5186.00000   -9999.25    4.99050    5.98610    6.80350    0.08930   79.87720  150.84720  114.87120   12.21540   12.21210    0.11610    3.20740    2.55560  -37.97510    0.22810
 5186.50000   -9999.25    5.27670    5.70490    6.39670    0.09430   80.24560  151.20970  111.82120   12.16160   12.18120    0.11750    3.21770    2.54800  -37.68680    0.21970
 5187.00000   -9999.25    4.46840    5.00290    5.41020    0.09360   79.46900  151.57370  114.27270   12.24690   12.05770    0.13700    3.21980    2.54750  -37.39850    0.23740
 5187.50000   -9999.25    3.91130    4.75120    4.42360    0.08990   79.37040  151.26360  118.98780   12.64640   12.70590    0.15170    3.23530    2.55280  -37.11020    0.24310
 5188.00000   -9999.25    3.99770    4.99350    4.71180    0.09460   78.74980  151.65550  117.19750   12.71380   12.84310    0.15110    3.21310    2.54160  -36.76770    0.25030
 5188.50000   -9999.25    4.08420    4.80780    5.07220    0.11480   78.39990  151.49910  115.89270   12.96970   12.40750    0.14340    3.12220    2.50790  -36.68990    0.25200
 5189.00000   -9999.25    3.97900    4.56850    4.84270    0.12300   79.24830  153.53270  115.82470   12.29630   12.48980    0.15650    3.05350    2.49790  -36.61620    0.25660
 5189.50000   -9999.25    3.93310    4.35150    4.70520    0.11740   79.70920  153.19310  121.44040   12.73400   12.81910    0.17150    3.06040    2.51270  -36.94140    0.24990
 5190.00000   -9999.25    4.31800    4.90410    5.39610    0.09070   80.12650  155.82460  123.76220   12.24240   12.29440    0.17510    3.07240    2.54720  -37.37380    0.23970
 5190.50000   -9999.25    4.31780    5.07450    5.46360    0.08620   80.40170  157.62940  125.90350   12.54540   12.61890    0.17420    3.08440    2.55670  -37.39180    0.23230
 5191.00000   -9999.25    3.97570    4.60180    4.97790    0.10300   80.72160  160.03920  128.21000   12.25590   12.36740    0.17320    3.09470    2.52740  -36.94220    0.23660
 5191.50000   -9999.25    3.63370    4.23040    4.56470    0.12180   81.34470  162.13590  130.12120   12.88890   12.90290    0.17100    3.09860    2.49800  -36.02350    0.24770
 5192.00000   -9999.25    3.38600    3.88150    4.23130    0.12690   82.40820  163.76410  129.49900   12.63300   12.67190    0.16870    3.13720    2.50010  -35.42280    0.27200
 5192.50000   -9999.25    3.30960    3.76830    4.15300    0.10960   83.29890  165.96190  133.25840   12.67340   12.72650    0.16500    3.22280    2.52040  -34.84040    0.29350
 5193.00000   -9999.25    3.25410    3.70010    4.15530    0.10730   84.78270  168.27840  137.86050   12.99660   12.96610    0.12930    3.29720    2.52500  -34.25790    0.29800
 5193.50000   -9999.25    3.21630    3.72580    4.14360    0.11680   85.97520  171.27850  136.63300   12.64640   12.59630    0.10430    3.32550    2.50460  -33.97560    0.29890
 5194.00000   -9999.25    3.13790    3.66660    4.09180    0.13110   86.34180  176.02140  133.17260   12.49830   12.52990    0.09220    3.34760    2.47670  -33.49440    0.30100
 5194.50000   -9999.25    3.02940    3.50090    4.05070    0.14360   86.70100  176.80280  129.11990   12.56560   12.78250    0.09370    3.41470    2.46330  -32.92920    0.31100
 5195.00000   -9999.25    2.99370    3.34460    3.81810    0.13840   86.80400  176.59390  126.21390   13.19190   13.10540    0.09680    3.41700    2.47190  -32.52520    0.31280
 5195.50000   -9999.25    3.06890    3.33490    3.73790    0.12910   87.06230  176.52470  123.81790   13.12050   12.98930    0.10390    3.37600    2.48830  -32.29070    0.31310
 5196.00000   -9999.25    3.20210    3.46440    3.88060    0.12110   87.53110  177.02810  127.36420   13.04600   13.05160    0.11030    3.33510    2.50310  -32.12120    0.31310
 5196.50000   -9999.25    3.28200    3.59960    4.07810    0.12270   87.93810  177.03600  133.17860   12.91240   12.88740    0.11400    3.26450    2.49840  -32.21800    0.31360
 5197.00000   -9999.25    3.17890    3.53820    4.00550    0.12660   88.29890  176.80400  134.79810   12.93820   13.05260    0.11850    3.18060    2.49370  -31.89990    0.31800
 5197.50000   -9999.25    3.06740    3.46140    3.88910    0.13510   88.57030  175.96950  138.54140   12.70030   12.79590    0.12090    3.21460    2.47650  -31.66190    0.33730
