~Version ---------------------------------------------------
VERS.   2.0 : CWLS log ASCII Standard -VERSION 2.0
WRAP.    NO : One line per depth step
DLM . SPACE : Column Data Section Delimiter
~Well ------------------------------------------------------
STRT .FT                   0.0 : START DEPTH
STOP .FT               10320.0 : STOP DEPTH
STEP .FT                   0.5 : STEP
NULL .                -9999.25 : NULL VALUE
COMP .                         : COMPANY
WELL .                         : WELL
FLD  .                         : FIELD
LOC  .                         : LOCATION
PROV .                         : PROVINCE
CNTY .                         : COUNTY
STAT .                         : STATE
CTRY .                         : COUNTRY
SRVC .                         : SERVICE COMPANY
DATE .                         : DATE
UWI  .                         : UNIQUE WELL ID
API  .                         : API NUMBER
SLAT .WGS84 6.0498442064033995 : SURFACE LATITUDE
SLON .WGS84  2.802371128346195 : SURFACE LONGITUDE
DATUM.F                    nan : DEPTH DATUM ELEV
~Curve Information -----------------------------------------
DEPT   .FT    : 
AT10   .OHMM  : ARRAY INDUCTION TWO FOOT RESISTIVITY A10
AT20   .OHMM  : ARRAY INDUCTION TWO FOOT RESISTIVITY A20
AT30   .OHMM  : ARRAY INDUCTION TWO FOOT RESISTIVITY A30
AT90   .OHMM  : ARRAY INDUCTION TWO FOOT RESISTIVITY A90
DPHZ_LS.DEC   : HGRD STANDARD RESOLUTION DENSITY POROSITY
DTCO   .US/F  : DELTA-T COMPRESSIONAL
DTSM   .US/F  : DELTA-T SHEAR
ECGRS  .GAPI  : ENVIRONMENTALLY CORRECTED GAMMA RAY FROM SONIC LOG
HCALR  .IN    : HRCC CALIPER CALIBRATED FROM RESISTIVITY LOG
HCALS  .IN    : HRCC CALIPER CALIBRATED FROM SONIC LOG
HDRA   .G/C3  : HRDD SPINE AND RIBS DENSITY CORRECTION
PEFZ   .B/E   : HRDD STANDARD RESOLUTION FORMATION PHOTOELECTRIC FACTOR
RHOZ   .G/C3  : HRDD STANDARD RESOLUTION FORMATION DENSITY
SPR    .MV    : SPONTANEOUS POTENTIAL FROM RESISTIVITY LOG
TNPH_LS.DEC   : THERMAL NEUTRON POROSITY [LIMESTONE]
~Params ----------------------------------------------------
~Other -----------------------------------------------------
~ASCII -----------------------------------------------------
# ...
 3335.00000   -9999.25    3.53970    2.87730    2.75500    0.07970   73.88110  133.70510   63.94620   12.22450   12.22460    0.04770    3.86920    2.56870  -51.40840    0.14790
 3335.50000   -9999.25    3.28420    2.69880    2.43310    0.09550   73.70350  134.50190   58.33330   12.21440   12.24950    0.03010    3.55120    2.54170  -56.75340    0.14010
 3336.00000   -9999.25    2.69930    2.28960    1.91120    0.11040   74.21890  134.45220   56.03510   12.19410   12.21390    0.01690    3.10430    2.49920  -61.11660    0.14880
 3336.50000   -9999.25    2.11450    1.82270    1.50740    0.14030   75.29720  133.52760   52.09740   12.17370   12.19250    0.00460    2.89870    2.46080  -65.49270    0.16290
 3337.00000   -9999.25    2.08210    1.72940    1.32100    0.15280   75.33310  134.35980   48.11220   12.17290   12.19250    0.00180    2.71160    2.44250  -70.02660    0.16320
 3337.50000   -9999.25    2.04960    1.72230    1.22690    0.16080   74.93490  138.73750   41.27540   12.17840   12.19320    0.00140    2.56090    2.43260  -71.55330    0.15150
 3338.00000   -9999.25    1.90970    1.56020    1.12840    0.16500   76.57300  142.48820   40.42470   12.18380   12.19450    0.00100    2.43490    2.42430  -72.13100    0.13210
 3338.50000   -9999.25    1.60850    1.39800    1.04730    0.16830   76.70890  144.72700   41.52760   12.18930   12.19580    0.00060    2.38300    2.41880  -70.93760    0.14690
 3339.00000   -9999.25    1.35030    1.27190    0.97440    0.17140   77.25310  146.42790   44.80270   12.19600   12.19710    0.00020    2.39760    2.41260  -68.56770    0.17450
 3339.50000   -9999.25    1.28130    1.20850    0.98240    0.17590   77.96140  148.55940   50.01760   12.20270   12.19480    0.01150    2.48570    2.40660  -65.22830    0.21010
 3340.00000   -9999.25    1.37770    1.34580    1.09300    0.17740   80.72970  152.97930   60.87040   12.20940   12.21270    0.04220    2.71060    2.42750  -58.65460    0.24020
 3340.50000   -9999.25    1.52960    1.55830    1.30870    0.14430   83.74100  153.28770   78.39540   12.19090   12.25960    0.08380    3.02660    2.47140  -53.10900    0.24800
 3341.00000   -9999.25    1.68150    1.77080    1.52450    0.12230   84.28880  153.74500   98.45720   12.16260   12.33960    0.12540    3.24100    2.49950  -48.08080    0.25400
 3341.50000   -9999.25    1.84800    2.03210    1.84950    0.11680   83.97300  155.07150  116.59000   12.70670   12.47640    0.14440    3.26290    2.50940  -45.96070    0.25520
 3342.00000   -9999.25    2.07310    2.36660    2.53610    0.11730   83.06780  155.14420  122.05710   12.01820   12.03190    0.14120    3.19470    2.48860  -43.69080    0.25440
 3342.50000   -9999.25    2.29820    2.70110    2.91650    0.12880   80.66220  155.53970  124.79990   12.71780   12.50290    0.13450    3.08670    2.50320  -42.02020    0.25370
 3343.00000   -9999.25    2.52330    3.03560    3.22030    0.12180   75.76220  156.37270  124.50360   12.27360   12.97380    0.12400    3.05600    2.50870  -41.60460    0.25600
 3343.50000   -9999.25    2.74290    3.39490    3.79650    0.10950   72.92330  155.83450  121.69650   12.70670   12.62920    0.10560    3.04470    2.52790  -41.61010    0.23370
 3344.00000   -9999.25    2.96110    3.77080    4.25590    0.10850   70.32700  149.39230  109.02820   12.33660   12.43870    0.06380    3.13840    2.52450  -41.98060    0.22130
 3344.50000   -9999.25    3.87220    4.31440    4.99990    0.08780   67.76490  133.90850   94.41050   12.28470   12.63130    0.05120    3.32420    2.56160  -42.06130    0.17550
 3345.00000   -9999.25    4.78340    5.72660    7.37590    0.11060   65.89260  130.74840   79.87770   12.27140   12.20320    0.05470    3.46390    2.51750  -41.62600    0.12210
 3345.50000   -9999.25    4.55610    5.38510    5.91640    0.15290   64.34320  128.14540   77.50200   12.16260   12.18820    0.09280    3.50340    2.41070  -40.20200    0.11900
 3346.00000   -9999.25    2.51060    3.83740    3.48460    0.21320   66.53210  129.41550   90.89540   12.17370   12.23530    0.14990    3.45270    2.33190  -38.18180    0.16200
 3346.50000   -9999.25    2.16680    3.32650    2.68440    0.23440   69.63990  131.11080  112.34620   13.44520   13.11830    0.18850    3.44250    2.31110  -36.62820    0.22420
 3347.00000   -9999.25    2.31660    3.86830    4.13810    0.23310   71.67580  132.22170  118.33610   13.49150   13.37620    0.18360    3.43710    2.31220  -35.75760    0.28630
 3347.50000   -9999.25    2.06910    3.53210    4.92420    0.24130   74.81840  141.87250  123.11780   12.72890   12.85610    0.16220    3.43180    2.29460  -35.52310    0.33160
 3348.00000   -9999.25    1.68830    2.34000    3.61630    0.28770   80.07840  153.47240  119.04590   13.29530   13.52110    0.11720    3.42640    2.21370  -35.50650    0.37010
 3348.50000   -9999.25    1.30740    1.70270    2.47140    0.29990   82.60400  165.07240  116.85400   14.18370   14.47220    0.08070    3.42100    2.13030  -35.88890    0.41210
 3349.00000   -9999.25    1.21110    1.48870    2.23280    0.30030   85.16190  176.67230  106.34390   14.65010   14.39940    0.06730    3.34490    2.09690  -36.14130    0.45910
 3349.50000   -9999.25    1.24270    1.58870    2.99010   -9999.25   89.73990  188.27220   95.83370   13.40640   13.42330    0.07240    3.32190    2.11650  -35.69690    0.46450
 3350.00000   -9999.25    1.35160    1.75560    3.76740   -9999.25   94.55490  202.65300   91.98740   13.80140   13.74730    0.07870    3.32910    2.16890  -35.43990    0.48780
 3350.50000   -9999.25    1.46060    1.92240    4.34210   -9999.25   94.42470  214.63490   94.09890   14.70570   14.88570    0.08640    3.34210    2.18150  -35.05020    0.52690
 3351.00000   -9999.25    1.56960    2.08930    5.06450   -9999.25   94.92600  225.43220   93.29270   15.72370   16.02400    0.09640    3.34360    2.14470  -34.29260    0.54890
 3351.50000   -9999.25    1.66570    2.26540    5.80870   -9999.25   94.41650  232.97570   95.53100   16.82470   16.63520    0.10420    3.34500    2.08750  -33.53500    0.48970
 3352.00000   -9999.25    1.75850    2.30290    6.46890   -9999.25   93.85870  229.65500   90.83190   16.02510   16.07060    0.10440    3.36350    2.05840  -33.63600    0.45510
 3352.50000   -9999.25    1.76880    2.22040    5.81950   -9999.25   93.64300  226.27200   94.16850   15.83850   16.42020    0.07960    3.39780    2.05840  -33.72420    0.45860
 3353.00000   -9999.25    1.72970    2.28300    6.11190   -9999.25   93.97160  225.38020   91.30250   17.38000   17.41910    0.05490    3.41550    2.06850  -33.56240    0.45240
 3353.50000   -9999.25    1.69050    2.30100    5.30640   -9999.25   93.31050  226.06460   87.58410   16.24720   16.46440    0.02910    3.43310    2.06640  -33.13320    0.42410
 3354.00000   -9999.25    1.65930    2.14420    4.33020   -9999.25   92.96320  224.56960   83.29740   14.20600   16.02780    0.01110    3.45080    2.06850  -32.33370    0.42000
 3354.50000   -9999.25    1.66630    2.17990    4.30050   -9999.25   92.09450  221.33180   82.69730   13.90620   14.25770    0.02070    3.41610    2.09320  -31.30110    0.40260
 3355.00000   -9999.25    1.87450    2.54300    5.12630   -9999.25   89.82940  219.07360   83.21170   14.30590   14.11490    0.03860    3.36970    2.13890  -30.07090    0.38030
 3355.50000   -9999.25    2.08260    2.78360    5.77440   -9999.25   88.54530  215.72800   79.84580   14.00610   14.08470    0.05100    3.32630    2.17720  -29.26460    0.35070
 3356.00000   -9999.25    2.29080    2.99360    6.09240   -9999.25   87.55720  210.23940   81.55640   14.49800   14.56850    0.04990    3.28480    2.19460  -28.74080    0.32750
 3356.50000   -9999.25    2.36040    3.20360    5.56780   -9999.25   86.76690  202.93630   85.37080   15.56120   15.52960    0.04160    3.25050    2.18320  -28.21710    0.31390
 3357.00000   -9999.25    2.41620    3.23680    5.08610   -9999.25   85.01830  198.75810   88.43220   16.12510   16.08130    0.03150    3.22110    2.16900  -27.69330    0.30790
 3357.50000   -9999.25    2.37690    2.98190    4.50180    0.29960   84.00350  192.04160   85.37270   14.33190   16.01710    0.02690    3.22190    2.15480  -28.05250    0.31030
