~Version ---------------------------------------------------
VERS.   2.0 : CWLS log ASCII Standard -VERSION 2.0
WRAP.    NO : One line per depth step
DLM . SPACE : Column Data Section Delimiter
~Well ------------------------------------------------------
STRT .FT                   0.0 : START DEPTH
STOP .FT               10320.0 : STOP DEPTH
STEP .FT                   0.5 : STEP
NULL .                -9999.25 : NULL VALUE
COMP .                         : COMPANY
WELL .                         : WELL
FLD  .                         : FIELD
LOC  .                         : LOCATION
PROV .                         : PROVINCE
CNTY .                         : COUNTY
STAT .                         : STATE
CTRY .                         : COUNTRY
SRVC .                         : SERVICE COMPANY
DATE .                         : DATE
UWI  .                         : UNIQUE WELL ID
API  .                         : API NUMBER
SLAT .WGS84 6.0498442064033995 : SURFACE LATITUDE
SLON .WGS84  2.802371128346195 : SURFACE LONGITUDE
DATUM.F                    nan : DEPTH DATUM ELEV
~Curve Information -----------------------------------------
DEPT   .FT    : 
AT10   .OHMM  : ARRAY INDUCTION TWO FOOT RESISTIVITY A10
AT20   .OHMM  : ARRAY INDUCTION TWO FOOT RESISTIVITY A20
AT30   .OHMM  : ARRAY INDUCTION TWO FOOT RESISTIVITY A30
AT90   .OHMM  : ARRAY INDUCTION TWO FOOT RESISTIVITY A90
DPHZ_LS.DEC   : HGRD STANDARD RESOLUTION DENSITY POROSITY
DTCO   .US/F  : DELTA-T COMPRESSIONAL
DTSM   .US/F  : DELTA-T SHEAR
ECGRS  .GAPI  : ENVIRONMENTALLY CORRECTED GAMMA RAY FROM SONIC LOG
HCALR  .IN    : HRCC CALIPER CALIBRATED FROM RESISTIVITY LOG
HCALS  .IN    : HRCC CALIPER CALIBRATED FROM SONIC LOG
HDRA   .G/C3  : HRDD SPINE AND RIBS DENSITY CORRECTION
PEFZ   .B/E   : HRDD STANDARD RESOLUTION FORMATION PHOTOELECTRIC FACTOR
RHOZ   .G/C3  : HRDD STANDARD RESOLUTION FORMATION DENSITY
SPR    .MV    : SPONTANEOUS POTENTIAL FROM RESISTIVITY LOG
TNPH_LS.DEC   : THERMAL NEUTRON POROSITY [LIMESTONE]
~Params ----------------------------------------------------
~Other -----------------------------------------------------
~ASCII -----------------------------------------------------
# ...
 7475.00000   -9999.25    5.75610    6.29680    6.54110    0.03160   77.21430  144.24960  133.48010   12.54660   12.55830    0.09210    3.69910    2.65410  -39.18550    0.24070
 7475.50000   -9999.25    5.88790    6.26500    6.48670    0.03050   77.84800  144.28770  132.03700   12.57970   12.63550    0.08610    3.70600    2.65580  -39.38500    0.22470
 7476.00000   -9999.25    6.01970    6.32470    6.61160    0.03180   79.00490  144.37390  134.80210   12.61970   12.62720    0.06650    3.70620    2.65480  -39.91180    0.21650
 7476.50000   -9999.25    6.30010    6.74870    6.92080    0.03380   79.81130  144.44550  136.42160   12.66450   12.65820    0.05950    3.73270    2.64990  -40.75530    0.21330
 7477.00000   -9999.25    6.63520    7.24190    7.48850    0.03760   80.21280  144.47700  140.43210   12.70920   12.66730    0.05460    3.72870    2.64450  -42.45290    0.22250
 7477.50000   -9999.25    6.97030    7.73510    8.05630    0.04680   80.18650  144.98380  138.55760   12.75610   12.67640    0.07140    3.72470    2.62300  -42.99990    0.23390
 7478.00000   -9999.25    6.89200    7.59430    7.94520    0.06440   80.59320  144.01110  149.05140   12.78420   12.79850    0.07400    3.69590    2.59320  -43.53990    0.24480
 7478.50000   -9999.25    6.52790    7.24520    7.72560    0.08000   79.74220  141.17010  161.05370   12.68320   12.68750    0.07890    3.65060    2.57120  -43.76340    0.26800
 7479.00000   -9999.25    6.17700    6.89610    7.17500    0.07530   77.20900  137.08350  166.56430   12.58220   12.51850    0.08230    3.65510    2.57560  -44.16480    0.27660
 7479.50000   -9999.25    6.17790    6.68690    6.84490    0.05890   74.74220  133.24730  159.00350   12.61860   12.61560    0.07680    3.73380    2.61020  -44.56620    0.25620
 7480.00000   -9999.25    7.43190    8.22270    8.83730    0.03220   72.32830  130.63630  151.44270   12.66400   12.61740    0.06990    3.82630    2.65010  -44.86440    0.19710
 7480.50000   -9999.25    8.68580   10.14220   11.32740    0.01630   70.94100  127.13810  130.16600   12.48130   12.54130    0.05510    3.85410    2.68050  -45.23230    0.16110
 7481.00000   -9999.25   10.03030   11.76100   12.00500    0.01520   70.05520  124.54020  115.49190   12.41480   12.30460    0.03830    3.71760    2.68390  -45.65050    0.14070
 7481.50000   -9999.25   11.79930   14.17860   14.97440    0.01720   69.38660  123.15710  105.89950   12.54730   12.68530    0.03090    3.60650    2.67720  -46.05150    0.12260
 7482.00000   -9999.25   14.60890   17.43100   17.84290    0.03130   69.07360  122.41720  104.24750   12.39720   12.52480    0.03260    3.54710    2.65340  -46.76240    0.11780
 7482.50000   -9999.25   14.28110   15.11000   15.86950    0.03550   69.57030  122.66040  108.79630   12.43830   12.47240    0.06060    3.48760    2.64820  -47.67030    0.12720
 7483.00000   -9999.25    9.07590   11.24000   12.57890    0.03950   69.17320  123.57750  117.01160   12.47940   12.47590    0.09500    3.52410    2.64150  -48.30110    0.15950
 7483.50000   -9999.25    6.95480    8.41850    9.28820    0.03530   70.42070  125.39220  123.56620   12.67980   12.82930    0.12370    3.52510    2.64800  -48.44050    0.18900
 7484.00000   -9999.25    6.06880    7.01290    7.17860    0.03360   72.29570  126.56670  124.94600   12.79750   12.70590    0.12710    3.48440    2.65060  -48.46660    0.20090
 7484.50000   -9999.25    6.70960    7.50590    7.71390    0.03340   73.25750  127.78350  125.54010   12.90030   12.82300    0.11190    3.42090    2.65040  -48.49270    0.19500
 7485.00000   -9999.25    8.02480    9.63850   10.04990    0.03350   73.82130  129.49110  125.57100   12.64910   12.52160    0.09670    3.38280    2.65030  -48.51880    0.19370
 7485.50000   -9999.25    8.28850    9.91810   11.03650    0.03440   73.43120  130.39580  124.09610   12.50730   12.47090    0.09520    3.40290    2.65010  -48.54490    0.18730
 7486.00000   -9999.25    8.04650    9.18090    9.72940    0.03810   73.40010  130.78270  122.43720   12.43310   12.46460    0.09550    3.42190    2.64130  -48.42770    0.18790
 7486.50000   -9999.25    7.56910    8.54930    8.75130    0.04400   73.14300  130.60240  121.49820   12.39250   12.30460    0.09570    3.42090    2.63160  -48.39880    0.18680
 7487.00000   -9999.25    7.09170    8.07580    8.26660    0.04400   72.43210  128.67920  126.72090   12.44930   12.56180    0.09340    3.36500    2.63460  -48.02530    0.18980
 7487.50000   -9999.25    6.99670    7.77700    7.96080    0.03480   72.01030  126.40830  129.91770   12.51460   12.56180    0.08720    3.30130    2.65350  -47.73250    0.19290
 7488.00000   -9999.25    7.11440    7.92450    8.11180    0.02490   71.78630  125.20950  130.09780   12.55120   12.46410    0.07900    3.23760    2.66610  -47.50690    0.19280
 7488.50000   -9999.25    7.70070    8.65370    8.85830    0.02280   70.97010  124.81210  128.04890   12.52400   12.53100    0.06020    3.17390    2.67030  -47.22150    0.17900
 7489.00000   -9999.25    8.28700    9.38290    9.60470    0.04000   71.40600  124.52010  125.06700   12.43700   12.47950    0.03830    3.13600    2.64140  -47.22150    0.16380
 7489.50000   -9999.25    8.87330    9.95710   10.19250    0.04790   70.95230  124.40270  121.91360   12.40580   12.42810    0.02950    3.13810    2.62700  -47.22150    0.15450
 7490.00000   -9999.25    9.16520    9.97590   10.21170    0.04850   70.33830  123.91540  116.33800   12.37460   12.42400    0.03400    3.14850    2.62520  -47.36510    0.15480
 7490.50000   -9999.25    9.16670   10.25220   10.49460    0.03530   69.72430  123.98080  116.11130   12.37760   12.41780    0.03730    3.19250    2.65110  -47.55350    0.15870
 7491.00000   -9999.25    8.32700    9.50870    9.73350    0.02480   69.39680  123.38350  119.59900   12.38920   12.39720    0.04060    3.22580    2.66590  -47.74190    0.16540
 7491.50000   -9999.25    7.41880    8.76510    8.97230    0.02330   69.55230  123.37600  126.25560   12.44480   12.40750    0.04080    3.24680    2.66890  -47.93030    0.17450
 7492.00000   -9999.25    7.65300    8.51530    8.71660    0.02830   70.25810  123.93450  127.65970   12.51650   12.62360    0.03210    3.26100    2.65990  -47.77780    0.18110
 7492.50000   -9999.25    8.04250    8.63380    8.83790    0.03750   70.42360  124.49290  126.23310   12.38020   12.44870    0.02720    3.26790    2.64360  -47.77780    0.17810
 7493.00000   -9999.25    8.35440    8.75230    8.95920    0.04080   70.84010  125.05140  123.98350   12.51690   12.63390    0.03900    3.32090    2.63910  -47.70710    0.17550
 7493.50000   -9999.25    7.48760    8.51210    8.71330    0.04120   71.08240  124.93480  124.22860   12.57520   12.43840    0.05890    3.37240    2.63930  -47.94190    0.17980
 7494.00000   -9999.25    6.40360    7.30690    7.47960    0.03690   70.93310  124.78360  123.95080   12.76400   12.58240    0.07660    3.41590    2.64740  -47.95020    0.18470
 7494.50000   -9999.25    5.97050    6.34290    6.49280    0.03470   70.89700  124.95560  121.61560   12.55790   12.66990    0.07300    3.41660    2.64960  -47.95350    0.18880
 7495.00000   -9999.25    6.47170    7.59220    8.19270    0.03850   71.44900  125.59610  120.17810   12.48560   12.50010    0.06790    3.40680    2.64350  -47.95870    0.18570
 7495.50000   -9999.25    8.22130    9.15360   10.31730    0.04460   71.66740  125.74940  118.75010   12.45450   12.45900    0.05470    3.40590    2.63490  -48.15190    0.18040
 7496.00000   -9999.25    8.46030    9.85930   10.58790    0.05400   72.26280  126.73690  117.61490   12.32900   12.35610    0.05760    3.42260    2.61920  -48.32880    0.17900
 7496.50000   -9999.25    7.63400    8.70170    9.26960    0.05400   72.42480  127.42500  114.25950   12.30030   12.30470    0.07880    3.42720    2.61340  -48.33500    0.18380
 7497.00000   -9999.25    6.80760    7.54410    7.95130    0.04470   72.04370  127.79460  120.23910   12.35160   12.39310    0.10010    3.42640    2.62540  -48.34110    0.19280
 7497.50000   -9999.25    6.68840    7.40320    7.86690    0.03330   71.86960  127.92490  124.13310   12.39240   12.40750    0.10710    3.46220    2.65010  -48.34720    0.19580
