~Version ---------------------------------------------------
VERS.   2.0 : CWLS log ASCII Standard -VERSION 2.0
WRAP.    NO : One line per depth step
DLM . SPACE : Column Data Section Delimiter
~Well ------------------------------------------------------
STRT .FT                   0.0 : START DEPTH
STOP .FT               10320.0 : STOP DEPTH
STEP .FT                   0.5 : STEP
NULL .                -9999.25 : NULL VALUE
COMP .                         : COMPANY
WELL .                         : WELL
FLD  .                         : FIELD
LOC  .                         : LOCATION
PROV .                         : PROVINCE
CNTY .                         : COUNTY
STAT .                         : STATE
CTRY .                         : COUNTRY
SRVC .                         : SERVICE COMPANY
DATE .                         : DATE
UWI  .                         : UNIQUE WELL ID
API  .                         : API NUMBER
SLAT .WGS84 6.0498442064033995 : SURFACE LATITUDE
SLON .WGS84  2.802371128346195 : SURFACE LONGITUDE
DATUM.F                    nan : DEPTH DATUM ELEV
~Curve Information -----------------------------------------
DEPT   .FT    : 
AT10   .OHMM  : ARRAY INDUCTION TWO FOOT RESISTIVITY A10
AT20   .OHMM  : ARRAY INDUCTION TWO FOOT RESISTIVITY A20
AT30   .OHMM  : ARRAY INDUCTION TWO FOOT RESISTIVITY A30
AT90   .OHMM  : ARRAY INDUCTION TWO FOOT RESISTIVITY A90
DPHZ_LS.DEC   : HGRD STANDARD RESOLUTION DENSITY POROSITY
DTCO   .US/F  : DELTA-T COMPRESSIONAL
DTSM   .US/F  : DELTA-T SHEAR
ECGRS  .GAPI  : ENVIRONMENTALLY CORRECTED GAMMA RAY FROM SONIC LOG
HCALR  .IN    : HRCC CALIPER CALIBRATED FROM RESISTIVITY LOG
HCALS  .IN    : HRCC CALIPER CALIBRATED FROM SONIC LOG
HDRA   .G/C3  : HRDD SPINE AND RIBS DENSITY CORRECTION
PEFZ   .B/E   : HRDD STANDARD RESOLUTION FORMATION PHOTOELECTRIC FACTOR
RHOZ   .G/C3  : HRDD STANDARD RESOLUTION FORMATION DENSITY
SPR    .MV    : SPONTANEOUS POTENTIAL FROM RESISTIVITY LOG
TNPH_LS.DEC   : THERMAL NEUTRON POROSITY [LIMESTONE]
~Params ----------------------------------------------------
~Other -----------------------------------------------------
~ASCII -----------------------------------------------------
# ...
 2875.00000   -9999.25    2.03080    2.39850    3.93870    0.18280   82.21610  171.45150   63.30460   12.85730   13.37240    0.15260    3.86050    2.39220  -29.34150    0.27070
 2875.50000   -9999.25    1.88480    2.12250    3.39900    0.18700   86.97490  175.09200   65.79860   13.14190   13.09870    0.14770    3.85700    2.38720  -31.52140    0.29630
 2876.00000   -9999.25    1.97990    2.12190    3.09740    0.18800   88.67440  176.51560   72.72910   13.42650   13.57050    0.13850    3.81660    2.41360  -33.88330    0.29550
 2876.50000   -9999.25    2.17930    2.33130    3.08480    0.15620   88.70210  177.16560   76.06910   13.41570   13.48510    0.12930    3.77160    2.45640  -35.45460    0.29290
 2877.00000   -9999.25    2.34840    2.47710    3.17400    0.12430   90.59220  176.14410   77.19370   12.79250   12.75780    0.11420    3.69310    2.49910  -37.24590    0.26230
 2877.50000   -9999.25    2.22520    2.22370    2.67060    0.09250   89.14770  167.59180   70.81310   12.38660   12.25620    0.10880    3.65450    2.56210  -40.26220    0.23770
 2878.00000   -9999.25    2.01990    1.85160    2.04130    0.08020   83.96610  161.37620   67.97890   12.30640   12.20610    0.10050    3.64310    2.57990  -43.08020    0.23150
 2878.50000   -9999.25    1.74950    1.54490    1.52600    0.08140   81.80370  156.59740   61.32050   12.27040   12.35650    0.08040    3.62380    2.56690  -48.78790    0.25970
 2879.00000   -9999.25    1.19860    1.16070    1.08920    0.10480   80.31120  149.53360   56.35090   12.26390   12.16590    0.05190    3.71940    2.50880  -56.79800    0.28780
 2879.50000   -9999.25    1.10700    1.03760    0.97500    0.13300   76.95830  143.23720   52.62390   12.25730   12.37660    0.02380    3.88530    2.45070  -63.44520    0.31590
 2880.00000   -9999.25    1.24800    1.14920    1.03330    0.15460   74.27800  136.84630   46.67830   12.25080   12.27310    0.00150    4.09720    2.45320  -64.54710    0.31670
 2880.50000   -9999.25    1.38900    1.26090    1.17700    0.14080   71.06440  130.45540   42.58510   12.24430   12.25700   -0.00080    4.32070    2.47560  -63.77100    0.30020
 2881.00000   -9999.25    1.57860    1.41490    1.24630    0.11480   69.46080  128.79350   38.24090   12.23770   12.24100   -0.00280    4.18470    2.52580  -60.42590    0.16600
 2881.50000   -9999.25    1.78030    1.65590    1.69900    0.08720   67.02190  125.56770   39.47990   12.23120   12.23450   -0.00430    3.85240    2.56260  -54.97980    0.12550
 2882.00000   -9999.25    2.60540    2.63810    2.71370    0.07050   65.43050  122.34190   44.45110   12.22990   12.23450   -0.00380    3.58260    2.59170  -49.97790    0.10600
 2882.50000   -9999.25    3.43060    4.11450    4.06150    0.06040   64.60790  119.11620   47.83970   12.22410   12.23030   -0.00280    3.44720    2.60600  -46.75260    0.08610
 2883.00000   -9999.25    4.25570    5.59100    5.40940    0.05880   64.15080  116.71160   53.28260   12.21600   12.22310   -0.00180    3.42630    2.60740  -43.52730    0.07700
 2883.50000   -9999.25    5.15740    7.65500    9.64290    0.06200   64.27570  117.11350   59.58490   12.20830   12.21930   -0.00090    3.57660    2.60090  -40.30210    0.07050
 2884.00000   -9999.25    6.17400    9.42080   15.49490    0.06160   64.59650  117.33180   64.62120   12.20050   12.21550   -0.00080    3.79420    2.60440  -37.67870    0.07600
 2884.50000   -9999.25    6.63440    8.90740   17.76310    0.05760   65.08370  118.26870   65.04560   12.19640   12.21760   -0.00090    3.94690    2.61270  -35.95810    0.08510
 2885.00000   -9999.25    6.64020    8.00450   14.67490    0.05250   65.56740  119.82220   62.28220   12.20780   12.21580   -0.00100    3.99120    2.62050  -34.23760    0.09370
 2885.50000   -9999.25    6.64990    7.64510   11.86330    0.04810   65.86050  122.49010   60.79470   12.21920   12.22120   -0.00110    4.00050    2.62720  -32.51700    0.10350
 2886.00000   -9999.25    6.65950    7.28560    9.86920    0.04950   66.42200  124.33970   61.83860   12.21430   12.20160   -0.00120    4.17020    2.62410  -30.48470    0.11060
 2886.50000   -9999.25    6.48830    6.90300    8.55500    0.05060   66.47250  124.80140   61.45080   12.21700   12.20690   -0.00130    4.17890    2.62240  -28.37390    0.11470
 2887.00000   -9999.25    6.19060    6.52980    7.86640    0.05310   66.33990  125.09990   63.30440   12.21150   12.21220   -0.00140    4.20380    2.61760  -27.10080    0.11600
 2887.50000   -9999.25    6.31220    6.94270    8.30440    0.05340   66.43420  125.39830   58.85470   12.20350   12.23450   -0.00190    4.21420    2.61810  -26.56550    0.10940
 2888.00000   -9999.25    6.46420    7.39770    8.91290    0.05170   66.46300  125.69670   53.98230   12.20310   12.22240   -0.00420    4.25940    2.62210  -26.20150    0.10400
 2888.50000   -9999.25    6.61610    7.67780    9.06230    0.04480   66.67430  126.01320   49.17460   12.20260   12.21640   -0.00370    4.24600    2.63460  -25.83750    0.10230
 2889.00000   -9999.25    6.76810    7.95790    9.22910    0.03450   67.07880  126.49430   47.40620   12.20220   12.19680   -0.00290    4.16460    2.65000  -25.47350    0.09950
 2889.50000   -9999.25    6.66580    7.97110    9.41010    0.02790   67.18540  126.88440   49.43760   12.20180   12.20210   -0.00210    4.09810    2.66240  -24.94840    0.09820
 2890.00000   -9999.25    6.27770    7.47690    8.66700    0.02490   67.28920  127.41600   52.12410   12.20140   12.20750   -0.00140    4.06800    2.66600  -24.07990    0.10220
 2890.50000   -9999.25    5.88960    6.98270    7.73820    0.02840   67.46600  127.99630   54.78440   12.20090   12.21290   -0.00060    4.05220    2.65770  -23.12110    0.11000
 2891.00000   -9999.25    5.50160    6.48840    7.23780    0.03920   67.68520  128.32780   57.43930   12.20050   12.21400   -0.00030    4.07700    2.64450  -22.52530    0.11880
 2891.50000   -9999.25    5.36820    6.09300    6.84460    0.04770   67.76010  128.75130   59.36920   12.20010   12.19670   -0.00030    4.10190    2.63140  -21.91920    0.12270
 2892.00000   -9999.25    5.82170    6.60940    7.36470    0.05330   67.75000  129.42280   58.49400   12.19970   12.20410   -0.00030    4.13700    2.61840  -22.15110    0.11760
 2892.50000   -9999.25    6.27520    7.30330    8.58390    0.04940   67.64900  129.55430   54.50240   12.19280   12.19800   -0.00030    4.17880    2.62510  -22.32320    0.10830
 2893.00000   -9999.25    6.72880    7.99720    9.47990    0.04390   67.58800  129.40910   52.50060   12.19500   12.19740   -0.00030    4.20470    2.63640  -22.11110    0.10400
 2893.50000   -9999.25    6.82500    7.95250    9.18980    0.03420   67.56050  129.26400   53.31980   12.19730   12.19690   -0.00020    4.11330    2.64760  -22.06060    0.10060
 2894.00000   -9999.25    6.53980    7.20030    8.49990    0.03070   67.45410  129.19030   56.52820   12.19950   12.21400    0.00000    4.07500    2.65890  -22.01010    0.10470
 2894.50000   -9999.25    6.25450    7.24740    8.36190    0.03250   67.90500  129.21160   57.42780   12.20170   12.22120    0.00020    4.06990    2.65250  -21.95960    0.11170
 2895.00000   -9999.25    6.07620    7.13620    8.36190    0.03650   68.28700  129.29930   59.58280   12.20400   12.22120    0.00030    4.09850    2.64620  -21.91920    0.11390
 2895.50000   -9999.25    5.96910    6.82900    7.89610    0.04000   68.75500  129.26190   58.07180   12.20620   12.21400    0.00050    4.11500    2.64080  -22.12770    0.11390
 2896.00000   -9999.25    5.86210    6.58320    7.37010    0.04360   69.01250  130.76780   57.59040   12.20850   12.21820    0.00070    4.11360    2.63350  -22.40900    0.11760
 2896.50000   -9999.25    5.74450    6.69130    7.46070    0.04680   69.01920  131.86360   55.20390   12.21070   12.22240    0.00080    4.10680    2.62990  -22.92930    0.12040
 2897.00000   -9999.25    5.58440    6.28010    7.29870    0.04320   68.88230  132.27260   54.57710   12.21940   12.22660    0.00100    4.09990    2.63530  -23.46130    0.12310
 2897.50000   -9999.25    5.33980    5.65580    6.48890    0.03820   68.75440  132.70720   59.71680   12.22090   12.23230    0.00190    4.07930    2.64350  -23.91300    0.13100
