~Version ---------------------------------------------------
VERS.   2.0 : CWLS log ASCII Standard -VERSION 2.0
WRAP.    NO : One line per depth step
DLM . SPACE : Column Data Section Delimiter
~Well ------------------------------------------------------
STRT .FT                   0.0 : START DEPTH
STOP .FT               10320.0 : STOP DEPTH
STEP .FT                   0.5 : STEP
NULL .                -9999.25 : NULL VALUE
COMP .                         : COMPANY
WELL .                         : WELL
FLD  .                         : FIELD
LOC  .                         : LOCATION
PROV .                         : PROVINCE
CNTY .                         : COUNTY
STAT .                         : STATE
CTRY .                         : COUNTRY
SRVC .                         : SERVICE COMPANY
DATE .                         : DATE
UWI  .                         : UNIQUE WELL ID
API  .                         : API NUMBER
SLAT .WGS84 6.0498442064033995 : SURFACE LATITUDE
SLON .WGS84  2.802371128346195 : SURFACE LONGITUDE
DATUM.F                    nan : DEPTH DATUM ELEV
~Curve Information -----------------------------------------
DEPT   .FT    : 
AT10   .OHMM  : ARRAY INDUCTION TWO FOOT RESISTIVITY A10
AT20   .OHMM  : ARRAY INDUCTION TWO FOOT RESISTIVITY A20
AT30   .OHMM  : ARRAY INDUCTION TWO FOOT RESISTIVITY A30
AT90   .OHMM  : ARRAY INDUCTION TWO FOOT RESISTIVITY A90
DPHZ_LS.DEC   : HGRD STANDARD RESOLUTION DENSITY POROSITY
DTCO   .US/F  : DELTA-T COMPRESSIONAL
DTSM   .US/F  : DELTA-T SHEAR
ECGRS  .GAPI  : ENVIRONMENTALLY CORRECTED GAMMA RAY FROM SONIC LOG
HCALR  .IN    : HRCC CALIPER CALIBRATED FROM RESISTIVITY LOG
HCALS  .IN    : HRCC CALIPER CALIBRATED FROM SONIC LOG
HDRA   .G/C3  : HRDD SPINE AND RIBS DENSITY CORRECTION
PEFZ   .B/E   : HRDD STANDARD RESOLUTION FORMATION PHOTOELECTRIC FACTOR
RHOZ   .G/C3  : HRDD STANDARD RESOLUTION FORMATION DENSITY
SPR    .MV    : SPONTANEOUS POTENTIAL FROM RESISTIVITY LOG
TNPH_LS.DEC   : THERMAL NEUTRON POROSITY [LIMESTONE]
~Params ----------------------------------------------------
~Other -----------------------------------------------------
~ASCII -----------------------------------------------------
# ...
 6555.00000   -9999.25    6.54550    7.15970    7.40360    0.05010   74.45640  132.83460  126.63560   12.21060   12.20540    0.05890    3.29260    2.62310  -39.31750    0.17860
 6555.50000   -9999.25    6.57610    7.15970    7.38060    0.04520   74.34220  132.40970  128.50370   12.36140   12.42180    0.06210    3.34920    2.63120  -39.32100    0.18130
 6556.00000   -9999.25    6.54550    7.13740    7.26260    0.04180   74.27420  132.02430  131.05520   12.32570   12.48390    0.05540    3.37250    2.63710  -39.18570    0.18650
 6556.50000   -9999.25    6.39430    6.87550    7.04360    0.04390   74.09800  131.69810  131.06210   12.37080   12.49450    0.04310    3.34600    2.63400  -39.05040    0.18840
 6557.00000   -9999.25    6.33480    7.05080    7.22360    0.05220   74.08140  131.44730  128.85930   12.28450   12.29940    0.03080    3.31340    2.62240  -38.91510    0.19110
 6557.50000   -9999.25    6.33480    7.29480    7.44990    0.05410   74.23800  131.73610  126.65930   12.30190   12.25860    0.02840    3.28080    2.61660  -38.77990    0.19430
 6558.00000   -9999.25    6.36450    7.22690    7.42670    0.05060   74.22200  131.77870  126.10590   12.27880   12.25900    0.03460    3.32000    2.62300  -38.71240    0.19990
 6558.50000   -9999.25    6.45430    7.22690    7.40360    0.04580   74.15150  131.73020  123.71980   12.32390   12.29020    0.05400    3.35770    2.63190  -38.69010    0.20090
 6559.00000   -9999.25    6.57610    7.31750    7.40360    0.04320   74.02390  131.65210  121.38980   12.37150   12.34200    0.05330    3.34130    2.63450  -38.47430    0.19360
 6559.50000   -9999.25    6.63790    7.36330    7.49640    0.04240   74.01870  131.56670  123.97280   12.30810   12.27030    0.04600    3.27960    2.63650  -38.32960    0.18610
 6560.00000   -9999.25    6.73160    7.36330    7.56680    0.04780   74.11620  131.20310  128.36840   12.35390   12.54130    0.03320    3.21420    2.62990  -38.23370    0.17880
 6560.50000   -9999.25    6.85860    7.50220    7.82900    0.04490   74.19110  131.10920  129.90120   12.37430   12.36890    0.02040    3.21950    2.63110  -38.07060    0.17480
 6561.00000   -9999.25    6.95540    7.91020    8.18520    0.04630   74.17590  131.00340  128.05560   12.34540   12.45900    0.01870    3.23980    2.63060  -37.87360    0.17320
 6561.50000   -9999.25    7.05360    7.93490    8.12450    0.04350   74.16070  130.89770  128.79630   12.35900   12.33350    0.02820    3.27640    2.63410  -37.87110    0.19150
 6562.00000   -9999.25    6.82140    7.62150    7.79450    0.04530   74.10490  130.73580  125.79880   12.38110   12.35270    0.04080    3.25400    2.63010  -37.87010    0.20240
 6562.50000   -9999.25    6.56760    7.29130    7.46450    0.04640   73.85330  130.55060  124.18210   12.35390   12.34580    0.03890    3.21710    2.62950  -37.80550    0.20380
 6563.00000   -9999.25    6.36450    7.02710    7.26650    0.04720   73.87160  130.44640  122.14080   12.30560   12.35610    0.02940    3.18030    2.62730  -37.65150    0.19360
 6563.50000   -9999.25    6.60950    7.22980    7.48850    0.04940   73.87620  130.57850  123.01550   12.59870   12.46410    0.01560    3.14340    2.62410  -37.49750    0.18670
 6564.00000   -9999.25    6.79480    7.50220    7.82070    0.04920   74.01400  130.73020  125.00000   12.25540   12.17090    0.00870    3.15560    2.62460  -37.34350    0.17750
 6564.50000   -9999.25    6.85860    7.69150    7.95350    0.04810   74.15180  130.74280  124.67750   12.09900   12.20180    0.01000    3.18240    2.62600  -37.42890    0.16820
 6565.00000   -9999.25    6.85860    7.71550    7.92880    0.04800   74.02230  130.68730  123.22580   12.21600   12.27380    0.01880    3.19350    2.62700  -37.70720    0.17340
 6565.50000   -9999.25    6.92300    7.62000    7.83060    0.04830   73.61600  130.44740  123.92590   12.32150   12.32380    0.02720    3.20150    2.62600  -37.82190    0.18640
 6566.00000   -9999.25    6.92300    7.50220    7.70960    0.04530   73.40050  129.62240  121.68450   12.27120   12.35610    0.03550    3.21130    2.63100  -37.81200    0.19390
 6566.50000   -9999.25    6.79480    7.38630    7.68560    0.04040   73.31670  129.66200  122.22220   12.33690   12.27380    0.03750    3.19410    2.64130  -37.80210    0.18980
 6567.00000   -9999.25    6.76310    7.47890    7.78200    0.03590   73.10800  129.59790  121.43040   12.37040   12.47950    0.02550    3.14340    2.64600  -37.43930    0.18370
 6567.50000   -9999.25    6.85860    7.69150    7.92880    0.03420   73.19420  129.53380  119.14560   12.32210   12.34580    0.01650    3.11610    2.64970  -37.43930    0.17880
 6568.00000   -9999.25    7.11980    7.91020    8.02820    0.03950   73.05650  129.41980  117.15400   12.35510   12.42980    0.00950    3.15970    2.64120  -37.33330    0.17760
 6568.50000   -9999.25    7.18670    7.78800    8.02820    0.04730   73.30650  129.55780  115.82280   12.31730   12.33570    0.00520    3.25860    2.62750  -37.24850    0.17950
 6569.00000   -9999.25    6.93420    7.53190    7.91980    0.06410   73.39490  129.90270  118.36420   12.27960   12.31060    0.00680    3.35760    2.59970  -37.33960    0.18300
 6569.50000   -9999.25    6.63560    7.27590    7.75130    0.06430   73.47140  130.12820  119.78550   12.25710   12.29230    0.01530    3.42300    2.59900  -37.43080    0.19190
 6570.00000   -9999.25    6.33700    7.07100    7.58280    0.05810   73.95740  130.70580  121.91360   12.44610   12.43290    0.02940    3.42720    2.60970  -37.51820    0.19790
 6570.50000   -9999.25    6.13100    7.00530    7.41430    0.04930   74.08760  131.20010  122.70350   12.42980   12.42440    0.04350    3.36530    2.62310  -37.54200    0.20380
 6571.00000   -9999.25    6.24090    6.98350    7.33470    0.04680   74.41900  131.48820  126.81630   12.33470   12.37330    0.05350    3.30020    2.62820  -37.57990    0.20450
 6571.50000   -9999.25    6.42420    7.22690    7.42670    0.04380   74.29380  131.93630  125.15660   12.40020   12.33890    0.06080    3.29290    2.63250  -37.74540    0.20070
 6572.00000   -9999.25    6.63790    7.38630    7.59920    0.03820   74.68020  132.02600  128.47220   12.42020   12.38690    0.05880    3.30680    2.64180  -37.78800    0.19370
 6572.50000   -9999.25    6.79480    7.40930    7.77170    0.04200   74.75150  132.14910  125.75780   12.38220   12.34020    0.04950    3.30270    2.63730  -38.19450    0.18670
 6573.00000   -9999.25    6.82660    7.38630    7.79170    0.04810   74.82280  132.10940  124.98690   12.33910   12.36100    0.04120    3.26620    2.62700  -38.56410    0.18210
 6573.50000   -9999.25    6.75140    7.07100    7.47490    0.05280   74.89410  132.06980  127.78930   12.34410   12.31870    0.03600    3.26090    2.62000  -38.57980    0.18520
 6574.00000   -9999.25    6.67920    7.02710    7.22140    0.05420   74.96550  132.30270  130.21180   12.34710   12.33390    0.03840    3.26410    2.61450  -38.59550    0.19150
 6574.50000   -9999.25    6.60690    7.02710    7.24390    0.05620   74.82420  131.97320  135.31680   12.33760   12.41770    0.04660    3.26740    2.61410  -38.76100    0.19690
 6575.00000   -9999.25    6.54550    7.07100    7.33470    0.06150   74.75160  132.10370  130.64390   12.33190   12.41850    0.05050    3.26790    2.60450  -38.51310    0.20320
 6575.50000   -9999.25    6.48460    7.07100    7.33470    0.05810   74.67910  132.01310  127.53130   12.33190   12.41930    0.04420    3.23200    2.60790  -38.26510    0.20410
 6576.00000   -9999.25    6.62700    7.25100    7.47310    0.05850   74.60660  131.96890  123.97770   12.31240   12.41960    0.03610    3.18690    2.60820  -37.89010    0.19490
 6576.50000   -9999.25    6.88140    7.59570    7.81750    0.05990   74.54860  131.99410  123.58580   12.32490   12.28610    0.02020    3.13390    2.60790  -37.40650    0.18230
 6577.00000   -9999.25    7.13580    7.94050    8.16200    0.06360   74.40270  132.08520  127.49310   12.34760   12.25530    0.00950    3.10560    2.60210  -37.40900    0.18170
 6577.50000   -9999.25    7.22040    8.05950    8.25650    0.06080   74.03790  131.89390  129.05470   12.31340   12.44070    0.00650    3.12110    2.60420  -37.40950    0.19090
