~Version ---------------------------------------------------
VERS.   2.0 : CWLS log ASCII Standard -VERSION 2.0
WRAP.    NO : One line per depth step
DLM . SPACE : Column Data Section Delimiter
~Well ------------------------------------------------------
STRT .FT                   0.0 : START DEPTH
STOP .FT               10320.0 : STOP DEPTH
STEP .FT                   0.5 : STEP
NULL .                -9999.25 : NULL VALUE
COMP .                         : COMPANY
WELL .                         : WELL
FLD  .                         : FIELD
LOC  .                         : LOCATION
PROV .                         : PROVINCE
CNTY .                         : COUNTY
STAT .                         : STATE
CTRY .                         : COUNTRY
SRVC .                         : SERVICE COMPANY
DATE .                         : DATE
UWI  .                         : UNIQUE WELL ID
API  .                         : API NUMBER
SLAT .WGS84 6.0498442064033995 : SURFACE LATITUDE
SLON .WGS84  2.802371128346195 : SURFACE LONGITUDE
DATUM.F                    nan : DEPTH DATUM ELEV
~Curve Information -----------------------------------------
DEPT   .FT    : 
AT10   .OHMM  : ARRAY INDUCTION TWO FOOT RESISTIVITY A10
AT20   .OHMM  : ARRAY INDUCTION TWO FOOT RESISTIVITY A20
AT30   .OHMM  : ARRAY INDUCTION TWO FOOT RESISTIVITY A30
AT90   .OHMM  : ARRAY INDUCTION TWO FOOT RESISTIVITY A90
DPHZ_LS.DEC   : HGRD STANDARD RESOLUTION DENSITY POROSITY
DTCO   .US/F  : DELTA-T COMPRESSIONAL
DTSM   .US/F  : DELTA-T SHEAR
ECGRS  .GAPI  : ENVIRONMENTALLY CORRECTED GAMMA RAY FROM SONIC LOG
HCALR  .IN    : HRCC CALIPER CALIBRATED FROM RESISTIVITY LOG
HCALS  .IN    : HRCC CALIPER CALIBRATED FROM SONIC LOG
HDRA   .G/C3  : HRDD SPINE AND RIBS DENSITY CORRECTION
PEFZ   .B/E   : HRDD STANDARD RESOLUTION FORMATION PHOTOELECTRIC FACTOR
RHOZ   .G/C3  : HRDD STANDARD RESOLUTION FORMATION DENSITY
SPR    .MV    : SPONTANEOUS POTENTIAL FROM RESISTIVITY LOG
TNPH_LS.DEC   : THERMAL NEUTRON POROSITY [LIMESTONE]
~Params ----------------------------------------------------
~Other -----------------------------------------------------
~ASCII -----------------------------------------------------
# ...
 1495.00000   -9999.25   -9999.25   -9999.25   -9999.25   -9999.25   -9999.25   -9999.25   62.34050   -9999.25   -9999.25   -9999.25   -9999.25   -9999.25   -9999.25    0.60830
 1495.50000   -9999.25   -9999.25   -9999.25   -9999.25   -9999.25   -9999.25   -9999.25   58.60790   -9999.25   -9999.25   -9999.25   -9999.25   -9999.25   -9999.25    0.59080
 1496.00000   -9999.25   -9999.25   -9999.25   -9999.25   -9999.25   -9999.25   -9999.25   54.88260   -9999.25   -9999.25   -9999.25   -9999.25   -9999.25   -9999.25    0.51090
 1496.50000   -9999.25   -9999.25   -9999.25   -9999.25   -9999.25   -9999.25   -9999.25   53.08380   -9999.25   -9999.25   -9999.25   -9999.25   -9999.25   -9999.25    0.54140
 1497.00000   -9999.25   -9999.25   -9999.25   -9999.25   -9999.25   -9999.25   -9999.25   53.63440   -9999.25   -9999.25   -9999.25   -9999.25   -9999.25   -9999.25    0.61820
 1497.50000   -9999.25   -9999.25   -9999.25   -9999.25   -9999.25   -9999.25   -9999.25   55.10020   -9999.25   -9999.25   -9999.25   -9999.25   -9999.25   -9999.25    0.68340
 1498.00000   -9999.25   -9999.25   -9999.25   -9999.25   -9999.25   -9999.25   -9999.25   54.92580   -9999.25   -9999.25   -9999.25   -9999.25   -9999.25   -9999.25    0.55970
 1498.50000   -9999.25   -9999.25   -9999.25   -9999.25   -9999.25   -9999.25   -9999.25   55.36240   -9999.25   -9999.25   -9999.25   -9999.25   -9999.25   -9999.25    0.50530
 1499.00000   -9999.25   -9999.25   -9999.25   -9999.25   -9999.25   -9999.25   -9999.25   53.85350   -9999.25   -9999.25   -9999.25   -9999.25   -9999.25   -9999.25    0.48730
 1499.50000   -9999.25   -9999.25   -9999.25   -9999.25   -9999.25   -9999.25   -9999.25   52.32990   -9999.25   -9999.25   -9999.25   -9999.25   -9999.25   -9999.25    0.46810
 1500.00000   -9999.25   -9999.25   -9999.25   -9999.25   -9999.25   -9999.25   -9999.25   49.61940   -9999.25   -9999.25   -9999.25   -9999.25   -9999.25   -9999.25    0.46970
 1500.50000   -9999.25   -9999.25   -9999.25   -9999.25   -9999.25   -9999.25   -9999.25   54.32420   -9999.25   -9999.25   -9999.25   -9999.25   -9999.25   -9999.25    0.47130
 1501.00000   -9999.25   -9999.25   -9999.25   -9999.25   -9999.25   -9999.25   -9999.25   65.87140   -9999.25   -9999.25   -9999.25   -9999.25   -9999.25   -9999.25    0.47160
 1501.50000   -9999.25   -9999.25   -9999.25   -9999.25   -9999.25   -9999.25   -9999.25   75.16850   -9999.25   -9999.25   -9999.25   -9999.25   -9999.25   -9999.25    0.45630
 1502.00000   -9999.25    1.09570    0.43240    0.60940    0.23310  106.22960  225.25570   67.66370   12.41210   12.44570    0.01720    3.43380    2.23470  -18.68780    0.36900
 1502.50000   -9999.25    1.25950    0.43410    0.61180    0.24230  104.84780  220.88600   63.67990   12.45680   12.53560    0.01400    2.93100    2.21770  -18.68780    0.29890
 1503.00000   -9999.25    1.33950    1.23720    0.76560    0.24810  101.88150  210.60970   57.72430   12.31270   12.41640    0.00990    2.57370    2.27130  -18.88330    0.27950
 1503.50000   -9999.25    3.17620    1.09630    0.94240    0.24200  100.05260  203.26120   56.29740   12.31270   12.31930    0.00670    2.42920    2.29110  -32.72530    0.25240
 1504.00000   -9999.25    2.93300    0.86150    0.67970    0.23910   98.43800  198.54770   55.12120   12.31350   12.36090    0.00540    2.39630    2.30100  -23.12250    0.25360
 1504.50000   -9999.25    0.81060    0.62670    0.45300    0.24370   97.06280  195.68110   56.19330   12.26940   12.32010    0.00420    2.40830    2.29250  -22.52800    0.27240
 1505.00000   -9999.25    0.61540    0.51880    0.38250    0.24610   95.79890  189.35210   57.29020   12.15870   12.21750    0.00290    2.42570    2.28710  -23.35610    0.27140
 1505.50000   -9999.25    0.54330    0.45770    0.34440    0.24520   93.24730  183.02300   54.75620   12.13680   12.18800    0.00290    2.43140    2.29050  -22.78710    0.26540
 1506.00000   -9999.25    0.50240    0.59760    0.39470    0.23680   90.51920  179.22560   57.15360   12.13680   12.17250    0.00570    2.44430    2.30460  -21.32180    0.25930
 1506.50000   -9999.25    0.56220    0.67900    0.47130    0.22800   89.22000  179.74550   63.16760   12.13680   12.15690    0.00840    2.45720    2.31920  -18.65660    0.24650
 1507.00000   -9999.25    0.65790    0.79130    0.55910    0.21920   86.38450  181.82900   77.45820   12.13680   12.17780    0.01470    2.52200    2.33970  -15.67330    0.23190
 1507.50000   -9999.25    0.75360    0.89660    0.69150    0.20890   86.45100  184.87370   94.73670   12.25670   12.18730    0.02580    2.82370    2.35500  -12.69000    0.22030
 1508.00000   -9999.25    0.88130    0.99690    0.82380    0.22300   87.62060  188.57900  114.74520   12.25520   12.23060    0.04440    3.28940    2.31210  -11.07000    0.23460
 1508.50000   -9999.25    0.93600    1.00090    1.02110    0.26820   89.88200  202.17310  121.49680   12.07230   12.08040    0.06390    3.87780    2.13800   -8.54770    0.27050
 1509.00000   -9999.25    0.93740    1.00090    1.11320    0.29880   91.21560  210.48340  116.08900   12.32810   12.32100    0.08760    4.13320    2.00140   -7.31140    0.29910
 1509.50000   -9999.25    0.93890    1.00090    1.17910    0.29890   93.95550  214.25810  118.91110   14.67810   13.97780    0.10810    4.05160    1.76180   -6.88740    0.42440
 1510.00000   -9999.25    0.95430    1.04140    1.27040    0.29900   96.18860  218.49110  120.21870   17.23560   15.99140    0.12350    3.81850    1.80420   -6.17100    0.46550
 1510.50000   -9999.25    1.02510    1.12230    1.36160    0.29910   98.02490  223.09270  120.56470   16.05840   16.02270    0.13540    3.52380    1.91100   -5.45450    0.44740
 1511.00000   -9999.25    1.09590    1.20310    1.54180    0.29920  100.79000  230.92780  120.51370   15.79770   15.92110    0.13380    3.50010    1.99640   -5.25250    0.42000
 1511.50000   -9999.25    1.13840    1.27290    1.65030    0.29930  102.91420  236.17550  119.87890   14.39840   15.37690    0.13220    3.52630    2.09090   -5.67690    0.44950
 1512.00000   -9999.25    1.11990    1.25990    1.62690    0.29930  103.97250  240.11770  117.93540   13.36560   13.61220    0.13060    3.53320    2.15380   -5.83120    0.41180
 1512.50000   -9999.25    1.08920    1.22710    1.57760    0.29940  103.70790  240.19390  121.18240   15.93090   13.91770    0.13540    3.55150    2.14830   -5.64490    0.37000
 1513.00000   -9999.25    1.05750    1.20990    1.52010    0.29950  103.65980  240.25480  123.86150   16.83780   15.92780    0.14010    3.58470    2.16250   -5.32310    0.34120
 1513.50000   -9999.25    1.02190    1.19260    1.51690    0.29960  103.95100   -9999.25  119.31990   16.01600   16.03900    0.14190    3.60420    2.18190   -4.83630    0.37250
 1514.00000   -9999.25    0.98620    1.18780    1.48740    0.29970  104.74260   -9999.25  115.31190   14.48720   14.61100    0.13990    3.60650    2.17550   -4.66630    0.41170
 1514.50000   -9999.25    0.98530    1.18780    1.50560    0.29980  105.49740   -9999.25  113.00470   13.51000   13.69060    0.13800    3.58720    2.16110   -4.89250    0.45090
 1515.00000   -9999.25    0.98310    1.18780    1.52380    0.29990  105.92780   -9999.25  110.84950   13.30300   13.58980    0.13010    3.53820    2.17960   -5.11870    0.49000
 1515.50000   -9999.25    0.98080    1.18780    1.54190    0.30000  105.92780   -9999.25  110.68380   13.09610   13.10110    0.10760    3.48930    2.19650   -5.34500    0.47640
 1516.00000   -9999.25    0.97860    1.18780    1.56010    0.29880  106.04970   -9999.25  111.17770   13.03250   13.29560    0.08800    3.44040    2.20390   -5.57120    0.45370
 1516.50000   -9999.25    0.97640    1.18780    1.57470    0.30040  106.03090   -9999.25  111.91840   13.24620   13.03900    0.08140    3.41920    2.17370   -6.15390    0.44600
 1517.00000   -9999.25    0.97420    1.18780    1.57040    0.30030  105.82720   -9999.25  114.54190   14.03750   13.87650    0.09360    3.41160    2.13590   -6.73670    0.46080
 1517.50000   -9999.25    0.97190    1.18780    1.58110    0.30020  105.37630   -9999.25  112.53570   14.08250   14.39600    0.10140    3.37900    2.13760   -7.07290    0.41340
