~Version ---------------------------------------------------
VERS.   2.0 : CWLS log ASCII Standard -VERSION 2.0
WRAP.    NO : One line per depth step
DLM . SPACE : Column Data Section Delimiter
~Well ------------------------------------------------------
STRT .FT                   0.0 : START DEPTH
STOP .FT               10320.0 : STOP DEPTH
STEP .FT                   0.5 : STEP
NULL .                -9999.25 : NULL VALUE
COMP .                         : COMPANY
WELL .                         : WELL
FLD  .                         : FIELD
LOC  .                         : LOCATION
PROV .                         : PROVINCE
CNTY .                         : COUNTY
STAT .                         : STATE
CTRY .                         : COUNTRY
SRVC .                         : SERVICE COMPANY
DATE .                         : DATE
UWI  .                         : UNIQUE WELL ID
API  .                         : API NUMBER
SLAT .WGS84 6.0498442064033995 : SURFACE LATITUDE
SLON .WGS84  2.802371128346195 : SURFACE LONGITUDE
DATUM.F                    nan : DEPTH DATUM ELEV
~Curve Information -----------------------------------------
DEPT   .FT    : 
AT10   .OHMM  : ARRAY INDUCTION TWO FOOT RESISTIVITY A10
AT20   .OHMM  : ARRAY INDUCTION TWO FOOT RESISTIVITY A20
AT30   .OHMM  : ARRAY INDUCTION TWO FOOT RESISTIVITY A30
AT90   .OHMM  : ARRAY INDUCTION TWO FOOT RESISTIVITY A90
DPHZ_LS.DEC   : HGRD STANDARD RESOLUTION DENSITY POROSITY
DTCO   .US/F  : DELTA-T COMPRESSIONAL
DTSM   .US/F  : DELTA-T SHEAR
ECGRS  .GAPI  : ENVIRONMENTALLY CORRECTED GAMMA RAY FROM SONIC LOG
HCALR  .IN    : HRCC CALIPER CALIBRATED FROM RESISTIVITY LOG
HCALS  .IN    : HRCC CALIPER CALIBRATED FROM SONIC LOG
HDRA   .G/C3  : HRDD SPINE AND RIBS DENSITY CORRECTION
PEFZ   .B/E   : HRDD STANDARD RESOLUTION FORMATION PHOTOELECTRIC FACTOR
RHOZ   .G/C3  : HRDD STANDARD RESOLUTION FORMATION DENSITY
SPR    .MV    : SPONTANEOUS POTENTIAL FROM RESISTIVITY LOG
TNPH_LS.DEC   : THERMAL NEUTRON POROSITY [LIMESTONE]
~Params ----------------------------------------------------
~Other -----------------------------------------------------
~ASCII -----------------------------------------------------
# ...
 8395.00000   -9999.25    6.26610    6.26450    6.41250    0.04290   79.98520  156.00580  143.39170   12.12970   12.13530    0.00720    3.50410    2.63920  -82.55570    0.26770
 8395.50000   -9999.25    6.34490    6.34730    6.49730    0.02650   79.79850  155.39780  148.71330   12.16780   12.15550    0.00800    3.53120    2.67440  -82.41580    0.26200
 8396.00000   -9999.25    6.41500    6.43020    6.58210    0.01020   79.53760  154.90720  149.89320   12.20590   12.22030    0.00560    3.61380    2.69710  -82.27590    0.24430
 8396.50000   -9999.25    6.47920    6.51300    6.66690    0.00820   79.12370  154.42320  149.95100   12.21180   12.21980    0.00110    3.61900    2.69220  -82.13610    0.24500
 8397.00000   -9999.25    6.54350    6.59590    6.75170    0.01420   78.71130  153.99230  145.76460   12.20960   12.21260    0.00100    3.62720    2.68410  -82.29110    0.24790
 8397.50000   -9999.25    6.60780    6.62100    6.77740    0.01820   78.73250  153.65920  140.88690   12.20750   12.20540    0.00030    3.61250    2.67720  -82.44620    0.25160
 8398.00000   -9999.25    6.57760    6.55970    6.71460    0.01910   78.79590  154.93690  145.57180   12.20540   12.19970   -0.00040    3.62280    2.67470  -82.60130    0.25120
 8398.50000   -9999.25    6.52380    6.49830    6.65180    0.01880   79.04210  155.11530  145.60670   12.20320   12.19970   -0.00110    3.63320    2.67220  -82.75630    0.24300
 8399.00000   -9999.25    6.47000    6.43690    6.58900    0.02350   79.32990  155.12050  147.93000   12.20110   12.20500   -0.00180    3.64150    2.66970  -82.91140    0.24570
 8399.50000   -9999.25    6.41620    6.37550    6.52610    0.02600   79.47020  155.87910  144.54260   12.19890   12.21030   -0.00240    3.64150    2.66800  -83.06640    0.25080
 8400.00000   -9999.25    6.36240    6.31420    6.46330    0.02590   79.54640  156.79140  147.14100   12.19680   12.20590   -0.00300    3.62110    2.66720  -83.14960    0.25410
 8400.50000   -9999.25    6.30860    6.25280    6.40050    0.02450   79.65780  156.69270  150.13000   12.19300   12.19370   -0.00200    3.57010    2.66710  -83.28950    0.25700
 8401.00000   -9999.25    6.25480    6.19140    6.33770    0.02810   79.83030  156.34120  149.47200   12.18970   12.18150   -0.00090    3.54580    2.66030  -83.42940    0.26940
 8401.50000   -9999.25    6.20090    6.13010    6.27480    0.03240   79.80940  156.04180  148.20210   12.19200   12.16940    0.00070    3.56160    2.65150  -83.56930    0.26540
 8402.00000   -9999.25    6.14720    6.06870    6.21200    0.03260   79.66770  155.76510  146.93210   12.19420   12.16430    0.00110    3.57750    2.65450  -83.71560    0.26390
 8402.50000   -9999.25    6.16610    6.15430    6.29970    0.02490   79.61890  155.36440  146.74870   12.19650   12.15540   -0.00090    3.60050    2.66830  -83.86360    0.26320
 8403.00000   -9999.25    6.25960    6.32790    6.47730    0.01560   79.47720  155.14780  148.20660   12.19880   12.17980   -0.00260    3.65100    2.68360  -83.86200    0.26420
 8403.50000   -9999.25    6.35310    6.50140    6.65490    0.01370   79.40070  155.01630  148.19890   12.19800   12.19930   -0.00430    3.72810    2.68470  -83.86060    0.26450
 8404.00000   -9999.25    6.44670    6.67490    6.83260    0.01790   79.19980  155.21670  149.58080   12.19510   12.19650   -0.00610    3.76190    2.67880  -83.98860    0.26480
 8404.50000   -9999.25    6.38400    6.64470    6.80160    0.02450   79.12370  156.64530  147.99830   12.19230   12.19010   -0.00670    3.73400    2.66670  -84.20350    0.26740
 8405.00000   -9999.25    6.08710    6.39540    6.54640    0.02910   79.55770  158.07390  147.25060   12.18940   12.18980   -0.00630    3.69940    2.65820  -84.25330    0.26970
 8405.50000   -9999.25    5.79010    6.14600    6.29120    0.02780   79.75440  158.90550  148.21210   12.18660   12.17160   -0.00600    3.66470    2.66090  -84.45940    0.27230
 8406.00000   -9999.25    5.70710    5.95060    6.09110    0.02440   80.03950  160.20620  149.54920   12.18370   12.16350   -0.00270    3.65230    2.66700  -84.64100    0.27050
 8406.50000   -9999.25    5.76680    5.97080    6.11180    0.01880   80.44540  162.61170  149.95100   12.18090   12.15530    0.01500    3.66650    2.67610  -84.68840    0.26940
 8407.00000   -9999.25    5.55270    5.77690    5.83080    0.01500   82.26800  164.94840  150.49960   12.17800   12.14720    0.04030    3.71630    2.68250  -84.83820    0.27040
 8407.50000   -9999.25    5.27010    5.44710    5.35560    0.01350   82.52580  166.72680  150.96180   12.17520   12.18800    0.06870    3.77450    2.68450  -84.98810    0.27420
 8408.00000   -9999.25    4.98750    5.11720    4.88030    0.01260   83.75490  167.46930  151.73270   12.18720   12.19040    0.07300    3.80070    2.68800  -85.13790    0.27170
 8408.50000   -9999.25    4.70490    4.78740    4.40510    0.01880   84.34640  167.05450  152.87830   12.20800   12.21850    0.07520    3.76830    2.67900  -85.25750    0.26540
 8409.00000   -9999.25    4.61970    4.58960    4.25710    0.02360   85.52570  164.69810  153.92470   12.21920   12.19100    0.07150    3.74100    2.67030  -85.44870    0.26090
 8409.50000   -9999.25    4.76750    4.72650    4.23070    0.02040   84.68970  160.96590  154.97110   12.24120   12.39560    0.07220    3.76690    2.67330  -85.49750    0.25840
 8410.00000   -9999.25    5.13670    4.95450    4.37150    0.01090   82.26690  152.98450  153.40050   12.25900   12.36800    0.09100    3.79270    2.68600  -85.76400    0.25960
 8410.50000   -9999.25    5.43200    5.18250    4.86710    0.00020   79.79380  146.23950  153.49590   12.25650   12.23870    0.10060    3.81860    2.70470  -85.82530    0.25680
 8411.00000   -9999.25    5.10830    4.95280    4.31460    0.00080   75.46390  136.54390  154.05980   12.22500   12.21080    0.10050    3.80030    2.70590  -85.82170    0.25690
 8411.50000   -9999.25    6.27930    4.72080    4.64160    0.00210   73.48490  132.35680  153.51970   12.16500   12.20650    0.07320    3.50040    2.70010  -85.81810    0.25740
 8412.00000   -9999.25   12.78120   12.52240   13.11120    0.01800   71.24230  128.16970  154.60580   12.10510   12.15220    0.03670    3.20050    2.68520  -85.58820    0.25890
 8412.50000   -9999.25   19.28300   20.30190   22.94390    0.02690   69.19650  124.18750  154.99430   12.05580   12.12650    0.01500    3.02210    2.66610  -85.05030    0.25970
 8413.00000   -9999.25   19.53350   21.96740   24.99790    0.03050   68.23790  120.61710  155.27490   12.04920   12.10080    0.00400    3.05690    2.65580  -84.87210    0.26040
 8413.50000   -9999.25   14.28190   18.35120   20.29960    0.04210   67.52370  119.63550  155.55550   12.04250   12.02880    0.00880    3.09180    2.64210  -84.69380    0.26100
 8414.00000   -9999.25   12.56960   14.73500   16.04960    0.04770   68.20870  119.41670  158.23970   12.01290   12.01520    0.05890    3.12660    2.62790  -84.51560    0.26060
 8414.50000   -9999.25   11.74210   13.61810   14.80650    0.05130   69.35980  120.80680  160.38700   11.89180   11.98610    0.14980    3.12360    2.62070  -84.37400    0.26130
 8415.00000   -9999.25   10.91450   13.12610   13.77530    0.02390   69.48450  122.41530  159.11380   11.78660   11.80980    0.23170    2.97260    2.65830  -84.27910    0.26210
 8415.50000   -9999.25   10.05850   12.07300   12.59480   -0.02090   69.98750  123.39480   -9999.25   11.74450   11.67690    0.41930    2.77740    2.74470  -84.24230    0.26680
 8416.00000   -9999.25    9.08850   11.01980   11.41430   -0.07560   70.39770  123.42780   -9999.25   11.70250   11.77520    0.54920    2.58220    2.83480  -84.44430    0.27110
 8416.50000   -9999.25    8.50660    9.96670   10.46990   -0.09150   70.32470  123.38130   -9999.25   -9999.25   11.80450    0.61840    2.43560    2.87000  -84.64630    0.27540
 8417.00000   -9999.25    9.10090   11.22780   13.02410   -0.08510   70.35820  122.85980   -9999.25   -9999.25   11.61560    0.60870    2.37920    2.86970  -85.45440    0.27420
 8417.50000   -9999.25   10.70600   13.25160   15.13560   -9999.25   70.24390  121.96740   -9999.25   -9999.25   11.55550   -9999.25   -9999.25   -9999.25  -86.25540    0.27230
