~Version ---------------------------------------------------
VERS.   2.0 : CWLS log ASCII Standard -VERSION 2.0
WRAP.    NO : One line per depth step
DLM . SPACE : Column Data Section Delimiter
~Well ------------------------------------------------------
STRT .FT               12400.0 : START DEPTH
STOP .FT               15729.0 : STOP DEPTH
STEP .FT                   0.5 : STEP
NULL .                -9999.25 : NULL VALUE
COMP .                         : COMPANY
WELL .                         : WELL
FLD  .                         : FIELD
LOC  .                         : LOCATION
PROV .                         : PROVINCE
CNTY .                         : COUNTY
STAT .                         : STATE
CTRY .                         : COUNTRY
SRVC .                         : SERVICE COMPANY
DATE .                         : DATE
UWI  .                         : UNIQUE WELL ID
API  .                         : API NUMBER
SLAT .WGS84 2.2474108254184983 : SURFACE LATITUDE
SLON .WGS84     8.046596618216 : SURFACE LONGITUDE
DATUM.F                3232.67 : DEPTH DATUM ELEV
~Curve Information -----------------------------------------
DEPT   .FT    : DEPTH FEET
CAL1R_R.IN    : CALIPER FROM DLL-MSFL LOG FROM REPEAT SECTION #1
CALSR_R.IN    : CALIPER FROM DLL-MSFL LOG FROM REPEAT SECTION #1
DT     .US/F  : DELTA-T (INTERVAL TRANSIT TIME) FROM SONIC LOG
DTCO   .US/F  : DELTA-T COMPRESSIONAL FROM SONIC LOG
DTL    .US/F  : DELTA-T LONG SPACING FROM SONIC LOG
DTSM   .US/F  : DELTA-T SHEAR FROM SONIC LOG
GRD    .GAPI  : GAMMA RAY FROM CNL LOG
GRR    .GAPI  : GAMMA RAY FROM DLL-MSFL LOG
GRR_R  .GAPI  : GAMMA RAY FROM DLL-MSFL LOG FROM REPEAT SECTION #2
GRR_R1 .GAPI  : GAMMA RAY FROM DLL-MSFL LOG FROM REPEAT SECTION #1
GRR_R2 .GAPI  : GAMMA RAY FROM DLL-MSFL LOG FROM REPEAT SECTION #3
GRS    .GAPI  : GAMMA RAY FROM SONIC LOG
LLD    .OHMM  : LATEROLOG DEEP RESISTIVITY FROM DLL-MSFL LOG
LLD_R  .OHMM  : LATEROLOG DEEP RESISTIVITY FROM DLL-MSFL LOG FROM REPEAT SECTION #2
LLD_R1 .OHMM  : LATEROLOG DEEP RESISTIVITY FROM DLL-MSFL LOG FROM REPEAT SECTION #1
LLD_R2 .OHMM  : LATEROLOG DEEP RESISTIVITY FROM DLL-MSFL LOG FROM REPEAT SECTION #3
LLS    .OHMM  : LATEROLOG SHALLOW RESISTIVITY FROM DLL-MSFL LOG
LLS_R  .OHMM  : LATEROLOG SHALLOW RESISTIVITY FROM DLL-MSFL LOG FROM REPEAT SECTION #2
LLS_R1 .OHMM  : LATEROLOG SHALLOW RESISTIVITY FROM DLL-MSFL LOG FROM REPEAT SECTION #1
LLS_R2 .OHMM  : LATEROLOG SHALLOW RESISTIVITY FROM DLL-MSFL LOG FROM REPEAT SECTION #3
MSFL_R .OHMM  : MICRO SPHERICALLY FOCUSED RESISTIVITY FROM DLL-MSFL LOG FROM REPEAT SECTION #1
NPHI_LS.DEC   : NEUTRON POROSITY LIMESTONE FROM CNL LOG
TEND   .LBF   : TENSION FROM CNL LOG
TENR   .LBF   : TENSION FROM DLL-MSFL LOG
TENR_R .LBF   : TENSION FROM DLL-MSFL LOG FROM REPEAT SECTION #2
TENR_R1.LBF   : TENSION FROM DLL-MSFL LOG FROM REPEAT SECTION #1
TENR_R2.LBF   : TENSION FROM DLL-MSFL LOG FROM REPEAT SECTION #3
TENS   .LBF   : TENSION FROM SONIC LOG
~Params ----------------------------------------------------
~Other -----------------------------------------------------
~ASCII -----------------------------------------------------
# ...
 15612.50000    9.96750    9.74180   49.10410   56.44940   77.44230   97.80110   36.81140   40.99410   84.14850   89.83310   37.93910   37.44770   20.90820    3.15550   22.89260   23.81740   22.65920    2.33230   23.95870   21.94830    4.30450    0.03500 3735.84180 4101.06790 4040.86060 4908.64990 4152.35350 3868.91750
 15613.00000    9.96380    9.74270   47.89010   55.99010   77.24810   96.72540   36.87380   39.86270   82.92380   88.96200   37.97010   37.76990   20.90440    3.15620   20.15190   23.81740   22.79200    2.32880   22.61050   21.05840    4.29870    0.02930 3734.27120 4098.22750 4038.24050 4861.63960 4178.93310 3848.88350
 15613.50000    9.96000    9.74370   49.95090   55.44150   66.74580   96.12080   37.57810   38.73120   84.83510   87.04400   38.32470   38.23190   21.09190    3.17730   17.41110   23.38870   22.78820    2.32530   19.23160   19.57520    4.29280    0.02360 3732.70210 4083.52420 4040.38400 4822.18410 4152.64840 3828.84960
 15614.00000    9.95630    9.74460   48.70690   55.16150   63.04450   96.46560   37.89170   39.71650   86.57300   85.52560   40.60140   38.26130   21.28030    3.15740   14.67030   21.12030   21.12410    2.32180   15.85270   18.09200    4.22770    0.02180 3731.13160 4082.93190 4045.03640 4812.94870 4189.81050 3872.92430
 15614.50000    9.95250    9.74560   47.79200   55.72010   68.65490   98.23740   37.15350   41.96240   87.51570   84.20120   44.63650   37.73230   20.07550    3.15740   11.92960   18.85190   19.03800    2.31830   12.47380   16.60880    4.23770    0.02160 3729.56350 4088.26420 4070.82910 4734.54250 4120.62210 3872.92430
 15615.00000    9.95030    9.74660   50.68810   56.47980   70.66140  100.01690   36.63620   44.96150   86.21400   84.46930   47.23250   36.98090   18.33380    3.15740   10.10030   17.28280   16.95190    2.31580    9.09490   14.98880    4.29210    0.02580 3727.99510 4102.33590 4102.45950 4640.72070 4124.18460 3872.92430
 15615.50000    9.93340    9.74750   54.32740   55.44780   60.56610  101.79630   36.06250   47.58960   84.10210   87.28080   48.83650   36.41590   16.59210    3.17280    9.74210   16.56330   14.86570    2.31750    8.19380   13.80730    4.29900    0.03220 3726.42380 4116.40820 4073.70290 4601.88870 4127.74660 3872.92430
 15616.00000    9.91640    9.74630   54.82510   54.83810   40.30470  103.57570   35.48880   49.33590   80.80250   90.50800   49.65930   36.26830   15.74990    3.18060    9.63260   15.12560   14.04080    2.31920    8.01330   11.54890    4.25130    0.03870 3724.85570 4130.48000 4031.39840 4586.42680 4131.30910 3872.92430
 15616.50000    9.91370    9.74590   50.52010   52.85940   41.92070  105.35510   35.29570   49.94100   78.30750   92.84350   50.66690   36.35270   15.25300    3.16180    9.52550   12.84170   13.53120    2.32080    7.99140    9.77450    4.20360    0.04240 3723.28490 4142.02250 4009.56470 4578.45850 4199.11330 3872.92430
 15617.00000    9.89960    9.74230   41.80570   52.73440   54.48260  106.86520   35.51280   50.54610   78.56530   91.95800   51.97820   36.20930   14.83910    3.17860    9.39780   10.82610   13.02600    2.32250    7.99140    8.00010    4.26440    0.04520 3721.71680 4143.44680 3950.68630 4508.86230 4202.90530 3872.92430
 15617.50000    9.88560    9.69750   45.28130   53.06350   57.61860  108.38020   35.95320   51.57050   80.56740   90.14610   52.58350   36.95700   13.89020    3.20480    9.35690    8.81050   11.60550    2.32420    7.89580    6.22570    4.16550    0.04790 3720.14550 4144.87110 3916.99880 4446.56300 4180.39790 3872.92430
 15618.00000    9.88000    9.63840   50.20610   53.18530   45.95230  110.64940   36.61850   53.64630   81.44120   88.02640   52.69280   37.42300   11.48260    3.22600    9.10620    6.79500    9.30230    2.32590    7.40010    4.45120    4.02040    0.05750 3718.57710 4181.82130 3864.95140 4416.83450 4157.89060 3872.92430
 15618.50000    9.88210    9.54530   52.26760   53.11460   50.11580  114.73170   37.34020   55.76530   82.59090   86.35900   52.65900   38.53300    9.07510    3.17150    8.58330    4.77940    7.03990    2.32750    6.87240    3.00430    4.00150    0.06880 3717.00900 4218.85600 3812.90430 4387.10550 4139.49070 3872.92430
 15619.00000    9.93540    9.45440   53.68010   53.05110   57.24720  116.53740   38.06110   56.27550   83.60720   85.72050   53.50710   39.50710    6.90160    3.16680    8.06040    3.49020    5.30330    2.32920    6.48770    2.64560    3.99690    0.07800 3715.43850 4220.70360 3789.07620 4357.37700 4137.52290 3872.92430
 15619.50000    9.93760    9.45250   53.38570   53.50170   59.70830  117.94440   38.72570   55.39750   83.90050   86.25730   54.04120   40.38450    4.88400    3.15620    7.53760    3.31990    3.50710    2.33090    5.94720    2.50530    3.99230    0.07850 3713.87010 4222.55130 3784.06080 4394.33010 4135.55520 3872.92430
 15620.00000    9.94240    9.45020   59.78080   54.77760   79.98620  119.35130   39.07490   54.89860   85.48170   86.69950   57.29460   40.83250    3.50970    3.18520    7.22430    3.28990    2.83820    2.33250    5.94840    2.46020    3.65430    0.07900 3712.05930 4200.50930 3726.87060 4430.34520 4133.58740 3872.92430
 15620.50000    9.94730    9.44800   71.44260   56.31760   95.67720  120.70700   39.06740   54.39970   87.33890   87.29330   60.54100   40.21030    3.38510    3.17150    7.22180    3.28550    2.80470    2.33420    5.94360    2.47210    3.92470    0.07750 3710.86180 4186.94920 3621.95780 4387.79000 4131.61960 3872.92430
 15621.00000    9.94930    9.46560   71.54070   57.85760  111.36820  122.52730   38.43580   55.81720   88.51380   88.28200   67.48030   39.58820    3.37070    3.15770    7.20290    3.26340    2.80550    2.33590    5.93730    2.51940    4.27800    0.07720 3709.29270 4205.11280 3472.69800 4380.92140 4096.05910 3871.82230
 15621.50000    9.94930    9.50900   58.38130   59.23540  100.84200  125.82100   37.79540   56.76100   87.74910   90.15390   71.16760   38.63260    3.43350    3.14390    7.18410    3.24140    2.80620    2.33750    5.93100    2.50420    3.43830    0.08000 3707.72220 4223.27640 3897.34720 4327.30130 4064.01440 3871.82230
 15622.00000    9.94930    9.52670   51.87050   60.74450   74.15350  128.45720   37.09540   57.88950   86.38550   89.54000   74.11860   38.07320    3.48150    3.14900    7.16520    3.21940    2.80690    2.33920    5.92470    2.48530    3.06360    0.08560 3706.15410 4241.43990 4612.70800 4281.48490 4061.27100 3871.82230
 15622.50000    9.94930    9.48470   51.37920   62.46490   58.00790  131.56930   36.92520   59.76820   85.71440   87.39940   75.94450   37.80330    3.53020    3.14830    7.14630    3.19790    2.80780    2.34090    5.91840    2.51940    2.86170    0.09030 3704.58350 4259.60350 5275.29300 4219.21680 4058.52710 3871.82230
 15623.00000    9.95080    9.44260   52.49240   64.00520   49.47280  134.72290   36.97220   65.20010   85.92260   87.20420   79.67870   37.80350    3.56360    3.14470    7.12750    3.24260    2.80850    2.34250    5.91210    2.51940    2.79230    0.08840 3706.16360 4288.78610 5426.92040 4189.51220 4068.56620 3871.82230
 15623.50000    9.87590    9.21340   53.28750   64.28690   40.33160  135.12420   36.92350   71.81550   84.33990   89.45700   81.67990   37.80360    3.56450    3.14100    7.10860    3.21940    2.80920    2.34420    5.90580    2.51940    2.80300    0.08360 3710.10990 4264.84720 5385.37840 4178.29440 4097.77880 3871.82230
 15624.00000    9.79290    9.26240   53.39670   63.80270   39.87560  134.72490   36.87490   77.96870   82.63540   92.52760   83.58930   37.80380    3.58160    3.13740    6.78950    3.20140    2.81010    2.34450    5.93100    2.47310    2.74510    0.07870 3714.05540 4240.90870 5343.83690 4167.07710 4126.99120 3871.82230
 15624.50000    9.70290    9.36700   53.57750   62.97300   58.16610  132.20260   36.92190   84.53200   82.84040   91.99600   85.28210   37.80400    3.61520    3.13370    5.48300    3.20960    2.81070    2.30240    5.95920    2.45780    3.39520    0.07750 3718.00390 4216.96970 5302.29490 4155.85940 4131.79150 3871.82230
