~Version ---------------------------------------------------
VERS.   2.0 : CWLS log ASCII Standard -VERSION 2.0
WRAP.    NO : One line per depth step
DLM . SPACE : Column Data Section Delimiter
~Well ------------------------------------------------------
STRT .FT               12400.0 : START DEPTH
STOP .FT               15729.0 : STOP DEPTH
STEP .FT                   0.5 : STEP
NULL .                -9999.25 : NULL VALUE
COMP .                         : COMPANY
WELL .                         : WELL
FLD  .                         : FIELD
LOC  .                         : LOCATION
PROV .                         : PROVINCE
CNTY .                         : COUNTY
STAT .                         : STATE
CTRY .                         : COUNTRY
SRVC .                         : SERVICE COMPANY
DATE .                         : DATE
UWI  .                         : UNIQUE WELL ID
API  .                         : API NUMBER
SLAT .WGS84 2.2474108254184983 : SURFACE LATITUDE
SLON .WGS84     8.046596618216 : SURFACE LONGITUDE
DATUM.F                3232.67 : DEPTH DATUM ELEV
~Curve Information -----------------------------------------
DEPT   .FT    : DEPTH FEET
CAL1R_R.IN    : CALIPER FROM DLL-MSFL LOG FROM REPEAT SECTION #1
CALSR_R.IN    : CALIPER FROM DLL-MSFL LOG FROM REPEAT SECTION #1
DT     .US/F  : DELTA-T (INTERVAL TRANSIT TIME) FROM SONIC LOG
DTCO   .US/F  : DELTA-T COMPRESSIONAL FROM SONIC LOG
DTL    .US/F  : DELTA-T LONG SPACING FROM SONIC LOG
DTSM   .US/F  : DELTA-T SHEAR FROM SONIC LOG
GRD    .GAPI  : GAMMA RAY FROM CNL LOG
GRR    .GAPI  : GAMMA RAY FROM DLL-MSFL LOG
GRR_R  .GAPI  : GAMMA RAY FROM DLL-MSFL LOG FROM REPEAT SECTION #2
GRR_R1 .GAPI  : GAMMA RAY FROM DLL-MSFL LOG FROM REPEAT SECTION #1
GRR_R2 .GAPI  : GAMMA RAY FROM DLL-MSFL LOG FROM REPEAT SECTION #3
GRS    .GAPI  : GAMMA RAY FROM SONIC LOG
LLD    .OHMM  : LATEROLOG DEEP RESISTIVITY FROM DLL-MSFL LOG
LLD_R  .OHMM  : LATEROLOG DEEP RESISTIVITY FROM DLL-MSFL LOG FROM REPEAT SECTION #2
LLD_R1 .OHMM  : LATEROLOG DEEP RESISTIVITY FROM DLL-MSFL LOG FROM REPEAT SECTION #1
LLD_R2 .OHMM  : LATEROLOG DEEP RESISTIVITY FROM DLL-MSFL LOG FROM REPEAT SECTION #3
LLS    .OHMM  : LATEROLOG SHALLOW RESISTIVITY FROM DLL-MSFL LOG
LLS_R  .OHMM  : LATEROLOG SHALLOW RESISTIVITY FROM DLL-MSFL LOG FROM REPEAT SECTION #2
LLS_R1 .OHMM  : LATEROLOG SHALLOW RESISTIVITY FROM DLL-MSFL LOG FROM REPEAT SECTION #1
LLS_R2 .OHMM  : LATEROLOG SHALLOW RESISTIVITY FROM DLL-MSFL LOG FROM REPEAT SECTION #3
MSFL_R .OHMM  : MICRO SPHERICALLY FOCUSED RESISTIVITY FROM DLL-MSFL LOG FROM REPEAT SECTION #1
NPHI_LS.DEC   : NEUTRON POROSITY LIMESTONE FROM CNL LOG
TEND   .LBF   : TENSION FROM CNL LOG
TENR   .LBF   : TENSION FROM DLL-MSFL LOG
TENR_R .LBF   : TENSION FROM DLL-MSFL LOG FROM REPEAT SECTION #2
TENR_R1.LBF   : TENSION FROM DLL-MSFL LOG FROM REPEAT SECTION #1
TENR_R2.LBF   : TENSION FROM DLL-MSFL LOG FROM REPEAT SECTION #3
TENS   .LBF   : TENSION FROM SONIC LOG
~Params ----------------------------------------------------
~Other -----------------------------------------------------
~ASCII -----------------------------------------------------
# ...
 15337.50000   -9999.25   -9999.25   53.49060   53.45420   47.28240  116.41630   25.17340   36.73880   32.23570   -9999.25   -9999.25   25.42960   18.45980   18.15680   -9999.25   -9999.25   23.35750   22.27630   -9999.25   -9999.25   -9999.25    0.05420 3737.12280 3949.16240 3964.60180   -9999.25   -9999.25 3864.72610
 15338.00000   -9999.25   -9999.25   53.37060   56.03250   30.31330  122.94080   25.38800   36.05320   32.22450   -9999.25   -9999.25   25.84100   17.72500   18.05500   -9999.25   -9999.25   23.08190   22.16150   -9999.25   -9999.25   -9999.25    0.05140 3750.27150 3951.83590 3966.32540   -9999.25   -9999.25 3864.72610
 15338.50000   -9999.25   -9999.25   53.01060   62.56340   23.92400  138.76070   25.48560   36.22850   32.42780   -9999.25   -9999.25   25.91980   17.64810   17.90100   -9999.25   -9999.25   22.94720   22.05870   -9999.25   -9999.25   -9999.25    0.05030 3753.81490 3954.50950 3973.88160   -9999.25   -9999.25 3864.72610
 15339.00000   -9999.25   -9999.25   52.82730   66.81850   35.82310  143.04040   25.58320   37.00110   33.76010   -9999.25   -9999.25   25.99860   18.30480   17.84020   -9999.25   -9999.25   23.80090   22.10540   -9999.25   -9999.25   -9999.25    0.04950 3754.67650 3957.18310 3946.38330   -9999.25   -9999.25 3864.72610
 15339.50000   -9999.25   -9999.25   52.99230   67.67360   47.27990  142.15600   25.66130   37.77370   34.68760   -9999.25   -9999.25   26.13030   22.18730   17.77930   -9999.25   -9999.25   31.82740   22.15220   -9999.25   -9999.25   -9999.25    0.04860 3743.59620 3959.85670 3918.88500   -9999.25   -9999.25 3864.72610
 15340.00000   -9999.25   -9999.25   52.94700   67.93790   60.15620  141.60460   26.34400   38.54640   35.23510   -9999.25   -9999.25   26.69170   36.33110   17.63510   -9999.25   -9999.25   54.57890   22.18230   -9999.25   -9999.25   -9999.25    0.04150 3740.64280 3962.53050 3902.63600   -9999.25   -9999.25 3853.10280
 15340.50000   -9999.25   -9999.25   52.91060   68.45960   59.76300  141.91860   26.97250   39.72000   35.30740   -9999.25   -9999.25   27.35380   58.56710   17.82340   -9999.25   -9999.25   72.05600   23.03350   -9999.25   -9999.25   -9999.25    0.03680 3748.03760 3965.20410 3903.26070   -9999.25   -9999.25 3849.89940
 15341.00000   -9999.25   -9999.25   52.99410   69.52940   58.16600  142.28660   27.59940   40.91200   35.73260   -9999.25   -9999.25   27.64890   67.98290   20.73460   -9999.25   -9999.25   72.94790   26.77880   -9999.25   -9999.25   -9999.25    0.03280 3734.74390 3967.87770 3903.88570   -9999.25   -9999.25 3846.69580
 15341.50000   -9999.25   -9999.25   52.99290   71.01870   60.40760  142.53860   30.09740   41.06540   35.98510   -9999.25   -9999.25   28.23930   50.40840   30.46680   -9999.25   -9999.25   65.75030   33.92150   -9999.25   -9999.25   -9999.25    0.03440 3710.44730 3970.55130 3904.51050   -9999.25   -9999.25 3801.06370
 15342.00000   -9999.25   -9999.25   52.98060   72.22480   58.34750  142.50580   32.81940   39.57810   36.27310   -9999.25   -9999.25   31.78150   33.93770   45.28810   -9999.25   -9999.25   44.81430   49.34320   -9999.25   -9999.25   -9999.25    0.06430 3721.49930 3973.22490 3905.13550   -9999.25   -9999.25 3801.06370
 15342.50000   -9999.25   -9999.25   52.88610   73.58640   41.30230  142.82700   38.41500   37.35870   38.89930   -9999.25   -9999.25   37.43920   24.50890   55.82970   -9999.25   -9999.25   27.89710   56.22290   -9999.25   -9999.25   -9999.25    0.07950 3728.10620 3975.89840 3905.76050   -9999.25   -9999.25 3795.53860
 15343.00000   -9999.25   -9999.25   53.29230   74.93150   32.36530  143.04180   41.81390   36.06900   42.01510   -9999.25   -9999.25   42.04740   24.29320   46.02360   -9999.25   -9999.25   27.56710   53.61660   -9999.25   -9999.25   -9999.25    0.08520 3702.45310 3978.57200 3906.38530   -9999.25   -9999.25 3771.20170
 15343.50000   -9999.25   -9999.25   52.99310   76.31300   34.39180  143.30340   44.35980   35.08790   43.26150   -9999.25   -9999.25   44.57290   28.06860   34.47740   -9999.25   -9999.25   34.04630   42.78950   -9999.25   -9999.25   -9999.25    0.07680 3691.81270 3981.24560 3907.01030   -9999.25   -9999.25 3746.86500
 15344.00000   -9999.25   -9999.25   52.99310   77.80720   35.57120  143.54290   45.05370   34.79360   40.09680   -9999.25   -9999.25   46.46700   38.36870   28.41980   -9999.25   -9999.25   43.71400   34.13640   -9999.25   -9999.25   -9999.25    0.07660 3706.31840 3983.91940 3915.02100   -9999.25   -9999.25 3790.01510
 15344.50000   -9999.25   -9999.25   53.09130   78.97450   34.66140  143.78240   47.42400   35.12850   34.82240   -9999.25   -9999.25   49.19740   48.89110   29.41380   -9999.25   -9999.25   53.38180   33.96060   -9999.25   -9999.25   -9999.25    0.08720 3702.02250 3986.59300 3918.53610   -9999.25   -9999.25 3790.01510
 15345.00000   -9999.25   -9999.25   53.09130   77.55550   32.91210  139.82220   51.22490   36.40720   38.88800   -9999.25   -9999.25   52.24770   50.25010   30.25220   -9999.25   -9999.25   57.71810   34.52300   -9999.25   -9999.25   -9999.25    0.10010 3691.14870 3989.26660 3911.87520   -9999.25   -9999.25 3790.01510
 15345.50000   -9999.25   -9999.25   53.28750   73.13660   34.16120  127.45000   54.98700   37.18130   49.05180   -9999.25   -9999.25   55.40700   50.94980   31.09050   -9999.25   -9999.25   57.72970   35.08100   -9999.25   -9999.25   -9999.25    0.10610 3690.21340 3991.94020 3905.21440   -9999.25   -9999.25 3790.01510
 15346.00000   -9999.25   -9999.25   53.31290   66.76640   39.35630  117.19090   55.35960   37.66640   59.21570   -9999.25   -9999.25   53.16460   49.14420   31.53870   -9999.25   -9999.25   53.79960   35.52740   -9999.25   -9999.25   -9999.25    0.10020 3685.98460 3994.61380 3905.18700   -9999.25   -9999.25 3790.01510
 15346.50000   -9999.25   -9999.25   53.38570   65.30790   42.85980  110.79370   46.55360   38.15150   70.09560   -9999.25   -9999.25   46.09580   47.83570   31.33200   -9999.25   -9999.25   51.17440   35.56790   -9999.25   -9999.25   -9999.25    0.09090 3684.42850 3997.28740 3927.28440   -9999.25   -9999.25 3790.01510
 15347.00000   -9999.25   -9999.25   53.28410   63.25230   42.01850  106.14830   41.08020   39.22490   72.15560   -9999.25   -9999.25   41.00260   47.41270   31.33200   -9999.25   -9999.25   51.49530   36.22040   -9999.25   -9999.25   -9999.25    0.09340 3680.19900 3999.96090 3975.93580   -9999.25   -9999.25 3790.01510
 15347.50000   -9999.25   -9999.25   53.09600   60.61650   45.45900  100.61870   38.84120   39.80560   71.96980   -9999.25   -9999.25   39.88260   49.40070   31.58890   -9999.25   -9999.25   54.38940   36.72450   -9999.25   -9999.25   -9999.25    0.10570 3678.64260 4002.63450 3951.65280   -9999.25   -9999.25 3790.01510
 15348.00000   -9999.25   -9999.25   53.36330   57.05950   54.10270   95.22580   39.40320   38.96330   70.91070   -9999.25   -9999.25   41.20570   53.51080   31.44750   -9999.25   -9999.25   61.51990   36.80820   -9999.25   -9999.25   -9999.25    0.09880 3674.41630 4005.30830 3956.51290   -9999.25   -9999.25 3790.01510
 15348.50000   -9999.25   -9999.25   53.28750   52.15520   50.96040   95.00960   44.41460   36.24180   69.27900   -9999.25   -9999.25   44.85960   60.36110   31.55080   -9999.25   -9999.25   68.06350   36.90110   -9999.25   -9999.25   -9999.25    0.07610 3683.48610 4007.98190 3968.65870   -9999.25   -9999.25 3790.01510
 15349.00000   -9999.25   -9999.25   53.38570   49.35620   42.01120   95.43870   44.32820   33.52030   68.30780   -9999.25   -9999.25   43.42640   67.32060   31.65400   -9999.25   -9999.25   80.37380   36.99400   -9999.25   -9999.25   -9999.25    0.05340 3678.54270 4010.65550 3937.04320   -9999.25   -9999.25 3790.01510
 15349.50000   -9999.25   -9999.25   52.99310   49.51890   30.71750  100.23410   37.99910   30.79880   68.22700   -9999.25   -9999.25   38.27560   79.43620   31.75720   -9999.25   -9999.25   92.07630   37.08690   -9999.25   -9999.25   -9999.25    0.03070 3724.54830 4013.32910 3895.85180   -9999.25   -9999.25 3790.01510
