~Version ---------------------------------------------------
VERS.   2.0 : CWLS log ASCII Standard -VERSION 2.0
WRAP.    NO : One line per depth step
DLM . SPACE : Column Data Section Delimiter
~Well ------------------------------------------------------
STRT .FT               12400.0 : START DEPTH
STOP .FT               15729.0 : STOP DEPTH
STEP .FT                   0.5 : STEP
NULL .                -9999.25 : NULL VALUE
COMP .                         : COMPANY
WELL .                         : WELL
FLD  .                         : FIELD
LOC  .                         : LOCATION
PROV .                         : PROVINCE
CNTY .                         : COUNTY
STAT .                         : STATE
CTRY .                         : COUNTRY
SRVC .                         : SERVICE COMPANY
DATE .                         : DATE
UWI  .                         : UNIQUE WELL ID
API  .                         : API NUMBER
SLAT .WGS84 2.2474108254184983 : SURFACE LATITUDE
SLON .WGS84     8.046596618216 : SURFACE LONGITUDE
DATUM.F                3232.67 : DEPTH DATUM ELEV
~Curve Information -----------------------------------------
DEPT   .FT    : DEPTH FEET
CAL1R_R.IN    : CALIPER FROM DLL-MSFL LOG FROM REPEAT SECTION #1
CALSR_R.IN    : CALIPER FROM DLL-MSFL LOG FROM REPEAT SECTION #1
DT     .US/F  : DELTA-T (INTERVAL TRANSIT TIME) FROM SONIC LOG
DTCO   .US/F  : DELTA-T COMPRESSIONAL FROM SONIC LOG
DTL    .US/F  : DELTA-T LONG SPACING FROM SONIC LOG
DTSM   .US/F  : DELTA-T SHEAR FROM SONIC LOG
GRD    .GAPI  : GAMMA RAY FROM CNL LOG
GRR    .GAPI  : GAMMA RAY FROM DLL-MSFL LOG
GRR_R  .GAPI  : GAMMA RAY FROM DLL-MSFL LOG FROM REPEAT SECTION #2
GRR_R1 .GAPI  : GAMMA RAY FROM DLL-MSFL LOG FROM REPEAT SECTION #1
GRR_R2 .GAPI  : GAMMA RAY FROM DLL-MSFL LOG FROM REPEAT SECTION #3
GRS    .GAPI  : GAMMA RAY FROM SONIC LOG
LLD    .OHMM  : LATEROLOG DEEP RESISTIVITY FROM DLL-MSFL LOG
LLD_R  .OHMM  : LATEROLOG DEEP RESISTIVITY FROM DLL-MSFL LOG FROM REPEAT SECTION #2
LLD_R1 .OHMM  : LATEROLOG DEEP RESISTIVITY FROM DLL-MSFL LOG FROM REPEAT SECTION #1
LLD_R2 .OHMM  : LATEROLOG DEEP RESISTIVITY FROM DLL-MSFL LOG FROM REPEAT SECTION #3
LLS    .OHMM  : LATEROLOG SHALLOW RESISTIVITY FROM DLL-MSFL LOG
LLS_R  .OHMM  : LATEROLOG SHALLOW RESISTIVITY FROM DLL-MSFL LOG FROM REPEAT SECTION #2
LLS_R1 .OHMM  : LATEROLOG SHALLOW RESISTIVITY FROM DLL-MSFL LOG FROM REPEAT SECTION #1
LLS_R2 .OHMM  : LATEROLOG SHALLOW RESISTIVITY FROM DLL-MSFL LOG FROM REPEAT SECTION #3
MSFL_R .OHMM  : MICRO SPHERICALLY FOCUSED RESISTIVITY FROM DLL-MSFL LOG FROM REPEAT SECTION #1
NPHI_LS.DEC   : NEUTRON POROSITY LIMESTONE FROM CNL LOG
TEND   .LBF   : TENSION FROM CNL LOG
TENR   .LBF   : TENSION FROM DLL-MSFL LOG
TENR_R .LBF   : TENSION FROM DLL-MSFL LOG FROM REPEAT SECTION #2
TENR_R1.LBF   : TENSION FROM DLL-MSFL LOG FROM REPEAT SECTION #1
TENR_R2.LBF   : TENSION FROM DLL-MSFL LOG FROM REPEAT SECTION #3
TENS   .LBF   : TENSION FROM SONIC LOG
~Params ----------------------------------------------------
~Other -----------------------------------------------------
~ASCII -----------------------------------------------------
# ...
 14887.50000   -9999.25   -9999.25   54.07260   58.58110   56.05430  101.52870   62.49010   67.25380   70.84580   -9999.25   -9999.25   62.46530   25.99120   26.43990   -9999.25   -9999.25   18.31230   19.44820   -9999.25   -9999.25   -9999.25    0.16930 3625.00880 3902.99270 3861.32300   -9999.25   -9999.25 3747.69730
 14888.00000   -9999.25   -9999.25   54.07180   57.36000   56.05410  102.28420   61.87350   71.26860   75.69380   -9999.25   -9999.25   62.35580   28.78420   23.08900   -9999.25   -9999.25   20.46540   16.74410   -9999.25   -9999.25   -9999.25    0.17420 3661.22880 3903.10890 3858.31230   -9999.25   -9999.25 3770.72950
 14888.50000   -9999.25   -9999.25   54.07820   60.38590   56.05400  102.74440   63.00060   77.94110   84.59010   -9999.25   -9999.25   63.18010   28.95920   20.32780   -9999.25   -9999.25   19.43340   14.55390   -9999.25   -9999.25   -9999.25    0.19750 3685.98780 3903.22560 3855.30150   -9999.25   -9999.25 3770.72950
 14889.00000   -9999.25   -9999.25   54.15780   59.10660   56.18810  102.74220   63.47780   89.34300   90.25130   -9999.25   -9999.25   63.28820   22.33450   17.57330   -9999.25   -9999.25   17.49460   13.78490   -9999.25   -9999.25   -9999.25    0.22360 3682.61720 3903.34180 3842.54390   -9999.25   -9999.25 3770.72950
 14889.50000   -9999.25   -9999.25   54.37690   57.62430   56.26990  102.74410   60.70080   98.67670   93.13040   -9999.25   -9999.25   60.69470   19.65610   16.13400   -9999.25   -9999.25   15.55590   13.08890   -9999.25   -9999.25   -9999.25    0.23670 3679.05980 3903.45830 3842.54390   -9999.25   -9999.25 3770.72950
 14890.00000   -9999.25   -9999.25   54.32400   59.27660   55.90960  102.71460   46.84200  100.54440   95.32810   -9999.25   -9999.25   50.85900   17.30520   14.62550   -9999.25   -9999.25   13.61720   12.31030   -9999.25   -9999.25   -9999.25    0.23620 3679.48750 3909.26170 3842.54390   -9999.25   -9999.25 3770.72950
 14890.50000   -9999.25   -9999.25   54.13870   61.48740   55.74180  102.57620   37.68390   94.33130   95.49930   -9999.25   -9999.25   39.83680   15.44550   13.11700   -9999.25   -9999.25   12.18700   11.24610   -9999.25   -9999.25   -9999.25    0.14780 3695.59300 3915.06520 3842.54390   -9999.25   -9999.25 3770.72950
 14891.00000   -9999.25   -9999.25   54.07260   62.84070   55.84610  103.18160   37.41590   88.56570   93.99560   -9999.25   -9999.25   37.59950   13.58580   11.01740   -9999.25   -9999.25   11.70240    9.86310   -9999.25   -9999.25   -9999.25    0.10930 3691.62350 3920.86890 3842.54390   -9999.25   -9999.25 3770.72950
 14891.50000   -9999.25   -9999.25   54.07260   61.92700   56.05340  104.43150   38.89610   86.82650   89.50080   -9999.25   -9999.25   38.68230   11.67620    8.78350   -9999.25   -9999.25    9.74560    7.43750   -9999.25   -9999.25   -9999.25    0.09770 3686.42550 3926.67210 3842.54390   -9999.25   -9999.25 3783.64360
 14892.00000   -9999.25   -9999.25   54.07260   59.71140   56.10770  106.83830   42.82430   87.84080   81.82670   -9999.25   -9999.25   42.60020    9.56720    7.15190   -9999.25   -9999.25    6.99060    6.11790   -9999.25   -9999.25   -9999.25    0.09770 3681.22340 3932.47560 3842.54390   -9999.25   -9999.25 3714.51270
 14892.50000   -9999.25   -9999.25   54.07260   60.32410   56.00480  109.23930   46.30890   83.91200   72.53030   -9999.25   -9999.25   46.57410    7.45820    6.92380   -9999.25   -9999.25    6.44220    6.19210   -9999.25   -9999.25   -9999.25    0.11990 3677.25590 3938.27930 3842.54390   -9999.25   -9999.25 3658.55200
 14893.00000   -9999.25   -9999.25   54.07260   60.41190   55.86130  108.53740   47.06970   73.97170   63.23400   -9999.25   -9999.25   47.24910    7.24780    8.74300   -9999.25   -9999.25    6.07430    7.32510   -9999.25   -9999.25   -9999.25    0.12010 3675.41380 3944.08280 3842.54390   -9999.25   -9999.25 3668.66060
 14893.50000   -9999.25   -9999.25   54.07260   59.84950   55.73540  107.20650   47.40120   62.19210   53.93760   -9999.25   -9999.25   47.47490    7.72520   10.56220   -9999.25   -9999.25    6.48180    8.73080   -9999.25   -9999.25   -9999.25    0.12110 3710.96020 3948.72560 3842.54390   -9999.25   -9999.25 3682.11040
 14894.00000   -9999.25   -9999.25   54.11280   60.45950   55.73540  106.11120   47.37950   54.74930   49.87940   -9999.25   -9999.25   47.69740    8.79110   12.38140   -9999.25   -9999.25    7.52700   10.19450   -9999.25   -9999.25   -9999.25    0.13090 3672.45120 3947.67410 3842.54390   -9999.25   -9999.25 3676.41800
 14894.50000   -9999.25   -9999.25   54.25390   60.42750   55.73540  105.28770   46.63910   49.95680   52.64340   -9999.25   -9999.25   47.35700   10.30920   12.74070   -9999.25   -9999.25    8.76160   11.31410   -9999.25   -9999.25   -9999.25    0.15550 3679.21020 3946.62300 3842.54390   -9999.25   -9999.25 3742.31230
 14895.00000   -9999.25   -9999.25   54.26890   59.56590   55.73540  103.97860   45.93510   53.99860   57.47660   -9999.25   -9999.25   46.74680   11.91350   12.47000   -9999.25   -9999.25    9.99610   12.20000   -9999.25   -9999.25   -9999.25    0.15440 3695.68330 3879.26540 3842.54390   -9999.25   -9999.25 3746.29590
 14895.50000   -9999.25   -9999.25   54.26890   60.18700   55.73540  103.13350   45.29110   60.45020   61.36130   -9999.25   -9999.25   46.41690   13.51790   15.30220   -9999.25   -9999.25   11.54750   14.00230   -9999.25   -9999.25   -9999.25    0.13390 3674.48340 3879.26540 3842.54390   -9999.25   -9999.25 3684.85010
 14896.00000   -9999.25   -9999.25   54.26890   58.61820   55.73540  102.72420   45.91550   65.11500   62.40010   -9999.25   -9999.25   47.89920   15.12220   16.94490   -9999.25   -9999.25   13.18010   16.11730   -9999.25   -9999.25   -9999.25    0.11320 3672.49170 3879.26540 3842.54390   -9999.25   -9999.25 3635.03830
 14896.50000   -9999.25   -9999.25   54.26890   58.45470   57.10370  102.22680   53.17100   63.36130   62.85290   -9999.25   -9999.25   53.17460   16.72660   19.76260   -9999.25   -9999.25   14.81260   17.25310   -9999.25   -9999.25   -9999.25    0.10470 3703.65140 3879.26540 3842.54390   -9999.25   -9999.25 3641.97630
 14897.00000   -9999.25   -9999.25   54.26890   58.86010   59.45950  104.66920   57.17130   60.36790   63.69730   -9999.25   -9999.25   58.44990   18.33090   19.36800   -9999.25   -9999.25   16.20410   17.30520   -9999.25   -9999.25   -9999.25    0.11730 3703.10160 3879.26540 3842.54390   -9999.25   -9999.25 3651.46310
 14897.50000   -9999.25   -9999.25   54.26890   58.48530   58.56150  106.62630   60.64570   59.11750   65.13090   -9999.25   -9999.25   61.41850   19.52890   18.57240   -9999.25   -9999.25   17.51680   16.94480   -9999.25   -9999.25   -9999.25    0.13760 3698.50390 3879.26540 3852.14670   -9999.25   -9999.25 3660.94970
 14898.00000   -9999.25   -9999.25   54.26890   57.78630   56.16690  107.70150   64.15020   58.84260   67.32700   -9999.25   -9999.25   66.80660   19.64760   18.41320   -9999.25   -9999.25   17.88740   16.44080   -9999.25   -9999.25   -9999.25    0.16080 3698.24220 3879.26540 3846.46630   -9999.25   -9999.25 3670.43630
 14898.50000   -9999.25   -9999.25   54.26890   58.18550   55.21970  110.10670   67.39510   57.86080   65.38460   -9999.25   -9999.25   68.20080   18.51930   18.87190   -9999.25   -9999.25   16.83540   16.49050   -9999.25   -9999.25   -9999.25    0.18220 3706.44750 3879.26540 3840.78590   -9999.25   -9999.25 3679.92310
 14899.00000   -9999.25   -9999.25   53.98510   58.91600   55.14090  112.68200   67.66770   56.87910   60.60850   -9999.25   -9999.25   67.72070   17.29930   19.76260   -9999.25   -9999.25   16.33280   20.00280   -9999.25   -9999.25   -9999.25    0.18240 3694.60300 3879.26540 3856.30810   -9999.25   -9999.25 3689.40970
 14899.50000   -9999.25   -9999.25   53.71190   59.01370   55.15090  113.55540   66.92880   57.55380   55.11470   -9999.25   -9999.25   66.80000   17.40450   25.88570   -9999.25   -9999.25   16.43210   23.95380   -9999.25   -9999.25   -9999.25    0.18380 3675.34250 3879.26540 3861.95680   -9999.25   -9999.25 3698.89620
