~Version ---------------------------------------------------
VERS.   2.0 : CWLS log ASCII Standard -VERSION 2.0
WRAP.    NO : One line per depth step
DLM . SPACE : Column Data Section Delimiter
~Well ------------------------------------------------------
STRT .FT               12400.0 : START DEPTH
STOP .FT               15729.0 : STOP DEPTH
STEP .FT                   0.5 : STEP
NULL .                -9999.25 : NULL VALUE
COMP .                         : COMPANY
WELL .                         : WELL
FLD  .                         : FIELD
LOC  .                         : LOCATION
PROV .                         : PROVINCE
CNTY .                         : COUNTY
STAT .                         : STATE
CTRY .                         : COUNTRY
SRVC .                         : SERVICE COMPANY
DATE .                         : DATE
UWI  .                         : UNIQUE WELL ID
API  .                         : API NUMBER
SLAT .WGS84 2.2474108254184983 : SURFACE LATITUDE
SLON .WGS84     8.046596618216 : SURFACE LONGITUDE
DATUM.F                3232.67 : DEPTH DATUM ELEV
~Curve Information -----------------------------------------
DEPT   .FT    : DEPTH FEET
CAL1R_R.IN    : CALIPER FROM DLL-MSFL LOG FROM REPEAT SECTION #1
CALSR_R.IN    : CALIPER FROM DLL-MSFL LOG FROM REPEAT SECTION #1
DT     .US/F  : DELTA-T (INTERVAL TRANSIT TIME) FROM SONIC LOG
DTCO   .US/F  : DELTA-T COMPRESSIONAL FROM SONIC LOG
DTL    .US/F  : DELTA-T LONG SPACING FROM SONIC LOG
DTSM   .US/F  : DELTA-T SHEAR FROM SONIC LOG
GRD    .GAPI  : GAMMA RAY FROM CNL LOG
GRR    .GAPI  : GAMMA RAY FROM DLL-MSFL LOG
GRR_R  .GAPI  : GAMMA RAY FROM DLL-MSFL LOG FROM REPEAT SECTION #2
GRR_R1 .GAPI  : GAMMA RAY FROM DLL-MSFL LOG FROM REPEAT SECTION #1
GRR_R2 .GAPI  : GAMMA RAY FROM DLL-MSFL LOG FROM REPEAT SECTION #3
GRS    .GAPI  : GAMMA RAY FROM SONIC LOG
LLD    .OHMM  : LATEROLOG DEEP RESISTIVITY FROM DLL-MSFL LOG
LLD_R  .OHMM  : LATEROLOG DEEP RESISTIVITY FROM DLL-MSFL LOG FROM REPEAT SECTION #2
LLD_R1 .OHMM  : LATEROLOG DEEP RESISTIVITY FROM DLL-MSFL LOG FROM REPEAT SECTION #1
LLD_R2 .OHMM  : LATEROLOG DEEP RESISTIVITY FROM DLL-MSFL LOG FROM REPEAT SECTION #3
LLS    .OHMM  : LATEROLOG SHALLOW RESISTIVITY FROM DLL-MSFL LOG
LLS_R  .OHMM  : LATEROLOG SHALLOW RESISTIVITY FROM DLL-MSFL LOG FROM REPEAT SECTION #2
LLS_R1 .OHMM  : LATEROLOG SHALLOW RESISTIVITY FROM DLL-MSFL LOG FROM REPEAT SECTION #1
LLS_R2 .OHMM  : LATEROLOG SHALLOW RESISTIVITY FROM DLL-MSFL LOG FROM REPEAT SECTION #3
MSFL_R .OHMM  : MICRO SPHERICALLY FOCUSED RESISTIVITY FROM DLL-MSFL LOG FROM REPEAT SECTION #1
NPHI_LS.DEC   : NEUTRON POROSITY LIMESTONE FROM CNL LOG
TEND   .LBF   : TENSION FROM CNL LOG
TENR   .LBF   : TENSION FROM DLL-MSFL LOG
TENR_R .LBF   : TENSION FROM DLL-MSFL LOG FROM REPEAT SECTION #2
TENR_R1.LBF   : TENSION FROM DLL-MSFL LOG FROM REPEAT SECTION #1
TENR_R2.LBF   : TENSION FROM DLL-MSFL LOG FROM REPEAT SECTION #3
TENS   .LBF   : TENSION FROM SONIC LOG
~Params ----------------------------------------------------
~Other -----------------------------------------------------
~ASCII -----------------------------------------------------
# ...
 15112.50000   -9999.25   -9999.25   54.17080   54.52870   67.36860   83.33750   37.29550   44.04990   36.85970   -9999.25   -9999.25   37.96330   24.23460    8.03690   -9999.25   -9999.25   29.89320   10.20190   -9999.25   -9999.25   -9999.25    0.08400 3709.10060 3973.53780 3866.53370   -9999.25   -9999.25 3725.22750
 15113.00000   -9999.25   -9999.25   54.17080   55.07930   64.07870   83.43120   37.38340   44.74460   41.90360   -9999.25   -9999.25   38.81470   29.64810    6.78890   -9999.25   -9999.25   35.13830    7.81590   -9999.25   -9999.25   -9999.25    0.09990 3709.46460 3972.98930 3886.52860   -9999.25   -9999.25 3725.22750
 15113.50000   -9999.25   -9999.25   54.07260   55.08780   58.01550   84.20650   40.55500   46.49900   46.85560   -9999.25   -9999.25   41.41890   30.36770    6.09760   -9999.25   -9999.25   34.91470    5.42990   -9999.25   -9999.25   -9999.25    0.11570 3710.30930 3972.44070 3902.52510   -9999.25   -9999.25 3725.22750
 15114.00000   -9999.25   -9999.25   53.68010   55.09630   48.98870   84.98170   43.68750   47.19850   48.61970   -9999.25   -9999.25   44.34430   27.93350    6.09310   -9999.25   -9999.25   26.14070    5.30120   -9999.25   -9999.25   -9999.25    0.16410 3713.08740 3971.89210 3865.80000   -9999.25   -9999.25 3725.22750
 15114.50000   -9999.25   -9999.25   53.58300   55.10490   48.58390   85.75700   46.32860   45.51540   48.86350   -9999.25   -9999.25   46.68520   22.10780    6.08860   -9999.25   -9999.25   17.36670    5.30210   -9999.25   -9999.25   -9999.25    0.16610 3715.86430 3971.34350 3846.57740   -9999.25   -9999.25 3725.22750
 15115.00000   -9999.25   -9999.25   53.86890   55.27370   51.46400   86.82600   45.66100   43.82310   49.08230   -9999.25   -9999.25   45.48970   16.28220    6.08410   -9999.25   -9999.25   15.09840    5.30010   -9999.25   -9999.25   -9999.25    0.15470 3718.64230 3970.79490 3845.14450   -9999.25   -9999.25 3725.22750
 15115.50000   -9999.25   -9999.25   54.46530   55.76300   54.98870   88.73230   41.91340   44.07250   50.35400   -9999.25   -9999.25   42.49370   13.21070    6.10330   -9999.25   -9999.25   12.83000    5.28690   -9999.25   -9999.25   -9999.25    0.14040 3721.41700 3970.24630 3843.71140   -9999.25   -9999.25 3725.22750
 15116.00000   -9999.25   -9999.25   54.41870   56.33780   57.14700   90.96290   38.12680   46.50460   52.91980   -9999.25   -9999.25   39.17480   11.97540    6.07440   -9999.25   -9999.25   10.56170    5.27370   -9999.25   -9999.25   -9999.25    0.13340 3724.19480 3969.69800 3849.86500   -9999.25   -9999.25 3725.22750
 15116.50000   -9999.25   -9999.25   54.35490   56.79400   57.22640   93.26120   34.17040   51.00240   56.33990   -9999.25   -9999.25   35.37150   11.27210    6.02960   -9999.25   -9999.25    9.68490    5.26060   -9999.25   -9999.25   -9999.25    0.12720 3726.97190 3969.14940 3886.36430   -9999.25   -9999.25 3725.22750
 15117.00000   -9999.25   -9999.25   54.29110   57.20710   57.09640   95.41560   29.18000   55.29340   58.60050   -9999.25   -9999.25   31.04570   10.66910    5.98480   -9999.25   -9999.25    9.39240    5.24740   -9999.25   -9999.25   -9999.25    0.10220 3729.74760 3968.65280 3914.75050   -9999.25   -9999.25 3707.29960
 15117.50000   -9999.25   -9999.25   54.22760   57.25190   56.84610   97.53380   24.22840   58.53600   56.39150   -9999.25   -9999.25   24.54530   10.60110    5.94000   -9999.25   -9999.25    9.38890    5.23430   -9999.25   -9999.25   -9999.25    0.06360 3732.52440 3968.23410 3882.55830   -9999.25   -9999.25 3769.86080
 15118.00000   -9999.25   -9999.25   54.17000   57.28830   56.73200   99.65210   19.23790   58.75170   54.18240   -9999.25   -9999.25   19.57820   12.03590    5.89520   -9999.25   -9999.25    9.85260    5.22110   -9999.25   -9999.25   -9999.25    0.04390 3735.30250 3967.81540 3862.56840   -9999.25   -9999.25 3819.24660
 15118.50000   -9999.25   -9999.25   54.17100   57.29320   56.70890   99.93430   16.98160   54.58220   58.63950   -9999.25   -9999.25   17.05650   13.02240    5.85040   -9999.25   -9999.25   10.59330    5.22630   -9999.25   -9999.25   -9999.25    0.02410 3738.07960 3967.39700 3862.56840   -9999.25   -9999.25 3763.24000
 15119.00000   -9999.25   -9999.25   54.17290   57.34910   56.70710   98.05080   16.87300   54.76350   64.76310   -9999.25   -9999.25   16.59420   13.09720    5.81490   -9999.25   -9999.25   10.65450    5.24610   -9999.25   -9999.25   -9999.25    0.02330 3740.85520 3966.97830 3862.56840   -9999.25   -9999.25 3694.06080
 15119.50000   -9999.25   -9999.25   54.16580   57.25780   56.59910   95.60370   18.22630   58.98290   70.88670   -9999.25   -9999.25   18.63480   11.70170    5.86320   -9999.25   -9999.25    9.86940    5.28280   -9999.25   -9999.25   -9999.25    0.02340 3743.63210 3966.55960 3913.80030   -9999.25   -9999.25 3764.19510
 15120.00000   -9999.25   -9999.25   54.03820   56.27240   56.48870   89.89510   21.29810   68.34610   75.05290   -9999.25   -9999.25   20.95920    9.33350    5.95900   -9999.25   -9999.25    7.55300    5.37600   -9999.25   -9999.25   -9999.25    0.02780 3752.50540 3966.14110 3920.19040   -9999.25   -9999.25 3720.80760
 15120.50000   -9999.25   -9999.25   53.97450   56.26420   56.38710   90.30950   23.95280   72.88360   77.12370   -9999.25   -9999.25   23.38250    8.27770    6.12790   -9999.25   -9999.25    6.42850    5.72080   -9999.25   -9999.25   -9999.25    0.03640 3746.77200 3965.72240 3921.15360   -9999.25   -9999.25 3677.42020
 15121.00000   -9999.25   -9999.25   54.07260   58.05220   56.38670   92.29760   24.05060   75.03530   78.30110   -9999.25   -9999.25   23.65940    7.22180    6.55010   -9999.25   -9999.25    5.94090    6.07010   -9999.25   -9999.25   -9999.25    0.03470 3741.29540 3965.30370 3922.11650   -9999.25   -9999.25 3732.42140
 15121.50000   -9999.25   -9999.25   54.26890   59.84760   56.44120   93.62140   22.01410   75.42290   78.24560   -9999.25   -9999.25   22.69160    6.16590    6.97230   -9999.25   -9999.25    5.55750    6.28120   -9999.25   -9999.25   -9999.25    0.03090 3729.71660 3964.88500 3922.50340   -9999.25   -9999.25 3800.59470
 15122.00000   -9999.25   -9999.25   54.40430   60.13380   56.50550   94.23790   21.50880   74.32280   78.19010   -9999.25   -9999.25   21.51630    5.91910    6.88860   -9999.25   -9999.25    5.52430    6.32820   -9999.25   -9999.25   -9999.25    0.02710 3724.26390 3964.46660 3851.42480   -9999.25   -9999.25 3814.22950
 15122.50000   -9999.25   -9999.25   54.35980   59.97730   56.57060   95.20860   22.09580   71.06400   78.51280   -9999.25   -9999.25   22.10460    5.95560    6.80580   -9999.25   -9999.25    5.62620    6.21460   -9999.25   -9999.25   -9999.25    0.02530 3712.69460 3964.04790 3762.57590   -9999.25   -9999.25 3814.22950
 15123.00000   -9999.25   -9999.25   54.36810   58.54690   56.58350   95.94480   25.26600   67.49200   80.84150   -9999.25   -9999.25   23.79940    6.17710    6.52250   -9999.25   -9999.25    5.75650    6.07380   -9999.25   -9999.25   -9999.25    0.03880 3701.12670 3963.62920 3762.57910   -9999.25   -9999.25 3814.22950
 15123.50000   -9999.25   -9999.25   54.46250   60.35540   56.50820   96.60740   28.33910   66.88940   74.71140   -9999.25   -9999.25   27.94820    6.21520    6.01840   -9999.25   -9999.25    5.94020    5.82840   -9999.25   -9999.25   -9999.25    0.05480 3695.70360 3963.21070 3771.46680   -9999.25   -9999.25 3764.38890
 15124.00000   -9999.25   -9999.25   54.42450   58.92400   56.37100   97.27010   31.85840   71.40870   63.92970   -9999.25   -9999.25   31.80820    6.21560    5.33950   -9999.25   -9999.25    5.94060    5.34370   -9999.25   -9999.25   -9999.25    0.06920 3684.14280 3962.79200 3744.81420   -9999.25   -9999.25 3693.48320
 15124.50000   -9999.25   -9999.25   54.25370   58.21650   56.35260   97.48670   37.16620   77.84350   49.79580   -9999.25   -9999.25   37.69080    5.80540    4.54390   -9999.25   -9999.25    5.69390    4.66730   -9999.25   -9999.25   -9999.25    0.08290 3678.74270 3962.37330 3894.85450   -9999.25   -9999.25 3693.48320
