~Version ---------------------------------------------------
VERS.   2.0 : CWLS log ASCII Standard -VERSION 2.0
WRAP.    NO : One line per depth step
DLM . SPACE : Column Data Section Delimiter
~Well ------------------------------------------------------
STRT .FT               12400.0 : START DEPTH
STOP .FT               15729.0 : STOP DEPTH
STEP .FT                   0.5 : STEP
NULL .                -9999.25 : NULL VALUE
COMP .                         : COMPANY
WELL .                         : WELL
FLD  .                         : FIELD
LOC  .                         : LOCATION
PROV .                         : PROVINCE
CNTY .                         : COUNTY
STAT .                         : STATE
CTRY .                         : COUNTRY
SRVC .                         : SERVICE COMPANY
DATE .                         : DATE
UWI  .                         : UNIQUE WELL ID
API  .                         : API NUMBER
SLAT .WGS84 2.2474108254184983 : SURFACE LATITUDE
SLON .WGS84     8.046596618216 : SURFACE LONGITUDE
DATUM.F                3232.67 : DEPTH DATUM ELEV
~Curve Information -----------------------------------------
DEPT   .FT    : DEPTH FEET
CAL1R_R.IN    : CALIPER FROM DLL-MSFL LOG FROM REPEAT SECTION #1
CALSR_R.IN    : CALIPER FROM DLL-MSFL LOG FROM REPEAT SECTION #1
DT     .US/F  : DELTA-T (INTERVAL TRANSIT TIME) FROM SONIC LOG
DTCO   .US/F  : DELTA-T COMPRESSIONAL FROM SONIC LOG
DTL    .US/F  : DELTA-T LONG SPACING FROM SONIC LOG
DTSM   .US/F  : DELTA-T SHEAR FROM SONIC LOG
GRD    .GAPI  : GAMMA RAY FROM CNL LOG
GRR    .GAPI  : GAMMA RAY FROM DLL-MSFL LOG
GRR_R  .GAPI  : GAMMA RAY FROM DLL-MSFL LOG FROM REPEAT SECTION #2
GRR_R1 .GAPI  : GAMMA RAY FROM DLL-MSFL LOG FROM REPEAT SECTION #1
GRR_R2 .GAPI  : GAMMA RAY FROM DLL-MSFL LOG FROM REPEAT SECTION #3
GRS    .GAPI  : GAMMA RAY FROM SONIC LOG
LLD    .OHMM  : LATEROLOG DEEP RESISTIVITY FROM DLL-MSFL LOG
LLD_R  .OHMM  : LATEROLOG DEEP RESISTIVITY FROM DLL-MSFL LOG FROM REPEAT SECTION #2
LLD_R1 .OHMM  : LATEROLOG DEEP RESISTIVITY FROM DLL-MSFL LOG FROM REPEAT SECTION #1
LLD_R2 .OHMM  : LATEROLOG DEEP RESISTIVITY FROM DLL-MSFL LOG FROM REPEAT SECTION #3
LLS    .OHMM  : LATEROLOG SHALLOW RESISTIVITY FROM DLL-MSFL LOG
LLS_R  .OHMM  : LATEROLOG SHALLOW RESISTIVITY FROM DLL-MSFL LOG FROM REPEAT SECTION #2
LLS_R1 .OHMM  : LATEROLOG SHALLOW RESISTIVITY FROM DLL-MSFL LOG FROM REPEAT SECTION #1
LLS_R2 .OHMM  : LATEROLOG SHALLOW RESISTIVITY FROM DLL-MSFL LOG FROM REPEAT SECTION #3
MSFL_R .OHMM  : MICRO SPHERICALLY FOCUSED RESISTIVITY FROM DLL-MSFL LOG FROM REPEAT SECTION #1
NPHI_LS.DEC   : NEUTRON POROSITY LIMESTONE FROM CNL LOG
TEND   .LBF   : TENSION FROM CNL LOG
TENR   .LBF   : TENSION FROM DLL-MSFL LOG
TENR_R .LBF   : TENSION FROM DLL-MSFL LOG FROM REPEAT SECTION #2
TENR_R1.LBF   : TENSION FROM DLL-MSFL LOG FROM REPEAT SECTION #1
TENR_R2.LBF   : TENSION FROM DLL-MSFL LOG FROM REPEAT SECTION #3
TENS   .LBF   : TENSION FROM SONIC LOG
~Params ----------------------------------------------------
~Other -----------------------------------------------------
~ASCII -----------------------------------------------------
# ...
 15550.00000    8.77420    8.92360   49.26810   68.32740   44.72940  100.98580   87.32450   23.91110   20.25930   22.24170   21.69810   86.03890   86.11840  140.98980  113.95580   98.92650   69.45320  135.57780  127.87780  114.77700  142.71850    0.34490 3704.01780 4096.98630 4054.82030 4148.85110 4159.22610 3797.44850
 15550.50000    8.81920    8.97610   50.73600   66.81660   23.83550  100.13480   83.52120   22.40250   20.37920   20.95870   20.60750   83.73230  106.50230  128.49650  135.53270  120.92840   86.95370  129.59890  139.58700  133.71590  137.62180    0.35670 3692.72340 4096.98630 4050.49900 4182.56490 4163.97460 3808.05440
 15551.00000    8.86100    8.96640   41.59540   66.46150   17.61700   99.44450   83.13090   22.13180   22.22550   19.95560   20.34790   83.83070  126.88620  113.40090  125.55090  129.72920  106.70210  113.81420  130.38930  136.16660  129.13660    0.35770 3694.34890 4096.98630 4041.45700 4184.70070 4166.65920 3813.50170
 15551.50000    8.90120    8.95490   38.46910   66.31320   21.39240   98.93320   83.78960   21.92440   24.04330   19.05770   21.97590   84.42110  137.50790  104.34420  107.48000  120.68560  126.45060  102.47610  119.68360  122.05730  120.07800    0.36960 3697.67330 4096.98630 4037.69560 4171.53560 4166.24800 3773.96510
 15552.00000    8.96870    8.94620   38.27280   66.16460   32.98470   98.42180   81.36080   22.45610   26.43260   20.28460   23.79440   79.52950  137.49390  100.64310   89.40910   91.04080  127.97840   98.84100  108.97780  104.42060   73.96450    0.38080 3698.32130 4096.98630 4039.97490 4158.37060 4165.83690 3723.78540
 15552.50000    8.87350    8.97610   51.56400   65.66690   53.32520   97.91040   70.07020   23.30230   24.60990   21.41880   24.63670   68.28460  112.49890  100.64480   89.40910   90.21790   96.03170   98.84290   98.27210   91.31680   42.48340    0.35940 3701.64820 4096.98630 4042.25440 4147.77540 4165.42580 3684.24490
 15553.00000    8.83500    9.02590   53.18940   64.99980   81.88390   97.28040   56.59150   23.78480   22.81980   22.04430   23.15840   57.75660   91.05330  200.17930   89.81640   90.21790   85.78540  175.05810   95.71440   92.14980   90.65940    0.29740 3704.97020 4096.98630 4044.53370 4147.45700 4165.01420 3750.15230
 15553.50000    8.87870    9.04590   52.69870   65.16410   95.53150   96.93170   42.93140   23.72160   20.81320   21.02630   22.14810   43.52040   93.27400  343.50370  152.63980   93.55500   86.29490  313.98070  132.95050  146.28570  107.73840    0.16800 3705.61520 4096.98630 4046.81320 4147.13870 4164.60350 3816.06010
 15554.00000    8.90730    9.04570   52.61150   65.19700   96.56580   96.66860   33.95490   22.99030   19.36190   19.80520   21.27840   34.38830  132.94320  404.48460  215.05400  152.59630  101.11410  369.55180  189.10290  208.60530   84.47190    0.03500 3708.94020 4096.98630 4049.09280 4146.82030 4160.21240 3829.24150
 15554.50000    8.96330    9.04560   53.27660   64.55070   87.79210   96.27780   29.75930   22.09190   19.73480   19.63450   21.15850   30.23150  189.32780  386.56330  277.46810  223.16850  151.07850  330.84610  245.25530  270.92480   62.33640    0.03230 3709.58520 4096.98630 4045.12890 4146.50200 4131.05220 3829.24150
 15555.00000    8.92170    9.04550   53.94180   63.97150   76.96380   95.55630   28.05170   20.75060   20.99020   20.11310   21.16580   29.22260  258.03870  343.28220  314.91660  293.74060  208.48520  292.14040  291.50220  313.98000   57.89400    0.02720 3710.23000 4096.98630 4049.77150 4146.18360 4147.31200 3837.72090
 15555.50000    8.87920    9.04550   53.38570   63.45950   77.70190   93.92520   26.61260   20.26290   22.78120   21.46630   21.57960   26.86120  326.74950  311.28500  292.41550  301.85260  270.85340  271.84370  277.49040  316.83110   95.42890    0.01960 3713.55470 4096.98630 4054.41380 4145.86520 4163.57180 3837.72090
 15556.00000    8.84510    9.04520   53.28750   61.07610   73.22240   91.23700   23.70980   20.43790   23.12110   23.43220   21.82460   23.77590  326.72390  321.89820  271.72230  275.31800  303.04480  271.03930  264.96030  300.39800   66.00650    0.01460 3714.19700 4096.98630 4059.05640 4145.54690 4168.03420 3837.72090
 15556.50000    8.87370    9.04500   53.28750   60.63520   57.86430   90.64790   19.80690   25.24360   21.64180   25.39810   21.15270   20.25920  291.73660  325.67150  275.46190  263.41500  262.32720  305.71920  264.96030  277.78270   35.12430    0.01010 3718.64310 4096.98630 4059.59380 4145.22850 4169.54690 3837.72090
 15557.00000    8.88510    9.10760   53.58190   61.39930   57.22800   91.70700   17.51400   25.74920   18.94740   25.79030   20.15730   17.80910  267.00760  609.47370  307.97360  263.41500  248.08090  561.25180  288.38880  264.21360   81.05360    0.00860 3721.15380 4096.00930 4059.10500 4126.34670 4171.06010 3837.72090
 15557.50000    8.88510    9.14500   52.67420   62.37230   83.61190   93.08340   16.00160   25.59130   17.94090   22.87330   19.20190   16.96310  268.60690 1553.75240  582.62970  280.70230  252.60950  714.57290  513.59100  269.05590  158.65470    0.00960 3726.34620 4082.32280 4069.25490 4118.36960 4172.57320 3837.72090
 15558.00000    8.88480    9.11480   51.17890   63.49720  121.72230   94.10850   16.63050   23.56140   18.60820   20.16580   19.35530   17.16930  439.24420 1498.62330 1059.80080  840.86650  263.53510  635.64720 1024.45890  609.32160  128.12980    0.01400 3731.53960 4055.41920 4095.36250 4110.39210 4174.08640 3837.72090
 15558.50000    8.87290    9.10470   52.34770   63.24610  133.45080   94.33920   19.28660   20.44910   20.73590   19.02850   21.52600   19.28150  809.19760  786.56360 1536.97190 1398.47020  472.14400  467.43040 1535.32680 1164.04720  113.35870    0.01920 3729.79520 4041.73290 4121.47070 4130.25000 4172.78370 3893.06640
 15559.00000    8.86100    9.10460   53.80860   61.14720  113.58390   93.81730   20.97780   19.91930   23.97720   19.72950   23.24320   20.73270 1830.40140  210.67040 1442.76440 1844.55320 1145.98400  278.68210 1578.10860 1496.88280  245.77210    0.02320 3730.60890 4042.18580 4147.57860 4147.19530 4171.15530 3882.11400
 15559.50000    8.84920    9.10440   55.05400   60.10550  105.69870   93.13420   20.51900   20.78120   24.38890   21.88520   25.23410   21.84320 2287.89400  179.44320  568.42180 1588.03550 1888.72520  156.01550  770.28190 1100.58470   15.12730    0.02210 3728.73850 4042.81640 4149.52050 4149.23390 4204.03960 3871.16160
 15560.00000    8.85330    9.04820   54.07260   57.39420   97.81350   92.43880   19.35990   21.83580   23.76390   24.20450   27.22510   21.01670 2146.45730  166.94120  190.23010  946.74150 1404.75890  140.61520  205.70930  638.88660   50.62670    0.01800 3727.60350 4043.44700 4136.28220 4128.77200 4190.62890 3866.78050
 15560.50000    8.86820    9.02150   53.48380   53.77060   95.69100   91.96200   18.21830   22.89040   22.97820   26.01680   26.88000   18.36010  797.94600  184.17510  172.88570  305.44740  279.92890  156.03670  172.06780  177.18850   44.15470    0.01400 3740.79660 4044.07760 4068.14060 4102.60450 4181.47020 3866.78050
 15561.00000    8.88310    8.99510   53.28750   51.80360   73.19010   91.82320   17.37810   22.89040   22.13750   24.31280   25.62480   17.80910  290.25660  191.71010  180.98100  178.80480  218.07690  174.87360  176.06940  169.32360   50.49530    0.01120 3740.34450 4044.70850 4049.25610 4111.01560 4175.02590 3866.78050
 15561.50000    8.92050    8.97530   53.28750   51.94910   48.08720   91.82320   17.28910   23.02950   22.60580   23.94990   24.05490   17.90750  192.88740  167.70700  185.91570  192.27740  173.00350  155.10200  179.27430  174.08600   68.31890    0.01170 3739.88990 4045.33910 4030.37130 4136.67530 4168.58150 3866.78050
 15562.00000    8.90150    8.96330   53.78520   54.56260   59.10510   91.72710   17.31040   22.70940   24.04440   24.12070   23.65680   18.00590  175.09360  138.47780  159.61830  179.96770  158.54310  132.32550  176.05950  174.90220   36.84300    0.01360 3739.43770 4045.96970 4015.77100 4149.45950 4165.47460 3866.78050
