~Version ---------------------------------------------------
VERS.   2.0 : CWLS log ASCII Standard -VERSION 2.0
WRAP.    NO : One line per depth step
DLM . SPACE : Column Data Section Delimiter
~Well ------------------------------------------------------
STRT .FT               12400.0 : START DEPTH
STOP .FT               15729.0 : STOP DEPTH
STEP .FT                   0.5 : STEP
NULL .                -9999.25 : NULL VALUE
COMP .                         : COMPANY
WELL .                         : WELL
FLD  .                         : FIELD
LOC  .                         : LOCATION
PROV .                         : PROVINCE
CNTY .                         : COUNTY
STAT .                         : STATE
CTRY .                         : COUNTRY
SRVC .                         : SERVICE COMPANY
DATE .                         : DATE
UWI  .                         : UNIQUE WELL ID
API  .                         : API NUMBER
SLAT .WGS84 2.2474108254184983 : SURFACE LATITUDE
SLON .WGS84     8.046596618216 : SURFACE LONGITUDE
DATUM.F                3232.67 : DEPTH DATUM ELEV
~Curve Information -----------------------------------------
DEPT   .FT    : DEPTH FEET
CAL1R_R.IN    : CALIPER FROM DLL-MSFL LOG FROM REPEAT SECTION #1
CALSR_R.IN    : CALIPER FROM DLL-MSFL LOG FROM REPEAT SECTION #1
DT     .US/F  : DELTA-T (INTERVAL TRANSIT TIME) FROM SONIC LOG
DTCO   .US/F  : DELTA-T COMPRESSIONAL FROM SONIC LOG
DTL    .US/F  : DELTA-T LONG SPACING FROM SONIC LOG
DTSM   .US/F  : DELTA-T SHEAR FROM SONIC LOG
GRD    .GAPI  : GAMMA RAY FROM CNL LOG
GRR    .GAPI  : GAMMA RAY FROM DLL-MSFL LOG
GRR_R  .GAPI  : GAMMA RAY FROM DLL-MSFL LOG FROM REPEAT SECTION #2
GRR_R1 .GAPI  : GAMMA RAY FROM DLL-MSFL LOG FROM REPEAT SECTION #1
GRR_R2 .GAPI  : GAMMA RAY FROM DLL-MSFL LOG FROM REPEAT SECTION #3
GRS    .GAPI  : GAMMA RAY FROM SONIC LOG
LLD    .OHMM  : LATEROLOG DEEP RESISTIVITY FROM DLL-MSFL LOG
LLD_R  .OHMM  : LATEROLOG DEEP RESISTIVITY FROM DLL-MSFL LOG FROM REPEAT SECTION #2
LLD_R1 .OHMM  : LATEROLOG DEEP RESISTIVITY FROM DLL-MSFL LOG FROM REPEAT SECTION #1
LLD_R2 .OHMM  : LATEROLOG DEEP RESISTIVITY FROM DLL-MSFL LOG FROM REPEAT SECTION #3
LLS    .OHMM  : LATEROLOG SHALLOW RESISTIVITY FROM DLL-MSFL LOG
LLS_R  .OHMM  : LATEROLOG SHALLOW RESISTIVITY FROM DLL-MSFL LOG FROM REPEAT SECTION #2
LLS_R1 .OHMM  : LATEROLOG SHALLOW RESISTIVITY FROM DLL-MSFL LOG FROM REPEAT SECTION #1
LLS_R2 .OHMM  : LATEROLOG SHALLOW RESISTIVITY FROM DLL-MSFL LOG FROM REPEAT SECTION #3
MSFL_R .OHMM  : MICRO SPHERICALLY FOCUSED RESISTIVITY FROM DLL-MSFL LOG FROM REPEAT SECTION #1
NPHI_LS.DEC   : NEUTRON POROSITY LIMESTONE FROM CNL LOG
TEND   .LBF   : TENSION FROM CNL LOG
TENR   .LBF   : TENSION FROM DLL-MSFL LOG
TENR_R .LBF   : TENSION FROM DLL-MSFL LOG FROM REPEAT SECTION #2
TENR_R1.LBF   : TENSION FROM DLL-MSFL LOG FROM REPEAT SECTION #1
TENR_R2.LBF   : TENSION FROM DLL-MSFL LOG FROM REPEAT SECTION #3
TENS   .LBF   : TENSION FROM SONIC LOG
~Params ----------------------------------------------------
~Other -----------------------------------------------------
~ASCII -----------------------------------------------------
# ...
 14950.00000   -9999.25   -9999.25   54.42220   60.35340   55.71790  100.37140   23.51820   42.02160   64.39330   -9999.25   -9999.25   22.10800  123.68460   36.12630   -9999.25   -9999.25   84.83850   29.87230   -9999.25   -9999.25   -9999.25    0.01720 3709.84350 3948.86620 3863.86870   -9999.25   -9999.25 3785.06320
 14950.50000   -9999.25   -9999.25   54.36700   60.08730   55.60990   99.45270   18.62310   54.77690   79.08170   -9999.25   -9999.25   19.38740   80.24530   32.39550   -9999.25   -9999.25   56.89590   26.47300   -9999.25   -9999.25   -9999.25    0.01700 3710.23610 3951.30540 3865.99460   -9999.25   -9999.25 3808.40940
 14951.00000   -9999.25   -9999.25   54.17080   58.59610   55.62110   98.27640   18.54540   72.73220   76.95610   -9999.25   -9999.25   19.48910   36.80600   32.66240   -9999.25   -9999.25   28.95340   27.12140   -9999.25   -9999.25   -9999.25    0.01640 3710.62890 3953.74460 3868.12060   -9999.25   -9999.25 3831.75560
 14951.50000   -9999.25   -9999.25   54.26680   57.25340   55.70440   98.60390   20.06810   78.20480   66.37270   -9999.25   -9999.25   20.93750   35.67420   38.29520   -9999.25   -9999.25   27.71900   39.53780   -9999.25   -9999.25   -9999.25    0.01800 3711.02150 3956.18380 3870.24660   -9999.25   -9999.25 3822.26980
 14952.00000   -9999.25   -9999.25   54.18280   56.74180   55.65750   99.51870   21.62160   75.64000   53.20370   -9999.25   -9999.25   22.37810   40.58990   63.80730   -9999.25   -9999.25   29.25500   53.29620   -9999.25   -9999.25   -9999.25    0.01980 3711.41410 3958.62300 3872.37260   -9999.25   -9999.25 3852.22530
 14952.50000   -9999.25   -9999.25   54.06480   56.49850   55.52120   99.53200   23.00840   62.82230   43.49870   -9999.25   -9999.25   23.72800   50.73630   83.65030   -9999.25   -9999.25   41.52430   74.05280   -9999.25   -9999.25   -9999.25    0.02170 3711.80690 3961.06230 3874.49850   -9999.25   -9999.25 3867.55270
 14953.00000   -9999.25   -9999.25   53.78090   56.58740   55.44350   98.82930   24.54110   50.00460   37.36790   -9999.25   -9999.25   25.20730   63.28430   94.98950   -9999.25   -9999.25   56.18000   88.92630   -9999.25   -9999.25   -9999.25    0.02700 3712.19950 3963.50150 3876.62450   -9999.25   -9999.25 3854.32350
 14953.50000   -9999.25   -9999.25   53.77390   57.16470   55.39250   98.49860   27.47920   40.95990   33.76390   -9999.25   -9999.25   26.68600   89.49210  100.74310   -9999.25   -9999.25   71.59060   94.56600   -9999.25   -9999.25   -9999.25    0.04630 3712.59200 3965.94070 3878.75050   -9999.25   -9999.25 3841.09400
 14954.00000   -9999.25   -9999.25   53.68120   56.97160   55.39890   99.34300   33.35220   35.29740   30.15980   -9999.25   -9999.25   34.37830   93.97180  101.98640   -9999.25   -9999.25   87.00130   87.44870   -9999.25   -9999.25   -9999.25    0.06560 3712.98460 3968.37990 3884.93630   -9999.25   -9999.25 3804.29640
 14954.50000   -9999.25   -9999.25   53.69240   57.47240   55.68800  100.76860   42.72570   32.40270   26.64120   -9999.25   -9999.25   42.07060   98.45150  100.23070   -9999.25   -9999.25   87.96980   87.46590   -9999.25   -9999.25   -9999.25    0.07730 3713.37820 3969.88820 3900.28200   -9999.25   -9999.25 3804.29640
 14955.00000   -9999.25   -9999.25   54.05630   57.47240   55.91820  103.03500   42.69900   29.95050   27.97320   -9999.25   -9999.25   43.80750  102.93120   98.87180   -9999.25   -9999.25   90.04890   87.65080   -9999.25   -9999.25   -9999.25    0.06310 3713.76860 3970.00850 3862.44700   -9999.25   -9999.25 3831.97530
 14955.50000   -9999.25   -9999.25   54.07700   57.47240   55.95320  105.49330   38.10710   30.13330   31.83970   -9999.25   -9999.25   38.62590  106.27640   97.51280   -9999.25   -9999.25   91.05040   80.51460   -9999.25   -9999.25   -9999.25    0.04590 3714.16110 3966.70410 3824.61230   -9999.25   -9999.25 3901.17260
 14956.00000   -9999.25   -9999.25   54.01110   57.47240   55.73990  104.87760   31.33750   31.45440   33.30960   -9999.25   -9999.25   32.27130  108.12590   89.11420   -9999.25   -9999.25   90.67840   73.46530   -9999.25   -9999.25   -9999.25    0.02880 3714.55370 3962.53540 3854.04830   -9999.25   -9999.25 3908.41870
 14956.50000   -9999.25   -9999.25   53.77630   57.47240   55.52670  102.11740   24.57740   32.31970   33.39250   -9999.25   -9999.25   25.91670  101.30970   82.15270   -9999.25   -9999.25   79.37830   73.03660   -9999.25   -9999.25   -9999.25    0.01710 3714.94630 3958.36670 3852.18850   -9999.25   -9999.25 3861.09030
 14957.00000   -9999.25   -9999.25   53.77670   57.47240   55.38310  100.38210   21.94410   32.59430   32.38610   -9999.25   -9999.25   22.77110   90.02310   85.19760   -9999.25   -9999.25   79.10690   78.68330   -9999.25   -9999.25   -9999.25    0.01410 3715.33910 3954.19800 3857.44630   -9999.25   -9999.25 3813.76220
 14957.50000   -9999.25   -9999.25   53.77820   57.37390   55.33350   98.69880   20.18970   32.39590   32.73460   -9999.25   -9999.25   21.69350   87.15260  100.22740   -9999.25   -9999.25   81.05980   90.79960   -9999.25   -9999.25   -9999.25    0.01420 3715.73170 3950.02930 3889.98240   -9999.25   -9999.25 3917.71090
 14958.00000   -9999.25   -9999.25   53.68010   56.89260   55.38200   98.21250   20.06280   31.48770   33.64230   -9999.25   -9999.25   21.51830   89.80830  115.25720   -9999.25   -9999.25   82.19920  101.67470   -9999.25   -9999.25   -9999.25    0.04790 3716.12430 3945.86080 3881.74440   -9999.25   -9999.25 3854.70290
 14958.50000   -9999.25   -9999.25   53.68010   56.85150   55.44530   98.54320   24.17680   30.57960   34.55000   -9999.25   -9999.25   24.97240   96.56260  116.67040   -9999.25   -9999.25   94.50570  109.19150   -9999.25   -9999.25   -9999.25    0.08180 3716.51710 3945.69510 3892.60350   -9999.25   -9999.25 3804.29640
 14959.00000   -9999.25   -9999.25   53.68010   57.44690   55.50860   99.46370   30.61180   29.90590   35.45780   -9999.25   -9999.25   31.73450  103.31680  109.92270   -9999.25   -9999.25  109.29070   98.61380   -9999.25   -9999.25   -9999.25    0.11560 3716.90970 3948.19800 3889.71510   -9999.25   -9999.25 3819.62890
 14959.50000   -9999.25   -9999.25   53.98760   56.72430   55.46990  100.33080   37.94140   30.21300   35.85100   -9999.25   -9999.25   41.66180  108.62000   96.49210   -9999.25   -9999.25  113.62490   89.02530   -9999.25   -9999.25   -9999.25    0.10890 3717.30220 3950.70120 3886.82670   -9999.25   -9999.25 3834.96120
 14960.00000   -9999.25   -9999.25   53.97230   56.43580   55.38790  100.46960   49.64910   32.07760   34.69760   -9999.25   -9999.25   48.69300  106.68330   87.02220   -9999.25   -9999.25  109.09690   86.05600   -9999.25   -9999.25   -9999.25    0.07670 3717.69480 3953.20410 3883.93800   -9999.25   -9999.25 3829.29130
 14960.50000   -9999.25   -9999.25   53.97800   56.43500   55.24040  100.59170   56.91510   33.94220   33.25930   -9999.25   -9999.25   56.28430   94.14400   86.34240   -9999.25   -9999.25   97.98240   87.13230   -9999.25   -9999.25   -9999.25    0.04480 3718.08520 3955.70700 3881.04960   -9999.25   -9999.25 3891.77830
 14961.00000   -9999.25   -9999.25   53.87160   56.44260   55.23880  100.35530   51.87150   33.51930   31.71530   -9999.25   -9999.25   54.24560   83.60400  102.70450   -9999.25   -9999.25   92.97020   99.09370   -9999.25   -9999.25   -9999.25    0.03040 3718.47780 3955.82740 3878.16110   -9999.25   -9999.25 3927.56490
 14961.50000   -9999.25   -9999.25   53.87390   56.04370   55.42200   99.19000   43.44730   31.98610   30.61410   -9999.25   -9999.25   44.97360   86.16940  117.69540   -9999.25   -9999.25   97.57350  117.24200   -9999.25   -9999.25   -9999.25    0.02120 3718.87060 3955.94750 3875.27270   -9999.25   -9999.25 3889.19700
 14962.00000   -9999.25   -9999.25   53.98510   55.41090   55.71380   98.00060   35.03760   30.37320   30.94360   -9999.25   -9999.25   35.21710   99.00290  110.05680   -9999.25   -9999.25  109.18720  112.43050   -9999.25   -9999.25   -9999.25    0.01840 3707.32840 3950.53150 3872.38400   -9999.25   -9999.25 3850.82910
