~Version ---------------------------------------------------
VERS.   2.0 : CWLS log ASCII Standard -VERSION 2.0
WRAP.    NO : One line per depth step
DLM . SPACE : Column Data Section Delimiter
~Well ------------------------------------------------------
STRT .FT               12400.0 : START DEPTH
STOP .FT               15729.0 : STOP DEPTH
STEP .FT                   0.5 : STEP
NULL .                -9999.25 : NULL VALUE
COMP .                         : COMPANY
WELL .                         : WELL
FLD  .                         : FIELD
LOC  .                         : LOCATION
PROV .                         : PROVINCE
CNTY .                         : COUNTY
STAT .                         : STATE
CTRY .                         : COUNTRY
SRVC .                         : SERVICE COMPANY
DATE .                         : DATE
UWI  .                         : UNIQUE WELL ID
API  .                         : API NUMBER
SLAT .WGS84 2.2474108254184983 : SURFACE LATITUDE
SLON .WGS84     8.046596618216 : SURFACE LONGITUDE
DATUM.F                3232.67 : DEPTH DATUM ELEV
~Curve Information -----------------------------------------
DEPT   .FT    : DEPTH FEET
CAL1R_R.IN    : CALIPER FROM DLL-MSFL LOG FROM REPEAT SECTION #1
CALSR_R.IN    : CALIPER FROM DLL-MSFL LOG FROM REPEAT SECTION #1
DT     .US/F  : DELTA-T (INTERVAL TRANSIT TIME) FROM SONIC LOG
DTCO   .US/F  : DELTA-T COMPRESSIONAL FROM SONIC LOG
DTL    .US/F  : DELTA-T LONG SPACING FROM SONIC LOG
DTSM   .US/F  : DELTA-T SHEAR FROM SONIC LOG
GRD    .GAPI  : GAMMA RAY FROM CNL LOG
GRR    .GAPI  : GAMMA RAY FROM DLL-MSFL LOG
GRR_R  .GAPI  : GAMMA RAY FROM DLL-MSFL LOG FROM REPEAT SECTION #2
GRR_R1 .GAPI  : GAMMA RAY FROM DLL-MSFL LOG FROM REPEAT SECTION #1
GRR_R2 .GAPI  : GAMMA RAY FROM DLL-MSFL LOG FROM REPEAT SECTION #3
GRS    .GAPI  : GAMMA RAY FROM SONIC LOG
LLD    .OHMM  : LATEROLOG DEEP RESISTIVITY FROM DLL-MSFL LOG
LLD_R  .OHMM  : LATEROLOG DEEP RESISTIVITY FROM DLL-MSFL LOG FROM REPEAT SECTION #2
LLD_R1 .OHMM  : LATEROLOG DEEP RESISTIVITY FROM DLL-MSFL LOG FROM REPEAT SECTION #1
LLD_R2 .OHMM  : LATEROLOG DEEP RESISTIVITY FROM DLL-MSFL LOG FROM REPEAT SECTION #3
LLS    .OHMM  : LATEROLOG SHALLOW RESISTIVITY FROM DLL-MSFL LOG
LLS_R  .OHMM  : LATEROLOG SHALLOW RESISTIVITY FROM DLL-MSFL LOG FROM REPEAT SECTION #2
LLS_R1 .OHMM  : LATEROLOG SHALLOW RESISTIVITY FROM DLL-MSFL LOG FROM REPEAT SECTION #1
LLS_R2 .OHMM  : LATEROLOG SHALLOW RESISTIVITY FROM DLL-MSFL LOG FROM REPEAT SECTION #3
MSFL_R .OHMM  : MICRO SPHERICALLY FOCUSED RESISTIVITY FROM DLL-MSFL LOG FROM REPEAT SECTION #1
NPHI_LS.DEC   : NEUTRON POROSITY LIMESTONE FROM CNL LOG
TEND   .LBF   : TENSION FROM CNL LOG
TENR   .LBF   : TENSION FROM DLL-MSFL LOG
TENR_R .LBF   : TENSION FROM DLL-MSFL LOG FROM REPEAT SECTION #2
TENR_R1.LBF   : TENSION FROM DLL-MSFL LOG FROM REPEAT SECTION #1
TENR_R2.LBF   : TENSION FROM DLL-MSFL LOG FROM REPEAT SECTION #3
TENS   .LBF   : TENSION FROM SONIC LOG
~Params ----------------------------------------------------
~Other -----------------------------------------------------
~ASCII -----------------------------------------------------
# ...
 15225.00000   -9999.25   -9999.25   44.63610   56.42270   65.88620  102.18770   12.39240   43.93410   35.75420   -9999.25   -9999.25   13.05140    7.91890   23.35810   -9999.25   -9999.25    9.40340   65.00160   -9999.25   -9999.25   -9999.25    0.00530 3663.45900 3957.49730 4102.47950   -9999.25   -9999.25 3773.68970
 15225.50000   -9999.25   -9999.25   44.35370   57.27040   65.79880  103.32860   13.22190   35.84460   31.97480   -9999.25   -9999.25   14.09150   11.94090   40.27540   -9999.25   -9999.25   16.91950  147.29930   -9999.25   -9999.25   -9999.25    0.00510 3675.38940 3912.79050 4233.41700   -9999.25   -9999.25 3771.78420
 15226.00000   -9999.25   -9999.25   44.57360   57.48290   65.65710  104.36260   14.92950   31.25520   27.41510   -9999.25   -9999.25   15.22490   18.98530  247.13730   -9999.25   -9999.25   73.35650  229.59700   -9999.25   -9999.25   -9999.25    0.00510 3702.04370 3912.55300 4561.27100   -9999.25   -9999.25 3766.70510
 15226.50000   -9999.25   -9999.25   44.80540   57.72280   65.55400  104.56880   16.63720   27.73350   24.70810   -9999.25   -9999.25   16.56680   38.11880  371.86020   -9999.25   -9999.25  162.40750  285.78390   -9999.25   -9999.25   -9999.25    0.00670 3738.57690 3912.28220 4696.79050   -9999.25   -9999.25 3803.05050
 15227.00000   -9999.25   -9999.25   44.93630   57.48680   65.60420  104.50910   17.66170   25.81310   27.02520   -9999.25   -9999.25   18.49200   88.41530  370.24020   -9999.25   -9999.25  251.45840  252.70090   -9999.25   -9999.25   -9999.25    0.00870 3766.96830 3965.09180 4682.87350   -9999.25   -9999.25 3865.74340
 15227.50000   -9999.25   -9999.25   44.77500   56.68800   65.68090  103.98720   20.97940   25.31690   35.22560   -9999.25   -9999.25   22.37900  294.21970  257.28610   -9999.25   -9999.25  340.50940  109.10480   -9999.25   -9999.25   -9999.25    0.01140 3742.75610 4026.99510 4642.22220   -9999.25   -9999.25 3840.50340
 15228.00000   -9999.25   -9999.25   44.24600   56.40680   65.59930  103.88630   24.19960   25.81600   46.58780   -9999.25   -9999.25   24.41500  299.42600  135.60930   -9999.25   -9999.25  393.13180   51.30850   -9999.25   -9999.25   -9999.25    0.01430 3741.68480 4108.16310 4633.24320   -9999.25   -9999.25 3809.32280
 15228.50000   -9999.25   -9999.25   44.17760   56.56900   65.38040  103.90580   25.37050   35.31250   54.89020   -9999.25   -9999.25   26.61550  210.91590   38.19880   -9999.25   -9999.25  239.25190   22.12630   -9999.25   -9999.25   -9999.25    0.01710 3725.79710 4323.23540 4578.76610   -9999.25   -9999.25 3750.20000
 15229.00000   -9999.25   -9999.25   44.35720   56.41080   65.10670  103.88760   27.02930   45.54920   56.65140   -9999.25   -9999.25   28.09420   85.73060   27.60400   -9999.25   -9999.25   85.37200   19.11800   -9999.25   -9999.25   -9999.25    0.01600 3687.68600 4555.23190 4540.24410   -9999.25   -9999.25 3750.20000
 15229.50000   -9999.25   -9999.25   44.51720   55.57030   64.91980  102.92750   29.46880   53.39880   52.99060   -9999.25   -9999.25   30.85050   54.24480   27.20120   -9999.25   -9999.25   22.01670   18.18450   -9999.25   -9999.25   -9999.25    0.01270 3657.19800 4601.48630 4472.38720   -9999.25   -9999.25 3750.20000
 15230.00000   -9999.25   -9999.25   44.66630   54.66230   64.98840  101.85260   34.28470   59.79930   50.67490   -9999.25   -9999.25   33.71410   28.27130   27.20120   -9999.25   -9999.25   19.25680   20.24540   -9999.25   -9999.25   -9999.25    0.01050 3693.47410 4601.25440 4428.99460   -9999.25   -9999.25 3783.30180
 15230.50000   -9999.25   -9999.25   44.74980   54.60880   65.03760  101.29650   37.60880   56.14890   50.88510   -9999.25   -9999.25   37.72660   27.01600   42.52440   -9999.25   -9999.25   19.14050   30.00010   -9999.25   -9999.25   -9999.25    0.01320 3717.78910 4570.55130 4385.60250   -9999.25   -9999.25 3789.87890
 15231.00000   -9999.25   -9999.25   44.25910   55.27100   64.98380  101.15680   40.19840   50.85850   50.99590   -9999.25   -9999.25   39.62070   27.26260   61.67830   -9999.25   -9999.25   19.84870   42.00670   -9999.25   -9999.25   -9999.25    0.02150 3741.34670 4516.86520 4342.21000   -9999.25   -9999.25 3796.45610
 15231.50000   -9999.25   -9999.25   43.86650   55.20180   64.93000  101.15000   39.73220   50.70060   51.81990   -9999.25   -9999.25   40.68240   34.41880   73.18560   -9999.25   -9999.25   28.13100   50.72390   -9999.25   -9999.25   -9999.25    0.02680 3781.55690 4463.17920 4298.81790   -9999.25   -9999.25 3820.71630
 15232.00000   -9999.25   -9999.25   43.37590   55.02900   64.82430  100.45050   38.32290   51.37310   55.13630   -9999.25   -9999.25   39.80850   48.81800   64.89850   -9999.25   -9999.25   39.00810   48.64630   -9999.25   -9999.25   -9999.25    0.04440 3784.35570 4417.36720 4255.42530   -9999.25   -9999.25 3849.39770
 15232.50000   -9999.25   -9999.25   43.03240   54.91180   64.69710   99.24100   37.66160   52.21160   63.12680   -9999.25   -9999.25   38.24740   63.21730   48.72940   -9999.25   -9999.25   49.88520   41.35160   -9999.25   -9999.25   -9999.25    0.06890 3790.54100 4378.62790 4212.03270   -9999.25   -9999.25 3807.82300
 15233.00000   -9999.25   -9999.25   43.47400   55.15430   64.56990   97.25490   38.34450   53.54660   71.11720   -9999.25   -9999.25   38.60960   68.23220   37.34610   -9999.25   -9999.25   55.56570   26.79670   -9999.25   -9999.25   -9999.25    0.10550 3752.41090 4330.30660 4168.64060   -9999.25   -9999.25 3730.39180
 15233.50000   -9999.25   -9999.25   43.76840   56.28840   64.53480   94.97600   39.32020   60.71390   76.34220   -9999.25   -9999.25   39.49790   64.61310   25.96280   -9999.25   -9999.25   51.10460   19.95770   -9999.25   -9999.25   -9999.25    0.16070 3738.91240 4281.98540 4125.24800   -9999.25   -9999.25 3782.73610
 15234.00000   -9999.25   -9999.25   43.86650   57.45710   64.51890   92.83310   38.83230   67.67750   81.19930   -9999.25   -9999.25   39.86280   42.82880   14.57940   -9999.25   -9999.25   40.32920   11.80760   -9999.25   -9999.25   -9999.25    0.15260 3703.28100 4233.66410 4081.85570   -9999.25   -9999.25 3791.90770
 15234.50000   -9999.25   -9999.25   43.86650   57.75330   64.68670   92.14450   35.00470   78.43830   84.05980   -9999.25   -9999.25   37.02150   21.04460    9.59280   -9999.25   -9999.25   29.55380    9.20520   -9999.25   -9999.25   -9999.25    0.10930 3718.00810 4185.34280 4057.70260   -9999.25   -9999.25 3801.07910
 15235.00000   -9999.25   -9999.25   43.67030   57.73740   64.91260   91.42370   31.17700   84.23120   84.00210   -9999.25   -9999.25   32.63640   16.61460    8.42930   -9999.25   -9999.25   18.77840    8.19470   -9999.25   -9999.25   -9999.25    0.06610 3733.06300 4137.02100 4062.40870   -9999.25   -9999.25 3759.69460
 15235.50000   -9999.25   -9999.25   43.76840   57.17610   65.03370   89.62960   26.33270   85.47020   79.97830   -9999.25   -9999.25   28.00710   12.18470    7.97490   -9999.25   -9999.25    8.00300    8.14730   -9999.25   -9999.25   -9999.25    0.02400 3753.20580 4107.78220 4037.57520   -9999.25   -9999.25 3761.07350
 15236.00000   -9999.25   -9999.25   43.80070   56.56090   65.05910   87.95230   21.67110   84.78100   72.75570   -9999.25   -9999.25   23.20950    8.56260    8.17180   -9999.25   -9999.25    7.71740    8.17430   -9999.25   -9999.25   -9999.25    0.01390 3753.78150 4108.23240 4032.65580   -9999.25   -9999.25 3762.45260
 15236.50000   -9999.25   -9999.25   43.85600   56.37060   65.07130   86.83100   19.51370   83.34790   60.51280   -9999.25   -9999.25   20.02820    8.40850   10.18240   -9999.25   -9999.25    7.71740    9.52980   -9999.25   -9999.25   -9999.25    0.00750 3744.07450 4109.39310 4027.73630   -9999.25   -9999.25 3763.83150
 15237.00000   -9999.25   -9999.25   43.96470   56.24130   65.08340   90.00560   19.80640   80.70560   45.03120   -9999.25   -9999.25   21.36970    8.79910   14.26240   -9999.25   -9999.25    8.24900   14.75540   -9999.25   -9999.25   -9999.25    0.00630 3732.17040 4076.67650 4022.81690   -9999.25   -9999.25 3765.21070
