~Version ---------------------------------------------------
VERS.   2.0 : CWLS log ASCII Standard -VERSION 2.0
WRAP.    NO : One line per depth step
DLM . SPACE : Column Data Section Delimiter
~Well ------------------------------------------------------
STRT .FT               12400.0 : START DEPTH
STOP .FT               15729.0 : STOP DEPTH
STEP .FT                   0.5 : STEP
NULL .                -9999.25 : NULL VALUE
COMP .                         : COMPANY
WELL .                         : WELL
FLD  .                         : FIELD
LOC  .                         : LOCATION
PROV .                         : PROVINCE
CNTY .                         : COUNTY
STAT .                         : STATE
CTRY .                         : COUNTRY
SRVC .                         : SERVICE COMPANY
DATE .                         : DATE
UWI  .                         : UNIQUE WELL ID
API  .                         : API NUMBER
SLAT .WGS84 2.2474108254184983 : SURFACE LATITUDE
SLON .WGS84     8.046596618216 : SURFACE LONGITUDE
DATUM.F                3232.67 : DEPTH DATUM ELEV
~Curve Information -----------------------------------------
DEPT   .FT    : DEPTH FEET
CAL1R_R.IN    : CALIPER FROM DLL-MSFL LOG FROM REPEAT SECTION #1
CALSR_R.IN    : CALIPER FROM DLL-MSFL LOG FROM REPEAT SECTION #1
DT     .US/F  : DELTA-T (INTERVAL TRANSIT TIME) FROM SONIC LOG
DTCO   .US/F  : DELTA-T COMPRESSIONAL FROM SONIC LOG
DTL    .US/F  : DELTA-T LONG SPACING FROM SONIC LOG
DTSM   .US/F  : DELTA-T SHEAR FROM SONIC LOG
GRD    .GAPI  : GAMMA RAY FROM CNL LOG
GRR    .GAPI  : GAMMA RAY FROM DLL-MSFL LOG
GRR_R  .GAPI  : GAMMA RAY FROM DLL-MSFL LOG FROM REPEAT SECTION #2
GRR_R1 .GAPI  : GAMMA RAY FROM DLL-MSFL LOG FROM REPEAT SECTION #1
GRR_R2 .GAPI  : GAMMA RAY FROM DLL-MSFL LOG FROM REPEAT SECTION #3
GRS    .GAPI  : GAMMA RAY FROM SONIC LOG
LLD    .OHMM  : LATEROLOG DEEP RESISTIVITY FROM DLL-MSFL LOG
LLD_R  .OHMM  : LATEROLOG DEEP RESISTIVITY FROM DLL-MSFL LOG FROM REPEAT SECTION #2
LLD_R1 .OHMM  : LATEROLOG DEEP RESISTIVITY FROM DLL-MSFL LOG FROM REPEAT SECTION #1
LLD_R2 .OHMM  : LATEROLOG DEEP RESISTIVITY FROM DLL-MSFL LOG FROM REPEAT SECTION #3
LLS    .OHMM  : LATEROLOG SHALLOW RESISTIVITY FROM DLL-MSFL LOG
LLS_R  .OHMM  : LATEROLOG SHALLOW RESISTIVITY FROM DLL-MSFL LOG FROM REPEAT SECTION #2
LLS_R1 .OHMM  : LATEROLOG SHALLOW RESISTIVITY FROM DLL-MSFL LOG FROM REPEAT SECTION #1
LLS_R2 .OHMM  : LATEROLOG SHALLOW RESISTIVITY FROM DLL-MSFL LOG FROM REPEAT SECTION #3
MSFL_R .OHMM  : MICRO SPHERICALLY FOCUSED RESISTIVITY FROM DLL-MSFL LOG FROM REPEAT SECTION #1
NPHI_LS.DEC   : NEUTRON POROSITY LIMESTONE FROM CNL LOG
TEND   .LBF   : TENSION FROM CNL LOG
TENR   .LBF   : TENSION FROM DLL-MSFL LOG
TENR_R .LBF   : TENSION FROM DLL-MSFL LOG FROM REPEAT SECTION #2
TENR_R1.LBF   : TENSION FROM DLL-MSFL LOG FROM REPEAT SECTION #1
TENR_R2.LBF   : TENSION FROM DLL-MSFL LOG FROM REPEAT SECTION #3
TENS   .LBF   : TENSION FROM SONIC LOG
~Params ----------------------------------------------------
~Other -----------------------------------------------------
~ASCII -----------------------------------------------------
# ...
 15162.50000   -9999.25   -9999.25   54.75960   57.53700   55.81030  121.51860   43.48090   59.14830   53.63650   -9999.25   -9999.25   43.90970    9.87190    9.20870   -9999.25   -9999.25    8.93550    7.63580   -9999.25   -9999.25   -9999.25    0.12400 3828.51590 4023.95780 4710.45950   -9999.25   -9999.25 3855.48000
 15163.00000   -9999.25   -9999.25   54.85770   58.13960   55.78170  120.24630   41.68150   59.88960   56.56280   -9999.25   -9999.25   42.08390    9.48870    8.39560   -9999.25   -9999.25    8.87990    7.09420   -9999.25   -9999.25   -9999.25    0.11740 3820.09810 4023.95780 4639.98050   -9999.25   -9999.25 3855.48000
 15163.50000   -9999.25   -9999.25   54.85770   57.46230   55.75310  118.93980   39.81840   60.87870   59.52060   -9999.25   -9999.25   40.24580    8.86880    7.71410   -9999.25   -9999.25    8.05970    6.62080   -9999.25   -9999.25   -9999.25    0.11070 3811.68040 4023.95780 4615.26120   -9999.25   -9999.25 3806.04000
 15164.00000   -9999.25   -9999.25   54.85770   57.26750   55.71040  117.48590   38.12290   61.20250   60.47240   -9999.25   -9999.25   39.54640    8.24890    7.50100   -9999.25   -9999.25    7.19260    6.44860   -9999.25   -9999.25   -9999.25    0.10520 3803.26170 4023.95780 4545.24560   -9999.25   -9999.25 3830.05910
 15164.50000   -9999.25   -9999.25   54.66140   56.51170   55.56170  117.02860   37.97650   61.40050   59.46180   -9999.25   -9999.25   38.48980    7.82020    7.97270   -9999.25   -9999.25    6.63150    6.57160   -9999.25   -9999.25   -9999.25    0.10520 3794.84400 4023.95780 4481.40330   -9999.25   -9999.25 3800.93920
 15165.00000   -9999.25   -9999.25   54.56330   57.24460   55.76700  118.55470   38.47940   61.48810   59.05160   -9999.25   -9999.25   39.69360    7.81870    8.44900   -9999.25   -9999.25    6.63030    6.85600   -9999.25   -9999.25   -9999.25    0.10840 3786.42870 4023.95780 4417.56100   -9999.25   -9999.25 3839.58330
 15165.50000   -9999.25   -9999.25   54.56400   57.92630   56.01510  119.94090   40.15600   59.65140   58.85800   -9999.25   -9999.25   41.28260    7.85310    9.04420   -9999.25   -9999.25    6.79210    7.24790   -9999.25   -9999.25   -9999.25    0.11220 3778.01100 4023.95780 4389.96630   -9999.25   -9999.25 3839.58330
 15166.00000   -9999.25   -9999.25   54.56200   58.02740   56.06410  121.05290   41.84250   54.84830   58.32350   -9999.25   -9999.25   42.24760    8.28050    9.34100   -9999.25   -9999.25    7.20020    7.67720   -9999.25   -9999.25   -9999.25    0.11610 3769.59330 4023.95780 4369.82320   -9999.25   -9999.25 3790.14600
 15166.50000   -9999.25   -9999.25   54.58740   58.05180   56.10510  122.36050   43.45910   50.96710   57.35950   -9999.25   -9999.25   44.04740    8.81400    9.47130   -9999.25   -9999.25    7.60830    8.03170   -9999.25   -9999.25   -9999.25    0.11950 3761.17480 4023.95780 4308.55910   -9999.25   -9999.25 3831.63430
 15167.00000   -9999.25   -9999.25   54.17080   57.82020   56.12570  122.41470   44.84520   49.47220   56.08610   -9999.25   -9999.25   45.33160    9.34760    9.52520   -9999.25   -9999.25    8.01650    8.17750   -9999.25   -9999.25   -9999.25    0.12240 3752.75710 4023.95780 4301.68360   -9999.25   -9999.25 3831.63430
 15167.50000   -9999.25   -9999.25   53.77820   57.62640   56.06140  121.95310   44.89550   49.61060   55.07680   -9999.25   -9999.25   45.33700    9.88110    9.57920   -9999.25   -9999.25    8.34280    8.22700   -9999.25   -9999.25   -9999.25    0.12520 3744.33940 4023.95780 4259.54200   -9999.25   -9999.25 3823.68920
 15168.00000   -9999.25   -9999.25   54.19410   56.72780   55.88630  121.17130   43.50330   50.96280   54.13900   -9999.25   -9999.25   43.88600   10.03190    9.63310   -9999.25   -9999.25    8.44300    8.22700   -9999.25   -9999.25   -9999.25    0.12810 3742.65700 4023.95780 4220.48730   -9999.25   -9999.25 3823.68920
 15168.50000   -9999.25   -9999.25   54.86650   56.15770   55.74240  120.28330   40.61720   52.58170   53.41260   -9999.25   -9999.25   41.79250   10.12170    9.68700   -9999.25   -9999.25    8.49290    8.22700   -9999.25   -9999.25   -9999.25    0.13270 3742.36430 4023.95780 4150.34910   -9999.25   -9999.25 3771.05000
 15169.00000   -9999.25   -9999.25   55.15210   56.22850   55.67380  120.48420   39.84350   54.60090   53.13520   -9999.25   -9999.25   40.11840   10.16570    9.74090   -9999.25   -9999.25    8.49150    8.17750   -9999.25   -9999.25   -9999.25    0.13840 3741.99680 4023.95780 4138.77640   -9999.25   -9999.25 3756.34060
 15169.50000   -9999.25   -9999.25   55.15210   57.57130   55.67090  123.59730   40.00910   55.92040   52.46420   -9999.25   -9999.25   40.12230   10.16400    9.74090   -9999.25   -9999.25    8.59350    8.17750   -9999.25   -9999.25   -9999.25    0.14030 3741.63040 4023.95780 4106.23440   -9999.25   -9999.25 3749.29100
 15170.00000   -9999.25   -9999.25   55.23890   59.48340   56.20870  127.50470   40.66520   54.71480   52.42410   -9999.25   -9999.25   41.19700   10.16200    9.74090   -9999.25   -9999.25    8.59240    8.12640   -9999.25   -9999.25   -9999.25    0.13780 3741.34960 4023.95780 4062.03490   -9999.25   -9999.25 3772.88260
 15170.50000   -9999.25   -9999.25   55.68530   59.95820   57.08980  128.56350   41.14300   53.90020   53.54350   -9999.25   -9999.25   41.82960   10.11580    9.74270   -9999.25   -9999.25    8.59240    8.06240   -9999.25   -9999.25   -9999.25    0.12800 3740.98320 4023.95780 4017.83540   -9999.25   -9999.25 3796.47410
 15171.00000   -9999.25   -9999.25   55.84290   58.39910   57.83970  122.83450   41.15280   54.25540   55.35220   -9999.25   -9999.25   41.15760    9.97870    9.61070   -9999.25   -9999.25    8.59190    7.99840   -9999.25   -9999.25   -9999.25    0.12470 3740.61670 4023.95780 3981.72070   -9999.25   -9999.25 3805.31180
 15171.50000   -9999.25   -9999.25   55.83910   57.01290   57.85590  110.23740   39.97570   55.20790   58.35090   -9999.25   -9999.25   39.86720    9.75420    9.27810   -9999.25   -9999.25    8.48820    7.84440   -9999.25   -9999.25   -9999.25    0.12930 3740.25000 4023.95780 3977.94510   -9999.25   -9999.25 3805.31180
 15172.00000   -9999.25   -9999.25   55.13710   56.40480   56.33760   95.90780   38.17950   55.76080   58.97560   -9999.25   -9999.25   38.57670    9.40930    8.94560   -9999.25   -9999.25    8.23460    7.53750   -9999.25   -9999.25   -9999.25    0.13340 3739.88350 4023.95780 3919.80150   -9999.25   -9999.25 3760.51220
 15172.50000   -9999.25   -9999.25   55.05400   56.30710   53.36350   84.54200   37.63230   56.03260   58.47580   -9999.25   -9999.25   38.22810    8.99830    8.43540   -9999.25   -9999.25    7.90230    7.21080   -9999.25   -9999.25   -9999.25    0.14060 3739.51710 4023.95780 3906.26730   -9999.25   -9999.25 3802.92770
 15173.00000   -9999.25   -9999.25   54.96830   57.56360   53.30070   83.11340   38.40390   56.93070   56.60150   -9999.25   -9999.25   38.86580    8.58730    8.43540   -9999.25   -9999.25    7.65630    7.25580   -9999.25   -9999.25   -9999.25    0.14770 3739.15060 4023.95780 3904.44380   -9999.25   -9999.25 3802.92770
 15173.50000   -9999.25   -9999.25   54.74990   60.58750   54.96890   90.84240   39.16780   58.03210   53.64180   -9999.25   -9999.25   39.85470    8.54830    8.43870   -9999.25   -9999.25    7.61000    7.66440   -9999.25   -9999.25   -9999.25    0.15300 3738.78420 4023.95780 3958.55320   -9999.25   -9999.25 3800.54390
 15174.00000   -9999.25   -9999.25   54.84970   67.95830   55.61600  103.70340   39.93130   59.13350   51.76070   -9999.25   -9999.25   40.18590    8.74500    9.93660   -9999.25   -9999.25    7.65630    8.87940   -9999.25   -9999.25   -9999.25    0.15540 3738.41770 4023.95780 3934.13500   -9999.25   -9999.25 3800.54390
 15174.50000   -9999.25   -9999.25   55.64280   74.23040   55.71070  117.04640   40.69990   55.38370   51.32780   -9999.25   -9999.25   40.39280    9.62190   12.26150   -9999.25   -9999.25    8.27750   10.51600   -9999.25   -9999.25   -9999.25    0.15540 3738.05130 4023.95780 3955.04910   -9999.25   -9999.25 3755.54200
