~Version ---------------------------------------------------
VERS.   2.0 : CWLS log ASCII Standard -VERSION 2.0
WRAP.    NO : One line per depth step
DLM . SPACE : Column Data Section Delimiter
~Well ------------------------------------------------------
STRT .FT               12400.0 : START DEPTH
STOP .FT               15729.0 : STOP DEPTH
STEP .FT                   0.5 : STEP
NULL .                -9999.25 : NULL VALUE
COMP .                         : COMPANY
WELL .                         : WELL
FLD  .                         : FIELD
LOC  .                         : LOCATION
PROV .                         : PROVINCE
CNTY .                         : COUNTY
STAT .                         : STATE
CTRY .                         : COUNTRY
SRVC .                         : SERVICE COMPANY
DATE .                         : DATE
UWI  .                         : UNIQUE WELL ID
API  .                         : API NUMBER
SLAT .WGS84 2.2474108254184983 : SURFACE LATITUDE
SLON .WGS84     8.046596618216 : SURFACE LONGITUDE
DATUM.F                3232.67 : DEPTH DATUM ELEV
~Curve Information -----------------------------------------
DEPT   .FT    : DEPTH FEET
CAL1R_R.IN    : CALIPER FROM DLL-MSFL LOG FROM REPEAT SECTION #1
CALSR_R.IN    : CALIPER FROM DLL-MSFL LOG FROM REPEAT SECTION #1
DT     .US/F  : DELTA-T (INTERVAL TRANSIT TIME) FROM SONIC LOG
DTCO   .US/F  : DELTA-T COMPRESSIONAL FROM SONIC LOG
DTL    .US/F  : DELTA-T LONG SPACING FROM SONIC LOG
DTSM   .US/F  : DELTA-T SHEAR FROM SONIC LOG
GRD    .GAPI  : GAMMA RAY FROM CNL LOG
GRR    .GAPI  : GAMMA RAY FROM DLL-MSFL LOG
GRR_R  .GAPI  : GAMMA RAY FROM DLL-MSFL LOG FROM REPEAT SECTION #2
GRR_R1 .GAPI  : GAMMA RAY FROM DLL-MSFL LOG FROM REPEAT SECTION #1
GRR_R2 .GAPI  : GAMMA RAY FROM DLL-MSFL LOG FROM REPEAT SECTION #3
GRS    .GAPI  : GAMMA RAY FROM SONIC LOG
LLD    .OHMM  : LATEROLOG DEEP RESISTIVITY FROM DLL-MSFL LOG
LLD_R  .OHMM  : LATEROLOG DEEP RESISTIVITY FROM DLL-MSFL LOG FROM REPEAT SECTION #2
LLD_R1 .OHMM  : LATEROLOG DEEP RESISTIVITY FROM DLL-MSFL LOG FROM REPEAT SECTION #1
LLD_R2 .OHMM  : LATEROLOG DEEP RESISTIVITY FROM DLL-MSFL LOG FROM REPEAT SECTION #3
LLS    .OHMM  : LATEROLOG SHALLOW RESISTIVITY FROM DLL-MSFL LOG
LLS_R  .OHMM  : LATEROLOG SHALLOW RESISTIVITY FROM DLL-MSFL LOG FROM REPEAT SECTION #2
LLS_R1 .OHMM  : LATEROLOG SHALLOW RESISTIVITY FROM DLL-MSFL LOG FROM REPEAT SECTION #1
LLS_R2 .OHMM  : LATEROLOG SHALLOW RESISTIVITY FROM DLL-MSFL LOG FROM REPEAT SECTION #3
MSFL_R .OHMM  : MICRO SPHERICALLY FOCUSED RESISTIVITY FROM DLL-MSFL LOG FROM REPEAT SECTION #1
NPHI_LS.DEC   : NEUTRON POROSITY LIMESTONE FROM CNL LOG
TEND   .LBF   : TENSION FROM CNL LOG
TENR   .LBF   : TENSION FROM DLL-MSFL LOG
TENR_R .LBF   : TENSION FROM DLL-MSFL LOG FROM REPEAT SECTION #2
TENR_R1.LBF   : TENSION FROM DLL-MSFL LOG FROM REPEAT SECTION #1
TENR_R2.LBF   : TENSION FROM DLL-MSFL LOG FROM REPEAT SECTION #3
TENS   .LBF   : TENSION FROM SONIC LOG
~Params ----------------------------------------------------
~Other -----------------------------------------------------
~ASCII -----------------------------------------------------
# ...
 15500.00000    9.50880    9.15290   53.58280   50.22110   54.60580   78.70240   19.45310  103.73950   97.79490  101.95340   98.26840   19.26600    4.31840    3.53850    3.30410    3.63240    3.67530    2.64870    2.62040    2.66110    5.03590    0.02890 3635.21190 4205.53320 4122.10600 3749.52930 4158.19190 3715.70480
 15500.50000    9.52770    9.16680   53.87520   58.45810   54.81420   89.63750   18.28340  101.91950   97.76460  101.77690   98.38880   18.21030    4.10350    3.55980    3.28910    3.39180    3.37470    2.57760    2.62040    2.53720    4.87260    0.02980 3637.86570 4286.98630 4100.46190 3665.83570 4124.87840 3717.91670
 15501.00000    9.52770    9.17150   54.07000   65.87090   54.91360  104.40560   18.09170   99.79930   97.73430  103.87920   99.36300   18.46120    3.99330    3.55980    3.28910    3.38030    3.19640    2.57970    2.62040    2.52210    5.39840    0.02710 3640.50490 4286.67190 4094.57370 3582.14230 4121.33150 3720.12870
 15501.50000    9.53020    9.18320   54.07150   66.92390   54.91440  105.34600   18.38550   99.16740   98.86780  103.80410  100.91090   19.56860    3.99330    3.55980    3.28910    3.38530    3.23530    2.61110    2.62040    2.52260    4.63510    0.02430 3641.91110 4267.26220 4057.23190 3528.37260 4107.09810 3722.34080
 15502.00000    9.54440    9.19500   53.98040   70.15570   54.73110  114.12640   19.63280   98.52200  100.00120   99.64000  102.07040   20.44590    4.17870    3.59110    3.28910    3.37940    3.40230    2.62480    2.63490    2.52310    4.54410    0.02300 3644.55350 4235.43700 4015.28830 3593.74780 4123.30860 3724.55270
 15502.50000    9.55860    9.20670   53.87120   75.24430   54.46270  126.91420   21.53800   97.45440  100.17190   95.58770  102.24470   21.86760    4.21680    3.57290    3.28910    3.36020    3.47890    2.62150    2.62930    2.52360    4.40540    0.02140 3645.95510 4203.61180 4018.02030 4609.05270 4124.84960 3726.76460
 15503.00000    9.57710    9.21850   53.79680   74.55340   54.28400  135.80390   21.92290   95.75510   98.73730   93.15330  100.66210   21.82520    4.10350    3.57700    3.28910    3.36130    3.39570    2.61690    2.62380    2.52410    4.32960    0.01990 3647.36380 4162.81980 4054.14770 5220.40230 4126.39060 3728.97680
 15503.50000    9.58120    9.23020   53.67840   69.51820   54.10520  135.28010   20.58660   95.94300   96.42170   94.08770   99.29340   20.51370    3.88440    3.61250    3.28910    3.36240    3.16230    2.61230    2.62040    2.52470    4.38580    0.01830 3650.00540 4119.04350 4094.09350 5263.03810 4103.53030 3731.18870
 15504.00000    9.62060    9.24200   53.68000   64.10910   54.01470  127.69440   18.90850   98.55980   95.46830   95.86350   99.04970   19.16670    3.56680    3.60460    3.31520    3.38480    2.92890    2.60770    2.62040    2.52520    4.41980    0.01640 3651.41480 4087.31420 4085.78390 5240.54540 4064.40310 3733.40060
 15504.50000    9.60670    9.25370   53.67970   61.58360   54.14390  127.05890   17.81190  105.39300   95.47380   96.33920  100.67330   17.93140    3.34570    3.59680    3.35880    3.38990    2.69550    2.60300    2.62040    2.52570    4.46630    0.01330 3652.72610 4055.58500 4062.99120 5218.05320 4052.32590 3735.61280
 15505.00000    9.64850    9.26550   53.68010   61.11240   54.27300  125.39160   17.32430  107.68720   94.48650   96.17970  100.24970   17.63440    3.24110    3.58890    3.40230    3.39500    2.57080    2.59840    2.59420    2.52620    4.40900    0.01040 3729.44780 4023.85570 4040.19820 5195.56050 4084.35990 3736.95290
 15505.50000    9.69030    9.27730   53.68010   61.47840   54.32580  125.34530   17.32790  105.09190   93.81400   96.58780   97.55380   17.50180    3.25590    3.51510    3.40980    3.40010    2.53990    2.59380    2.55800    2.52670    4.46630    0.00860 3726.19170 3992.12670 4016.69410 5117.83010 4125.61080 3738.29350
 15506.00000    9.71940    9.28900   53.87630   67.09570   54.37250  135.94960   17.62480  101.01790   93.82670   97.72650   94.66950   18.19910    3.31550    3.51130    3.37140    3.40760    2.53990    2.55570    2.55510    2.52720    4.52840    0.00870 3722.93850 4010.90840 4014.84380 4970.94580 4130.49070 3739.63380
 15506.50000    9.70650    9.30080   53.68720   74.73450   54.40780  148.77980   24.46670   98.25800   96.97490   99.54690   95.40200   23.33070    3.34750    3.56970    3.38010    3.41600    2.53990    2.60480    2.55220    2.52770    4.55720    0.01750 3718.46410 4106.00290 4012.99340 4969.50240 4241.96240 3740.97410
 15507.00000    9.69170    9.30040   53.67810   81.28400   54.37640  155.39340   37.88760   97.52100  100.12300  101.79210   98.35930   43.05810    3.35650    3.75080    3.41190    3.40020    2.53990    2.65950    2.56750    2.51030    4.55900    0.03610 3715.21090 4201.09670 4011.14310 4968.05860 4280.52440 3773.03440
 15507.50000    9.70620    9.29020   53.68440   80.11220   53.79210  149.25730   50.45840   97.68950  102.01760  102.15260   98.53550   58.40570    3.36540    3.93190    3.57090    3.39730    2.53990    2.80580    2.65540    2.49610    4.46560    0.10000 3710.73390 4265.85600 4009.29270 4947.65230 4286.27440 3759.89940
 15508.00000    9.73200    9.30260   53.58190   72.21020   49.95360  138.53480   65.78500   97.04330   99.43160   99.04120   93.50180   71.69620    3.37440    4.11310    3.72980    3.39430    2.53990    2.97500    2.73120    2.49040    4.40700    0.17630 3706.25290 4321.07910 4007.44240 4872.58200 4259.89890 3746.76440
 15508.50000    9.73160    9.30500   53.58190   61.55300   50.97790  114.25270   75.80770   96.39710   96.19740   95.27900   88.46810   76.83000    3.40700    4.30710    3.88880    3.39140    2.53990    3.02250    2.82380    2.50170    4.41410    0.25250 3702.99680 4353.47410 4005.59200 4838.97020 4207.44430 3741.51030
 15509.00000    9.73110    9.30270   53.58190   57.50440   52.69830  100.46110   79.22310   95.63980   93.76890   92.37320   85.68310   79.32180    3.51690    4.61150    4.02950    3.55730    2.57080    3.35350    2.95950    2.51310    4.49650    0.27130 3698.51830 4301.70510 4005.22190 4798.02730 4179.39840 3741.51030
 15509.50000    9.73070    9.29710   53.58110   55.78150   53.78890   96.07850   79.84350   94.71590   92.99240   91.17980   86.28050   79.45500    3.68900    5.08700    4.34020    3.90610    2.72050    3.68450    3.14260    2.77930    4.66760    0.27820 3695.25980 4254.64360 4012.09910 4792.96340 4133.99460 3538.96190
 15510.00000    9.73030    9.29160   53.58330   55.51610   54.10100   94.46910   79.81350   94.89920   92.81420   93.26320   88.87010   79.41510    3.99880    5.56250    4.51420   30.85150    2.93730    4.01540    3.40540    7.96650    4.77850    0.28310 3689.01760 4221.21000 4054.40970 4743.98190 4088.59110 3525.49070
 15510.50000    9.72990    9.28710   53.59150   55.14370   54.46400   93.13690   79.81180   95.35930   94.71300   95.97930   92.61630   79.43420    4.30860    6.03800    5.01870   57.79690    3.15410    4.34640    3.79660   20.43130    4.86810    0.28600 3674.08420 4187.77640 4096.72020 4635.24710 4053.89600 3741.67020
 15511.00000    9.72950    9.28180   53.48380   55.08640   54.51220   93.38300   79.61510   95.54340   96.61180   98.89530   93.23430   78.98960    4.55630    6.26260    5.52310   84.74230    3.37090    4.57430    4.12700   58.05960    4.89410    0.28850 3669.71510 4171.59230 4160.36080 4623.79200 4054.30570 3741.67020
 15511.50000    9.72900    9.26870   53.28750   55.11370   54.50290   93.62910   79.18350   95.13810   98.51060   99.32230   91.95270   78.26300    5.07460    6.34930    5.94020   99.49480    3.58760    4.59390    4.45740   84.37380    4.89410    0.29150 3667.04440 4108.15670 4231.74950 4600.40870 4133.93990 3741.67020
 15512.00000    9.72860    9.25570   53.58190   55.53500   54.04110   94.23070   75.32180   94.82670  100.40930   96.83200   91.24480   75.37210    5.57220    6.43600    5.98080  100.83870    3.96680    4.54080    4.76490   86.68640    4.92770    0.29120 3661.70190 4108.15670 4281.77340 4577.02540 4217.16990 3741.67020
