~Version ---------------------------------------------------
VERS.   2.0 : CWLS log ASCII Standard -VERSION 2.0
WRAP.    NO : One line per depth step
DLM . SPACE : Column Data Section Delimiter
~Well ------------------------------------------------------
STRT .FT               12400.0 : START DEPTH
STOP .FT               15729.0 : STOP DEPTH
STEP .FT                   0.5 : STEP
NULL .                -9999.25 : NULL VALUE
COMP .                         : COMPANY
WELL .                         : WELL
FLD  .                         : FIELD
LOC  .                         : LOCATION
PROV .                         : PROVINCE
CNTY .                         : COUNTY
STAT .                         : STATE
CTRY .                         : COUNTRY
SRVC .                         : SERVICE COMPANY
DATE .                         : DATE
UWI  .                         : UNIQUE WELL ID
API  .                         : API NUMBER
SLAT .WGS84 2.2474108254184983 : SURFACE LATITUDE
SLON .WGS84     8.046596618216 : SURFACE LONGITUDE
DATUM.F                3232.67 : DEPTH DATUM ELEV
~Curve Information -----------------------------------------
DEPT   .FT    : DEPTH FEET
CAL1R_R.IN    : CALIPER FROM DLL-MSFL LOG FROM REPEAT SECTION #1
CALSR_R.IN    : CALIPER FROM DLL-MSFL LOG FROM REPEAT SECTION #1
DT     .US/F  : DELTA-T (INTERVAL TRANSIT TIME) FROM SONIC LOG
DTCO   .US/F  : DELTA-T COMPRESSIONAL FROM SONIC LOG
DTL    .US/F  : DELTA-T LONG SPACING FROM SONIC LOG
DTSM   .US/F  : DELTA-T SHEAR FROM SONIC LOG
GRD    .GAPI  : GAMMA RAY FROM CNL LOG
GRR    .GAPI  : GAMMA RAY FROM DLL-MSFL LOG
GRR_R  .GAPI  : GAMMA RAY FROM DLL-MSFL LOG FROM REPEAT SECTION #2
GRR_R1 .GAPI  : GAMMA RAY FROM DLL-MSFL LOG FROM REPEAT SECTION #1
GRR_R2 .GAPI  : GAMMA RAY FROM DLL-MSFL LOG FROM REPEAT SECTION #3
GRS    .GAPI  : GAMMA RAY FROM SONIC LOG
LLD    .OHMM  : LATEROLOG DEEP RESISTIVITY FROM DLL-MSFL LOG
LLD_R  .OHMM  : LATEROLOG DEEP RESISTIVITY FROM DLL-MSFL LOG FROM REPEAT SECTION #2
LLD_R1 .OHMM  : LATEROLOG DEEP RESISTIVITY FROM DLL-MSFL LOG FROM REPEAT SECTION #1
LLD_R2 .OHMM  : LATEROLOG DEEP RESISTIVITY FROM DLL-MSFL LOG FROM REPEAT SECTION #3
LLS    .OHMM  : LATEROLOG SHALLOW RESISTIVITY FROM DLL-MSFL LOG
LLS_R  .OHMM  : LATEROLOG SHALLOW RESISTIVITY FROM DLL-MSFL LOG FROM REPEAT SECTION #2
LLS_R1 .OHMM  : LATEROLOG SHALLOW RESISTIVITY FROM DLL-MSFL LOG FROM REPEAT SECTION #1
LLS_R2 .OHMM  : LATEROLOG SHALLOW RESISTIVITY FROM DLL-MSFL LOG FROM REPEAT SECTION #3
MSFL_R .OHMM  : MICRO SPHERICALLY FOCUSED RESISTIVITY FROM DLL-MSFL LOG FROM REPEAT SECTION #1
NPHI_LS.DEC   : NEUTRON POROSITY LIMESTONE FROM CNL LOG
TEND   .LBF   : TENSION FROM CNL LOG
TENR   .LBF   : TENSION FROM DLL-MSFL LOG
TENR_R .LBF   : TENSION FROM DLL-MSFL LOG FROM REPEAT SECTION #2
TENR_R1.LBF   : TENSION FROM DLL-MSFL LOG FROM REPEAT SECTION #1
TENR_R2.LBF   : TENSION FROM DLL-MSFL LOG FROM REPEAT SECTION #3
TENS   .LBF   : TENSION FROM SONIC LOG
~Params ----------------------------------------------------
~Other -----------------------------------------------------
~ASCII -----------------------------------------------------
# ...
 15062.50000   -9999.25   -9999.25   54.30040   57.46180   56.96000  120.90000   18.42420   53.72550   69.06470   -9999.25   -9999.25   18.22610    8.92860   14.16890   -9999.25   -9999.25    8.68830   10.38020   -9999.25   -9999.25   -9999.25    0.02290 3691.60470 4327.60600 4034.69970   -9999.25   -9999.25 3803.81050
 15063.00000   -9999.25   -9999.25   54.07260   56.77640   57.25660  120.72600   19.96390   60.53690   71.39110   -9999.25   -9999.25   19.66090    8.93440    9.20330   -9999.25   -9999.25    8.69430    9.34810   -9999.25   -9999.25   -9999.25    0.02640 3674.80640 4287.90040 4037.47140   -9999.25   -9999.25 3786.56810
 15063.50000   -9999.25   -9999.25   54.07260   57.44410   57.65500  120.64960   21.52290   66.75050   70.79500   -9999.25   -9999.25   21.45380    8.94110    8.61570   -9999.25   -9999.25    8.54330    8.25970   -9999.25   -9999.25   -9999.25    0.02980 3671.73340 4234.92480 4040.24290   -9999.25   -9999.25 3786.56810
 15064.00000   -9999.25   -9999.25   54.17080   57.49070   58.00560  120.98440   23.07980   71.17370   71.59180   -9999.25   -9999.25   23.24670    8.84020    8.00760   -9999.25   -9999.25    8.23740    7.81790   -9999.25   -9999.25   -9999.25    0.03280 3679.04320 4201.02830 4026.78200   -9999.25   -9999.25 3786.56810
 15064.50000   -9999.25   -9999.25   54.17080   57.48290   58.29690  121.02410   24.61580   73.38790   73.04390   -9999.25   -9999.25   25.03960    8.58310    7.57980   -9999.25   -9999.25    7.97020    7.59810   -9999.25   -9999.25   -9999.25    0.03570 3643.87280 4167.13230 3956.63550   -9999.25   -9999.25 3786.56810
 15065.00000   -9999.25   -9999.25   54.17080   57.47510   58.54680  121.03360   25.10560   73.38680   72.87500   -9999.25   -9999.25   25.14370    8.03530    8.14350   -9999.25   -9999.25    7.70300    7.69490   -9999.25   -9999.25   -9999.25    0.03740 3608.70310 4133.23630 3892.03760   -9999.25   -9999.25 3786.56810
 15065.50000   -9999.25   -9999.25   54.17080   57.46730   58.62840  120.70450   25.20930   72.39040   68.82080   -9999.25   -9999.25   25.14900    7.84880    9.34160   -9999.25   -9999.25    7.47700    8.26730   -9999.25   -9999.25   -9999.25    0.03740 3642.68530 4099.34030 3888.21190   -9999.25   -9999.25 3786.56810
 15066.00000   -9999.25   -9999.25   54.08920   56.90110   58.25350  117.29850   24.56460   69.73510   60.43580   -9999.25   -9999.25   24.95690    7.95010   16.29350   -9999.25   -9999.25    7.44800   11.32340   -9999.25   -9999.25   -9999.25    0.03510 3661.20970 4065.44410 3896.82590   -9999.25   -9999.25 3786.56810
 15066.50000   -9999.25   -9999.25   53.93770   56.59840   56.43590  108.55500   23.44640   62.33900   52.52930   -9999.25   -9999.25   24.03530   11.31170   59.57840   -9999.25   -9999.25    8.69860   32.56150   -9999.25   -9999.25   -9999.25    0.02950 3679.73070 4031.54790 3884.49950   -9999.25   -9999.25 3763.09200
 15067.00000   -9999.25   -9999.25   53.77820   56.42760   56.08240   98.17540   21.44460   54.94290   39.51090   -9999.25   -9999.25   21.86340   14.47790  127.08540   -9999.25   -9999.25   16.58220   79.10420   -9999.25   -9999.25   -9999.25    0.02250 3698.25440 3997.65190 3872.17290   -9999.25   -9999.25 3781.86670
 15067.50000   -9999.25   -9999.25   53.97450   56.27660   55.85950   90.31100   19.43270   47.54680   34.80860   -9999.25   -9999.25   19.69150   37.58290  194.59240   -9999.25   -9999.25   24.34640  125.64700   -9999.25   -9999.25   -9999.25    0.01740 3716.77780 3957.28050 3859.84640   -9999.25   -9999.25 3800.64110
 15068.00000   -9999.25   -9999.25   53.87630   56.12570   55.87320   86.62580   18.74290   39.67870   31.71320   -9999.25   -9999.25   18.96520   92.82980  254.74100   -9999.25   -9999.25   43.96370  172.18980   -9999.25   -9999.25   -9999.25    0.01660 3717.23560 3944.13110 3847.51980   -9999.25   -9999.25 3755.26370
 15068.50000   -9999.25   -9999.25   53.87630   55.95530   55.94690   85.95180   18.84090   33.90540   31.55560   -9999.25   -9999.25   19.93320  222.51820  341.46380   -9999.25   -9999.25  110.97890  195.56100   -9999.25   -9999.25   -9999.25    0.01690 3690.59110 3930.96780 3863.53320   -9999.25   -9999.25 3755.26370
 15069.00000   -9999.25   -9999.25   53.87630   56.12110   56.00490   86.12820   21.34840   30.32430   30.68520   -9999.25   -9999.25   23.27940  309.11760  371.25360   -9999.25   -9999.25  177.99420  194.54020   -9999.25   -9999.25   -9999.25    0.03020 3669.28960 3950.42140 3894.20410   -9999.25   -9999.25 3755.26370
 15069.50000   -9999.25   -9999.25   53.87690   56.45050   56.19770   86.85370   24.33410   28.10910   28.01410   -9999.25   -9999.25   25.74180  345.29840  391.25420   -9999.25   -9999.25  194.35820  187.75620   -9999.25   -9999.25   -9999.25    0.03370 3669.37280 3969.87500 3894.83030   -9999.25   -9999.25 3755.26370
 15070.00000   -9999.25   -9999.25   53.99430   57.08640   56.39050   87.61970   27.26510   27.29100   27.05740   -9999.25   -9999.25   26.87870  395.11120  474.90670   -9999.25   -9999.25  198.36050  243.17080   -9999.25   -9999.25   -9999.25    0.03870 3669.58720 3989.32840 3832.54150   -9999.25   -9999.25 3755.26370
 15070.50000   -9999.25   -9999.25   54.17180   57.32440   56.58300   88.53820   28.35140   27.29370   23.24870   -9999.25   -9999.25   28.01560  448.78810  674.66220   -9999.25   -9999.25  226.84500  308.93700   -9999.25   -9999.25   -9999.25    0.04170 3670.24270 4008.78200 3899.55640   -9999.25   -9999.25 3601.00460
 15071.00000   -9999.25   -9999.25   54.06060   56.76220   56.72370   89.72180   29.32900   26.06700   24.83890   -9999.25   -9999.25   29.65480  577.94140  874.41760   -9999.25   -9999.25  345.89820  446.85350   -9999.25   -9999.25   -9999.25    0.05010 3669.64550 4089.97190 3901.40500   -9999.25   -9999.25 3710.69040
 15071.50000   -9999.25   -9999.25   53.96930   57.33240   56.70780   91.38160   31.18650   25.43830   27.02160   -9999.25   -9999.25   32.69260  760.75340  897.91870   -9999.25   -9999.25  510.80970  535.37650   -9999.25   -9999.25   -9999.25    0.06210 3687.61820 4171.16210 3903.25370   -9999.25   -9999.25 3795.25930
 15072.00000   -9999.25   -9999.25   53.87260   57.66700   56.63410   91.88250   37.93220   25.38270   28.53140   -9999.25   -9999.25   41.30120 1079.38530  889.80500   -9999.25   -9999.25  617.19760  491.88710   -9999.25   -9999.25   -9999.25    0.10820 3693.87060 4252.35210 3857.52510   -9999.25   -9999.25 3847.03590
 15072.50000   -9999.25   -9999.25   53.97450   57.02170   56.46570   92.29500   44.28680   25.83670   28.16460   -9999.25   -9999.25   45.91840 1085.95070  321.76280   -9999.25   -9999.25  628.52880  215.99380   -9999.25   -9999.25   -9999.25    0.15440 3712.29150 4301.10450 3847.14940   -9999.25   -9999.25 3816.09250
 15073.00000   -9999.25   -9999.25   54.17080   55.63080   56.31880   92.70750   49.36400   27.08450   27.47920   -9999.25   -9999.25   50.61840  999.96900   34.20200   -9999.25   -9999.25  596.02760   28.44590   -9999.25   -9999.25   -9999.25    0.19020 3688.99460 4274.66850 3847.14940   -9999.25   -9999.25 3795.14700
 15073.50000   -9999.25   -9999.25   53.97450   55.32910   56.24550   93.10910   52.52500   28.33230   28.38740   -9999.25   -9999.25   53.55930  866.13640   26.49800   -9999.25   -9999.25  543.12050   22.87750   -9999.25   -9999.25   -9999.25    0.21010 3645.48360 4221.67870 3849.55490   -9999.25   -9999.25 3774.20140
 15074.00000   -9999.25   -9999.25   53.97500   55.96680   56.20950   93.43180   55.68610   29.83960   32.36410   -9999.25   -9999.25   55.26710  732.30380   30.92880   -9999.25   -9999.25  490.21340   27.73020   -9999.25   -9999.25   -9999.25    0.22530 3639.13380 4173.29440 3883.92460   -9999.25   -9999.25 3742.47020
 15074.50000   -9999.25   -9999.25   53.97020   56.42660   56.30320   93.75450   57.77830   34.95160   37.24820   -9999.25   -9999.25   57.14970  617.69790   34.89400   -9999.25   -9999.25  444.76930   32.58290   -9999.25   -9999.25   -9999.25    0.23020 3656.07710 4138.17920 3909.88400   -9999.25   -9999.25 3758.20410
