~Version ---------------------------------------------------
VERS.   2.0 : CWLS log ASCII Standard -VERSION 2.0
WRAP.    NO : One line per depth step
DLM . SPACE : Column Data Section Delimiter
~Well ------------------------------------------------------
STRT .FT               12400.0 : START DEPTH
STOP .FT               15729.0 : STOP DEPTH
STEP .FT                   0.5 : STEP
NULL .                -9999.25 : NULL VALUE
COMP .                         : COMPANY
WELL .                         : WELL
FLD  .                         : FIELD
LOC  .                         : LOCATION
PROV .                         : PROVINCE
CNTY .                         : COUNTY
STAT .                         : STATE
CTRY .                         : COUNTRY
SRVC .                         : SERVICE COMPANY
DATE .                         : DATE
UWI  .                         : UNIQUE WELL ID
API  .                         : API NUMBER
SLAT .WGS84 2.2474108254184983 : SURFACE LATITUDE
SLON .WGS84     8.046596618216 : SURFACE LONGITUDE
DATUM.F                3232.67 : DEPTH DATUM ELEV
~Curve Information -----------------------------------------
DEPT   .FT    : DEPTH FEET
CAL1R_R.IN    : CALIPER FROM DLL-MSFL LOG FROM REPEAT SECTION #1
CALSR_R.IN    : CALIPER FROM DLL-MSFL LOG FROM REPEAT SECTION #1
DT     .US/F  : DELTA-T (INTERVAL TRANSIT TIME) FROM SONIC LOG
DTCO   .US/F  : DELTA-T COMPRESSIONAL FROM SONIC LOG
DTL    .US/F  : DELTA-T LONG SPACING FROM SONIC LOG
DTSM   .US/F  : DELTA-T SHEAR FROM SONIC LOG
GRD    .GAPI  : GAMMA RAY FROM CNL LOG
GRR    .GAPI  : GAMMA RAY FROM DLL-MSFL LOG
GRR_R  .GAPI  : GAMMA RAY FROM DLL-MSFL LOG FROM REPEAT SECTION #2
GRR_R1 .GAPI  : GAMMA RAY FROM DLL-MSFL LOG FROM REPEAT SECTION #1
GRR_R2 .GAPI  : GAMMA RAY FROM DLL-MSFL LOG FROM REPEAT SECTION #3
GRS    .GAPI  : GAMMA RAY FROM SONIC LOG
LLD    .OHMM  : LATEROLOG DEEP RESISTIVITY FROM DLL-MSFL LOG
LLD_R  .OHMM  : LATEROLOG DEEP RESISTIVITY FROM DLL-MSFL LOG FROM REPEAT SECTION #2
LLD_R1 .OHMM  : LATEROLOG DEEP RESISTIVITY FROM DLL-MSFL LOG FROM REPEAT SECTION #1
LLD_R2 .OHMM  : LATEROLOG DEEP RESISTIVITY FROM DLL-MSFL LOG FROM REPEAT SECTION #3
LLS    .OHMM  : LATEROLOG SHALLOW RESISTIVITY FROM DLL-MSFL LOG
LLS_R  .OHMM  : LATEROLOG SHALLOW RESISTIVITY FROM DLL-MSFL LOG FROM REPEAT SECTION #2
LLS_R1 .OHMM  : LATEROLOG SHALLOW RESISTIVITY FROM DLL-MSFL LOG FROM REPEAT SECTION #1
LLS_R2 .OHMM  : LATEROLOG SHALLOW RESISTIVITY FROM DLL-MSFL LOG FROM REPEAT SECTION #3
MSFL_R .OHMM  : MICRO SPHERICALLY FOCUSED RESISTIVITY FROM DLL-MSFL LOG FROM REPEAT SECTION #1
NPHI_LS.DEC   : NEUTRON POROSITY LIMESTONE FROM CNL LOG
TEND   .LBF   : TENSION FROM CNL LOG
TENR   .LBF   : TENSION FROM DLL-MSFL LOG
TENR_R .LBF   : TENSION FROM DLL-MSFL LOG FROM REPEAT SECTION #2
TENR_R1.LBF   : TENSION FROM DLL-MSFL LOG FROM REPEAT SECTION #1
TENR_R2.LBF   : TENSION FROM DLL-MSFL LOG FROM REPEAT SECTION #3
TENS   .LBF   : TENSION FROM SONIC LOG
~Params ----------------------------------------------------
~Other -----------------------------------------------------
~ASCII -----------------------------------------------------
# ...
 15437.50000    8.99470    9.13240   43.76840   58.58570   20.51840   97.40680   55.64110   61.21810   55.04150   61.40340   54.46510   56.62830   89.08870   57.99170  127.17780   41.59640   66.66250   56.23960  125.18300   28.16610   41.46900    0.30590 3664.77510 4038.76220 3925.34960 4891.21140 4082.39450 3658.76440
 15438.00000    8.99680    9.13240   49.95090   66.26070   40.34720  109.56900   56.76630   61.39050   52.48620   60.49690   54.12320   56.83390  100.40610   35.80690  130.85170   18.93250   87.74700   34.05570  134.46530    6.15180   32.01110    0.30280 3662.24320 4025.21920 3931.91060 4845.37650 4084.73340 3628.41040
 15438.50000    8.99900    9.13240   52.34710   75.12560   51.42160  125.52120   56.19760   54.55360   48.14640   57.10790   53.02120   56.02060  101.38610   18.09900  119.44220    5.12470   93.83850   17.35600  135.68120    6.00680   35.76370    0.29790 3659.71120 4023.73360 3919.71660 4799.54100 4085.03710 3573.58810
 15439.00000    9.00120    9.13240   53.38570   77.70800   56.81860  129.77540   53.91120   49.60250   43.80660   50.85010   51.40450   52.88890   94.12240   18.22990  103.69110    5.16070   81.01260   22.20640  119.96850    6.05630   38.81500    0.27040 3675.27340 4022.24800 3904.51460 4753.70560 4077.20120 3630.85030
 15439.50000    9.00340    9.13240   53.48380   70.90650   50.88280  122.86480   48.19760   50.46040   39.46680   47.78980   49.08700   49.75710   77.86220   24.80890   79.04210    5.17380   68.18660   26.98530   94.58960    6.10570   41.43820    0.26130 3690.83350 4020.76250 3921.69730 4707.87060 4048.18530 3688.11230
 15440.00000    9.00560    9.13240   53.48380   61.86290   44.87400  109.36970   47.92270   62.32550   34.65570   44.74720   49.29730   48.21270   61.60210   25.44700   52.16860    5.18680   12.79830   27.84390   65.38350    6.15520   46.45360    0.24970 3706.50220 4019.27690 3943.42190 4648.15870 4084.64210 3699.56490
 15440.50000    9.00350    9.13240   53.68010   54.89260   43.94580   92.15300   48.29520   72.01070   33.86100   45.05150   53.21460   48.59650   15.62750   25.59830   25.29510    5.19990   12.79830   28.50730   36.17750    6.20460   54.22940    0.24260 3722.06450 4017.79130 3965.14650 4609.43360 4082.52950 3699.56490
 15441.00000    8.99870    9.13240   53.68010   54.05850   38.65460   91.29760   51.27010   75.89130   33.98590   52.22860   56.01100   51.43760   19.40720   25.62780   35.37560    5.21300   17.71240   28.30190   39.57280    6.25400   56.30700    0.24310 3725.17720 4016.30570 4042.02080 4561.84960 4076.65550 3745.25710
 15441.50000    8.99380    9.13240   53.77930   61.43470   33.36330  107.27910   54.74450   77.25780   33.73600   62.49190   59.56500   54.86840   23.89160   25.65740   38.65140    5.21560   23.66050   28.21720   51.88470    6.30350   69.11840    0.24980 3702.08790 4014.82010 4215.77290 4514.26560 4070.78130 3717.30470
 15442.00000    8.98900    9.13240   53.77740   77.10490   34.92750  143.28860   67.80880   79.29670   34.27220   71.45370   64.68990   82.83200   25.04010   25.68700   23.30620    5.29290   28.59130   28.13250   38.81340    6.35290   84.48710    0.25000 3676.99170 4013.33450 4244.38480 4466.68160 4064.90700 3689.35230
 15442.50000    8.98410    9.13240   53.77860   89.23500   42.04610  164.89380   98.66300   82.02920   34.90500   78.50560   70.86190  121.92460   25.84610   25.71660    7.96100    5.34430   29.46850   28.04780   17.78410    6.40230  103.44710    0.24100 3651.89620 4011.84890 4239.00980 4419.09770 4059.03270 3698.52880
 15443.00000    8.97930    9.13240   53.69180   91.46810   53.15340  173.99200  154.74320   82.93400   35.75890   81.50360   75.70200  176.73620   25.96350   25.50830    4.84550    5.37780   29.26390   27.96310    5.07460    6.46450  138.90260    0.24510 3646.87670 4010.36330 4194.57130 4371.51370 4053.15840 3733.45580
 15443.50000    8.97440    9.13800   53.27450   90.48090   59.53610  175.65050  198.19370   83.01250   37.41950   83.20650   78.89600  199.23960   25.84610   25.20330    4.83220    5.41120   29.00820   27.87830    4.98710    6.49780  171.76250    0.26330 3678.90750 4008.87770 4129.43990 4323.92970 4047.28420 3754.41190
 15444.00000    8.96960    9.10700   53.38180   88.58840   58.90440  176.69050  187.67870   83.84430   41.64420   87.22370   80.16330  180.78370   25.84610   24.87100    4.81890    5.42460   28.75250   27.82750    4.99270    6.59070  352.30480    0.26330 3732.29570 4007.39210 4070.35280 4276.34520 4041.41020 3754.41190
 15444.50000    8.96470    9.07600   53.39570   86.12190   55.29150  177.46960  133.53930   84.45040   49.84290   92.73940   83.69140  135.90380   25.72920   24.60140    4.80550    5.45410   28.41740   27.82750    4.99830    6.65560  756.13410    0.21020 3764.32640 4005.90650 4069.57060 4228.76120 4035.53590 3754.41190
 15445.00000    8.96130    9.04490   53.56220   83.94160   51.87710  177.53150  101.05570   82.83710   58.04150   94.89250   87.23640  100.00000   25.72920   24.60140    4.79220   10.55660   28.41880   27.82750    5.00390    6.84370 1919.60840    0.14650 3758.30250 4004.42090 4038.48050 4181.17720 4029.66160 3737.22390
 15445.50000    8.95000    9.01390   53.89210   80.24750   46.99780  175.57690   59.04910   82.47540   65.09900   93.90890   89.23040   59.51610   25.72920   24.60140    4.77880   22.65090   28.41900   27.82750    5.00940   15.71070  583.80880    0.08280 3750.77540 4002.93530 4007.39040 4133.59330 4023.78740 3709.27150
 15446.00000    8.93870    8.98290   54.66140   73.32350   46.81220  162.04400   50.62520   86.44030   67.18060   89.09680   90.57000   47.89780   25.72920   24.90540    4.76550   34.74530   28.41900   27.85160    5.01500   30.38230  829.13800    0.04170 3743.24540 4001.44970 3982.51830 4094.09230 4017.91310 3703.47680
 15446.50000    8.92740    8.96260   54.75960   68.40430   53.78220  146.98480   43.21140   93.88140   70.61360   81.19130   89.23320   43.95270   25.72920   25.13110    4.75220   46.83970   28.41900   27.97230    5.02060   45.05380 1051.57450    0.03250 3735.71780 3999.96410 3976.08860 4090.52830 4012.03910 3715.94700
 15447.00000    8.91610    8.94230   54.07260   70.10530   52.45120  142.45550   42.82040   93.50510   76.09650   74.53510   85.08670   43.25500   25.72920   25.42030    4.73880   58.93410   28.24780   28.09300    5.02620   59.72540  609.76270    0.03790 3728.18750 4000.03520 3943.92480 4086.96410 4006.16480 3769.13870
 15447.50000    8.90480    8.94200   53.77820   76.95350   46.89230  140.57460   43.21140   86.66290   81.57940   67.66190   78.78160   43.63870   25.84610   28.68330    4.72550   74.29140   28.24780   28.25060    5.03180   74.39690   36.55570    0.04490 3725.17720 4002.15140 3918.64010 4083.40010 3990.98800 3769.13870
 15448.00000    8.89350    8.94170   53.97450   83.26620   45.59440  139.81430   45.31340   78.02690   89.49380   62.77450   75.53810   45.79340   28.35770   39.82390    4.71220   92.12050   28.59130   40.46720    5.03740   79.19660   41.01230    0.05610 3725.07960 4004.26760 3906.06910 4079.83620 3991.76660 3769.13870
 15448.50000    8.88230    8.97060   54.75960   85.79760   53.94210  139.84270   47.12200   70.82290   91.94940   59.81670   69.83790   47.84960   33.52200   63.98160    4.69880   98.12040   29.11440   54.62900    5.03820   81.07830   75.46700    0.07010 3724.60380 4006.38380 3874.74000 4077.10230 3971.40700 3769.13870
 15449.00000    8.87100    9.01950   55.25020   86.63600   56.04120  141.50050   47.61080   64.28160   94.61160   58.20120   62.97160   46.83860   45.50860   88.13920    4.68550   99.44110   41.20430   68.79090    5.03950   80.42330   66.68310    0.07180 3724.12550 4008.50000 3846.79490 4067.53610 4006.69210 3769.13870
 15449.50000    8.85970    9.01930   55.35620   86.78230   49.26210  147.31320   44.18860   58.81750   97.27380   55.87930   57.33310   44.28820   60.46300   73.06050    4.60180   97.23370   57.70410   65.15500    4.90460   77.04460   53.34770    0.06690 3723.64720 4010.61620 3925.84520 4042.74100 4095.51540 3769.13870
