~Version ---------------------------------------------------
VERS.   2.0 : CWLS log ASCII Standard -VERSION 2.0
WRAP.    NO : One line per depth step
DLM . SPACE : Column Data Section Delimiter
~Well ------------------------------------------------------
STRT .FT               12400.0 : START DEPTH
STOP .FT               15729.0 : STOP DEPTH
STEP .FT                   0.5 : STEP
NULL .                -9999.25 : NULL VALUE
COMP .                         : COMPANY
WELL .                         : WELL
FLD  .                         : FIELD
LOC  .                         : LOCATION
PROV .                         : PROVINCE
CNTY .                         : COUNTY
STAT .                         : STATE
CTRY .                         : COUNTRY
SRVC .                         : SERVICE COMPANY
DATE .                         : DATE
UWI  .                         : UNIQUE WELL ID
API  .                         : API NUMBER
SLAT .WGS84 2.2474108254184983 : SURFACE LATITUDE
SLON .WGS84     8.046596618216 : SURFACE LONGITUDE
DATUM.F                3232.67 : DEPTH DATUM ELEV
~Curve Information -----------------------------------------
DEPT   .FT    : DEPTH FEET
CAL1R_R.IN    : CALIPER FROM DLL-MSFL LOG FROM REPEAT SECTION #1
CALSR_R.IN    : CALIPER FROM DLL-MSFL LOG FROM REPEAT SECTION #1
DT     .US/F  : DELTA-T (INTERVAL TRANSIT TIME) FROM SONIC LOG
DTCO   .US/F  : DELTA-T COMPRESSIONAL FROM SONIC LOG
DTL    .US/F  : DELTA-T LONG SPACING FROM SONIC LOG
DTSM   .US/F  : DELTA-T SHEAR FROM SONIC LOG
GRD    .GAPI  : GAMMA RAY FROM CNL LOG
GRR    .GAPI  : GAMMA RAY FROM DLL-MSFL LOG
GRR_R  .GAPI  : GAMMA RAY FROM DLL-MSFL LOG FROM REPEAT SECTION #2
GRR_R1 .GAPI  : GAMMA RAY FROM DLL-MSFL LOG FROM REPEAT SECTION #1
GRR_R2 .GAPI  : GAMMA RAY FROM DLL-MSFL LOG FROM REPEAT SECTION #3
GRS    .GAPI  : GAMMA RAY FROM SONIC LOG
LLD    .OHMM  : LATEROLOG DEEP RESISTIVITY FROM DLL-MSFL LOG
LLD_R  .OHMM  : LATEROLOG DEEP RESISTIVITY FROM DLL-MSFL LOG FROM REPEAT SECTION #2
LLD_R1 .OHMM  : LATEROLOG DEEP RESISTIVITY FROM DLL-MSFL LOG FROM REPEAT SECTION #1
LLD_R2 .OHMM  : LATEROLOG DEEP RESISTIVITY FROM DLL-MSFL LOG FROM REPEAT SECTION #3
LLS    .OHMM  : LATEROLOG SHALLOW RESISTIVITY FROM DLL-MSFL LOG
LLS_R  .OHMM  : LATEROLOG SHALLOW RESISTIVITY FROM DLL-MSFL LOG FROM REPEAT SECTION #2
LLS_R1 .OHMM  : LATEROLOG SHALLOW RESISTIVITY FROM DLL-MSFL LOG FROM REPEAT SECTION #1
LLS_R2 .OHMM  : LATEROLOG SHALLOW RESISTIVITY FROM DLL-MSFL LOG FROM REPEAT SECTION #3
MSFL_R .OHMM  : MICRO SPHERICALLY FOCUSED RESISTIVITY FROM DLL-MSFL LOG FROM REPEAT SECTION #1
NPHI_LS.DEC   : NEUTRON POROSITY LIMESTONE FROM CNL LOG
TEND   .LBF   : TENSION FROM CNL LOG
TENR   .LBF   : TENSION FROM DLL-MSFL LOG
TENR_R .LBF   : TENSION FROM DLL-MSFL LOG FROM REPEAT SECTION #2
TENR_R1.LBF   : TENSION FROM DLL-MSFL LOG FROM REPEAT SECTION #1
TENR_R2.LBF   : TENSION FROM DLL-MSFL LOG FROM REPEAT SECTION #3
TENS   .LBF   : TENSION FROM SONIC LOG
~Params ----------------------------------------------------
~Other -----------------------------------------------------
~ASCII -----------------------------------------------------
# ...
 15662.50000    8.91320    8.79470   -9999.25   -9999.25   -9999.25   -9999.25   -9999.25   -9999.25   -9999.25   34.62430   36.77280   -9999.25    3.05400    3.00060    5.49120    2.72500    2.90630    2.92470    4.65300    2.42500    1.50960   -9999.25 3709.38130 5268.52150 4312.35690 4222.40530 4990.06690 3687.04370
 15663.00000    8.86630    8.82590   -9999.25   -9999.25   -9999.25   -9999.25   -9999.25   -9999.25   -9999.25   34.05600   37.63680   -9999.25    3.06140    2.83100    5.66330    2.72620    2.89190    2.65730    5.09340    2.42440    1.17740   -9999.25 3681.14480 5235.96190 4262.37990 4214.38720 5258.17290 3678.33890
 15663.50000    8.96220    8.85720   -9999.25   -9999.25   -9999.25   -9999.25   -9999.25   -9999.25   -9999.25   33.39730   38.49670   -9999.25    3.01090    2.78050    5.77870    2.72740    2.87740    2.47310    5.10880    2.42370    1.00530   -9999.25 3650.64600 5203.40230 4212.40330 4206.36960 5353.19730 3670.70560
 15664.00000    9.12860    8.88840   -9999.25   -9999.25   -9999.25   -9999.25   -9999.25   -9999.25   -9999.25   32.09640   38.59830   -9999.25    2.96050    2.85150    5.92300    2.81700    2.86300    2.34150    5.17300    2.44690    0.89020   -9999.25 3622.38550 5146.73240 4177.04250 4198.35210 5316.13770 3660.94780
 15664.50000    9.18560    8.90170   -9999.25   -9999.25   -9999.25   -9999.25   -9999.25   -9999.25   -9999.25   31.31930   38.63880   -9999.25    2.90230    2.96980    6.02510    5.91390    2.78590    3.30390    5.23720    5.16260    0.94520   -9999.25 3591.87960 5095.25590 4154.59280 4190.33400 5297.09470 3651.19020
 15665.00000    9.21960    8.94540   -9999.25   -9999.25   -9999.25   -9999.25   -9999.25   -9999.25   -9999.25   31.74540   38.73720   -9999.25    2.82960    3.15690    6.23060    9.70400    2.64400    4.91880    5.28600    7.87820    1.06770   -9999.25 3563.59790 5088.66360 4150.42430 4205.76560 5238.45850 3641.43240
 15665.50000    9.25360    8.98910   -9999.25   -9999.25   -9999.25   -9999.25   -9999.25   -9999.25   -9999.25   33.23610   39.60980   -9999.25    2.75690    8.39430    6.49070   13.49420    2.50210   42.88480    5.65940   10.59380    0.86150   -9999.25 3533.08470 5036.89360 4162.81930 4187.12700 5163.72460 3658.63770
 15666.00000    9.26720    8.98660   -9999.25   -9999.25   -9999.25   -9999.25   -9999.25   -9999.25   -9999.25   33.70400   40.16050   -9999.25    2.68650  311.65540   16.69160   16.06020    2.47160  136.99500    7.57520   13.30940    1.19360   -9999.25 3502.57320 4993.71440 4168.33200 4204.31250 5113.37010 3604.14790
 15666.50000    9.18780    8.90090   -9999.25   -9999.25   -9999.25   -9999.25   -9999.25   -9999.25   -9999.25   34.17190   40.33980   -9999.25    2.74780 1062.25960   39.82300   17.27940    2.48620  182.01390   15.90780   15.07780    1.04140   -9999.25 3474.26150 4960.21240 4221.47950 4208.80080 4998.83110 3549.65820
 15667.00000    9.08020    8.67310   -9999.25   -9999.25   -9999.25   -9999.25   -9999.25   -9999.25   -9999.25   34.63990   39.65560   -9999.25    3.94500 1812.86390   62.95450   47.98130    2.73910 1524.67650   35.48570   23.60560    0.98380   -9999.25 3443.74050 4901.09670 4238.53220 4213.28960 5000.10890 3495.20360
 15667.50000    8.92880    8.44540   -9999.25   -9999.25   -9999.25   -9999.25   -9999.25   -9999.25   -9999.25   35.07760   39.27920   -9999.25    5.61730 1793.71690   85.52500   96.97820    3.96030 1875.42830   65.09930   60.53530   37.39750   -9999.25 3415.40700 4901.09670 4239.26610 4227.21580 5077.45750 3440.74930
 15668.00000    8.77740    8.38520   -9999.25   -9999.25   -9999.25   -9999.25   -9999.25   -9999.25   -9999.25   34.57650   38.10170   -9999.25   37.18620 1808.10770  107.72150  373.33790   10.41640 1884.54280  108.01220  324.01390   97.21570   -9999.25 3384.87890 4868.08740 4235.77440 4283.39890 5078.94870 3406.32670
 15668.50000    8.68590    8.34080   -9999.25   -9999.25   -9999.25   -9999.25   -9999.25   -9999.25   -9999.25   33.32370   36.86790   -9999.25   68.11110 1822.49840  463.41030  990.74190   36.92690 1909.04000  186.24630  738.52520  127.42680   -9999.25 3356.52420 4825.04200 4205.62500 4248.99950 5040.35160 3385.25880
 15669.00000    8.74100    8.33370   -9999.25   -9999.25   -9999.25   -9999.25   -9999.25   -9999.25   -9999.25   33.84410   36.15770   -9999.25  314.92850 1834.00740  908.02120 1608.14580  139.18050 1948.87240  472.14750 1153.03650  137.35510   -9999.25 3304.47900 4781.99710 4219.77830 4206.45170 4987.64210 3364.19090
 15669.50000    8.85630    8.32650   -9999.25   -9999.25   -9999.25   -9999.25   -9999.25   -9999.25   -9999.25   34.71140   37.20650   -9999.25  638.42140 1884.04250 1352.63210 1986.34420  373.30670 1993.62260 1069.54930 1699.10310  163.93300   -9999.25 3279.40090 4746.31640 4233.93160 4180.49710 4903.77250 3343.12300
 15670.00000    8.85230    8.36920   -9999.25   -9999.25   -9999.25   -9999.25   -9999.25   -9999.25   -9999.25   35.57870   39.50290   -9999.25 1170.90950 1924.06650 1880.62980 2001.55680  841.63050 2020.65750 1666.95120 1778.69490  160.44140   -9999.25 3242.61690 4740.09420 4237.54880 4154.54200 4851.65190 3322.05540
 15670.50000    8.81720    8.47940   -9999.25   -9999.25   -9999.25   -9999.25   -9999.25   -9999.25   -9999.25   35.32820   40.02450   -9999.25 1764.10290 1903.82170 2157.72800 2000.64750 1260.65110 1948.79790 1719.57010 1804.83480  154.33950   -9999.25 3217.35860 4733.87260 4242.77830 4165.84960 4837.54740 3309.41460
 15671.00000    8.78210    8.57570   -9999.25   -9999.25   -9999.25   -9999.25   -9999.25   -9999.25   -9999.25   34.07540   37.77860   -9999.25 1855.45020 1883.57680 2014.08780 2000.64750 1735.80440 1885.59920 1693.67400 1848.93320  147.37800   -9999.25 3180.45610 4690.48780 4244.83890 4204.55270 4783.95460 3309.41460
 15671.50000    8.74700    8.62580   -9999.25   -9999.25   -9999.25   -9999.25   -9999.25   -9999.25   -9999.25   32.82260   34.46670   -9999.25 1958.41240 1601.11870 2072.89790 2000.64750 1692.77820 1647.28160 1733.88920 1893.03170  123.12160   -9999.25 3143.55590 4661.08400 4246.89940 4199.31450 4757.15630 3273.88620
 15672.00000    8.71450    8.66320   -9999.25   -9999.25   -9999.25   -9999.25   -9999.25   -9999.25   -9999.25   33.12890   34.56620   -9999.25 2062.27560 1193.14340 2166.02950 1997.92420 1649.75210 1142.56600 1805.95390 1819.97360   98.78930   -9999.25 3106.65380 4603.72070 4248.95950 4167.08300 4695.62500 3184.24100
 15672.50000    8.68590    8.71000   -9999.25   -9999.25   -9999.25   -9999.25   -9999.25   -9999.25   -9999.25   33.26810   36.22320   -9999.25 2130.03810 1108.91720 2060.73780 1879.00680 1693.79260 1087.93950 1849.19260 1629.19450  153.18760   -9999.25 3069.75370 4536.70650 4276.93650 4207.49270 4634.09420 3112.52490
 15673.00000    8.65730    8.75670   -9999.25   -9999.25   -9999.25   -9999.25   -9999.25   -9999.25   -9999.25   34.03120   38.57280   -9999.25 2170.01150  992.76590 1915.79440 1582.62110 1868.43290 1017.98460 1635.92350 1438.41520  146.14280   -9999.25 3036.25710 4477.20650 4280.96000 4283.34130 4598.57670 3112.52490
 15673.50000    8.62580    8.77340   -9999.25   -9999.25   -9999.25   -9999.25   -9999.25   -9999.25   -9999.25   35.79980   39.89090   -9999.25 2200.88530  932.03330 1587.06960 1286.23540 1986.23450  944.76220 1373.06760 1247.63590  106.67130   -9999.25 3006.33250 4423.72220 4246.80810 4347.48190 4602.02150 3112.52490
 15674.00000    8.52550    8.78250   -9999.25   -9999.25   -9999.25   -9999.25   -9999.25   -9999.25   -9999.25   37.56840   39.60500   -9999.25 2222.06570  922.22310 1258.34480 1146.38130 2128.61470  944.74090 1110.21180 1056.85670  137.03980   -9999.25 2976.41020 4422.98830 4240.38480 4466.02050 4596.05470 3112.52490
 15674.50000    8.42530    8.78170   -9999.25   -9999.25   -9999.25   -9999.25   -9999.25   -9999.25   -9999.25   39.33710   38.60200   -9999.25   -9999.25   -9999.25  929.62010 1139.92110   -9999.25   -9999.25  847.35600 1009.15750  140.82880   -9999.25 2946.48560 4422.25440 4233.96140 4588.01460 4532.11130 3112.52490
