~Version ---------------------------------------------------
VERS.   2.0 : CWLS log ASCII Standard -VERSION 2.0
WRAP.    NO : One line per depth step
DLM . SPACE : Column Data Section Delimiter
~Well ------------------------------------------------------
STRT .FT               12400.0 : START DEPTH
STOP .FT               15729.0 : STOP DEPTH
STEP .FT                   0.5 : STEP
NULL .                -9999.25 : NULL VALUE
COMP .                         : COMPANY
WELL .                         : WELL
FLD  .                         : FIELD
LOC  .                         : LOCATION
PROV .                         : PROVINCE
CNTY .                         : COUNTY
STAT .                         : STATE
CTRY .                         : COUNTRY
SRVC .                         : SERVICE COMPANY
DATE .                         : DATE
UWI  .                         : UNIQUE WELL ID
API  .                         : API NUMBER
SLAT .WGS84 2.2474108254184983 : SURFACE LATITUDE
SLON .WGS84     8.046596618216 : SURFACE LONGITUDE
DATUM.F                3232.67 : DEPTH DATUM ELEV
~Curve Information -----------------------------------------
DEPT   .FT    : DEPTH FEET
CAL1R_R.IN    : CALIPER FROM DLL-MSFL LOG FROM REPEAT SECTION #1
CALSR_R.IN    : CALIPER FROM DLL-MSFL LOG FROM REPEAT SECTION #1
DT     .US/F  : DELTA-T (INTERVAL TRANSIT TIME) FROM SONIC LOG
DTCO   .US/F  : DELTA-T COMPRESSIONAL FROM SONIC LOG
DTL    .US/F  : DELTA-T LONG SPACING FROM SONIC LOG
DTSM   .US/F  : DELTA-T SHEAR FROM SONIC LOG
GRD    .GAPI  : GAMMA RAY FROM CNL LOG
GRR    .GAPI  : GAMMA RAY FROM DLL-MSFL LOG
GRR_R  .GAPI  : GAMMA RAY FROM DLL-MSFL LOG FROM REPEAT SECTION #2
GRR_R1 .GAPI  : GAMMA RAY FROM DLL-MSFL LOG FROM REPEAT SECTION #1
GRR_R2 .GAPI  : GAMMA RAY FROM DLL-MSFL LOG FROM REPEAT SECTION #3
GRS    .GAPI  : GAMMA RAY FROM SONIC LOG
LLD    .OHMM  : LATEROLOG DEEP RESISTIVITY FROM DLL-MSFL LOG
LLD_R  .OHMM  : LATEROLOG DEEP RESISTIVITY FROM DLL-MSFL LOG FROM REPEAT SECTION #2
LLD_R1 .OHMM  : LATEROLOG DEEP RESISTIVITY FROM DLL-MSFL LOG FROM REPEAT SECTION #1
LLD_R2 .OHMM  : LATEROLOG DEEP RESISTIVITY FROM DLL-MSFL LOG FROM REPEAT SECTION #3
LLS    .OHMM  : LATEROLOG SHALLOW RESISTIVITY FROM DLL-MSFL LOG
LLS_R  .OHMM  : LATEROLOG SHALLOW RESISTIVITY FROM DLL-MSFL LOG FROM REPEAT SECTION #2
LLS_R1 .OHMM  : LATEROLOG SHALLOW RESISTIVITY FROM DLL-MSFL LOG FROM REPEAT SECTION #1
LLS_R2 .OHMM  : LATEROLOG SHALLOW RESISTIVITY FROM DLL-MSFL LOG FROM REPEAT SECTION #3
MSFL_R .OHMM  : MICRO SPHERICALLY FOCUSED RESISTIVITY FROM DLL-MSFL LOG FROM REPEAT SECTION #1
NPHI_LS.DEC   : NEUTRON POROSITY LIMESTONE FROM CNL LOG
TEND   .LBF   : TENSION FROM CNL LOG
TENR   .LBF   : TENSION FROM DLL-MSFL LOG
TENR_R .LBF   : TENSION FROM DLL-MSFL LOG FROM REPEAT SECTION #2
TENR_R1.LBF   : TENSION FROM DLL-MSFL LOG FROM REPEAT SECTION #1
TENR_R2.LBF   : TENSION FROM DLL-MSFL LOG FROM REPEAT SECTION #3
TENS   .LBF   : TENSION FROM SONIC LOG
~Params ----------------------------------------------------
~Other -----------------------------------------------------
~ASCII -----------------------------------------------------
# ...
 15275.00000   -9999.25   -9999.25   52.30070   49.38600   55.86890  101.94190   22.12810   23.82150   25.35330   -9999.25   -9999.25   22.44460  361.57610  229.94650   -9999.25   -9999.25  402.21900  230.74700   -9999.25   -9999.25   -9999.25    0.00610 3762.61500 4045.58570 3882.54200   -9999.25   -9999.25 3927.07810
 15275.50000   -9999.25   -9999.25   50.50000   49.46770   58.43920   99.93210   21.70490   26.87050   26.42110   -9999.25   -9999.25   21.77890  295.72240  158.74610   -9999.25   -9999.25  317.96830  189.23890   -9999.25   -9999.25   -9999.25    0.00570 3745.38700 4043.50070 3906.59590   -9999.25   -9999.25 3927.07810
 15276.00000   -9999.25   -9999.25   48.37550   50.53270   53.61410   97.92390   21.21580   27.66460   24.96670   -9999.25   -9999.25   20.24110  222.66590  178.76250   -9999.25   -9999.25  244.92380  201.30190   -9999.25   -9999.25   -9999.25    0.00530 3729.21780 4041.41580 3936.66190   -9999.25   -9999.25 3927.07810
 15276.50000   -9999.25   -9999.25   47.58850   50.83730   42.78770   96.24840   17.63200   26.82290   22.86540   -9999.25   -9999.25   17.91520  184.57430  241.31480   -9999.25   -9999.25  197.48080  325.73890   -9999.25   -9999.25   -9999.25    0.00490 3743.88060 4039.33080 3966.72800   -9999.25   -9999.25 3927.07810
 15277.00000   -9999.25   -9999.25   46.61430   51.02950   35.07680   96.38990   16.62160   23.08240   21.05670   -9999.25   -9999.25   16.95750  186.91640  723.92960   -9999.25   -9999.25  275.35720  635.51820   -9999.25   -9999.25   -9999.25    0.00550 3740.09380 4037.24560 3996.79390   -9999.25   -9999.25 3927.07810
 15277.50000   -9999.25   -9999.25   46.61430   51.56810   29.97210   96.96880   17.01320   20.07770   19.78320   -9999.25   -9999.25   17.40860  268.67040 1497.85890   -9999.25   -9999.25  677.37790 1068.85910   -9999.25   -9999.25   -9999.25    0.00630 3729.35110 4035.16060 4026.86010   -9999.25   -9999.25 3927.07810
 15278.00000   -9999.25   -9999.25   49.16580   52.64130   33.40260   97.40900   18.96890   18.35900   19.12420   -9999.25   -9999.25   18.69510  526.08380 2054.45850   -9999.25   -9999.25 1079.39860 1502.20000   -9999.25   -9999.25   -9999.25    0.00700 3747.28590 4033.07570 4018.37010   -9999.25   -9999.25 3927.07810
 15278.50000   -9999.25   -9999.25   52.10990   53.67620   48.83490   97.62420   20.82570   18.26050   18.94990   -9999.25   -9999.25   19.76340  988.96960 5452.77200   -9999.25   -9999.25 1481.41930 1541.52430   -9999.25   -9999.25   -9999.25    0.00740 3748.52340 4030.99070 3949.53640   -9999.25   -9999.25 3927.07810
 15279.00000   -9999.25   -9999.25   53.38570   54.56270   49.39000   97.12210   20.72850   18.19070   20.52380   -9999.25   -9999.25   20.61860 1451.85530 5262.01950   -9999.25   -9999.25 1997.27270 1280.16690   -9999.25   -9999.25   -9999.25    0.00790 3731.20020 4028.90580 3946.04080   -9999.25   -9999.25 3927.07810
 15279.50000   -9999.25   -9999.25   52.50250   54.94210   43.73820   96.41550   20.16490   18.42850   22.85820   -9999.25   -9999.25   20.48230 1961.85950 4550.36130   -9999.25   -9999.25 2006.87100  819.99910   -9999.25   -9999.25   -9999.25    0.00830 3746.16750 4026.82080 3942.54540   -9999.25   -9999.25 3927.07810
 15280.00000   -9999.25   -9999.25   51.42300   55.31920   44.80940   93.89950   19.60310   20.86340   25.54520   -9999.25   -9999.25   19.78720 5533.63870 1924.33030   -9999.25   -9999.25 1944.43920  377.74590   -9999.25   -9999.25   -9999.25    0.00850 3748.01170 4024.73560 3961.97290   -9999.25   -9999.25 3927.07810
 15280.50000   -9999.25   -9999.25   51.61920   56.08230   42.28000   90.45680   18.99930   23.29830   29.17310   -9999.25   -9999.25   19.09210 4232.96000 1113.26570   -9999.25   -9999.25 1312.24990  173.49990   -9999.25   -9999.25   -9999.25    0.00700 3737.06450 4022.65060 3951.72140   -9999.25   -9999.25 3927.07810
 15281.00000   -9999.25   -9999.25   52.40430   56.92250   45.80140   89.94700   18.16920   27.10230   31.50800   -9999.25   -9999.25   18.31410 2393.15750  851.25030   -9999.25   -9999.25  579.88990  138.01010   -9999.25   -9999.25   -9999.25    0.00540 3712.62670 4020.56570 3919.62130   -9999.25   -9999.25 3927.07810
 15281.50000   -9999.25   -9999.25   50.56210   57.22080   53.55280   93.96440   17.33590   30.22270   32.73640   -9999.25   -9999.25   17.48080 1409.54870  741.24460   -9999.25   -9999.25  228.84890  148.30640   -9999.25   -9999.25   -9999.25    0.00390 3721.96630 4018.48070 3896.79300   -9999.25   -9999.25 3927.07810
 15282.00000   -9999.25   -9999.25   49.36210   57.08660   54.23440   95.85770   16.50580   32.56530   32.27420   -9999.25   -9999.25   16.22810  884.11690  884.72880   -9999.25   -9999.25  168.71190  199.39210   -9999.25   -9999.25   -9999.25    0.00240 3724.55540 4016.39580 3937.44530   -9999.25   -9999.25 3927.07810
 15282.50000   -9999.25   -9999.25   47.89010   56.18360   48.97070   95.85690   13.99500   32.55880   29.39990   -9999.25   -9999.25   14.34640  768.62180 1036.39030   -9999.25   -9999.25  167.72100  240.97480   -9999.25   -9999.25   -9999.25    0.00080 3727.04200 4014.31080 3978.09740   -9999.25   -9999.25 3927.07810
 15283.00000   -9999.25   -9999.25   50.06580   54.94700   51.64990   95.86670   13.80090   29.17360   26.61820   -9999.25   -9999.25   14.26360  839.78950 1030.51270   -9999.25   -9999.25  185.55000  238.67190   -9999.25   -9999.25   -9999.25    0.00050 3711.46310 4012.22560 4002.99000   -9999.25   -9999.25 3927.07810
 15283.50000   -9999.25   -9999.25   50.89300   54.65150   49.44770   96.22830   15.21120   25.78930   24.11490   -9999.25   -9999.25   15.39480  910.93120  935.66070   -9999.25   -9999.25  248.89530  235.68840   -9999.25   -9999.25   -9999.25    0.00200 3695.78170 4010.14060 4004.24290   -9999.25   -9999.25 3927.07810
 15284.00000   -9999.25   -9999.25   52.86880   55.40210   44.41990  100.32350   17.06800   23.83880   21.46110   -9999.25   -9999.25   18.03670  982.07290  851.57340   -9999.25   -9999.25  303.22340  202.56890   -9999.25   -9999.25   -9999.25    0.00380 3725.18580 4010.03540 4009.75290   -9999.25   -9999.25 3927.07810
 15284.50000   -9999.25   -9999.25   53.97450   56.52110   42.04450  102.79720   18.92710   21.48830   20.36640   -9999.25   -9999.25   20.15190  991.17900  720.03830   -9999.25   -9999.25  301.44030  161.62970   -9999.25   -9999.25   -9999.25    0.00510 3720.83030 4010.52250 4022.21240   -9999.25   -9999.25 3927.07810
 15285.00000   -9999.25   -9999.25   54.22190   56.56990   40.76030  105.27090   19.76710   21.15340   20.85680   -9999.25   -9999.25   20.16530  859.82130  698.97780   -9999.25   -9999.25  228.36240  136.29940   -9999.25   -9999.25   -9999.25    0.00480 3716.57300 4011.00950 4019.55150   -9999.25   -9999.25 3927.07810
 15285.50000   -9999.25   -9999.25   54.45610   56.49170   42.98590  105.97570   19.77070   21.11100   22.36560   -9999.25   -9999.25   19.96000  734.22350  724.54650   -9999.25   -9999.25  169.90320  133.41250   -9999.25   -9999.25   -9999.25    0.00430 3712.21730 4011.49680 3979.73320   -9999.25   -9999.25 3927.07810
 15286.00000   -9999.25   -9999.25   54.27480   55.97080   53.99320  107.71830   19.38330   21.06860   22.42840   -9999.25   -9999.25   18.50580  668.74730  938.21480   -9999.25   -9999.25  159.97070  140.77620   -9999.25   -9999.25   -9999.25    0.00370 3707.96260 4011.98390 3962.96850   -9999.25   -9999.25 3927.07810
 15286.50000   -9999.25   -9999.25   54.17080   55.32170   55.65880  107.75980   17.64460   20.80410   21.25980   -9999.25   -9999.25   16.47270  668.85760 1189.16140   -9999.25   -9999.25  170.02800  181.67580   -9999.25   -9999.25   -9999.25    0.00400 3707.04390 4012.47090 3961.62870   -9999.25   -9999.25 3927.07810
 15287.00000   -9999.25   -9999.25   54.07260   54.85780   56.73710  107.11520   15.90900   20.02890   20.21960   -9999.25   -9999.25   14.95200  838.29080 1427.28230   -9999.25   -9999.25  186.78030  205.70440   -9999.25   -9999.25   -9999.25    0.00600 3707.09160 4012.95830 3945.62230   -9999.25   -9999.25 3927.07810
