~Version ---------------------------------------------------
VERS.   2.0 : CWLS log ASCII Standard -VERSION 2.0
WRAP.    NO : One line per depth step
DLM . SPACE : Column Data Section Delimiter
~Well ------------------------------------------------------
STRT .FT               12400.0 : START DEPTH
STOP .FT               15729.0 : STOP DEPTH
STEP .FT                   0.5 : STEP
NULL .                -9999.25 : NULL VALUE
COMP .                         : COMPANY
WELL .                         : WELL
FLD  .                         : FIELD
LOC  .                         : LOCATION
PROV .                         : PROVINCE
CNTY .                         : COUNTY
STAT .                         : STATE
CTRY .                         : COUNTRY
SRVC .                         : SERVICE COMPANY
DATE .                         : DATE
UWI  .                         : UNIQUE WELL ID
API  .                         : API NUMBER
SLAT .WGS84 2.2474108254184983 : SURFACE LATITUDE
SLON .WGS84     8.046596618216 : SURFACE LONGITUDE
DATUM.F                3232.67 : DEPTH DATUM ELEV
~Curve Information -----------------------------------------
DEPT   .FT    : DEPTH FEET
CAL1R_R.IN    : CALIPER FROM DLL-MSFL LOG FROM REPEAT SECTION #1
CALSR_R.IN    : CALIPER FROM DLL-MSFL LOG FROM REPEAT SECTION #1
DT     .US/F  : DELTA-T (INTERVAL TRANSIT TIME) FROM SONIC LOG
DTCO   .US/F  : DELTA-T COMPRESSIONAL FROM SONIC LOG
DTL    .US/F  : DELTA-T LONG SPACING FROM SONIC LOG
DTSM   .US/F  : DELTA-T SHEAR FROM SONIC LOG
GRD    .GAPI  : GAMMA RAY FROM CNL LOG
GRR    .GAPI  : GAMMA RAY FROM DLL-MSFL LOG
GRR_R  .GAPI  : GAMMA RAY FROM DLL-MSFL LOG FROM REPEAT SECTION #2
GRR_R1 .GAPI  : GAMMA RAY FROM DLL-MSFL LOG FROM REPEAT SECTION #1
GRR_R2 .GAPI  : GAMMA RAY FROM DLL-MSFL LOG FROM REPEAT SECTION #3
GRS    .GAPI  : GAMMA RAY FROM SONIC LOG
LLD    .OHMM  : LATEROLOG DEEP RESISTIVITY FROM DLL-MSFL LOG
LLD_R  .OHMM  : LATEROLOG DEEP RESISTIVITY FROM DLL-MSFL LOG FROM REPEAT SECTION #2
LLD_R1 .OHMM  : LATEROLOG DEEP RESISTIVITY FROM DLL-MSFL LOG FROM REPEAT SECTION #1
LLD_R2 .OHMM  : LATEROLOG DEEP RESISTIVITY FROM DLL-MSFL LOG FROM REPEAT SECTION #3
LLS    .OHMM  : LATEROLOG SHALLOW RESISTIVITY FROM DLL-MSFL LOG
LLS_R  .OHMM  : LATEROLOG SHALLOW RESISTIVITY FROM DLL-MSFL LOG FROM REPEAT SECTION #2
LLS_R1 .OHMM  : LATEROLOG SHALLOW RESISTIVITY FROM DLL-MSFL LOG FROM REPEAT SECTION #1
LLS_R2 .OHMM  : LATEROLOG SHALLOW RESISTIVITY FROM DLL-MSFL LOG FROM REPEAT SECTION #3
MSFL_R .OHMM  : MICRO SPHERICALLY FOCUSED RESISTIVITY FROM DLL-MSFL LOG FROM REPEAT SECTION #1
NPHI_LS.DEC   : NEUTRON POROSITY LIMESTONE FROM CNL LOG
TEND   .LBF   : TENSION FROM CNL LOG
TENR   .LBF   : TENSION FROM DLL-MSFL LOG
TENR_R .LBF   : TENSION FROM DLL-MSFL LOG FROM REPEAT SECTION #2
TENR_R1.LBF   : TENSION FROM DLL-MSFL LOG FROM REPEAT SECTION #1
TENR_R2.LBF   : TENSION FROM DLL-MSFL LOG FROM REPEAT SECTION #3
TENS   .LBF   : TENSION FROM SONIC LOG
~Params ----------------------------------------------------
~Other -----------------------------------------------------
~ASCII -----------------------------------------------------
# ...
 15387.50000   -9999.25   -9999.25   84.78170   46.07940   50.07770   92.06330   62.84440   82.52520   69.98000   -9999.25   -9999.25   62.67750    8.17210    5.28230   -9999.25   -9999.25   10.54820    5.12660   -9999.25   -9999.25   -9999.25    0.21800 3743.40650 3893.33030 4101.06740   -9999.25   -9999.25 3789.57420
 15388.00000   -9999.25   -9999.25   67.87770   45.25890   40.74710   89.99330   60.57220   83.01840   79.23710   -9999.25   -9999.25   59.55100    6.96840    5.28530   -9999.25   -9999.25    6.30030    5.12240   -9999.25   -9999.25   -9999.25    0.23120 3725.02200 4057.78320 4022.59790   -9999.25   -9999.25 3741.67020
 15388.50000   -9999.25   -9999.25   65.77760   46.25030   36.49220   93.84520   56.51450   86.76910   84.58220   -9999.25   -9999.25   55.59310    5.95160    5.28830   -9999.25   -9999.25    5.93190    5.11820   -9999.25   -9999.25   -9999.25    0.23560 3715.49540 4282.55470 4036.19510   -9999.25   -9999.25 3741.67020
 15389.00000   -9999.25   -9999.25   69.10070   48.51120   45.37260   96.18690   52.45690   88.58930   86.39750   -9999.25   -9999.25   51.46050    5.89910    5.29130   -9999.25   -9999.25    5.68730    5.11790   -9999.25   -9999.25   -9999.25    0.21050 3676.74830 4500.79830 4012.58940   -9999.25   -9999.25 3741.67020
 15389.50000   -9999.25   -9999.25   74.32680   51.23130   77.46690   98.46940   45.75640   89.45650   87.13610   -9999.25   -9999.25   44.67130    5.82050    5.29440   -9999.25   -9999.25    5.51900    5.11890   -9999.25   -9999.25   -9999.25    0.17970 3709.03830 4539.98630 3960.37790   -9999.25   -9999.25 3741.67020
 15390.00000   -9999.25   -9999.25   48.87460   53.95150   95.58010  100.26610   35.88220   89.36690   87.36350   -9999.25   -9999.25   38.30480    5.69500    5.29740   -9999.25   -9999.25    5.38820    5.11930   -9999.25   -9999.25   -9999.25    0.12640 3729.13670 4539.36470 3923.63870   -9999.25   -9999.25 3741.67020
 15390.50000   -9999.25   -9999.25   45.26280   56.67170   99.81700  103.20960   28.82370   86.94700   86.21440   -9999.25   -9999.25   31.97830    5.56560    5.29860   -9999.25   -9999.25    5.32810    5.17150   -9999.25   -9999.25   -9999.25    0.07600 3792.11450 4485.74270 3886.89940   -9999.25   -9999.25 3761.93730
 15391.00000   -9999.25   -9999.25   41.31500   58.45240   71.36750  106.87710   25.46810   83.15830   82.27840   -9999.25   -9999.25   26.44850    5.36920    5.47480   -9999.25   -9999.25    5.36160    5.27660   -9999.25   -9999.25   -9999.25    0.04360 3812.59400 4429.76560 3850.16020   -9999.25   -9999.25 3812.60500
 15391.50000   -9999.25   -9999.25   49.87220   58.79590   47.84980  109.31920   22.61180   80.05650   78.34250   -9999.25   -9999.25   23.65690    5.22820    5.91070   -9999.25   -9999.25    5.58230    5.80150   -9999.25   -9999.25   -9999.25    0.03610 3824.89090 4373.78810 3828.15870   -9999.25   -9999.25 3863.27270
 15392.00000   -9999.25   -9999.25   53.20690   57.16020   25.84250  108.67390   22.40560   78.91130   76.34530   -9999.25   -9999.25   23.14750    5.30900    7.23670   -9999.25   -9999.25    5.80440    6.95200   -9999.25   -9999.25   -9999.25    0.03330 3810.20650 4317.81050 3806.15700   -9999.25   -9999.25 3829.49440
 15392.50000   -9999.25   -9999.25   52.41580   56.50660   12.19370  107.05540   26.65530   78.66230   72.00860   -9999.25   -9999.25   25.87780    5.70770    8.56270   -9999.25   -9999.25    6.02650    8.10260   -9999.25   -9999.25   -9999.25    0.03300 3790.13480 4261.83300 3792.95730   -9999.25   -9999.25 3756.30760
 15393.00000   -9999.25   -9999.25   51.30530   59.67190   15.15420  109.63210   32.70830   77.26900   65.48480   -9999.25   -9999.25   31.39260    6.10650    9.36530   -9999.25   -9999.25    6.24190    9.25320   -9999.25   -9999.25   -9999.25    0.03590 3770.06200 4205.85550 3886.72680   -9999.25   -9999.25 3752.64820
 15393.50000   -9999.25   -9999.25   49.91940   64.13010   26.14900  116.06570   38.80030   75.23460   58.96100   -9999.25   -9999.25   43.19530    6.53490    9.38330   -9999.25   -9999.25    6.51330    9.53690   -9999.25   -9999.25   -9999.25    0.04880 3755.34940 4169.84470 4121.14650   -9999.25   -9999.25 3780.09330
 15394.00000   -9999.25   -9999.25   36.01570   67.51940   37.01520  123.45650   49.61560   73.57190   54.58740   -9999.25   -9999.25   51.12320    6.68600    8.85040   -9999.25   -9999.25    6.74520    9.25320   -9999.25   -9999.25   -9999.25    0.07990 3759.06250 4129.42140 4355.56590   -9999.25   -9999.25 3807.53830
 15394.50000   -9999.25   -9999.25   39.07140   68.93160   48.77580  129.59280   56.32180   75.44150   53.34320   -9999.25   -9999.25   57.06900    6.81000    8.35620   -9999.25   -9999.25    6.93220    8.67340   -9999.25   -9999.25   -9999.25    0.11920 3761.64670 4115.98730 4497.29390   -9999.25   -9999.25 3834.98340
 15395.00000   -9999.25   -9999.25   44.85610   69.94140   69.64360  134.35390   55.03390   78.63960   55.16170   -9999.25   -9999.25   54.72720    6.81130    7.85200   -9999.25   -9999.25    7.05030    8.07520   -9999.25   -9999.25   -9999.25    0.12220 3798.75460 4102.55320 4584.00830   -9999.25   -9999.25 3862.42820
 15395.50000   -9999.25   -9999.25   51.08220   74.06780   51.86730  141.80870   50.12880   82.64920   56.13900   -9999.25   -9999.25   48.62670    6.81300    7.45840   -9999.25   -9999.25    7.13760    7.47700   -9999.25   -9999.25   -9999.25    0.11930 3819.00730 4089.11910 4617.34520   -9999.25   -9999.25 3867.11890
 15396.00000   -9999.25   -9999.25   60.10790   80.42260   27.14860  149.62410   44.78940   84.26100   54.94930   -9999.25   -9999.25   43.31340    6.78350    7.03820   -9999.25   -9999.25    7.27350    6.87890   -9999.25   -9999.25   -9999.25    0.09800 3792.40260 4075.68510 4599.84810   -9999.25   -9999.25 3835.68240
 15396.50000   -9999.25   -9999.25   69.13370   87.74890    0.00040  158.27390   38.85750   85.68940   54.10690   -9999.25   -9999.25   39.50740    6.97210    6.29380   -9999.25   -9999.25    8.12640    6.63780   -9999.25   -9999.25   -9999.25    0.07680 3804.42630 4062.25100 4582.35110   -9999.25   -9999.25 3804.24560
 15397.00000   -9999.25   -9999.25   79.61270   95.49720    0.00040  169.47670   36.77640   87.88420   54.19510   -9999.25   -9999.25   36.85460    8.78200    6.46720   -9999.25   -9999.25    9.24840    6.77350   -9999.25   -9999.25   -9999.25    0.05950 3787.17820 4045.68090 4538.13330   -9999.25   -9999.25 3772.80910
 15397.50000   -9999.25   -9999.25   90.59130  103.43250    0.00040  177.21270   37.48060   90.62390   55.83940   -9999.25   -9999.25   38.79120   10.68520    8.21470   -9999.25   -9999.25   10.37040    7.52330   -9999.25   -9999.25   -9999.25    0.06080 3764.55000 4018.52760 4510.25340   -9999.25   -9999.25 3741.37230
 15398.00000   -9999.25   -9999.25   93.35460  109.99900    0.00040  179.73900   46.95300   91.34320   57.11140   -9999.25   -9999.25   48.80040   12.45570   11.39360   -9999.25   -9999.25   11.49250   10.09640   -9999.25   -9999.25   -9999.25    0.09020 3744.32570 4017.82590 4482.37350   -9999.25   -9999.25 3738.14750
 15398.50000   -9999.25   -9999.25   89.89250  111.85650   35.26210  170.59840   55.40380   90.36180   57.13840   -9999.25   -9999.25   56.43060   12.98710   13.15280   -9999.25   -9999.25   12.31470   11.71080   -9999.25   -9999.25   -9999.25    0.13230 3750.00680 4017.12380 4454.49320   -9999.25   -9999.25 3741.97560
 15399.00000   -9999.25   -9999.25   84.28170  100.78340   72.35680  148.44080   60.40200   89.91780   55.55990   -9999.25   -9999.25   60.49230   13.16820   11.13160   -9999.25   -9999.25   12.39170   10.44120   -9999.25   -9999.25   -9999.25    0.17770 3755.68970 4043.13700 4389.36280   -9999.25   -9999.25 3745.80370
 15399.50000   -9999.25   -9999.25   82.64890   83.49930   88.34940  126.15620   60.71040   92.33310   52.97760   -9999.25   -9999.25   60.12190   13.18630    8.33460   -9999.25   -9999.25   12.46960    8.45170   -9999.25   -9999.25   -9999.25    0.18270 3756.01320 4055.70510 4328.64650   -9999.25   -9999.25 3749.63210
