~Version ---------------------------------------------------
VERS.   2.0 : CWLS log ASCII Standard -VERSION 2.0
WRAP.    NO : One line per depth step
DLM . SPACE : Column Data Section Delimiter
~Well ------------------------------------------------------
STRT .FT               12400.0 : START DEPTH
STOP .FT               15729.0 : STOP DEPTH
STEP .FT                   0.5 : STEP
NULL .                -9999.25 : NULL VALUE
COMP .                         : COMPANY
WELL .                         : WELL
FLD  .                         : FIELD
LOC  .                         : LOCATION
PROV .                         : PROVINCE
CNTY .                         : COUNTY
STAT .                         : STATE
CTRY .                         : COUNTRY
SRVC .                         : SERVICE COMPANY
DATE .                         : DATE
UWI  .                         : UNIQUE WELL ID
API  .                         : API NUMBER
SLAT .WGS84 2.2474108254184983 : SURFACE LATITUDE
SLON .WGS84     8.046596618216 : SURFACE LONGITUDE
DATUM.F                3232.67 : DEPTH DATUM ELEV
~Curve Information -----------------------------------------
DEPT   .FT    : DEPTH FEET
CAL1R_R.IN    : CALIPER FROM DLL-MSFL LOG FROM REPEAT SECTION #1
CALSR_R.IN    : CALIPER FROM DLL-MSFL LOG FROM REPEAT SECTION #1
DT     .US/F  : DELTA-T (INTERVAL TRANSIT TIME) FROM SONIC LOG
DTCO   .US/F  : DELTA-T COMPRESSIONAL FROM SONIC LOG
DTL    .US/F  : DELTA-T LONG SPACING FROM SONIC LOG
DTSM   .US/F  : DELTA-T SHEAR FROM SONIC LOG
GRD    .GAPI  : GAMMA RAY FROM CNL LOG
GRR    .GAPI  : GAMMA RAY FROM DLL-MSFL LOG
GRR_R  .GAPI  : GAMMA RAY FROM DLL-MSFL LOG FROM REPEAT SECTION #2
GRR_R1 .GAPI  : GAMMA RAY FROM DLL-MSFL LOG FROM REPEAT SECTION #1
GRR_R2 .GAPI  : GAMMA RAY FROM DLL-MSFL LOG FROM REPEAT SECTION #3
GRS    .GAPI  : GAMMA RAY FROM SONIC LOG
LLD    .OHMM  : LATEROLOG DEEP RESISTIVITY FROM DLL-MSFL LOG
LLD_R  .OHMM  : LATEROLOG DEEP RESISTIVITY FROM DLL-MSFL LOG FROM REPEAT SECTION #2
LLD_R1 .OHMM  : LATEROLOG DEEP RESISTIVITY FROM DLL-MSFL LOG FROM REPEAT SECTION #1
LLD_R2 .OHMM  : LATEROLOG DEEP RESISTIVITY FROM DLL-MSFL LOG FROM REPEAT SECTION #3
LLS    .OHMM  : LATEROLOG SHALLOW RESISTIVITY FROM DLL-MSFL LOG
LLS_R  .OHMM  : LATEROLOG SHALLOW RESISTIVITY FROM DLL-MSFL LOG FROM REPEAT SECTION #2
LLS_R1 .OHMM  : LATEROLOG SHALLOW RESISTIVITY FROM DLL-MSFL LOG FROM REPEAT SECTION #1
LLS_R2 .OHMM  : LATEROLOG SHALLOW RESISTIVITY FROM DLL-MSFL LOG FROM REPEAT SECTION #3
MSFL_R .OHMM  : MICRO SPHERICALLY FOCUSED RESISTIVITY FROM DLL-MSFL LOG FROM REPEAT SECTION #1
NPHI_LS.DEC   : NEUTRON POROSITY LIMESTONE FROM CNL LOG
TEND   .LBF   : TENSION FROM CNL LOG
TENR   .LBF   : TENSION FROM DLL-MSFL LOG
TENR_R .LBF   : TENSION FROM DLL-MSFL LOG FROM REPEAT SECTION #2
TENR_R1.LBF   : TENSION FROM DLL-MSFL LOG FROM REPEAT SECTION #1
TENR_R2.LBF   : TENSION FROM DLL-MSFL LOG FROM REPEAT SECTION #3
TENS   .LBF   : TENSION FROM SONIC LOG
~Params ----------------------------------------------------
~Other -----------------------------------------------------
~ASCII -----------------------------------------------------
# ...
 14837.50000   -9999.25   -9999.25   53.77820   56.77930   55.93700  102.16160   44.37380   66.73920   69.67040   -9999.25   -9999.25   45.01860    3.41040    5.17240   -9999.25   -9999.25    3.25790    5.19570   -9999.25   -9999.25   -9999.25    0.38510 3664.69680 5510.99170 3952.86470   -9999.25   -9999.25 3640.81030
 14838.00000   -9999.25   -9999.25   53.76450   56.88340   55.96590  102.16420   44.94530   67.62680   68.43340   -9999.25   -9999.25   45.69300    3.40400    4.34650   -9999.25   -9999.25    3.25790    4.11270   -9999.25   -9999.25   -9999.25    0.37920 3664.82760 5434.67430 3948.22140   -9999.25   -9999.25 3548.44580
 14838.50000   -9999.25   -9999.25   53.69650   57.18580   56.12190  102.51520   45.57100   69.32700   67.47610   -9999.25   -9999.25   46.36750    3.39750    3.86740   -9999.25   -9999.25    3.25790    3.89240   -9999.25   -9999.25   -9999.25    0.36980 3660.10860 5368.56150 3925.70680   -9999.25   -9999.25 3596.15040
 14839.00000   -9999.25   -9999.25   54.02790   57.43400   56.44260  102.99740   46.19690   69.84120   68.57140   -9999.25   -9999.25   47.04190    3.39100    3.78180   -9999.25   -9999.25    3.25790    3.88720   -9999.25   -9999.25   -9999.25    0.34730 3655.38920 5302.44920 3903.19190   -9999.25   -9999.25 3629.45120
 14839.50000   -9999.25   -9999.25   54.70300   57.48800   56.74030  103.47950   46.92070   69.54470   69.72640   -9999.25   -9999.25   47.54790    3.38450    3.79460   -9999.25   -9999.25    3.25790    3.85930   -9999.25   -9999.25   -9999.25    0.32140 3650.66940 5294.81300 3880.67720   -9999.25   -9999.25 3624.91210
 14840.00000   -9999.25   -9999.25   54.74280   57.40910   56.72080  103.93970   47.02900   69.60650   71.59050   -9999.25   -9999.25   47.38040    3.38110    3.79840   -9999.25   -9999.25    3.25790    3.85800   -9999.25   -9999.25   -9999.25    0.30690 3646.05860 5256.63090 3858.16240   -9999.25   -9999.25 3568.99900
 14840.50000   -9999.25   -9999.25   54.46580   58.03390   56.46670  104.39250   47.02110   69.99240   72.67100   -9999.25   -9999.25   47.44960    3.37140    3.79780   -9999.25   -9999.25    3.25790    3.82440   -9999.25   -9999.25   -9999.25    0.19570 3642.31520 5218.44870 3849.15820   -9999.25   -9999.25 3530.30520
 14841.00000   -9999.25   -9999.25   54.37930   58.86560   56.25390  105.81820   46.03140   71.67430   73.16190   -9999.25   -9999.25   46.69870    3.33070    3.64380   -9999.25   -9999.25    3.25790    3.70080   -9999.25   -9999.25   -9999.25    0.15920 3638.57200 5142.23730 3844.45730   -9999.25   -9999.25 3491.61110
 14841.50000   -9999.25   -9999.25   54.17080   58.88310   56.45280  105.80250   43.99870   72.69930   72.72040   -9999.25   -9999.25   44.69190    3.34350    3.52140   -9999.25   -9999.25    3.25790    3.56540   -9999.25   -9999.25   -9999.25    0.12430 3631.90330 5104.52150 3836.62040   -9999.25   -9999.25 3432.95210
 14842.00000   -9999.25   -9999.25   54.26890   57.93540   56.45970  104.55170   41.85750   73.28640   73.13270   -9999.25   -9999.25   40.81900    3.44420    3.44510   -9999.25   -9999.25    3.27690    3.44740   -9999.25   -9999.25   -9999.25    0.11860 3629.13330 5066.80520 3828.78320   -9999.25   -9999.25 3374.29320
 14842.50000   -9999.25   -9999.25   54.26890   57.36000   56.25580  103.30080   38.28170   73.87340   74.05220   -9999.25   -9999.25   36.94610    3.69620    3.32450   -9999.25   -9999.25    3.37990    3.30830   -9999.25   -9999.25   -9999.25    0.10440 3622.46480 5029.08940 3823.04270   -9999.25   -9999.25 3469.55180
 14843.00000   -9999.25   -9999.25   53.97450   56.75170   55.97810  101.86600   33.73740   75.90190   75.21930   -9999.25   -9999.25   31.46500    3.88620    3.12220   -9999.25   -9999.25    3.59680    3.14630   -9999.25   -9999.25   -9999.25    0.07980 3619.69950 4991.37350 3825.68850   -9999.25   -9999.25 3421.80200
 14843.50000   -9999.25   -9999.25   53.77820   55.92660   55.89630  100.52950   29.15450   77.13330   76.82280   -9999.25   -9999.25   27.74330    3.98250    3.07600   -9999.25   -9999.25    3.84190    3.08890   -9999.25   -9999.25   -9999.25    0.05580 3613.02860 4953.65770 3828.33400   -9999.25   -9999.25 3393.15210
 14844.00000   -9999.25   -9999.25   53.68010   56.00700   55.98570  100.40190   24.61180   74.09960   77.34340   -9999.25   -9999.25   23.31980    4.04230    3.15730   -9999.25   -9999.25    3.96520    3.12620   -9999.25   -9999.25   -9999.25    0.03410 3610.26100 4915.94190 3830.97950   -9999.25   -9999.25 3393.15210
 14844.50000   -9999.25   -9999.25   53.68010   56.49720   56.01680  101.26340   22.08220   71.00460   73.92560   -9999.25   -9999.25   22.29610    4.10810    3.27760   -9999.25   -9999.25    4.01640    3.22080   -9999.25   -9999.25   -9999.25    0.02290 3604.28250 4872.60890 3833.62520   -9999.25   -9999.25 3393.15210
 14845.00000   -9999.25   -9999.25   53.77820   56.96500   56.00340  102.27040   25.60000   68.76910   69.01870   -9999.25   -9999.25   26.73540    4.16490    3.53750   -9999.25   -9999.25    4.04330    3.43850   -9999.25   -9999.25   -9999.25    0.02300 3608.22630 4831.70610 3827.19410   -9999.25   -9999.25 3397.14720
 14845.50000   -9999.25   -9999.25   53.87630   57.38220   55.92540  102.73200   32.88840   66.91000   62.27800   -9999.25   -9999.25   33.27750    4.20820    3.97980   -9999.25   -9999.25    4.09550    3.76750   -9999.25   -9999.25   -9999.25    0.06250 3612.86670 4794.39450 3862.51640   -9999.25   -9999.25 3378.57760
 14846.00000   -9999.25   -9999.25   53.68010   57.58180   55.97430  102.93310   40.17880   63.85460   60.68570   -9999.25   -9999.25   43.78150    4.31940    4.83620   -9999.25   -9999.25    4.27560    4.73830   -9999.25   -9999.25   -9999.25    0.11050 3621.40330 4734.33790 3870.47780   -9999.25   -9999.25 3429.40970
 14846.50000   -9999.25   -9999.25   53.96010   57.50430   56.14010  102.89890   50.23380   58.75000   63.22390   -9999.25   -9999.25   50.50830    4.63590    6.17640   -9999.25   -9999.25    4.60160    6.08530   -9999.25   -9999.25   -9999.25    0.15840 3626.04390 4694.00200 3902.50630   -9999.25   -9999.25 3429.40970
 14847.00000   -9999.25   -9999.25   53.68010   57.39690   56.03370  102.65680   52.44160   55.42020   68.34680   -9999.25   -9999.25   52.05300    5.82510    7.80210   -9999.25   -9999.25    5.27520    7.54760   -9999.25   -9999.25   -9999.25    0.18030 3634.58540 4639.26660 3887.77200   -9999.25   -9999.25 3446.81250
 14847.50000   -9999.25   -9999.25   53.87630   57.42030   55.92520  102.97460   52.15980   57.34370   76.92970   -9999.25   -9999.25   52.17320    6.91790    9.22380   -9999.25   -9999.25    6.60120    8.84270   -9999.25   -9999.25   -9999.25    0.19560 3639.22630 4608.81400 3873.03760   -9999.25   -9999.25 3519.97410
 14848.00000   -9999.25   -9999.25   53.97450   58.19990   55.92340  103.29240   51.87740   62.20970   84.47140   -9999.25   -9999.25   51.96540    9.17530    9.41730   -9999.25   -9999.25    7.83580    9.49240   -9999.25   -9999.25   -9999.25    0.20800 3647.76540 4578.36130 3902.51610   -9999.25   -9999.25 3593.13570
 14848.50000   -9999.25   -9999.25   53.98630   58.52610   56.36340  103.44200   52.64260   65.79710   88.19840   -9999.25   -9999.25   52.06620    9.85140    9.73010   -9999.25   -9999.25    9.26600    9.89940   -9999.25   -9999.25   -9999.25    0.20880 3652.40600 4547.90820 3897.29490   -9999.25   -9999.25 3564.43800
 14849.00000   -9999.25   -9999.25   53.97450   55.52570   56.55130  102.11810   52.55580   65.65460   87.86720   -9999.25   -9999.25   52.10720    9.99300   10.99190   -9999.25   -9999.25    9.73140   12.14300   -9999.25   -9999.25   -9999.25    0.20400 3660.94510 4517.45560 3854.70170   -9999.25   -9999.25 3511.77170
 14849.50000   -9999.25   -9999.25   53.97450   56.92410   56.46890  101.38470   50.38690   62.52280   86.06220   -9999.25   -9999.25   51.38590   10.22920   13.32530   -9999.25   -9999.25    9.97770   14.72220   -9999.25   -9999.25   -9999.25    0.20020 3638.73850 4507.18460 3842.54960   -9999.25   -9999.25 3480.17210
