~Version ---------------------------------------------------
VERS.   2.0 : CWLS log ASCII Standard -VERSION 2.0
WRAP.    NO : One line per depth step
DLM . SPACE : Column Data Section Delimiter
~Well ------------------------------------------------------
STRT .FT               12400.0 : START DEPTH
STOP .FT               15729.0 : STOP DEPTH
STEP .FT                   0.5 : STEP
NULL .                -9999.25 : NULL VALUE
COMP .                         : COMPANY
WELL .                         : WELL
FLD  .                         : FIELD
LOC  .                         : LOCATION
PROV .                         : PROVINCE
CNTY .                         : COUNTY
STAT .                         : STATE
CTRY .                         : COUNTRY
SRVC .                         : SERVICE COMPANY
DATE .                         : DATE
UWI  .                         : UNIQUE WELL ID
API  .                         : API NUMBER
SLAT .WGS84 2.2474108254184983 : SURFACE LATITUDE
SLON .WGS84     8.046596618216 : SURFACE LONGITUDE
DATUM.F                3232.67 : DEPTH DATUM ELEV
~Curve Information -----------------------------------------
DEPT   .FT    : DEPTH FEET
CAL1R_R.IN    : CALIPER FROM DLL-MSFL LOG FROM REPEAT SECTION #1
CALSR_R.IN    : CALIPER FROM DLL-MSFL LOG FROM REPEAT SECTION #1
DT     .US/F  : DELTA-T (INTERVAL TRANSIT TIME) FROM SONIC LOG
DTCO   .US/F  : DELTA-T COMPRESSIONAL FROM SONIC LOG
DTL    .US/F  : DELTA-T LONG SPACING FROM SONIC LOG
DTSM   .US/F  : DELTA-T SHEAR FROM SONIC LOG
GRD    .GAPI  : GAMMA RAY FROM CNL LOG
GRR    .GAPI  : GAMMA RAY FROM DLL-MSFL LOG
GRR_R  .GAPI  : GAMMA RAY FROM DLL-MSFL LOG FROM REPEAT SECTION #2
GRR_R1 .GAPI  : GAMMA RAY FROM DLL-MSFL LOG FROM REPEAT SECTION #1
GRR_R2 .GAPI  : GAMMA RAY FROM DLL-MSFL LOG FROM REPEAT SECTION #3
GRS    .GAPI  : GAMMA RAY FROM SONIC LOG
LLD    .OHMM  : LATEROLOG DEEP RESISTIVITY FROM DLL-MSFL LOG
LLD_R  .OHMM  : LATEROLOG DEEP RESISTIVITY FROM DLL-MSFL LOG FROM REPEAT SECTION #2
LLD_R1 .OHMM  : LATEROLOG DEEP RESISTIVITY FROM DLL-MSFL LOG FROM REPEAT SECTION #1
LLD_R2 .OHMM  : LATEROLOG DEEP RESISTIVITY FROM DLL-MSFL LOG FROM REPEAT SECTION #3
LLS    .OHMM  : LATEROLOG SHALLOW RESISTIVITY FROM DLL-MSFL LOG
LLS_R  .OHMM  : LATEROLOG SHALLOW RESISTIVITY FROM DLL-MSFL LOG FROM REPEAT SECTION #2
LLS_R1 .OHMM  : LATEROLOG SHALLOW RESISTIVITY FROM DLL-MSFL LOG FROM REPEAT SECTION #1
LLS_R2 .OHMM  : LATEROLOG SHALLOW RESISTIVITY FROM DLL-MSFL LOG FROM REPEAT SECTION #3
MSFL_R .OHMM  : MICRO SPHERICALLY FOCUSED RESISTIVITY FROM DLL-MSFL LOG FROM REPEAT SECTION #1
NPHI_LS.DEC   : NEUTRON POROSITY LIMESTONE FROM CNL LOG
TEND   .LBF   : TENSION FROM CNL LOG
TENR   .LBF   : TENSION FROM DLL-MSFL LOG
TENR_R .LBF   : TENSION FROM DLL-MSFL LOG FROM REPEAT SECTION #2
TENR_R1.LBF   : TENSION FROM DLL-MSFL LOG FROM REPEAT SECTION #1
TENR_R2.LBF   : TENSION FROM DLL-MSFL LOG FROM REPEAT SECTION #3
TENS   .LBF   : TENSION FROM SONIC LOG
~Params ----------------------------------------------------
~Other -----------------------------------------------------
~ASCII -----------------------------------------------------
# ...
 15000.00000   -9999.25   -9999.25   54.46520   57.30220   51.04780  103.81590   16.18240   22.96520   23.18520   -9999.25   -9999.25   16.55350  355.85520  261.74260   -9999.25   -9999.25  407.57290  295.40980   -9999.25   -9999.25   -9999.25    0.00190 3691.97140 3960.49780 3896.57470   -9999.25   -9999.25 3712.99290
 15000.50000   -9999.25   -9999.25   54.46520   58.03330   53.23900  102.57690   16.45640   24.95910   24.25800   -9999.25   -9999.25   16.27990  333.60150  201.81960   -9999.25   -9999.25  397.79720  232.40000   -9999.25   -9999.25   -9999.25    0.00220 3677.09790 3962.30220 3896.07100   -9999.25   -9999.25 3717.68410
 15001.00000   -9999.25   -9999.25   54.31250   56.00520   57.53560  100.57480   16.14860   26.95900   25.07400   -9999.25   -9999.25   16.00620  284.59500  190.27840   -9999.25   -9999.25  330.46870  191.10000   -9999.25   -9999.25   -9999.25    0.00320 3675.87260 3964.10640 3895.56710   -9999.25   -9999.25 3722.37550
 15001.50000   -9999.25   -9999.25   54.20350   52.87740   57.81180   91.93750   15.37900   26.77280   26.81890   -9999.25   -9999.25   15.69200  235.58860  193.99090   -9999.25   -9999.25  252.29780  192.25760   -9999.25   -9999.25   -9999.25    0.00460 3674.39230 3965.91090 3895.06350   -9999.25   -9999.25 3727.06690
 15002.00000   -9999.25   -9999.25   54.12170   52.56740   58.03050   93.08210   15.47700   26.20200   27.98860   -9999.25   -9999.25   16.23990  196.38120  213.94910   -9999.25   -9999.25  215.73010  217.11220   -9999.25   -9999.25   -9999.25    0.00570 3672.19020 3967.71510 3894.55960   -9999.25   -9999.25 3731.75830
 15002.50000   -9999.25   -9999.25   54.07260   53.67330   61.42310   97.19040   16.98300   25.39350   26.86400   -9999.25   -9999.25   17.89090  193.99890  231.72530   -9999.25   -9999.25  218.33990  246.71190   -9999.25   -9999.25   -9999.25    0.00630 3672.65770 3969.51950 3894.05590   -9999.25   -9999.25 3736.44970
 15003.00000   -9999.25   -9999.25   53.81090   55.15150   64.88520   97.62340   19.00340   24.57170   24.97430   -9999.25   -9999.25   19.52980  212.81400  257.74650   -9999.25   -9999.25  238.49420  276.31170   -9999.25   -9999.25   -9999.25    0.00630 3673.12650 3971.32370 3867.16700   -9999.25   -9999.25 3741.14110
 15003.50000   -9999.25   -9999.25   53.48760   55.78970   66.22730   97.54420   19.39510   22.19840   22.86560   -9999.25   -9999.25   19.58070  238.87360  292.99830   -9999.25   -9999.25  261.80190  293.42010   -9999.25   -9999.25   -9999.25    0.00530 3670.92430 3973.12820 3864.25460   -9999.25   -9999.25 3743.35230
 15004.00000   -9999.25   -9999.25   53.07240   55.33650   61.55960   96.89270   18.81960   20.24890   21.43770   -9999.25   -9999.25   18.54240  264.93320  309.44950   -9999.25   -9999.25  285.10970  295.19780   -9999.25   -9999.25   -9999.25    0.00430 3671.39060 3974.93240 3874.45390   -9999.25   -9999.25 3751.11720
 15004.50000   -9999.25   -9999.25   52.69870   53.36490   55.53920   95.39680   17.41150   19.68390   21.55360   -9999.25   -9999.25   16.96690  289.25920  273.88030   -9999.25   -9999.25  299.08640  256.91250   -9999.25   -9999.25   -9999.25    0.00400 3669.18970 3976.73680 3863.38550   -9999.25   -9999.25 3758.72920
 15005.00000   -9999.25   -9999.25   52.60060   52.29150   58.37340   93.86770   16.65240   20.59840   23.89120   -9999.25   -9999.25   16.71780  292.76370  239.04210   -9999.25   -9999.25  299.06770  234.56960   -9999.25   -9999.25   -9999.25    0.00370 3667.94750 3978.54100 3867.76200   -9999.25   -9999.25 3768.65230
 15005.50000   -9999.25   -9999.25   52.82140   51.93060   61.47420   93.08250   16.84830   21.95600   26.28590   -9999.25   -9999.25   17.51890  292.74400  202.02120   -9999.25   -9999.25  271.94250  212.22680   -9999.25   -9999.25   -9999.25    0.00560 3646.57930 3980.34550 3898.58300   -9999.25   -9999.25 3786.93240
 15006.00000   -9999.25   -9999.25   53.06670   51.76470   54.20900   92.32870   18.07280   22.90140   27.73350   -9999.25   -9999.25   18.89910  276.02520  189.77440   -9999.25   -9999.25  244.81740  189.88400   -9999.25   -9999.25   -9999.25    0.00680 3680.82790 3982.14970 3895.44850   -9999.25   -9999.25 3808.10470
 15006.50000   -9999.25   -9999.25   52.04750   51.65800   41.95520   90.89710   19.00340   23.46940   27.44720   -9999.25   -9999.25   19.68670  236.19450  176.49550   -9999.25   -9999.25  217.69220  178.81670   -9999.25   -9999.25   -9999.25    0.00770 3703.62840 3980.96260 3883.69140   -9999.25   -9999.25 3829.27730
 15007.00000   -9999.25   -9999.25   50.88770   50.61080   42.70490   89.12860   19.19930   23.95040   26.23910   -9999.25   -9999.25   18.99570  208.55870  192.73210   -9999.25   -9999.25  190.56710  179.89990   -9999.25   -9999.25   -9999.25    0.00760 3702.57420 3967.80980 3871.93410   -9999.25   -9999.25 3776.75200
 15007.50000   -9999.25   -9999.25   50.69270   50.13380   54.59340   88.66280   17.89310   24.81260   24.86470   -9999.25   -9999.25   17.65390  189.89410  228.66970   -9999.25   -9999.25  177.54330  234.17650   -9999.25   -9999.25   -9999.25    0.00740 3704.19480 3954.65700 3862.94090   -9999.25   -9999.25 3776.75200
 15008.00000   -9999.25   -9999.25   52.83440   50.56060   65.18820   89.22920   16.26050   24.29180   23.47780   -9999.25   -9999.25   16.19400  181.31610  310.08960   -9999.25   -9999.25  177.52710  290.89030   -9999.25   -9999.25   -9999.25    0.00780 3703.96880 3941.50420 3865.00220   -9999.25   -9999.25 3813.87940
 15008.50000   -9999.25   -9999.25   54.36410   51.75150   64.92140   90.32300   15.67280   22.95810   20.97640   -9999.25   -9999.25   15.81460  204.05710  349.27270   -9999.25   -9999.25  178.58890  333.09790   -9999.25   -9999.25   -9999.25    0.00450 3699.83910 3928.35160 3867.06350   -9999.25   -9999.25 3770.35180
 15009.00000   -9999.25   -9999.25   55.67080   53.72610   63.34640   94.23520   16.33590   21.49600   20.34210   -9999.25   -9999.25   16.58450  278.54940  332.26790   -9999.25   -9999.25  222.85090  319.33240   -9999.25   -9999.25   -9999.25    0.00520 3698.37570 3917.84450 3869.12480   -9999.25   -9999.25 3770.35180
 15009.50000   -9999.25   -9999.25   54.96990   55.73510   64.31060   97.42350   17.27780   20.70770   22.61560   -9999.25   -9999.25   18.40380  357.34650  283.49150   -9999.25   -9999.25  325.34080  260.53280   -9999.25   -9999.25   -9999.25    0.00710 3694.24610 3917.94950 3901.70210   -9999.25   -9999.25 3770.35180
 15010.00000   -9999.25   -9999.25   53.87630   55.48100   64.92620   97.78910   18.20900   21.22000   24.45260   -9999.25   -9999.25   18.71470  348.67000  205.64970   -9999.25   -9999.25  329.28580  201.73320   -9999.25   -9999.25   -9999.25    0.00840 3686.54420 3918.06910 3887.67110   -9999.25   -9999.25 3770.35180
 15010.50000   -9999.25   -9999.25   53.27320   54.48530   44.80320   97.65440   18.22160   21.94190   24.88740   -9999.25   -9999.25   18.65640  299.90140  196.79510   -9999.25   -9999.25  297.07400  196.08610   -9999.25   -9999.25   -9999.25    0.00950 3667.76170 3929.16430 3899.85770   -9999.25   -9999.25 3770.35180
 15011.00000   -9999.25   -9999.25   53.28750   54.61280   28.79970   97.42840   18.16270   22.97840   24.95310   -9999.25   -9999.25   18.51970  251.13280  207.90240   -9999.25   -9999.25  259.87560  195.65720   -9999.25   -9999.25   -9999.25    0.00950 3643.66720 3955.84010 3869.48710   -9999.25   -9999.25 3770.35180
 15011.50000   -9999.25   -9999.25   53.48410   55.12210   32.17750   96.93920   17.81450   23.73890   24.46520   -9999.25   -9999.25   18.13450  202.36420  262.62860   -9999.25   -9999.25  222.67730  223.42140   -9999.25   -9999.25   -9999.25    0.00880 3659.90060 3955.93020 3864.84450   -9999.25   -9999.25 3770.35180
 15012.00000   -9999.25   -9999.25   53.55740   54.96160   40.84640   96.43480   17.47720   23.65060   23.33220   -9999.25   -9999.25   17.75440  189.15880  355.43450   -9999.25   -9999.25  204.07480  359.31020   -9999.25   -9999.25   -9999.25    0.00810 3668.84420 3956.06570 3876.60740   -9999.25   -9999.25 3770.35180
