~Version ---------------------------------------------------
VERS.   2.0 : CWLS log ASCII Standard -VERSION 2.0
WRAP.    NO : One line per depth step
DLM . SPACE : Column Data Section Delimiter
~Well ------------------------------------------------------
STRT .F                 3953.0 : START DEPTH
STOP .F                11845.0 : STOP DEPTH
STEP .F                    0.5 : STEP
NULL .                -9999.25 : NULL VALUE
COMP .                         : COMPANY
WELL .                         : WELL
FLD  .                         : FIELD
LOC  .                         : LOCATION
PROV .                         : PROVINCE
CNTY .                         : COUNTY
STAT .                         : STATE
CTRY .                         : COUNTRY
SRVC .                         : SERVICE COMPANY
DATE .                         : DATE
UWI  .                         : UNIQUE WELL ID
API  .                         : API NUMBER
SLAT .WGS84  5.502796021876399 : SURFACE LATITUDE
SLON .WGS84 3.8792671488075143 : SURFACE LONGITUDE
DATUM.F                1831.73 : DEPTH DATUM ELEV
~Curve Information -----------------------------------------
DEPT   .F     : 
DTCO   .US/F  : DELTA-T COMPRESSIONAL
DTSM   .US/F  : DELTA-T SHEAR
CIDP   .MMHO  : INCUCTION DEEP PHASOR CONDUCTIVITY
SFLA   .B     : SPHERICALLY FOCUSED LOG RESISTIVITY AVERAGED OVER 2.5 FT
IDPH   .OHMM  : INDUCTION DEEP PHASOR RESISTIVITY
GRR    .GAPI  : GAMMA RAY FROM RESISTIVITY LOG
SPR    .MV    : SPONTANEOUS POTENTIAL FROM RESISTIVITY LOG
SFLU   .OHMM  : SHALLOW FOCUSED RESISTIVITY (UNAVERAGED)
IMPH   .OHMM  : INDUCTION MEDIUM PHASOR RESISTIVITY
DTST   .US/F  : DELTA-T STONELEY - MONOPOLE STONELEY
RHOB   .G/C3  : BULK DENSITY
NPHI_LS.DEC   : NEUTRON POROSITY LIMESTONE
DPHI_LS.DEC   : DENSITY POROSITY LIMESTONE
DRHO   .G/C3  : BULK DENSITY CORRECTION
CALD   .IN    : CALIPER FROM DENSITY LOG
PEF    .B/E   : PHOTOELECTRIC FACTOR
~Params ----------------------------------------------------
~Other -----------------------------------------------------
~ASCII -----------------------------------------------------
# ...
 9715.00000   77.32000  130.11580   47.26130   -9999.25   20.07300   85.10680  -63.48920   20.92960   19.71810   -9999.25    2.58780    0.08630    0.07250    0.02640   10.49640    2.75890
 9715.50000   77.71600  132.15830   46.81530   -9999.25   20.26790   82.79880  -62.67830   20.46680   19.79020   -9999.25    2.59100    0.08670    0.06940    0.03080   10.50480    2.70670
 9716.00000   78.80800  134.20080   46.36930   -9999.25   20.27160   80.56360  -61.85130   20.46680   19.92100   -9999.25    2.59260    0.09920    0.06840    0.03660   10.51320    2.68410
 9716.50000   80.08740  136.04000   45.92330   -9999.25   20.26490   78.33400  -62.16230   20.27240   20.09250   -9999.25    2.58970    0.10320    0.06940    0.04240   10.52150    2.66770
 9717.00000   81.36680  137.23470   45.44010   -9999.25   20.47740   76.09990  -63.12850   20.48270   19.61340   -9999.25    2.58280    0.10190    0.07380    0.04820   10.52990    2.67220
 9717.50000   82.64610  138.28000   44.93840   -9999.25   21.09730   74.27340  -63.96900   20.91010   19.09790   -9999.25    2.57540    0.10030    0.07820    0.05320   10.53830    2.67500
 9718.00000   83.92550  138.28000   43.23630   -9999.25   21.68260   74.55710  -64.80440   21.77570   19.67500   -9999.25    2.56810    0.10050    0.08260    0.05360   10.54660    2.65310
 9718.50000   83.70620  137.25800   40.92050   -9999.25   22.26800   75.77840  -65.63330   22.89750   20.75550   -9999.25    2.56740    0.09930    0.08410    0.05620   10.55500    2.63270
 9719.00000   82.18610  135.87200   38.60470   -9999.25   23.82880   76.96900  -66.22860   24.07700   22.03510   -9999.25    2.57110    0.09460    0.08170    0.05710   10.55170    2.62240
 9719.50000   80.66640  131.62160   36.28890   -9999.25   25.37210   77.84800  -66.30170   25.31690   23.41080   -9999.25    2.57570    0.08970    0.07910    0.05550   10.54270    2.61270
 9720.00000   79.14430  123.16000   33.97310   -9999.25   27.01540   78.50870  -66.61610   26.62070   25.42370   -9999.25    2.57740    0.08470    0.07730    0.05170   10.53370    2.56580
 9720.50000   77.61750  113.49530   31.65720   -9999.25   28.76510   79.01550  -66.62590   27.99160   27.60960   -9999.25    2.57370    0.07960    0.07920    0.04780   10.52470    2.51420
 9721.00000   76.10560  104.71730   29.71970   -9999.25   30.71870   79.51440  -66.22100   29.43310   29.87990   -9999.25    2.57000    0.07730    0.08170    0.04400   10.51570    2.54750
 9721.50000   75.37800  100.76000   30.00650   -9999.25   30.38970   79.75860  -65.57280   29.90750   30.43650   -9999.25    2.56630    0.07620    0.08410    0.04070   10.50680    2.60220
 9722.00000   76.68000  109.18800   30.29320   -9999.25   30.15690   81.99900  -64.57380   29.96270   30.43650   -9999.25    2.57090    0.07520    0.08480    0.04030   10.49780    2.62450
 9722.50000   80.60000  118.89000   30.57990   -9999.25   30.43650   84.21380  -63.62460   30.01810   30.45600   -9999.25    2.57760    0.07410    0.08020    0.04440   10.48880    2.59850
 9723.00000   86.86260  128.59200   32.93880   -9999.25   29.29960   85.10610  -62.68470   30.07350   30.13900   -9999.25    2.58440    0.07300    0.07450    0.04960   10.48020    2.57260
 9723.50000   93.45780  133.63630   36.48070   -9999.25   28.30290   84.25960  -61.72480   30.12910   29.38500   -9999.25    2.59550    0.07300    0.06880    0.05220   10.47800    2.53420
 9724.00000   96.57150  135.34210   40.02250   -9999.25   26.43390   82.58950  -59.61640   30.15690   27.61150   -9999.25    2.60030    0.07890    0.06330    0.05280   10.47590    2.52810
 9724.50000   99.57980  137.04800   43.56430   -9999.25   23.98030   79.83490  -57.59520   28.00080   24.94430   -9999.25    2.59670    0.08640    0.06510    0.05020   10.47370    2.65990
 9725.00000  101.81000  137.72760   47.10620   -9999.25   21.75440   76.31550  -55.58360   23.08110   22.52770   -9999.25    2.58920    0.09390    0.06990    0.04640   10.47150    2.68600
 9725.50000  103.56000  137.73370   50.64800   -9999.25   19.54380   74.86520  -53.50090   19.02860   20.34520   -9999.25    2.58160    0.09920    0.07470    0.04280   10.46670    2.70360
 9726.00000  104.40430  138.29480   54.18980   -9999.25   18.64380   73.63590  -51.96470   17.26170   18.37410   -9999.25    2.57820    0.10340    0.07730    0.04110   10.44430    2.70370
 9726.50000  105.25720  140.32350   57.73170   -9999.25   17.66210   73.22810  -50.20250   16.58660   17.01660   -9999.25    2.58320    0.10770    0.07510    0.03960   10.41720    2.68850
 9727.00000  106.11020  142.87200   61.21230   -9999.25   16.72970   72.87860  -48.54870   16.02650   16.03640   -9999.25    2.58810    0.11210    0.07190    0.03730   10.38150    2.71290
 9727.50000  106.96310  145.56000   63.74750   -9999.25   15.85010   71.15060  -46.88580   15.37450   15.11050   -9999.25    2.59290    0.12270    0.06870    0.03470   10.34580    2.84670
 9728.00000  107.81600  146.68000   62.54330   -9999.25   15.02790   68.90550  -45.24000   13.89040   14.14810   -9999.25    2.58410    0.13210    0.07080    0.03100   10.32250    2.92550
 9728.50000  107.48260  147.24000   61.34090   -9999.25   14.81730   66.65540  -44.01350   13.26400   13.76270   -9999.25    2.57060    0.13220    0.07720    0.02540   10.30040    3.00430
 9729.00000  106.72650  147.24000   60.86230   -9999.25   14.81730   65.37520  -43.74900   14.21460   13.89040   -9999.25    2.56170    0.12370    0.08360    0.02260   10.27830    3.03490
 9729.50000  105.34000  146.28400   60.84960   -9999.25   15.09340   65.97080  -43.73150   15.97720   15.23330   -9999.25    2.57190    0.11700    0.08660    0.02030   10.25620    2.96460
 9730.00000  103.56000  142.72000   60.84260   -9999.25   15.65190   66.90760  -43.41890   18.16220   16.78330   -9999.25    2.58970    0.11450    0.07320    0.02550   10.22200    2.91060
 9730.50000   97.45600  142.20000   57.33200   -9999.25   16.29900   67.27980  -42.79920   19.54380   17.46210   -9999.25    2.60760    0.11200    0.06100    0.03890   10.18150    2.86210
 9731.00000   90.12000  145.22400   54.12070   -9999.25   16.97310   66.46970  -42.17740   18.88300   18.10980   -9999.25    2.62560    0.10950    0.04950    0.05170   10.14090    2.84320
 9731.50000   92.96090  146.43270   50.90950   -9999.25   17.99220   66.66350  -41.55260   17.95600   18.78110   -9999.25    2.65000    0.09920    0.03790    0.06420   10.09270    2.80830
 9732.00000   96.58590  146.89470   47.69820   -9999.25   19.06500   67.76110  -40.93550   17.01730   19.47640   -9999.25    2.66370    0.08610    0.02640    0.07580   10.03880    2.78640
 9732.50000  100.21080  146.01500   44.76860   -9999.25   20.09670   68.89770  -40.33310   19.35150   20.27880   -9999.25    2.65510    0.07770    0.02680    0.08410    9.98500    2.78330
 9733.00000  101.23940  142.85400   45.49630   -9999.25   21.24220   70.03860  -39.56400   24.38950   21.83260   -9999.25    2.65520    0.08300    0.03010    0.08280    9.93120    2.78620
 9733.50000  101.03630  143.29400   46.16530   -9999.25   21.23560   68.93200  -38.72000   27.45610   24.61560   -9999.25    2.66300    0.09420    0.03290    0.06990    9.87740    2.80410
 9734.00000  100.68570  145.58740   46.83430   -9999.25   21.24040   65.54600  -37.91940   30.01810   27.24570   -9999.25    2.67070    0.10620    0.02430    0.05570    9.82360    2.82220
 9734.50000  100.33610  144.79290   47.50330   -9999.25   20.56150   62.01690  -37.24140   30.43650   27.49830   -9999.25    2.67730    0.11180    0.01810    0.04290    9.76980    2.82890
 9735.00000  100.59530  141.55770   49.40640   -9999.25   20.09250   61.08100  -36.58510   27.41060   23.62980   -9999.25    2.65950    0.11630    0.02510    0.03250    9.72430    2.97750
 9735.50000  101.24750  138.28880   52.21630   -9999.25   19.03650   63.61090  -36.01730   22.54940   20.17210   -9999.25    2.63940    0.12190    0.03730    0.02210    9.69760    3.04900
 9736.00000  101.89980  137.16110   55.02830   -9999.25   17.92810   66.05210  -35.71870   18.55020   17.25450   -9999.25    2.62330    0.12290    0.04930    0.01380    9.67080    2.99430
