~Version ---------------------------------------------------
VERS.   2.0 : CWLS log ASCII Standard -VERSION 2.0
WRAP.    NO : One line per depth step
DLM . SPACE : Column Data Section Delimiter
~Well ------------------------------------------------------
STRT .F                 3953.0 : START DEPTH
STOP .F                11845.0 : STOP DEPTH
STEP .F                    0.5 : STEP
NULL .                -9999.25 : NULL VALUE
COMP .                         : COMPANY
WELL .                         : WELL
FLD  .                         : FIELD
LOC  .                         : LOCATION
PROV .                         : PROVINCE
CNTY .                         : COUNTY
STAT .                         : STATE
CTRY .                         : COUNTRY
SRVC .                         : SERVICE COMPANY
DATE .                         : DATE
UWI  .                         : UNIQUE WELL ID
API  .                         : API NUMBER
SLAT .WGS84  5.502796021876399 : SURFACE LATITUDE
SLON .WGS84 3.8792671488075143 : SURFACE LONGITUDE
DATUM.F                1831.73 : DEPTH DATUM ELEV
~Curve Information -----------------------------------------
DEPT   .F     : 
DTCO   .US/F  : DELTA-T COMPRESSIONAL
DTSM   .US/F  : DELTA-T SHEAR
CIDP   .MMHO  : INCUCTION DEEP PHASOR CONDUCTIVITY
SFLA   .B     : SPHERICALLY FOCUSED LOG RESISTIVITY AVERAGED OVER 2.5 FT
IDPH   .OHMM  : INDUCTION DEEP PHASOR RESISTIVITY
GRR    .GAPI  : GAMMA RAY FROM RESISTIVITY LOG
SPR    .MV    : SPONTANEOUS POTENTIAL FROM RESISTIVITY LOG
SFLU   .OHMM  : SHALLOW FOCUSED RESISTIVITY (UNAVERAGED)
IMPH   .OHMM  : INDUCTION MEDIUM PHASOR RESISTIVITY
DTST   .US/F  : DELTA-T STONELEY - MONOPOLE STONELEY
RHOB   .G/C3  : BULK DENSITY
NPHI_LS.DEC   : NEUTRON POROSITY LIMESTONE
DPHI_LS.DEC   : DENSITY POROSITY LIMESTONE
DRHO   .G/C3  : BULK DENSITY CORRECTION
CALD   .IN    : CALIPER FROM DENSITY LOG
PEF    .B/E   : PHOTOELECTRIC FACTOR
~Params ----------------------------------------------------
~Other -----------------------------------------------------
~ASCII -----------------------------------------------------
# ...
 9177.50000   -9999.25   -9999.25   40.08180   24.79740   23.96770   62.19760  -35.15700   -9999.25   -9999.25   -9999.25   -9999.25   -9999.25   -9999.25   -9999.25   -9999.25   -9999.25
 9178.00000   -9999.25   -9999.25   40.34290   24.50380   23.59820   58.22850  -35.08680   -9999.25   -9999.25   -9999.25   -9999.25   -9999.25   -9999.25   -9999.25   -9999.25   -9999.25
 9178.50000   -9999.25   -9999.25   40.60410   24.50210   23.39830   54.28910  -35.05410   -9999.25   -9999.25   -9999.25   -9999.25   -9999.25   -9999.25   -9999.25   -9999.25   -9999.25
 9179.00000   -9999.25   -9999.25   40.46680   25.06830   23.58540   54.18550  -35.23120   -9999.25   -9999.25   -9999.25   -9999.25   -9999.25   -9999.25   -9999.25   -9999.25   -9999.25
 9179.50000   -9999.25   -9999.25   39.86620   26.09420   24.07890   55.93770  -35.42020   -9999.25   -9999.25   -9999.25   -9999.25   -9999.25   -9999.25   -9999.25   -9999.25   -9999.25
 9180.00000   -9999.25   -9999.25   39.26650   27.11740   24.55110   58.67360  -35.60890   -9999.25   -9999.25   -9999.25   -9999.25   -9999.25   -9999.25   -9999.25   -9999.25   -9999.25
 9180.50000   -9999.25   -9999.25   38.66580   28.14860   25.11490   63.27050  -35.79740   -9999.25   -9999.25   -9999.25   -9999.25   -9999.25   -9999.25   -9999.25   -9999.25   -9999.25
 9181.00000   -9999.25   -9999.25   38.06620   29.18990   25.67920   67.83470  -35.98590   -9999.25   -9999.25   -9999.25   -9999.25   -9999.25   -9999.25   -9999.25   -9999.25   -9999.25
 9181.50000   -9999.25   -9999.25   36.85830   29.42660   26.24420   70.97440  -36.17470   -9999.25   -9999.25   -9999.25   -9999.25   -9999.25   -9999.25   -9999.25   -9999.25   -9999.25
 9182.00000   -9999.25   -9999.25   34.84910   29.61400   26.80900   72.18780  -36.36220   -9999.25   -9999.25   -9999.25   -9999.25   -9999.25   -9999.25   -9999.25   -9999.25   -9999.25
 9182.50000   -9999.25   -9999.25   33.64320   29.81430   27.39160   73.40670  -36.54810   -9999.25   -9999.25   -9999.25   -9999.25   -9999.25   -9999.25   -9999.25   -9999.25   -9999.25
 9183.00000   -9999.25   -9999.25   33.50520   30.02400   27.81150   74.61430  -36.58190   -9999.25   -9999.25   -9999.25    2.66800    0.14800    0.02400   -0.00080   10.00180    3.55140
 9183.50000   -9999.25   -9999.25   33.36710   30.38800   28.19870   75.85310  -36.39640   -9999.25   -9999.25   -9999.25    2.66990    0.14750    0.02310   -0.00080    9.99770    3.65070
 9184.00000   -9999.25   -9999.25   33.22900   31.01340   28.48410   76.20110  -36.21270   -9999.25   -9999.25   -9999.25    2.67190    0.14650    0.01950   -0.00030    9.99350    3.73080
 9184.50000   -9999.25   -9999.25   33.09100   31.63600   28.88600   75.17780  -36.02770   -9999.25   -9999.25   -9999.25    2.67850    0.14500    0.01600    0.00030    9.98930    3.72590
 9185.00000   -9999.25   -9999.25   32.95290   32.26100   29.28590   72.61620  -35.84260   -9999.25   -9999.25   -9999.25    2.68820    0.14200    0.01240    0.00200   10.01250    3.65220
 9185.50000   -9999.25   -9999.25   32.81480   32.88390   29.68610   70.84660  -35.65700   -9999.25   -9999.25   -9999.25    2.69180    0.14070    0.00880    0.00740   10.03570    3.52980
 9186.00000   -9999.25   -9999.25   32.67680   33.27980   30.00840   72.40190  -35.47300   34.31620   29.60540   -9999.25    2.69790    0.13020    0.00570    0.00910   10.05900    3.41750
 9186.50000   -9999.25   -9999.25   32.53870   33.35620   30.03080   75.80170  -35.45310   34.31620   29.60540   -9999.25    2.70390    0.11850    0.00210    0.01020   10.07570    3.31080
 9187.00000   -9999.25   -9999.25   32.40060   33.34910   30.08930   76.29090  -35.66970   34.18170   29.60540   -9999.25    2.70780    0.10340    0.00170    0.01080   10.08060    3.31630
 9187.50000   -9999.25   -9999.25   32.26250   32.55970   30.13140   74.92990  -35.91640   32.80650   29.00090   -9999.25    2.70020    0.08910    0.00600    0.00980   10.15580    3.43370
 9188.00000   -9999.25   -9999.25   32.12450   31.65890   30.13070   73.46970  -36.16340   33.05770   29.21970   -9999.25    2.69260    0.08050    0.01250    0.00820   10.17900    3.44270
 9188.50000   -9999.25   -9999.25   31.98640   30.75490   30.13080   72.02700  -36.41010   31.22730   28.08460   -9999.25    2.67860    0.07130    0.01930    0.00790   10.18940    3.45170
 9189.00000   -9999.25   -9999.25   31.84830   29.85550   30.13320   71.06610  -36.65650   30.20940   27.49830   -9999.25    2.66460    0.06630    0.02590    0.00920   10.18790    3.46060
 9189.50000   -9999.25   -9999.25   31.71030   29.32000   30.13720   67.68720  -36.90180   29.19960   27.11200   -9999.25    2.65670    0.06870    0.03190    0.01010   10.19180    3.47360
 9190.00000   -9999.25   -9999.25   33.11540   28.70000   30.11710   63.74060  -37.06510   27.75330   26.94800   -9999.25    2.65150    0.07250    0.03300    0.01020   10.17040    3.49810
 9190.50000   -9999.25   -9999.25   34.78370   27.76570   29.56720   59.80950  -37.06250   28.01060   26.78510   -9999.25    2.65360    0.07670    0.03180    0.00980   10.11830    3.50840
 9191.00000   -9999.25   -9999.25   36.45200   25.91470   27.65170   56.73720  -37.06570   30.18820   26.16330   -9999.25    2.65580    0.07900    0.03080    0.00950   10.06610    3.58510
 9191.50000   -9999.25   -9999.25   40.08050   24.13190   25.81460   56.56320  -36.97250   32.16940   25.57500   -9999.25    2.65780    0.08160    0.03010    0.01060   10.01400    3.67410
 9192.00000   -9999.25   -9999.25   44.08450   22.34960   23.97900   71.22540  -36.86650   28.82070   22.09970   -9999.25    2.65780    0.10060    0.05260    0.01610   10.02730    3.76670
 9192.50000   -9999.25   -9999.25   48.08850   20.56360   22.13690   88.33770  -36.75930   23.94340   17.16500   -9999.25    2.51520    0.20000    0.13260    0.01990   10.11560    3.78630
 9193.00000   -9999.25   -9999.25   49.12270   18.79680   20.30350  105.15780  -36.65240   18.83550   14.63610   -9999.25    2.16090    0.26550    0.23030    0.00900   10.30940    3.35780
 9193.50000   -9999.25   -9999.25   49.52310   17.81820   19.47800  123.20080  -36.54560   14.81730   13.02140   -9999.25    2.16520    0.27470    0.29830   -0.00420   10.58890    2.66980
 9194.00000   -9999.25   -9999.25   51.42050   17.90420   18.86690  126.50500  -36.43900   15.37450   14.91160   -9999.25    2.19930    0.27340    0.26240   -0.00450   10.71720    2.37100
 9194.50000   -9999.25   -9999.25   56.62580   18.37900   18.26890   97.70900  -36.33350   17.39690   18.19480   -9999.25    2.23330    0.26120    0.19700    0.00160   10.56860    2.34300
 9195.00000   -9999.25   -9999.25   61.83100   18.89540   17.81280   75.23310  -36.25410   19.52150   22.20090   -9999.25    2.59920    0.17030    0.05240    0.00880   10.24190    2.64470
 9195.50000   -9999.25   -9999.25   62.90920   19.27720   15.04750   59.51830  -36.17570   21.83260   24.84380   -9999.25    2.64360    0.11710    0.02340    0.01120    9.98800    3.07430
 9196.00000   -9999.25   -9999.25   61.53680   19.16010   15.34290   59.54280  -35.85810   20.73930   20.58860   -9999.25    2.69650    0.11740    0.00680    0.01010    9.96320    3.24950
 9196.50000   -9999.25   -9999.25   59.80860   19.06010   16.06540   65.80660  -35.54990   19.09810   17.67640   -9999.25    2.69350    0.13030    0.00770    0.00960    9.95150    3.38430
 9197.00000   -9999.25   -9999.25   58.08710   19.04800   16.77060   73.70510  -35.24250   17.58680   15.17610   -9999.25    2.68750    0.14840    0.00910    0.01070    9.94280    3.40550
 9197.50000   -9999.25   -9999.25   56.35690   19.43380   17.48450   81.55100  -34.93310   16.70610   14.28030   -9999.25    2.68100    0.16660    0.01150    0.01190    9.93410    3.40710
 9198.00000   -9999.25   -9999.25   54.60510   20.32590   18.19390   89.45150  -34.62440   17.49390   14.81730   -9999.25    2.66400    0.18930    0.02240    0.01100    9.92540    3.37480
 9198.50000   -9999.25   -9999.25   52.85340   22.70310   18.75610   97.34800  -34.33360   19.05000   16.85330   -9999.25    2.64710    0.20380    0.03300    0.00900    9.91000    3.34250
