~Version ---------------------------------------------------
VERS.   2.0 : CWLS log ASCII Standard -VERSION 2.0
WRAP.    NO : One line per depth step
DLM . SPACE : Column Data Section Delimiter
~Well ------------------------------------------------------
STRT .F                 3953.0 : START DEPTH
STOP .F                11845.0 : STOP DEPTH
STEP .F                    0.5 : STEP
NULL .                -9999.25 : NULL VALUE
COMP .                         : COMPANY
WELL .                         : WELL
FLD  .                         : FIELD
LOC  .                         : LOCATION
PROV .                         : PROVINCE
CNTY .                         : COUNTY
STAT .                         : STATE
CTRY .                         : COUNTRY
SRVC .                         : SERVICE COMPANY
DATE .                         : DATE
UWI  .                         : UNIQUE WELL ID
API  .                         : API NUMBER
SLAT .WGS84  5.502796021876399 : SURFACE LATITUDE
SLON .WGS84 3.8792671488075143 : SURFACE LONGITUDE
DATUM.F                1831.73 : DEPTH DATUM ELEV
~Curve Information -----------------------------------------
DEPT   .F     : 
DTCO   .US/F  : DELTA-T COMPRESSIONAL
DTSM   .US/F  : DELTA-T SHEAR
CIDP   .MMHO  : INCUCTION DEEP PHASOR CONDUCTIVITY
SFLA   .B     : SPHERICALLY FOCUSED LOG RESISTIVITY AVERAGED OVER 2.5 FT
IDPH   .OHMM  : INDUCTION DEEP PHASOR RESISTIVITY
GRR    .GAPI  : GAMMA RAY FROM RESISTIVITY LOG
SPR    .MV    : SPONTANEOUS POTENTIAL FROM RESISTIVITY LOG
SFLU   .OHMM  : SHALLOW FOCUSED RESISTIVITY (UNAVERAGED)
IMPH   .OHMM  : INDUCTION MEDIUM PHASOR RESISTIVITY
DTST   .US/F  : DELTA-T STONELEY - MONOPOLE STONELEY
RHOB   .G/C3  : BULK DENSITY
NPHI_LS.DEC   : NEUTRON POROSITY LIMESTONE
DPHI_LS.DEC   : DENSITY POROSITY LIMESTONE
DRHO   .G/C3  : BULK DENSITY CORRECTION
CALD   .IN    : CALIPER FROM DENSITY LOG
PEF    .B/E   : PHOTOELECTRIC FACTOR
~Params ----------------------------------------------------
~Other -----------------------------------------------------
~ASCII -----------------------------------------------------
# ...
 11112.50000   61.75490  128.80420   72.97950   -9999.25   13.76270  163.70120  -33.31620   18.37280   15.38530  219.98000    2.56870    0.10480    0.08260    0.02090    8.86050    2.94740
 11113.00000   62.49310  123.43880   69.63450   -9999.25   14.19270  150.24200  -35.90220   17.18100   15.37370  218.79000    2.55270    0.10110    0.09630    0.02070    8.84600    2.84450
 11113.50000   63.22570  118.07340   66.28940   -9999.25   14.68120  134.94100  -38.82570   15.43960   15.51980  220.61280    2.53220    0.09740    0.11010    0.01820    8.83990    2.64480
 11114.00000   63.95160  112.70800   62.94430   -9999.25   15.23830  118.37150  -41.76380   13.89040   15.37450  222.67920    2.51160    0.10010    0.12390    0.01450    8.83380    2.48760
 11114.50000   64.03130  109.16000   61.87120   -9999.25   15.22990  117.95700  -44.72580   13.51110   15.23330  224.25000    2.49110    0.10550    0.13500    0.01200    8.82770    2.31510
 11115.00000   63.28950  109.72000   61.87120   -9999.25   15.52060  125.88170  -47.72530   16.64620   15.07790  222.81000    2.48340    0.11120    0.13080    0.01320    8.82160    2.41340
 11115.50000   62.54770  107.96300   61.87120   -9999.25   15.09510  135.31720  -49.11870   19.36430   14.92410  223.27340    2.50160    0.11680    0.12120    0.01550    8.81550    2.52570
 11116.00000   61.80600  106.38530   61.87120   -9999.25   14.95140  145.16100  -49.87970   19.90690   14.81100  223.72750    2.52320    0.11550    0.10480    0.01680    8.81280    2.66770
 11116.50000   61.06420  105.51450   61.87120   -9999.25   15.81960  141.98350  -51.02990   18.52610   14.07560  224.01000    2.54480    0.10820    0.09080    0.01670    8.81370    2.81300
 11117.00000   60.40880  105.25660   58.86070   -9999.25   16.66470  134.06170  -52.25790   16.04790   13.43500  224.01000    2.55420    0.10090    0.09280    0.01610    8.82830    2.89610
 11117.50000   60.21200  104.69900   54.34480   -9999.25   17.64920  126.98000  -53.48910   13.89830   12.99850  223.93950    2.54880    0.09750    0.09710    0.01270    8.84880    2.96500
 11118.00000   60.01520  101.80810   52.37420   -9999.25   17.69800  128.39020  -54.72830   11.87350   14.08400  223.86570    2.53610    0.09720    0.10720    0.00860    8.87320    2.99970
 11118.50000   59.81840   97.90490   51.70520   -9999.25   17.83460  131.25880  -55.97690   11.76440   17.25450  223.79190    2.52340    0.09680    0.11420    0.00240    8.89760    2.99230
 11119.00000   59.62160   95.16000   51.03620   -9999.25   17.98610  132.51170  -57.42730   18.38710   21.23650  223.71810    2.51080    0.09580    0.12110    0.00100    8.92200    2.85510
 11119.50000   59.42480   99.94180   49.32780   -9999.25   19.48130  131.71160  -58.22960   22.28040   25.07420  223.76400    2.49810    0.09260    0.12500    0.00310    8.93880    2.69760
 11120.00000   59.84330  106.90230   47.06990   -9999.25   21.29290  129.62880  -58.20320   24.04560   25.77810  223.95650    2.49910    0.08930    0.12180    0.00820    8.94070    2.56080
 11120.50000   60.96260  113.86280   44.81200   -9999.25   23.29820  128.57920  -58.19470   25.09250   24.61560  224.14900    2.50260    0.08600    0.11840    0.01250    8.94270    2.45050
 11121.00000   62.08180  120.82330   42.55410   -9999.25   23.29590  128.25210  -58.16370   25.06840   21.76560  224.34160    2.50620    0.08340    0.11560    0.01820    8.94470    2.41460
 11121.50000   63.20110  120.88640   40.74450   -9999.25   22.96590  127.78890  -57.87640   24.61560   19.63420  224.53410    2.50970    0.08280    0.11410    0.02420    8.96840    2.45590
 11122.00000   64.32040  118.68000   42.03220   -9999.25   22.43530  128.61030  -56.85460   24.16540   18.83550  224.67740    2.51330    0.08360    0.11260    0.02590    8.99550    2.49730
 11122.50000   65.43980  118.17930   44.77220   -9999.25   20.94380  141.74350  -55.28590   23.72350   18.93720  224.71420    2.52120    0.09290    0.09800    0.02710    9.02260    2.53150
 11123.00000   66.60000  118.50340   47.92610   -9999.25   19.67800  161.07240  -53.56580   22.75840   19.01020  224.73000    2.53570    0.10450    0.08230    0.03000    9.04980    2.67640
 11123.50000   66.04440  118.82760   51.08010   -9999.25   18.53380  174.15480  -51.82160   20.52490   18.27720  224.57820    2.58480    0.11600    0.06130    0.03340    9.05840    3.02730
 11124.00000   65.46780  119.15170   53.93500   -9999.25   17.57590  182.64920  -50.12720   17.49870   17.51380  224.14880    2.61010    0.15100    0.04620    0.03290    9.05540    3.38200
 11124.50000   64.89110  119.18590   54.79520   -9999.25   17.33430  179.71120  -48.31380   15.58290   16.70710  223.77000    2.62380    0.15440    0.04890    0.03050    9.05220    3.53220
 11125.00000   64.31440  118.72670   55.65540   -9999.25   17.33430  174.89080  -47.66620   15.35980   16.09690  223.57200    2.62640    0.15680    0.05160    0.02870    9.04900    3.52970
 11125.50000   63.73780  117.56000   56.51550   -9999.25   17.33430  175.97390  -47.51850   16.39210   15.66090  223.35550    2.62450    0.14510    0.05030    0.02730    9.04580    3.43640
 11126.00000   63.16110  114.38850   55.90540   -9999.25   17.41440  177.76790  -48.23980   18.63380   15.95270  223.13900    2.62250    0.13020    0.04930    0.02400    9.04250    3.33790
 11126.50000   62.58440  110.74680   54.40020   -9999.25   17.81180  177.08650  -49.03500   19.54380   16.40050  222.52910    2.61220    0.11400    0.06150    0.01960    9.03930    3.23490
 11127.00000   62.00770  107.12480   52.89490   -9999.25   18.27430  169.87960  -50.10500   19.72500   16.98290  221.85820    2.59740    0.08820    0.07170    0.01610    9.03610    3.13200
 11127.50000   61.68320  103.58710   51.38960   -9999.25   18.74810  162.74640  -51.40060   19.65690   17.52280  221.18730    2.58050    0.07590    0.08190    0.01540    9.03290    3.02680
 11128.00000   62.23420  102.43440   49.88430   -9999.25   19.27470  155.57460  -52.63620   19.54380   18.13920  220.51640    2.56350    0.06830    0.09100    0.01460    9.02970    2.85240
 11128.50000   62.78530  103.62330   48.37900   -9999.25   19.48370  153.06060  -53.66150   19.89770   18.47760  220.05000    2.54990    0.07360    0.09540    0.01340    9.02880    2.67350
 11129.00000   63.36040  106.54050   47.78670   -9999.25   19.65660  157.39250  -54.38600   20.62480   18.84480  219.87000    2.55070    0.09540    0.08400    0.01230    9.03340    2.60680
 11129.50000   64.04920  109.45780   47.78670   -9999.25   19.83240  171.28880  -55.10440   21.04140   19.01020  219.84380    2.56940    0.11540    0.06850    0.01250    9.03800    2.74400
 11130.00000   64.73800  111.93550   47.78670   -9999.25   20.01090  186.22160  -56.13210   20.65660   18.75600  220.07140    2.59180    0.13180    0.05610    0.01290    9.04260    3.00500
 11130.50000   65.48000  109.36150   48.89090   -9999.25   20.28330  200.54430  -57.23150   20.92300   18.39890  220.29600    2.61600    0.12950    0.05090    0.01300    9.04710    3.24850
 11131.00000   65.48000  107.42790   49.79880   -9999.25   19.90250  206.72450  -58.27270   21.46640   18.04850  220.53000    2.62320    0.12540    0.05510    0.01260    9.05170    3.36340
 11131.50000   65.48000  107.14030   52.72970   -9999.25   19.17760  204.65150  -59.31360   22.02380   17.70720  220.50560    2.60720    0.12130    0.06050    0.01250    9.05630    3.39120
 11132.00000   66.02080  106.92000   58.57140   -9999.25   16.78330  199.13170  -60.35430   22.65370   17.33770  220.47090    2.59000    0.11970    0.07160    0.01490    9.06090    3.39230
 11132.50000   66.80800  105.54400   66.59960   -9999.25   14.68820  190.51770  -61.39880   19.97690   16.00910  220.43610    2.57280    0.12030    0.08160    0.01740    9.06550    3.39330
 11133.00000   67.59520  104.68000   74.62780   -9999.25   13.22730  174.12280  -62.42650   17.82090   14.65120  220.62440    2.55610    0.12060    0.09190    0.01970    9.07000    3.26120
 11133.50000   68.38240  106.36000   82.65590   -9999.25   11.68890  158.19540  -63.66240   14.18180   12.94030  221.48890    2.53310    0.12590    0.10600    0.02210    9.07440    3.06850
