~Version ---------------------------------------------------
VERS.   2.0 : CWLS log ASCII Standard -VERSION 2.0
WRAP.    NO : One line per depth step
DLM . SPACE : Column Data Section Delimiter
~Well ------------------------------------------------------
STRT .F                 3953.0 : START DEPTH
STOP .F                11845.0 : STOP DEPTH
STEP .F                    0.5 : STEP
NULL .                -9999.25 : NULL VALUE
COMP .                         : COMPANY
WELL .                         : WELL
FLD  .                         : FIELD
LOC  .                         : LOCATION
PROV .                         : PROVINCE
CNTY .                         : COUNTY
STAT .                         : STATE
CTRY .                         : COUNTRY
SRVC .                         : SERVICE COMPANY
DATE .                         : DATE
UWI  .                         : UNIQUE WELL ID
API  .                         : API NUMBER
SLAT .WGS84  5.502796021876399 : SURFACE LATITUDE
SLON .WGS84 3.8792671488075143 : SURFACE LONGITUDE
DATUM.F                1831.73 : DEPTH DATUM ELEV
~Curve Information -----------------------------------------
DEPT   .F     : 
DTCO   .US/F  : DELTA-T COMPRESSIONAL
DTSM   .US/F  : DELTA-T SHEAR
CIDP   .MMHO  : INCUCTION DEEP PHASOR CONDUCTIVITY
SFLA   .B     : SPHERICALLY FOCUSED LOG RESISTIVITY AVERAGED OVER 2.5 FT
IDPH   .OHMM  : INDUCTION DEEP PHASOR RESISTIVITY
GRR    .GAPI  : GAMMA RAY FROM RESISTIVITY LOG
SPR    .MV    : SPONTANEOUS POTENTIAL FROM RESISTIVITY LOG
SFLU   .OHMM  : SHALLOW FOCUSED RESISTIVITY (UNAVERAGED)
IMPH   .OHMM  : INDUCTION MEDIUM PHASOR RESISTIVITY
DTST   .US/F  : DELTA-T STONELEY - MONOPOLE STONELEY
RHOB   .G/C3  : BULK DENSITY
NPHI_LS.DEC   : NEUTRON POROSITY LIMESTONE
DPHI_LS.DEC   : DENSITY POROSITY LIMESTONE
DRHO   .G/C3  : BULK DENSITY CORRECTION
CALD   .IN    : CALIPER FROM DENSITY LOG
PEF    .B/E   : PHOTOELECTRIC FACTOR
~Params ----------------------------------------------------
~Other -----------------------------------------------------
~ASCII -----------------------------------------------------
# ...
 9887.00000  109.03180  145.70680   28.86890   -9999.25   32.48640   73.83470  -35.49820   33.68860   31.00350   -9999.25    2.65120    0.12380    0.03330    0.00280    9.35050    3.46540
 9887.50000  108.72440  148.22670   28.58220   -9999.25   32.54890   73.91480  -35.65660   34.07950   31.00350   -9999.25    2.64280    0.11080    0.03770    0.00270    9.35540    3.43610
 9888.00000  108.76460  150.64060   28.29550   -9999.25   32.61150   76.88350  -35.81480   35.11710   32.48010   -9999.25    2.63430    0.10330    0.04210    0.00270    9.36040    3.40700
 9888.50000  109.04130  153.06120   28.00880   -9999.25   32.67430   79.63410  -35.97310   37.03100   33.88350   -9999.25    2.63140    0.10640    0.04510    0.00260    9.36530    3.38610
 9889.00000  108.52830  155.70620   27.72200   -9999.25   32.73720   81.12380  -36.13130   39.59340   34.63430   -9999.25    2.63190    0.11290    0.04350    0.00250    9.37030    3.41900
 9889.50000  108.37120  159.47850   27.93510   -9999.25   32.76870   81.04520  -36.28960   40.51760   34.34500   -9999.25    2.63610    0.11810    0.04030    0.00240    9.37520    3.46670
 9890.00000  108.96400  163.48000   28.26960   -9999.25   32.76870   80.96640  -36.44780   39.15110   33.77350   -9999.25    2.64040    0.12250    0.03700    0.00230    9.38020    3.47830
 9890.50000  109.55680  163.93800   28.60410   -9999.25   32.15080   80.87350  -36.60610   37.68680   33.22540   -9999.25    2.64460    0.13150    0.03410    0.00220    9.38510    3.43010
 9891.00000  110.61100  163.63060   28.93860   -9999.25   31.63280   81.98500  -36.76430   36.27720   32.43490   -9999.25    2.64890    0.14050    0.03430    0.00220    9.39070    3.32210
 9891.50000  111.84050  163.68880   29.27310   -9999.25   30.84240   84.42770  -36.92260   34.92040   31.74090   -9999.25    2.64960    0.14960    0.03630    0.00220    9.39650    3.36510
 9892.00000  113.07000  165.66270   29.60770   -9999.25   30.07170   89.90740  -37.08080   34.00090   31.06170   -9999.25    2.64290    0.15860    0.04040    0.00240    9.39550    3.48910
 9892.50000  114.20000  166.69700   30.40940   -9999.25   29.32030   98.39100  -37.23910   33.79980   30.39700   -9999.25    2.63630    0.16400    0.04270    0.00280    9.39240    3.53940
 9893.00000  113.58130  166.20100   31.33570   -9999.25   28.58770  107.00510  -37.39730   33.57770   29.74660   -9999.25    2.63550    0.16130    0.04120    0.00480    9.38980    3.50300
 9893.50000  113.00890  165.72000   32.26200   -9999.25   27.87220  112.62170  -37.55560   33.36750   29.11190   -9999.25    2.64160    0.15830    0.03910    0.00520    9.39040    3.47150
 9894.00000  112.43660  167.51890   33.18840   -9999.25   27.24470  116.26240  -37.71390   32.11690   28.66440   -9999.25    2.64780    0.15750    0.03560    0.00520    9.39110    3.44700
 9894.50000  111.86420  169.22130   34.11470   -9999.25   27.12010  114.38530  -37.87150   30.98600   28.23420   -9999.25    2.65390    0.15670    0.03200    0.00530    9.39080    3.43810
 9895.00000  111.29190  170.20000   35.04100   -9999.25   26.99540  111.85110  -38.02980   31.29100   27.65410   -9999.25    2.66040    0.15570    0.02840    0.00530    9.39040    3.45740
 9895.50000  111.09480  169.90870   35.71430   -9999.25   26.99540  109.28560  -38.13250   32.44890   27.13440   -9999.25    2.66420    0.15440    0.02520    0.00540    9.39010    3.47670
 9896.00000  112.30510  169.22010   35.71430   -9999.25   26.99540  107.86760  -38.21680   33.68860   26.48570   -9999.25    2.66750    0.14830    0.02380    0.00540    9.38970    3.47040
 9896.50000  113.51540  169.07800   35.71430   -9999.25   26.99540  113.65320  -38.29900   34.00090   26.51440   -9999.25    2.67030    0.13880    0.02240    0.00550    9.38940    3.42790
 9897.00000  114.76000  169.07870   35.40960   -9999.25   26.99540  129.41140  -38.38060   33.02670   26.50930   -9999.25    2.66920    0.13280    0.02170    0.00550    9.38900    3.38940
 9897.50000  119.06080  169.08000   34.26270   -9999.25   27.12030  146.34290  -38.46220   31.87390   26.50180   -9999.25    2.65030    0.14270    0.03070    0.00530    9.38870    3.37850
 9898.00000  123.48700  169.08000   33.11580   -9999.25   27.81740  162.33340  -38.54390   32.80650   26.99540   -9999.25    2.63140    0.16500    0.04570    0.00480    9.38770    3.36760
 9898.50000  128.20000  169.08000   31.96900   -9999.25   28.93010  179.44570  -38.62560   35.29210   27.37170   -9999.25    2.60670    0.18850    0.06220    0.00440    9.38340    3.33310
 9899.00000  129.81700  169.08000   29.45860   -9999.25   30.15690  191.01420  -38.70730   39.96050   28.75900   -9999.25    2.58360    0.21200    0.07880    0.00390    9.37870    3.20870
 9899.50000  131.00000  169.08000   26.51020   -9999.25   34.47360  179.62230  -38.78900   45.24650   30.43650   -9999.25    2.56060    0.22690    0.09540    0.00340    9.36980    3.12150
 9900.00000  125.69930  167.68000   23.56190   -9999.25   38.93190  161.10760  -38.87070   51.72660   38.14450   -9999.25    2.53750    0.23710    0.10480    0.00300    9.36090    3.08100
 9900.50000  119.88030  155.19400   20.61360   -9999.25   46.38600  114.20900  -38.95240   65.07900   50.74140   -9999.25    2.52870    0.20760    0.08940    0.00250    9.35950    3.05730
 9901.00000  114.06130  141.61350   17.66530   -9999.25   55.59990   89.94860  -39.03400  101.64050   67.49830   -9999.25    2.57310    0.15580    0.06920    0.00210    9.36930    3.18890
 9901.50000  108.24240  137.16000   14.71690   -9999.25   66.65880   66.01820  -39.11570  162.95120   89.78890   -9999.25    2.62390    0.09140    0.04180    0.00160    9.37200    3.55100
 9902.00000  102.42340  137.08770   11.76860   -9999.25   79.92780   49.60120  -39.19740  261.15610  119.44090   -9999.25    2.64720    0.04400    0.02950    0.00110    9.37080    4.08890
 9902.50000   96.84000  137.00390    9.50140   -9999.25   92.97770   44.82800  -39.27910  353.88540  150.23860   -9999.25    2.66130    0.01320    0.02100    0.00060    9.37570    4.73770
 9903.00000   95.53160  136.92000    9.27790   -9999.25  109.35400   43.23280  -39.36080  378.07950  149.24360   -9999.25    2.67030    0.01100    0.01940    0.00010    9.37920    5.03210
 9903.50000   94.27420  136.83620    9.05430   -9999.25  112.85820   45.47450  -39.44260  261.09480  134.07680   -9999.25    2.67790    0.01570    0.01770   -0.00020    9.38260    4.99010
 9904.00000   93.86680  136.75240    8.83080   -9999.25  104.98280   48.19420  -39.52440  184.39090  114.48300   -9999.25    2.68530    0.02210    0.00810    0.00050    9.38610    4.67470
 9904.50000   93.65400  136.66860    8.59750   -9999.25   99.17920   50.89080  -39.60580  137.25620   97.75260   -9999.25    2.70030    0.03410    0.00210    0.00130    9.38960    4.21650
 9905.00000   92.37120  136.60000    9.54910   -9999.25   88.10720   53.58520  -39.68770  105.10780   83.99950   -9999.25    2.70990    0.04160   -0.00260    0.00200    9.39300    3.74060
 9905.50000   86.28510  134.06770   10.89480   -9999.25   78.68210   56.29600  -39.65680   85.16250   69.84190   -9999.25    2.71380    0.04350   -0.00340    0.00320    9.39650    3.44940
 9906.00000   80.19900  130.74050   12.23910   -9999.25   70.48950   56.77020  -39.50600   80.44870   65.47270   -9999.25    2.71780    0.04550   -0.00530    0.00520    9.40000    3.36970
 9906.50000   74.74800  121.95700   13.58150   -9999.25   66.73140   56.35180  -39.35590   77.30440   63.09980   -9999.25    2.72230    0.04750   -0.00890    0.00730    9.40340    3.34480
 9907.00000   73.01900  111.45150   14.92290   -9999.25   62.47000   55.24400  -39.20550   76.27580   61.37680   -9999.25    2.72730    0.04940   -0.01240    0.00930    9.40690    3.33390
 9907.50000   72.20000  108.60000   16.26420   -9999.25   58.45130   54.15420  -39.05510   75.28280   58.58190   -9999.25    2.73500    0.05170   -0.01590    0.01110    9.41040    3.33290
 9908.00000   72.83220  109.50110   17.60560   -9999.25   54.70290   53.68280  -38.90480   73.81830   54.94240   -9999.25    2.73620    0.05570   -0.01600    0.01290    9.41380    3.32420
