~Version ---------------------------------------------------
VERS.   2.0 : CWLS log ASCII Standard -VERSION 2.0
WRAP.    NO : One line per depth step
DLM . SPACE : Column Data Section Delimiter
~Well ------------------------------------------------------
STRT .F                 3953.0 : START DEPTH
STOP .F                11845.0 : STOP DEPTH
STEP .F                    0.5 : STEP
NULL .                -9999.25 : NULL VALUE
COMP .                         : COMPANY
WELL .                         : WELL
FLD  .                         : FIELD
LOC  .                         : LOCATION
PROV .                         : PROVINCE
CNTY .                         : COUNTY
STAT .                         : STATE
CTRY .                         : COUNTRY
SRVC .                         : SERVICE COMPANY
DATE .                         : DATE
UWI  .                         : UNIQUE WELL ID
API  .                         : API NUMBER
SLAT .WGS84  5.502796021876399 : SURFACE LATITUDE
SLON .WGS84 3.8792671488075143 : SURFACE LONGITUDE
DATUM.F                1831.73 : DEPTH DATUM ELEV
~Curve Information -----------------------------------------
DEPT   .F     : 
DTCO   .US/F  : DELTA-T COMPRESSIONAL
DTSM   .US/F  : DELTA-T SHEAR
CIDP   .MMHO  : INCUCTION DEEP PHASOR CONDUCTIVITY
SFLA   .B     : SPHERICALLY FOCUSED LOG RESISTIVITY AVERAGED OVER 2.5 FT
IDPH   .OHMM  : INDUCTION DEEP PHASOR RESISTIVITY
GRR    .GAPI  : GAMMA RAY FROM RESISTIVITY LOG
SPR    .MV    : SPONTANEOUS POTENTIAL FROM RESISTIVITY LOG
SFLU   .OHMM  : SHALLOW FOCUSED RESISTIVITY (UNAVERAGED)
IMPH   .OHMM  : INDUCTION MEDIUM PHASOR RESISTIVITY
DTST   .US/F  : DELTA-T STONELEY - MONOPOLE STONELEY
RHOB   .G/C3  : BULK DENSITY
NPHI_LS.DEC   : NEUTRON POROSITY LIMESTONE
DPHI_LS.DEC   : DENSITY POROSITY LIMESTONE
DRHO   .G/C3  : BULK DENSITY CORRECTION
CALD   .IN    : CALIPER FROM DENSITY LOG
PEF    .B/E   : PHOTOELECTRIC FACTOR
~Params ----------------------------------------------------
~Other -----------------------------------------------------
~ASCII -----------------------------------------------------
# ...
 9349.50000   -9999.25   -9999.25   17.00100   -9999.25   60.25430   64.01290  -35.99190  109.97470   70.52360   -9999.25    2.65690    0.03630    0.02350    0.01090    9.60350    4.43000
 9350.00000   -9999.25   -9999.25   17.40440   -9999.25   60.81290   69.60530  -35.73220   97.54070   63.99060   -9999.25    2.60080    0.06650    0.04290    0.00970    9.61280    4.35760
 9350.50000   -9999.25   -9999.25   18.61670   -9999.25   54.81580   76.66980  -35.47250   92.54660   57.27720   -9999.25    2.53960    0.09660    0.06500    0.00760    9.62220    4.31440
 9351.00000   -9999.25   -9999.25   20.63380   -9999.25   47.07320   88.13570  -35.21290   73.30920   49.69250   -9999.25    2.56010    0.12170    0.08750    0.00530    9.63150    4.39260
 9351.50000   -9999.25   -9999.25   22.63580   -9999.25   42.48700   99.40670  -34.95320   56.87720   43.15110   -9999.25    2.60190    0.13850    0.08810    0.00430    9.64080    4.45330
 9352.00000   -9999.25   -9999.25   22.94850   -9999.25   40.33100   99.79710  -34.69410   45.26260   36.94560   -9999.25    2.65410    0.13080    0.05380    0.00450    9.65020    4.46570
 9352.50000   -9999.25   -9999.25   23.25880   -9999.25   39.77660   94.22330  -34.43370   33.04990   35.27950   -9999.25    2.70020    0.10800    0.02130    0.00470    9.65950    4.20930
 9353.00000   -9999.25   -9999.25   23.56910   -9999.25   39.78630   86.37240  -34.16500   38.78560   34.31620   -9999.25    2.71360    0.08790    0.00450    0.00570    9.66730    3.80800
 9353.50000   -9999.25   -9999.25   23.87940   -9999.25   39.78360   78.53290  -33.95320   48.72370   37.06380   -9999.25    2.71210    0.06170   -0.00220    0.00660    9.67160    3.70440
 9354.00000   -9999.25   -9999.25   24.18980   -9999.25   38.89330   70.35810  -33.66450   61.18920   41.37500   -9999.25    2.70770    0.04600    0.00210    0.00710    9.67580    3.68630
 9354.50000   -9999.25   -9999.25   24.50010   -9999.25   38.21350   67.64510  -33.37880   73.46410   45.89350   -9999.25    2.70330    0.04970    0.00760    0.00930    9.68010    3.76460
 9355.00000   -9999.25   -9999.25   25.95280   -9999.25   37.43830   66.01550  -33.09410   67.87960   46.53330   -9999.25    2.69890    0.05910    0.01160    0.01160    9.68440    3.69850
 9355.50000   -9999.25   -9999.25   28.44450   -9999.25   35.43730   69.13070  -32.88590   57.59620   39.30900   -9999.25    2.69480    0.07190    0.00860    0.02060    9.68610    3.58430
 9356.00000   -9999.25   -9999.25   30.93620   -9999.25   32.64930   74.79040  -32.76280   46.79130   34.52460   -9999.25    2.69110    0.09140    0.00530    0.03230    9.71730    3.54240
 9356.50000   -9999.25   -9999.25   33.42790   -9999.25   30.08200   81.88740  -32.61940   37.11650   30.32860   -9999.25    2.68690    0.10970    0.00920    0.04130    9.75790    3.50280
 9357.00000   -9999.25   -9999.25   35.91960   -9999.25   27.71620   89.03140  -32.47460   29.46910   24.41540   -9999.25    2.68130    0.13520    0.01360    0.04810    9.80540    3.48450
 9357.50000   -9999.25   -9999.25   38.41140   -9999.25   25.32340   96.56250  -32.32940   23.39730   22.25410   -9999.25    2.68250    0.15320    0.01660    0.05190    9.85770    3.43430
 9358.00000   -9999.25   -9999.25   40.90310   -9999.25   24.16890   99.60390  -32.19340   20.84810   20.28960   -9999.25    2.68680    0.16400    0.01320    0.05040    9.91010    3.38100
 9358.50000   -9999.25   -9999.25   43.38910   -9999.25   22.68220   99.01370  -32.29010   21.47580   19.56080   -9999.25    2.68590    0.16290    0.01130    0.04300    9.96240    3.33650
 9359.00000   -9999.25   -9999.25   45.76610   -9999.25   21.33470   92.01390  -33.07660   22.78850   19.33910   -9999.25    2.67150    0.15640    0.01680    0.03120    9.99410    3.41830
 9359.50000   -9999.25   -9999.25   44.71440   -9999.25   21.04140   84.02960  -33.83650   24.61560   19.93450   -9999.25    2.65590    0.14800    0.02700    0.01950    9.99410    3.52910
 9360.00000   -9999.25   -9999.25   43.71130   -9999.25   21.26910   77.51380  -34.59530   24.18300   20.70520   -9999.25    2.64040    0.14450    0.03630    0.00930    9.99590    3.55430
 9360.50000   -9999.25   -9999.25   42.70370   -9999.25   21.52020   74.86630  -35.35520   23.77540   21.51590   -9999.25    2.64130    0.14090    0.04070    0.00830    9.99980    3.56810
 9361.00000   -9999.25   -9999.25   41.69520   -9999.25   22.02310   74.86460  -36.11430   23.37460   22.44560   -9999.25    2.64460    0.13790    0.03770    0.00730   10.00380    3.47380
 9361.50000   -9999.25   -9999.25   40.68660   -9999.25   22.83930   73.51900  -36.88940   22.98060   22.86370   -9999.25    2.64800    0.13510    0.03370    0.00630   10.00770    3.37140
 9362.00000   -9999.25   -9999.25   39.67810   -9999.25   23.66260   71.63600  -37.71520   22.86370   23.50550   -9999.25    2.65130    0.13230    0.03260    0.00530   10.01170    3.31440
 9362.50000   -9999.25   -9999.25   38.73240   -9999.25   24.61560   70.03690  -37.12730   22.86370   23.45370   -9999.25    2.65480    0.12530    0.03250    0.00430   10.01560    3.31160
 9363.00000   -9999.25   -9999.25   39.44670   -9999.25   24.84380   72.26360  -36.39330   23.45140   23.40670   -9999.25    2.65970    0.11360    0.03110    0.00580   10.01960    3.30870
 9363.50000   -9999.25   -9999.25   40.11900   -9999.25   24.38950   75.84280  -35.67400   24.22120   23.35980   -9999.25    2.66540    0.10070    0.02800    0.00640   10.02350    3.26380
 9364.00000   -9999.25   -9999.25   40.74450   -9999.25   23.94340   80.57890  -34.97220   24.95870   23.31300   -9999.25    2.66330    0.10620    0.02550    0.00640   10.02610    3.20910
 9364.50000   -9999.25   -9999.25   42.36290   -9999.25   23.08390   86.70100  -34.49220   25.07420   22.84990   -9999.25    2.65410    0.11490    0.02970    0.00680   10.02470    3.17420
 9365.00000   -9999.25   -9999.25   43.87580   -9999.25   22.19990   92.07930  -34.50370   22.93770   21.99530   -9999.25    2.63900    0.13220    0.03740    0.00820   10.02720    3.10530
 9365.50000   -9999.25   -9999.25   45.38860   -9999.25   21.33470   96.10350  -34.49740   21.20710   21.17260   -9999.25    2.61950    0.14420    0.04510    0.00970   10.03200    3.22590
 9366.00000   -9999.25   -9999.25   46.90140   -9999.25   20.65660   96.69000  -34.49610   19.60710   20.38080   -9999.25    2.61960    0.14310    0.05240    0.01010   10.03670    3.30990
 9366.50000   -9999.25   -9999.25   48.41420   -9999.25   20.07510   90.90100  -34.50020   17.98610   19.54380   -9999.25    2.62480    0.14280    0.05440    0.01020   10.04150    3.39250
 9367.00000   -9999.25   -9999.25   49.79880   -9999.25   19.56080   85.32650  -34.60590   18.06930   19.01020   -9999.25    2.63040    0.14760    0.04980    0.01000   10.03700    3.39710
 9367.50000   -9999.25   -9999.25   49.79880   -9999.25   19.01020   85.28200  -35.02040   18.23690   18.83550   -9999.25    2.63650    0.16110    0.04380    0.00920   10.02430    3.37120
 9368.00000   -9999.25   -9999.25   49.79170   -9999.25   19.01020   91.58550  -35.42030   19.03520   18.83550   -9999.25    2.64260    0.17140    0.03900    0.00840   10.01170    3.35720
 9368.50000   -9999.25   -9999.25   49.05770   -9999.25   19.36430   97.35430  -35.81800   20.33230   19.17280   -9999.25    2.63930    0.17550    0.04010    0.00760    9.99910    3.38240
 9369.00000   -9999.25   -9999.25   47.82000   -9999.25   19.72500  103.08690  -36.23390   21.71780   19.72500   -9999.25    2.63240    0.17690    0.04380    0.00670    9.98640    3.43880
 9369.50000   -9999.25   -9999.25   46.58220   -9999.25   20.09250  108.36550  -37.01420   22.65370   20.29320   -9999.25    2.62560    0.17830    0.04710    0.00770    9.97380    3.49520
 9370.00000   -9999.25   -9999.25   45.34130   -9999.25   20.73610  110.99690  -38.93020   21.83260   20.94450   -9999.25    2.60850    0.17580    0.05040    0.01020    9.95950    3.43640
 9370.50000   -9999.25   -9999.25   44.10000   -9999.25   21.32660  112.22640  -40.79280   21.83260   21.90280   -9999.25    2.58940    0.15870    0.06050    0.01230    9.94320    3.31280
