~Version ---------------------------------------------------
VERS.   2.0 : CWLS log ASCII Standard -VERSION 2.0
WRAP.    NO : One line per depth step
DLM . SPACE : Column Data Section Delimiter
~Well ------------------------------------------------------
STRT .F                 3953.0 : START DEPTH
STOP .F                11845.0 : STOP DEPTH
STEP .F                    0.5 : STEP
NULL .                -9999.25 : NULL VALUE
COMP .                         : COMPANY
WELL .                         : WELL
FLD  .                         : FIELD
LOC  .                         : LOCATION
PROV .                         : PROVINCE
CNTY .                         : COUNTY
STAT .                         : STATE
CTRY .                         : COUNTRY
SRVC .                         : SERVICE COMPANY
DATE .                         : DATE
UWI  .                         : UNIQUE WELL ID
API  .                         : API NUMBER
SLAT .WGS84  5.502796021876399 : SURFACE LATITUDE
SLON .WGS84 3.8792671488075143 : SURFACE LONGITUDE
DATUM.F                1831.73 : DEPTH DATUM ELEV
~Curve Information -----------------------------------------
DEPT   .F     : 
DTCO   .US/F  : DELTA-T COMPRESSIONAL
DTSM   .US/F  : DELTA-T SHEAR
CIDP   .MMHO  : INCUCTION DEEP PHASOR CONDUCTIVITY
SFLA   .B     : SPHERICALLY FOCUSED LOG RESISTIVITY AVERAGED OVER 2.5 FT
IDPH   .OHMM  : INDUCTION DEEP PHASOR RESISTIVITY
GRR    .GAPI  : GAMMA RAY FROM RESISTIVITY LOG
SPR    .MV    : SPONTANEOUS POTENTIAL FROM RESISTIVITY LOG
SFLU   .OHMM  : SHALLOW FOCUSED RESISTIVITY (UNAVERAGED)
IMPH   .OHMM  : INDUCTION MEDIUM PHASOR RESISTIVITY
DTST   .US/F  : DELTA-T STONELEY - MONOPOLE STONELEY
RHOB   .G/C3  : BULK DENSITY
NPHI_LS.DEC   : NEUTRON POROSITY LIMESTONE
DPHI_LS.DEC   : DENSITY POROSITY LIMESTONE
DRHO   .G/C3  : BULK DENSITY CORRECTION
CALD   .IN    : CALIPER FROM DENSITY LOG
PEF    .B/E   : PHOTOELECTRIC FACTOR
~Params ----------------------------------------------------
~Other -----------------------------------------------------
~ASCII -----------------------------------------------------
# ...
 11822.00000   -9999.25  113.08000   33.70220   -9999.25   28.42470   -9999.25    6.46590   42.96690   27.25340   -9999.25   -9999.25   -9999.25   -9999.25    0.07760    7.36860    3.23660
 11822.50000   -9999.25  113.08000   32.31730   -9999.25   29.34290   -9999.25    6.46590   47.09490   29.47360   -9999.25   -9999.25   -9999.25   -9999.25    0.08140    7.36130    3.25220
 11823.00000   -9999.25  112.65930   30.87930   -9999.25   30.57950   -9999.25    6.46590   51.61950   31.87500   -9999.25   -9999.25   -9999.25   -9999.25    0.08510    7.36320    3.25220
 11823.50000   -9999.25  112.91150   29.44280   -9999.25   31.86830   -9999.25    6.46590   56.57870   34.45990   -9999.25   -9999.25   -9999.25   -9999.25    0.08380    7.37310    3.25220
 11824.00000   -9999.25  113.14660   28.00400   -9999.25   33.21130   -9999.25    6.46590   63.73870   36.27000   -9999.25   -9999.25   -9999.25   -9999.25    0.08170    7.36170    3.24720
 11824.50000   -9999.25  113.38820   26.56540   -9999.25   34.63430   -9999.25    6.46630   61.34840   36.60620   -9999.25   -9999.25   -9999.25   -9999.25    0.07870    7.34010    3.24080
 11825.00000   -9999.25  113.63230   25.86950   -9999.25   34.30040   -9999.25    6.46720   56.83340   35.80440   -9999.25   -9999.25   -9999.25   -9999.25    0.07490    7.32270    3.23460
 11825.50000   -9999.25  113.87490   26.46240   -9999.25   33.75410   -9999.25    6.46370   53.44210   35.02470   -9999.25   -9999.25   -9999.25   -9999.25    0.07130    7.33310    3.22830
 11826.00000   -9999.25  114.11800   27.05520   -9999.25   33.21660   -9999.25    6.35420   53.44210   34.26200   -9999.25   -9999.25   -9999.25   -9999.25    0.07020    7.34350    3.22050
 11826.50000   -9999.25  114.20000   27.64800   -9999.25   32.68760   -9999.25    5.91700   52.46480   33.51590   -9999.25   -9999.25   -9999.25   -9999.25    0.07810    7.33630    3.20330
 11827.00000   -9999.25  114.20000   28.24090   -9999.25   32.46770   -9999.25    5.49270   50.38070   32.76870   -9999.25   -9999.25   -9999.25   -9999.25    0.07960    7.31580    3.18830
 11827.50000   -9999.25  114.20000   28.47600   -9999.25   33.24160   -9999.25    5.06870   48.28310   32.46770   -9999.25   -9999.25   -9999.25   -9999.25    0.08170    7.29910    3.17730
 11828.00000   -9999.25  114.20000   27.75750   -9999.25   34.05380   -9999.25    4.64500   47.40010   32.46770   -9999.25   -9999.25   -9999.25   -9999.25    0.08390    7.29090    3.18550
 11828.50000   -9999.25  114.20000   27.03890   -9999.25   34.88590   -9999.25    4.22090   48.01430   34.08210   -9999.25   -9999.25   -9999.25   -9999.25    0.08610    7.28270    3.20650
 11829.00000   -9999.25  114.20000   26.32030   -9999.25   35.60660   -9999.25    3.78010   49.63860   36.55360   -9999.25   -9999.25   -9999.25   -9999.25    0.08820    7.27120    3.21490
 11829.50000   -9999.25  114.20000   25.60170   -9999.25   35.60660   -9999.25    3.65750   57.53710   39.20440   -9999.25   -9999.25   -9999.25   -9999.25    0.09020    7.26210    3.21740
 11830.00000   -9999.25  114.20000   24.88310   -9999.25   35.06730   -9999.25    3.65320   73.14020   42.04730   -9999.25   -9999.25   -9999.25   -9999.25    0.09210    7.26890    3.36780
 11830.50000   -9999.25  114.20000   25.02770   -9999.25   34.45410   -9999.25    3.65410   73.14020   43.22150   -9999.25   -9999.25   -9999.25   -9999.25    0.09300    7.27020    3.57830
 11831.00000   -9999.25  114.20000   25.59230   -9999.25   33.85160   -9999.25    3.65460   70.44900   40.92630   -9999.25   -9999.25   -9999.25   -9999.25    0.09060    7.27140    3.80150
 11831.50000   -9999.25  114.20000   26.15690   -9999.25   32.95580   -9999.25    3.65460   60.08910   38.02390   -9999.25   -9999.25   -9999.25   -9999.25    0.08790    7.27260    4.14380
 11832.00000   -9999.25  114.09180   26.82160   -9999.25   31.60410   -9999.25    3.65460   48.76130   35.38360   -9999.25   -9999.25   -9999.25   -9999.25    0.08700    7.27380    4.27670
 11832.50000   -9999.25  113.93440   28.30370   -9999.25   30.30790   -9999.25    3.65460   43.99740   32.93400   -9999.25   -9999.25   -9999.25   -9999.25    0.08650    7.27500    4.30650
 11833.00000   -9999.25  113.77700   29.78590   -9999.25   29.06490   -9999.25    3.65460   46.96470   30.44770   -9999.25   -9999.25   -9999.25   -9999.25    0.08610    7.27620    4.31250
 11833.50000   -9999.25  113.61950   31.26800   -9999.25   27.87280   -9999.25    3.65460   51.92930   29.48620   -9999.25   -9999.25   -9999.25   -9999.25    0.08590    7.27740    4.31370
 11834.00000   -9999.25  113.46210   32.75010   -9999.25   27.24570   -9999.25    3.65460   55.45180   28.54820   -9999.25   -9999.25   -9999.25   -9999.25    0.08600    7.27860    4.31370
 11834.50000   -9999.25  113.30460   34.23220   -9999.25   27.24570   -9999.25    3.65460   48.00960   28.25020   -9999.25   -9999.25   -9999.25   -9999.25    0.08610    7.27990    4.31370
 11835.00000   -9999.25  113.14720   35.71430   -9999.25   27.24570   -9999.25    3.65460   42.94880   28.27900   -9999.25   -9999.25   -9999.25   -9999.25    0.08620    7.27720    4.31370
 11835.50000   -9999.25  113.08000   35.05560   -9999.25   28.36700   -9999.25    3.65460   40.14540   28.68350   -9999.25   -9999.25   -9999.25   -9999.25    0.08620    7.27360    4.31370
 11836.00000   -9999.25  113.12920   34.39690   -9999.25   29.69840   -9999.25    3.65460   43.89680   30.19610   -9999.25   -9999.25   -9999.25   -9999.25    0.08620    7.28120    4.31370
 11836.50000   -9999.25  113.18020   33.71350   -9999.25   31.09230   -9999.25    3.65460   48.73080   33.07250   -9999.25   -9999.25   -9999.25   -9999.25    0.08620    7.28050    4.31370
 11837.00000   -9999.25  113.23120   29.98900   -9999.25   32.55170   -9999.25    3.65460   67.87460   42.05980   -9999.25   -9999.25   -9999.25   -9999.25    0.08620    7.27890    4.31370
 11837.50000   -9999.25  113.28220   27.45400   -9999.25   34.07950   -9999.25    3.65460   91.27430   52.73980   -9999.25   -9999.25   -9999.25   -9999.25    0.08620    7.27630    4.31370
 11838.00000   -9999.25  113.33320   26.87660   -9999.25   35.27950   -9999.25    3.65460  114.58720   65.47270   -9999.25   -9999.25   -9999.25   -9999.25    0.08650    7.27400    4.31370
 11838.50000   -9999.25  113.38430   26.30070   -9999.25   36.08440   -9999.25    3.65460  113.28080   67.93480   -9999.25   -9999.25   -9999.25   -9999.25    0.08660    7.27170    4.31370
 11839.00000   -9999.25  113.43530   25.73600   -9999.25   37.06290   -9999.25    3.65430   90.32910   63.09980   -9999.25   -9999.25   -9999.25   -9999.25    0.08660    7.26940    4.31370
 11839.50000   -9999.25  113.48630   25.17140   -9999.25   38.00560   -9999.25    3.65440   69.22970   52.57230   -9999.25   -9999.25   -9999.25   -9999.25    0.08660    7.26920    4.31370
 11840.00000   -9999.25  113.53730   24.60680   -9999.25   38.88730   -9999.25    3.65570   53.05880   43.63480   -9999.25   -9999.25   -9999.25   -9999.25    0.08670    7.27050    4.30760
 11840.50000   -9999.25  113.58840   24.04220   -9999.25   39.04910   -9999.25    3.76000   44.21570   36.21660   -9999.25   -9999.25   -9999.25   -9999.25    0.08670    7.27190    4.29770
 11841.00000   -9999.25  113.64000   23.71850   -9999.25   38.40150   -9999.25    4.04860   38.69040   31.87390   -9999.25   -9999.25   -9999.25   -9999.25    0.08670    7.27320    4.30030
 11841.50000   -9999.25  113.64000   23.98200   -9999.25   37.98280   -9999.25    4.33510   37.28820   29.87990   -9999.25   -9999.25   -9999.25   -9999.25   -9999.25   -9999.25   -9999.25
 11842.00000   -9999.25  113.64000   24.24440   -9999.25   37.63390   -9999.25    4.61860   37.28820   28.79700   -9999.25   -9999.25   -9999.25   -9999.25   -9999.25   -9999.25   -9999.25
 11842.50000   -9999.25  113.08000   24.50880   -9999.25   -9999.25   -9999.25   -9999.25   37.25060   28.46990   -9999.25   -9999.25   -9999.25   -9999.25   -9999.25   -9999.25   -9999.25
 11843.00000   -9999.25  113.08000   24.77250   -9999.25   -9999.25   -9999.25   -9999.25   37.18740   -9999.25   -9999.25   -9999.25   -9999.25   -9999.25   -9999.25   -9999.25   -9999.25
