~Version ---------------------------------------------------
VERS.   2.0 : CWLS log ASCII Standard -VERSION 2.0
WRAP.    NO : One line per depth step
DLM . SPACE : Column Data Section Delimiter
~Well ------------------------------------------------------
STRT .F                 3953.0 : START DEPTH
STOP .F                11845.0 : STOP DEPTH
STEP .F                    0.5 : STEP
NULL .                -9999.25 : NULL VALUE
COMP .                         : COMPANY
WELL .                         : WELL
FLD  .                         : FIELD
LOC  .                         : LOCATION
PROV .                         : PROVINCE
CNTY .                         : COUNTY
STAT .                         : STATE
CTRY .                         : COUNTRY
SRVC .                         : SERVICE COMPANY
DATE .                         : DATE
UWI  .                         : UNIQUE WELL ID
API  .                         : API NUMBER
SLAT .WGS84  5.502796021876399 : SURFACE LATITUDE
SLON .WGS84 3.8792671488075143 : SURFACE LONGITUDE
DATUM.F                1831.73 : DEPTH DATUM ELEV
~Curve Information -----------------------------------------
DEPT   .F     : 
DTCO   .US/F  : DELTA-T COMPRESSIONAL
DTSM   .US/F  : DELTA-T SHEAR
CIDP   .MMHO  : INCUCTION DEEP PHASOR CONDUCTIVITY
SFLA   .B     : SPHERICALLY FOCUSED LOG RESISTIVITY AVERAGED OVER 2.5 FT
IDPH   .OHMM  : INDUCTION DEEP PHASOR RESISTIVITY
GRR    .GAPI  : GAMMA RAY FROM RESISTIVITY LOG
SPR    .MV    : SPONTANEOUS POTENTIAL FROM RESISTIVITY LOG
SFLU   .OHMM  : SHALLOW FOCUSED RESISTIVITY (UNAVERAGED)
IMPH   .OHMM  : INDUCTION MEDIUM PHASOR RESISTIVITY
DTST   .US/F  : DELTA-T STONELEY - MONOPOLE STONELEY
RHOB   .G/C3  : BULK DENSITY
NPHI_LS.DEC   : NEUTRON POROSITY LIMESTONE
DPHI_LS.DEC   : DENSITY POROSITY LIMESTONE
DRHO   .G/C3  : BULK DENSITY CORRECTION
CALD   .IN    : CALIPER FROM DENSITY LOG
PEF    .B/E   : PHOTOELECTRIC FACTOR
~Params ----------------------------------------------------
~Other -----------------------------------------------------
~ASCII -----------------------------------------------------
# ...
 11284.50000   59.88000  116.44000   21.62980   -9999.25   43.22150  119.28190  -11.59760   58.06460   44.86400  207.69000    2.67370    0.09830    0.02410    0.00010    8.46680    3.73330
 11285.00000   59.88030  116.44000   21.62980   -9999.25   42.60760  121.41100  -11.23360   61.06980   45.27050  207.02760    2.67020    0.08780    0.02360    0.00050    8.46620    3.74750
 11285.50000   59.88030  116.44000   22.23340   -9999.25   41.63960  120.47260  -10.87040   66.19550   44.70240  206.25000    2.66880    0.07920    0.02300    0.00080    8.46830    3.74310
 11286.00000   59.88060  116.44000   23.04280   -9999.25   40.69370  119.54490  -10.50680   70.51420   43.37650  206.60680    2.66730    0.08660    0.02440    0.00120    8.47190    3.67580
 11286.50000   59.34560  114.14600   23.53730   -9999.25   40.13870  120.36750  -10.14310   69.20030   42.09080  206.97000    2.66640    0.09620    0.02550    0.00270    8.47560    3.60860
 11287.00000   58.74540  112.04780   23.08790   -9999.25   40.42460  122.87280   -9.77950   64.55470   40.84480  206.19810    2.66770    0.10590    0.02340    0.00440    8.47920    3.54760
 11287.50000   58.14520  109.94960   22.63760   -9999.25   40.88630  128.01340   -9.41580   60.25430   39.63560  205.11000    2.66990    0.11550    0.02010    0.00620    8.48280    3.50250
 11288.00000   57.54500  107.85140   22.18870   -9999.25   41.26370  133.20530   -9.05220   57.53710   38.33500  205.38710    2.67460    0.11270    0.01690    0.00650    8.48640    3.45820
 11288.50000   57.22800  105.80000   21.74160   -9999.25   41.37910  134.10470   -8.68880   60.25430   37.63390  205.70790    2.67820    0.09570    0.01850    0.00570    8.49010    3.46420
 11289.00000   57.88530  104.67100   21.29440   -9999.25   41.65500  127.85930   -8.32270   70.61820   41.03650  205.70850    2.67610    0.08280    0.02090    0.00490    8.49370    3.47940
 11289.50000   58.54270  103.56000   20.84730   -9999.25   42.72340  121.75820   -7.96010   85.56430   44.12510  205.71000    2.67400    0.07110    0.02120    0.00290    8.49730    3.48320
 11290.00000   59.20000  103.56000   20.40020   -9999.25   44.12020  116.53600   -7.64010   86.35760   47.44620  205.71000    2.67190    0.06840    0.02150    0.00230    8.50090    3.48440
 11290.50000   59.85730  103.56000   19.95310   -9999.25   44.84680  116.75980   -6.83310   83.17660   50.56330  205.71000    2.66970    0.06740    0.02320    0.00220    8.50720    3.55090
 11291.00000   60.51480  104.77160   20.02010   -9999.25   44.84680  118.72680   -6.24700   77.32890   49.48830  206.56680    2.66760    0.06710    0.02490    0.00210    8.50600    3.62630
 11291.50000   61.17300  106.02660   21.62980   -9999.25   43.59760  121.32170   -5.63670   69.61760   47.83960  207.39000    2.66550    0.06710    0.02660    0.00280    8.51830    3.63520
 11292.00000   61.83240  108.02950   23.23940   -9999.25   41.12780  121.23280   -5.03900   62.67530   45.34990  207.15420    2.66320    0.06880    0.02840    0.00510    8.52550    3.64420
 11292.50000   62.48670  110.30310   24.84910   -9999.25   38.81670  121.32320   -4.28840   54.76520   41.27210  206.67000    2.66160    0.08080    0.02920    0.00620    8.52860    3.65320
 11293.00000   62.76600  112.57670   26.45870   -9999.25   36.62900  122.31850   -4.00380   45.39440   37.56850  206.82870    2.66000    0.09630    0.02920    0.00720    8.53160    3.71310
 11293.50000   62.88780  114.20000   28.06840   -9999.25   34.57070  125.29640   -3.68820   37.28820   34.03200  207.15730    2.66150    0.10640    0.02670    0.00810    8.53240    3.77860
 11294.00000   63.00960  113.91520   29.67810   -9999.25   32.64040  127.88310   -3.36680   36.94560   33.12540  207.55110    2.66700    0.11090    0.02240    0.00890    8.53260    3.77810
 11294.50000   63.13140  113.65230   31.28770   -9999.25   30.71870  128.68430   -3.04650   38.35560   31.87390  208.36450    2.67240    0.11140    0.02060    0.00970    8.53620    3.76320
 11295.00000   63.25320  113.38930   31.80620   -9999.25   30.17780  129.47120   -2.67780   40.32760   31.00350  208.58280    2.67100    0.11180    0.02180    0.01050    8.54770    3.72620
 11295.50000   63.37500  113.12640   31.96100   -9999.25   29.83300  130.21700   -2.01180   42.04120   30.43650  208.30670    2.66820    0.11470    0.02460    0.00990    8.55920    3.76110
 11296.00000   63.49680  113.24480   32.11580   -9999.25   29.49220  129.81310   -1.34350   42.43100   30.07140  208.03060    2.66520    0.11890    0.02730    0.00840    8.57180    3.80520
 11296.50000   63.61860  113.63920   32.27050   -9999.25   29.06390  128.43310   -0.67660   40.00480   29.93500  207.81000    2.66190    0.12310    0.02920    0.00700    8.58660    3.85000
 11297.00000   63.74040  114.03360   32.42530   -9999.25   28.88750  127.03330   -0.01440   37.55500   29.79810  207.85250    2.65900    0.12620    0.03000    0.00600    8.60270    3.88740
 11297.50000   63.86220  114.42800   32.58010   -9999.25   28.69840  128.75860    0.45400   34.63430   29.65870  208.40190    2.65520    0.12700    0.03180    0.00490    8.61960    3.92090
 11298.00000   63.98400  114.76000   32.69620   -9999.25   28.51060  134.29550    0.67900   35.34170   29.51920  208.52380    2.64570    0.12790    0.03640    0.00230    8.62410    3.95430
 11298.50000   64.10580  114.49220   33.19730   -9999.25   28.32400  137.25850    0.93850   36.09940   29.38040  205.59870    2.63620    0.12830    0.04100    0.00000    8.61030    3.98780
 11299.00000   64.22760  114.00500   33.86550   -9999.25   28.13870  139.22400    1.19820   36.94560   29.24220  205.88340    2.63170    0.12600    0.04530   -0.00230    8.59650    4.02130
 11299.50000   64.36000  113.51780   34.53360   -9999.25   27.95590  136.68240    1.45710   36.94560   29.10470  206.41330    2.63500    0.12370    0.04530   -0.00370    8.59360    4.03760
 11300.00000   64.00060  113.08000   35.20180   -9999.25   27.43730  133.02210    1.71610   35.97200   28.70210  207.29210    2.63940    0.12310    0.04210   -0.00120    8.59380    3.98320
 11300.50000   63.60680  112.98060   35.86990   -9999.25   26.92840  129.65630    1.97510   34.74110   28.00160  208.51880    2.64390    0.12570    0.03870   -0.00070    8.59390    3.92890
 11301.00000   63.21300  112.63620   36.53810   -9999.25   26.42880  128.38630    2.23420   33.55230   27.31450  209.91000    2.64830    0.12920    0.03570    0.00050    8.58860    3.90540
 11301.50000   62.81930  113.43280   36.56440   -9999.25   25.93860  126.96800    2.49320   32.40410   26.60350  209.32240    2.65220    0.13080    0.03300    0.00010    8.58890    3.88590
 11302.00000   62.82540  114.81040   36.33990   -9999.25   25.30270  124.70220    2.75220   31.29440   25.76400  208.04320    2.65570    0.13160    0.03030   -0.00180    8.59330    3.87280
 11302.50000   63.05030  114.98400   36.11560   -9999.25   25.30340  122.99600    3.01120   30.22490   25.78830  207.55800    2.65920    0.13230    0.02960   -0.00370    8.59350    3.90530
 11303.00000   63.27520  114.20000   35.89210   -9999.25   25.34330  123.04040    3.27030   29.05470   25.77080  207.50430    2.65730    0.13310    0.03160   -0.00430    8.59350    3.93770
 11303.50000   63.50010  112.14880   35.80480   -9999.25   25.37970  123.03760    3.52940   29.77440   25.77590  207.45000    2.65010    0.13310    0.03810   -0.00430    8.59340    3.94340
 11304.00000   63.72500  109.78720   36.30280   -9999.25   25.41540  122.52300    3.78870   31.32860   26.21830  207.27630    2.64280    0.12660    0.04470   -0.00430    8.59340    3.90210
 11304.50000   63.94990  107.42560   36.80080   -9999.25   25.45080  121.31690    4.04680   32.96950   26.93740  207.05490    2.63560    0.11020    0.04580   -0.00420    8.59330    3.86090
 11305.00000   64.17500  105.92800   37.29880   -9999.25   25.48630  120.36740    4.30330   35.26770   27.75330  206.83350    2.63600    0.10720    0.04240   -0.00420    8.59330    3.81710
 11305.50000   64.40060  105.24000   37.79680   -9999.25   25.54130  120.42480    4.47940   33.78640   27.42160  206.74620    2.63920    0.10890    0.03860   -0.00420    8.59300    3.65110
