~Version ---------------------------------------------------
VERS.   2.0 : CWLS log ASCII Standard -VERSION 2.0
WRAP.    NO : One line per depth step
DLM . SPACE : Column Data Section Delimiter
~Well ------------------------------------------------------
STRT .F                 3953.0 : START DEPTH
STOP .F                11845.0 : STOP DEPTH
STEP .F                    0.5 : STEP
NULL .                -9999.25 : NULL VALUE
COMP .                         : COMPANY
WELL .                         : WELL
FLD  .                         : FIELD
LOC  .                         : LOCATION
PROV .                         : PROVINCE
CNTY .                         : COUNTY
STAT .                         : STATE
CTRY .                         : COUNTRY
SRVC .                         : SERVICE COMPANY
DATE .                         : DATE
UWI  .                         : UNIQUE WELL ID
API  .                         : API NUMBER
SLAT .WGS84  5.502796021876399 : SURFACE LATITUDE
SLON .WGS84 3.8792671488075143 : SURFACE LONGITUDE
DATUM.F                1831.73 : DEPTH DATUM ELEV
~Curve Information -----------------------------------------
DEPT   .F     : 
DTCO   .US/F  : DELTA-T COMPRESSIONAL
DTSM   .US/F  : DELTA-T SHEAR
CIDP   .MMHO  : INCUCTION DEEP PHASOR CONDUCTIVITY
SFLA   .B     : SPHERICALLY FOCUSED LOG RESISTIVITY AVERAGED OVER 2.5 FT
IDPH   .OHMM  : INDUCTION DEEP PHASOR RESISTIVITY
GRR    .GAPI  : GAMMA RAY FROM RESISTIVITY LOG
SPR    .MV    : SPONTANEOUS POTENTIAL FROM RESISTIVITY LOG
SFLU   .OHMM  : SHALLOW FOCUSED RESISTIVITY (UNAVERAGED)
IMPH   .OHMM  : INDUCTION MEDIUM PHASOR RESISTIVITY
DTST   .US/F  : DELTA-T STONELEY - MONOPOLE STONELEY
RHOB   .G/C3  : BULK DENSITY
NPHI_LS.DEC   : NEUTRON POROSITY LIMESTONE
DPHI_LS.DEC   : DENSITY POROSITY LIMESTONE
DRHO   .G/C3  : BULK DENSITY CORRECTION
CALD   .IN    : CALIPER FROM DENSITY LOG
PEF    .B/E   : PHOTOELECTRIC FACTOR
~Params ----------------------------------------------------
~Other -----------------------------------------------------
~ASCII -----------------------------------------------------
# ...
 10231.00000   57.92690  116.18280   33.86520   -9999.25   28.55280  138.07610  -28.12620   41.35710   32.44650   -9999.25    2.65830    0.06570    0.03040    0.02800    8.94590    3.22660
 10231.50000   55.74800  113.73560   33.46380   -9999.25   29.45750  133.83310  -28.33350   68.35400   37.71520   -9999.25    2.65850    0.04560    0.03000    0.02280    8.92270    3.18330
 10232.00000   53.21480  111.28840   33.06240   -9999.25   30.75160  131.70030  -28.53430   80.95510   40.56240   -9999.25    2.65790    0.05880    0.02990    0.01750    8.91290    3.15100
 10232.50000   50.68630  108.84330   32.69620   -9999.25   32.10450  135.23650  -28.73490   74.15980   40.33100   -9999.25    2.65710    0.08350    0.02980    0.01550    8.90670    3.06570
 10233.00000   48.16040  106.39560   31.24080   -9999.25   33.37910  140.31040  -28.93580   54.91710   36.29090   -9999.25    2.65640    0.10750    0.03010    0.01420    8.90730    3.15920
 10233.50000   45.88000  104.05330   29.90280   -9999.25   35.11710  145.27220  -29.13530   37.44340   31.58110   -9999.25    2.65560    0.12630    0.03250    0.01190    8.90790    3.25280
 10234.00000   47.09410  101.96980   28.56470   -9999.25   36.77550  147.55310  -29.33390   32.16940   30.71870   -9999.25    2.65270    0.11940    0.03520    0.00950    8.90840    3.34290
 10234.50000   48.12000  101.07240   27.22670   -9999.25   38.69040  145.06450  -29.55040   32.13360   32.54000   -9999.25    2.64930    0.09580    0.03750    0.00720    8.90900    3.34980
 10235.00000   50.63140  100.70840   25.88870   -9999.25   41.40860  138.13630  -30.02230   37.86230   34.66440   -9999.25    2.64470    0.06950    0.03820    0.00500    8.90960    3.32310
 10235.50000   52.97220  100.34440   24.55060   -9999.25   45.26260  131.47780  -30.43340   51.42620   42.98880   -9999.25    2.63620    0.05150    0.03880    0.00540    8.91010    3.13490
 10236.00000   54.28000   99.98040   23.21540   -9999.25   45.68220  126.13310  -30.82090   69.77410   52.20900   -9999.25    2.61350    0.03150    0.04670    0.00810    8.90050    3.02750
 10236.50000   54.28000   99.61640   21.89050   -9999.25   40.33100  122.26940  -30.89580  103.86300   63.47770   -9999.25    2.53420    0.02970    0.07290    0.01090    8.91510    3.02630
 10237.00000   53.51840   99.25240   20.64720   -9999.25   34.89500  121.88430  -30.88910   94.70670   69.20030   -9999.25    2.46880    0.03250    0.19710    0.01180    8.97250    2.99630
 10237.50000   52.28890   98.88840   24.91720   -9999.25   28.84680  125.60690  -30.95850   80.21150   43.48310   -9999.25    1.87880    0.05460    0.29900    0.01190    9.04380    3.34180
 10238.00000   50.03420   98.52000   28.91350   -9999.25   26.00790  131.76940  -31.02890   40.66160   28.50210   -9999.25    1.73610    0.15060    0.29930    0.01140    9.48240    3.43740
 10238.50000   47.51930   99.88640   32.92760   -9999.25   23.49900  137.98980  -31.09830   21.92580   15.44560   -9999.25    1.73610    0.22850    0.29930    0.01130    9.72820    3.20700
 10239.00000   47.14650  103.67200   36.94170   -9999.25   22.33650  139.47710  -31.16750   15.95270   14.95470   -9999.25    1.80570    0.29790    0.29930    0.01020    9.69780    2.74750
 10239.50000   48.38410  111.57600   40.74450   -9999.25   21.35540  130.34820  -31.23630   15.80610   15.66090   -9999.25    2.08940    0.26600    0.29900    0.00870    9.59460    2.32870
 10240.00000   49.62170  119.48000   43.76260   -9999.25   20.16220  118.04160  -31.28560   17.43260   18.74610   -9999.25    2.23620    0.21180    0.14940    0.00850    9.34650    2.30040
 10240.50000   50.85930  123.72000   46.62980   -9999.25   19.09810  105.74980  -31.28670   22.17660   26.04330   -9999.25    2.62570    0.16620    0.06970    0.00910    9.04780    2.65540
 10241.00000   52.09690  124.84000   49.49700   -9999.25   19.01020   96.14430  -31.41990   26.87130   33.08650   -9999.25    2.68560    0.13830    0.01600    0.00900    9.00960    3.12430
 10241.50000   53.33450  122.68400   50.80480   -9999.25   21.18380   90.82620  -31.56410   30.45480   34.33990   -9999.25    2.70370    0.12100    0.00180    0.00880    9.00030    3.56460
 10242.00000   54.57210  117.49700   48.21390   -9999.25   24.48310   87.24980  -31.77080   35.27950   31.80860   -9999.25    2.70000    0.10470    0.01030    0.00840    9.00270    3.69940
 10242.50000   55.80970  112.30220   43.42790   -9999.25   28.32330   83.67360  -32.35540   41.84770   27.83880   -9999.25    2.68790    0.08830    0.01850    0.00790    9.00510    3.77040
 10243.00000   55.96000  107.45910   38.64180   -9999.25   34.70810   80.83950  -33.46500   43.22150   26.25830   -9999.25    2.67570    0.08180    0.02310    0.00730    9.00750    3.67160
 10243.50000   55.96000  106.00390   33.85580   -9999.25   41.57980   82.33030  -34.52190   44.23030   30.86080   -9999.25    2.66110    0.07070    0.02780    0.00680    9.00990    3.55010
 10244.00000   55.96000  104.06660   29.06980   -9999.25   47.40010   84.14950  -35.57690   47.71360   39.04910   -9999.25    2.64570    0.05920    0.03480    0.00730    9.01230    3.33540
 10244.50000   55.96000  102.12810   24.28380   -9999.25   49.18260   83.81890  -36.92520   53.50380   46.19710   -9999.25    2.63020    0.04840    0.04420    0.00840    9.01470    3.31160
 10245.00000   55.96000  100.18130   19.61770   -9999.25   51.03210   83.47080  -38.30060   66.61550   49.18260   -9999.25    2.61480    0.04770    0.05660    0.00870    9.01710    3.28560
 10245.50000   55.96000   98.23460   18.93190   -9999.25   51.50530   84.49040  -39.57160   84.77830   51.26820   -9999.25    2.59930    0.04790    0.06970    0.00910    9.01950    3.22850
 10246.00000   55.96000   96.28000   18.26290   -9999.25   51.98280   86.86760  -40.83940   84.77830   52.51880   -9999.25    2.57970    0.04930    0.08270    0.00950    9.02190    3.15410
 10246.50000   55.96000   96.59790   17.60560   -9999.25   51.26820   89.04280  -42.10740   66.95960   51.94240   -9999.25    2.57090    0.05550    0.08480    0.00990    9.02430    3.08660
 10247.00000   56.15620   96.91710   18.53390   -9999.25   48.95620   89.01070  -43.37560   55.84560   48.44370   -9999.25    2.56730    0.06170    0.08460    0.01030    9.02670    3.01920
 10247.50000   57.28330   97.23630   19.44620   -9999.25   46.26280   87.78700  -44.64380   47.18190   45.47320   -9999.25    2.56610    0.06770    0.08450    0.01100    9.02910    3.00730
 10248.00000   58.41030   97.55550   20.35850   -9999.25   44.06940   86.66280  -45.91210   45.68220   42.67480   -9999.25    2.56490    0.07140    0.08510    0.01280    9.03150    3.05140
 10248.50000   59.53740   97.87470   21.27080   -9999.25   41.98000   85.54820  -47.18080   46.96470   40.04330   -9999.25    2.55770    0.07500    0.09020    0.01440    9.03390    3.09670
 10249.00000   60.66440   98.30880   22.18310   -9999.25   39.98970   84.43240  -48.44860   44.99490   37.57410   -9999.25    2.54910    0.08200    0.09520    0.01400    9.03360    3.10690
 10249.50000   61.79150   99.37260   22.17620   -9999.25   39.04910   83.27810  -49.72030   41.65500   35.60660   -9999.25    2.54810    0.08930    0.09890    0.01350    9.03270    3.12250
 10250.00000   61.14130  100.43630   21.26400   -9999.25   40.14540   83.28200  -51.01740   42.87480   34.90390   -9999.25    2.55230    0.08790    0.09540    0.01190    9.03120    3.11250
 10250.50000   59.75990  100.76000   20.35170   -9999.25   43.94900   84.00280  -51.14460   47.22060   36.95080   -9999.25    2.55650    0.06520    0.09060    0.01080    9.02950    3.08760
 10251.00000   60.36530   98.55730   19.43940   -9999.25   50.74820   88.28470  -50.19540   53.31400   41.99220   -9999.25    2.56070    0.05870    0.08580    0.01180    9.02880    3.04570
 10251.50000   61.89910   97.40000   18.52980   -9999.25   54.02490   90.94080  -49.19240   60.19380   47.71060   -9999.25    2.56280    0.05470    0.08350    0.01080    9.03380    2.98290
 10252.00000   69.42440  100.91380   17.61000   -9999.25   54.07080   94.41100  -48.14100   66.07970   53.93760   -9999.25    2.56280    0.05080    0.08490    0.01230    9.03060    2.86610
