~Version ---------------------------------------------------
VERS.   2.0 : CWLS log ASCII Standard -VERSION 2.0
WRAP.    NO : One line per depth step
DLM . SPACE : Column Data Section Delimiter
~Well ------------------------------------------------------
STRT .F                 3953.0 : START DEPTH
STOP .F                11845.0 : STOP DEPTH
STEP .F                    0.5 : STEP
NULL .                -9999.25 : NULL VALUE
COMP .                         : COMPANY
WELL .                         : WELL
FLD  .                         : FIELD
LOC  .                         : LOCATION
PROV .                         : PROVINCE
CNTY .                         : COUNTY
STAT .                         : STATE
CTRY .                         : COUNTRY
SRVC .                         : SERVICE COMPANY
DATE .                         : DATE
UWI  .                         : UNIQUE WELL ID
API  .                         : API NUMBER
SLAT .WGS84  5.502796021876399 : SURFACE LATITUDE
SLON .WGS84 3.8792671488075143 : SURFACE LONGITUDE
DATUM.F                1831.73 : DEPTH DATUM ELEV
~Curve Information -----------------------------------------
DEPT   .F     : 
DTCO   .US/F  : DELTA-T COMPRESSIONAL
DTSM   .US/F  : DELTA-T SHEAR
CIDP   .MMHO  : INCUCTION DEEP PHASOR CONDUCTIVITY
SFLA   .B     : SPHERICALLY FOCUSED LOG RESISTIVITY AVERAGED OVER 2.5 FT
IDPH   .OHMM  : INDUCTION DEEP PHASOR RESISTIVITY
GRR    .GAPI  : GAMMA RAY FROM RESISTIVITY LOG
SPR    .MV    : SPONTANEOUS POTENTIAL FROM RESISTIVITY LOG
SFLU   .OHMM  : SHALLOW FOCUSED RESISTIVITY (UNAVERAGED)
IMPH   .OHMM  : INDUCTION MEDIUM PHASOR RESISTIVITY
DTST   .US/F  : DELTA-T STONELEY - MONOPOLE STONELEY
RHOB   .G/C3  : BULK DENSITY
NPHI_LS.DEC   : NEUTRON POROSITY LIMESTONE
DPHI_LS.DEC   : DENSITY POROSITY LIMESTONE
DRHO   .G/C3  : BULK DENSITY CORRECTION
CALD   .IN    : CALIPER FROM DENSITY LOG
PEF    .B/E   : PHOTOELECTRIC FACTOR
~Params ----------------------------------------------------
~Other -----------------------------------------------------
~ASCII -----------------------------------------------------
# ...
 10596.50000   72.49120  104.68330   16.04180   -9999.25   62.34530  127.42120  -23.86150   78.58840   68.53270   -9999.25    2.63000    0.06130    0.04240    0.01840    8.66120    3.11290
 10597.00000   70.27360  102.39660   14.85740   -9999.25   65.47270  110.09050  -23.79470  122.31310   79.42910   -9999.25    2.63860    0.03790    0.03850    0.02010    8.60540    3.14930
 10597.50000   68.05600  100.11580   14.57720   -9999.25   66.07970  101.12530  -23.72790  150.57170   91.27430   -9999.25    2.64310    0.03600    0.03510    0.01830    8.58640    3.18800
 10598.00000   66.04000   99.07140   14.57740   -9999.25   66.07970  104.76120  -23.66110  167.83310   92.97470   -9999.25    2.64370    0.04220    0.03710    0.01610    8.58100    3.24990
 10598.50000   66.56580   99.74130   15.43550   -9999.25   63.68480  111.96910  -23.59440  140.83980   88.79140   -9999.25    2.64230    0.08060    0.03930    0.01400    8.57570    3.29500
 10599.00000   70.57370  101.88000   16.55220   -9999.25   59.54720  119.18190  -23.52760   93.80420   66.26180   -9999.25    2.64120    0.11430    0.04040    0.01270    8.57030    3.36740
 10599.50000   73.84630  105.80000   17.66880   -9999.25   55.31710  126.42120  -23.46080   57.10850   59.70060   -9999.25    2.63950    0.13710    0.04150    0.01150    8.56490    3.46680
 10600.00000   74.99900  110.06460   18.78550   -9999.25   51.38750  132.80380  -23.39390   53.16230   51.50960   -9999.25    2.63660    0.15280    0.04260    0.01070    8.55950    3.56610
 10600.50000   73.86830  113.08000   19.90210   -9999.25   47.73700  137.32490  -23.32640   50.40210   46.53330   -9999.25    2.63380    0.15480    0.04270    0.01030    8.55400    3.66050
 10601.00000   70.18400  113.24180   21.01920   -9999.25   44.34590  141.05040  -23.26140   49.86820   43.59340   -9999.25    2.63380    0.15760    0.04220    0.01080    8.54620    3.71400
 10601.50000   67.18630  113.53210   22.13780   -9999.25   40.89320  137.75150  -23.38370   49.34000   41.08240   -9999.25    2.63950    0.16010    0.04120    0.01130    8.55600    3.76000
 10602.00000   65.22970  113.62200   23.25210   -9999.25   39.39200  129.85950  -23.53160   48.73080   39.77660   -9999.25    2.64570    0.15550    0.03690    0.01460    8.58310    3.69470
 10602.50000   63.27290  113.06320   24.36870   -9999.25   39.39190  121.49270  -23.67980   48.28310   40.14540   -9999.25    2.65190    0.14530    0.03180    0.01860    8.59500    3.56670
 10603.00000   61.31620  112.75180   24.19520   -9999.25   39.76350  113.12840  -23.82780   49.95190   40.29850   -9999.25    2.65940    0.13510    0.02660    0.02330    8.58320    3.54470
 10603.50000   61.30990  112.03440   23.59160   -9999.25   40.11990  105.24570  -23.97560   51.87390   40.81310   -9999.25    2.66850    0.12480    0.02150    0.02890    8.57150    3.53670
 10604.00000   61.67950  111.31160   22.98790   -9999.25   40.44260  101.33910  -24.12350   52.95120   41.33430   -9999.25    2.67680    0.12600    0.01760    0.03350    8.57990    3.54660
 10604.50000   62.05480  110.58920   22.38430   -9999.25   40.76400   99.29590  -24.27130   52.25770   41.86210   -9999.25    2.67530    0.13300    0.01940    0.03240    8.58920    3.57480
 10605.00000   61.63010  109.86610   21.78070   -9999.25   41.08780   98.93290  -24.41920   50.89770   42.39680   -9999.25    2.67180    0.14000    0.02540    0.02620    8.59830    3.60340
 10605.50000   61.00560  109.97200   21.67420   -9999.25   41.41410   99.36480  -24.56740   49.18260   42.93820   -9999.25    2.66370    0.14310    0.03110    0.01840    8.60740    3.63200
 10606.00000   61.22510  110.61170   21.73170   -9999.25   41.74300   99.80700  -24.71640   50.13740   43.48650   -9999.25    2.65480    0.14290    0.03640    0.01260    8.61650    3.64860
 10606.50000   61.44720  111.25060   21.79210   -9999.25   42.04140  100.33880  -24.85370   52.10290   44.04190   -9999.25    2.64580    0.14280    0.04180    0.00720    8.62560    3.67580
 10607.00000   61.67200  111.89170   21.85170   -9999.25   42.04130  101.20530  -24.76980   53.93760   44.43480   -9999.25    2.63690    0.14260    0.04570    0.00400    8.63470    3.72390
 10607.50000   61.89680  112.53250   21.91090   -9999.25   42.04130  101.09350  -24.67900   53.93760   44.68610   -9999.25    2.63390    0.14460    0.04490    0.00450    8.64380    3.72180
 10608.00000   62.12150  113.08220   21.97010   -9999.25   42.04110  100.78390  -24.58940   53.93760   44.84680   -9999.25    2.63730    0.14760    0.04200    0.00500    8.65290    3.64630
 10608.50000   62.34630  113.60080   22.02920   -9999.25   42.04120  100.97660  -24.50000   53.05600   44.53740   -9999.25    2.64050    0.15010    0.03890    0.00550    8.66200    3.54680
 10609.00000   62.57100  114.15520   22.08840   -9999.25   42.04090  102.26470  -24.41060   51.33580   43.52160   -9999.25    2.64360    0.14910    0.03720    0.00600    8.67110    3.46840
 10609.50000   62.44200  114.76000   22.14760   -9999.25   42.04150  103.68990  -24.32120   49.67130   42.52900   -9999.25    2.64670    0.14680    0.03640    0.00730    8.68060    3.44510
 10610.00000   61.98000  114.36800   22.20680   -9999.25   42.04310  103.11880  -24.23180   48.95620   41.65370   -9999.25    2.64980    0.14250    0.03570    0.00870    8.69230    3.47150
 10610.50000   61.56000  113.81360   22.26590   -9999.25   41.95680  103.03580  -24.14250   48.73080   42.17380   -9999.25    2.64720    0.13750    0.03500    0.00930    8.69020    3.51590
 10611.00000   61.70490  113.64000   22.32510   -9999.25   41.87860  107.03080  -24.05310   50.21460   42.83070   -9999.25    2.64230    0.13400    0.03790    0.00840    8.67860    3.56020
 10611.50000   61.86800  114.69740   22.38430   -9999.25   41.80120  115.43450  -23.96370   51.03210   42.82020   -9999.25    2.63730    0.13370    0.04140    0.00710    8.67900    3.59520
 10612.00000   62.03110  115.67580   22.44350   -9999.25   41.72430  123.87880  -23.87410   50.09880   42.13830   -9999.25    2.63280    0.13700    0.04480    0.00590    8.67940    3.60170
 10612.50000   62.19410  116.67030   22.50270   -9999.25   41.65500  131.26650  -23.78450   49.08180   41.38890   -9999.25    2.62880    0.14300    0.04820    0.00460    8.67970    3.59540
 10613.00000   62.35720  116.07750   22.56180   -9999.25   41.65500  134.67260  -23.69520   48.08550   40.65280   -9999.25    2.62600    0.14590    0.05060    0.00340    8.67550    3.56500
 10613.50000   62.52020  112.53420   22.62100   -9999.25   42.04120  135.91720  -23.69430   47.40010   39.77660   -9999.25    2.62450    0.14670    0.04980    0.00400    8.67010    3.54590
 10614.00000   62.68000  113.77650   21.93160   -9999.25   42.43100  135.00170  -23.97840   47.83960   39.77660   -9999.25    2.62690    0.14370    0.04830    0.00510    8.66470    3.57690
 10614.50000   62.11260  115.16530   20.99260   -9999.25   44.43480  132.40150  -24.26460   49.41010   42.16260   -9999.25    2.62930    0.13970    0.04690    0.00730    8.65930    3.58520
 10615.00000   61.55940  114.43580   20.05370   -9999.25   46.18770  126.83150  -24.55250   51.74350   43.89980   -9999.25    2.63200    0.13580    0.04400    0.00940    8.65440    3.54120
 10615.50000   61.00620  113.70630   19.11470   -9999.25   49.41010  120.85240  -24.84740   54.94240   48.17190   -9999.25    2.63650    0.12960    0.03870    0.01120    8.66800    3.45440
 10616.00000   60.45330  112.97680   18.17570   -9999.25   52.85730  114.86620  -24.83500   64.73530   54.05980   -9999.25    2.64430    0.11830    0.03330    0.01210    8.68160    3.36440
 10616.50000   59.88000  112.52000   17.23670   -9999.25   55.70830  110.61610  -24.78060   76.88400   60.66190   -9999.25    2.65030    0.10200    0.03310    0.01310    8.69520    3.40200
 10617.00000   60.13600  111.40000   16.29780   -9999.25   56.65370  114.77330  -24.72760   83.22780   67.59400   -9999.25    2.64860    0.10480    0.03960    0.01400    8.70870    3.58780
 10617.50000   60.40000  110.24500   15.71930   -9999.25   57.42790  120.05680  -24.67500   75.83230   68.63130   -9999.25    2.64080    0.11700    0.04600    0.01520    8.72230    3.78840
