~Version ---------------------------------------------------
VERS.   2.0 : CWLS log ASCII Standard -VERSION 2.0
WRAP.    NO : One line per depth step
DLM . SPACE : Column Data Section Delimiter
~Well ------------------------------------------------------
STRT .F                 3953.0 : START DEPTH
STOP .F                11845.0 : STOP DEPTH
STEP .F                    0.5 : STEP
NULL .                -9999.25 : NULL VALUE
COMP .                         : COMPANY
WELL .                         : WELL
FLD  .                         : FIELD
LOC  .                         : LOCATION
PROV .                         : PROVINCE
CNTY .                         : COUNTY
STAT .                         : STATE
CTRY .                         : COUNTRY
SRVC .                         : SERVICE COMPANY
DATE .                         : DATE
UWI  .                         : UNIQUE WELL ID
API  .                         : API NUMBER
SLAT .WGS84  5.502796021876399 : SURFACE LATITUDE
SLON .WGS84 3.8792671488075143 : SURFACE LONGITUDE
DATUM.F                1831.73 : DEPTH DATUM ELEV
~Curve Information -----------------------------------------
DEPT   .F     : 
DTCO   .US/F  : DELTA-T COMPRESSIONAL
DTSM   .US/F  : DELTA-T SHEAR
CIDP   .MMHO  : INCUCTION DEEP PHASOR CONDUCTIVITY
SFLA   .B     : SPHERICALLY FOCUSED LOG RESISTIVITY AVERAGED OVER 2.5 FT
IDPH   .OHMM  : INDUCTION DEEP PHASOR RESISTIVITY
GRR    .GAPI  : GAMMA RAY FROM RESISTIVITY LOG
SPR    .MV    : SPONTANEOUS POTENTIAL FROM RESISTIVITY LOG
SFLU   .OHMM  : SHALLOW FOCUSED RESISTIVITY (UNAVERAGED)
IMPH   .OHMM  : INDUCTION MEDIUM PHASOR RESISTIVITY
DTST   .US/F  : DELTA-T STONELEY - MONOPOLE STONELEY
RHOB   .G/C3  : BULK DENSITY
NPHI_LS.DEC   : NEUTRON POROSITY LIMESTONE
DPHI_LS.DEC   : DENSITY POROSITY LIMESTONE
DRHO   .G/C3  : BULK DENSITY CORRECTION
CALD   .IN    : CALIPER FROM DENSITY LOG
PEF    .B/E   : PHOTOELECTRIC FACTOR
~Params ----------------------------------------------------
~Other -----------------------------------------------------
~ASCII -----------------------------------------------------
# ...
 10768.50000   63.13280  110.38160   17.60700   -9999.25   52.44680  114.71720  -24.69020   64.87240   55.24190   -9999.25    2.66220    0.11890    0.02750   -0.00270    8.86090    3.57840
 10769.00000   66.88720  110.45760   17.84350   -9999.25   53.14780  117.94330  -24.71280   64.87120   55.45180   -9999.25    2.65860    0.11510    0.02940   -0.00320    8.85300    3.59010
 10769.50000   70.52000  110.83390   18.06530   -9999.25   53.44370  120.35620  -24.73530   66.08800   55.30130   -9999.25    2.65500    0.11100    0.03140   -0.00360    8.84500    3.58360
 10770.00000   70.62770  109.56910   18.28910   -9999.25   52.01110  122.66920  -24.75790   67.35820   55.17360   -9999.25    2.65150    0.10300    0.03340   -0.00410    8.83710    3.56480
 10770.50000   69.56370  108.03610   18.51370   -9999.25   50.82160  124.45180  -24.77990   68.65290   55.04620   -9999.25    2.64790    0.10040    0.03550   -0.00460    8.82910    3.54660
 10771.00000   68.49970  111.80500   19.11700   -9999.25   49.88660  127.88870  -24.80280   69.20030   54.43770   -9999.25    2.64330    0.10120    0.03760   -0.00500    8.82070    3.53970
 10771.50000   68.00750  115.88000   20.03900   -9999.25   48.74650  133.11340  -24.83260   64.17910   52.34460   -9999.25    2.63810    0.11150    0.03980   -0.00520    8.81620    3.56070
 10772.00000   67.43070  115.88000   20.96130   -9999.25   47.02900  141.74170  -24.84940   58.30270   48.95030   -9999.25    2.63280    0.12230    0.04260   -0.00470    8.81500    3.55670
 10772.50000   66.66220  115.88000   21.88530   -9999.25   44.99850  150.32980  -25.31720   53.19960   45.77610   -9999.25    2.62750    0.13310    0.04660   -0.00410    8.81380    3.53470
 10773.00000   65.89380  115.88000   22.80890   -9999.25   43.05570  161.58540  -25.33510   48.73080   42.80780   -9999.25    2.62120    0.13860    0.05160   -0.00360    8.80660    3.51270
 10773.50000   65.12360  115.88000   23.73150   -9999.25   41.19680  172.17160  -25.38350   49.62490   41.05130   -9999.25    2.61300    0.14200    0.05670   -0.00300    8.79900    3.49130
 10774.00000   64.92510  115.88000   24.64540   -9999.25   39.41120  182.15820  -25.44010   52.46480   39.92810   -9999.25    2.60840    0.14420    0.06220   -0.00250    8.79140    3.48370
 10774.50000   66.26610  115.88000   24.64790   -9999.25   39.04060  192.06060  -25.49440   51.80650   39.04910   -9999.25    2.60670    0.14520    0.06340   -0.00190    8.78380    3.45810
 10775.00000   68.83980  115.88000   24.64790   -9999.25   39.03070  202.03420  -25.54870   50.18560   38.69040   -9999.25    2.60590    0.14570    0.06240   -0.00140    8.77620    3.42220
 10775.50000   71.41000  115.88000   24.31590   -9999.25   39.42440  212.16240  -25.60290   48.61540   38.69040   -9999.25    2.60510    0.14670    0.06130   -0.00060    8.76850    3.43930
 10776.00000   72.47930  115.88000   23.64180   -9999.25   41.09480  214.24410  -25.65720   47.40010   38.69040   -9999.25    2.60530    0.14990    0.06180    0.00010    8.76090    3.54550
 10776.50000   70.83720  114.47550   22.84910   -9999.25   42.77460  202.18390  -25.71150   49.20300   39.77660   -9999.25    2.60640    0.14970    0.06380    0.00190    8.76020    3.68870
 10777.00000   67.95680  112.67740   22.04830   -9999.25   44.52500  188.99430  -25.76580   52.73660   42.04120   -9999.25    2.60760    0.13770    0.05950    0.00400    8.77150    3.66800
 10777.50000   65.06890  110.87920   21.09880   -9999.25   46.07500  175.57330  -25.82000   58.88910   45.72970   -9999.25    2.61750    0.11660    0.05510    0.00600    8.78290    3.62680
 10778.00000   62.17520  109.08100   19.98660   -9999.25   48.29100  166.48440  -25.87430   69.76890   50.74330   -9999.25    2.62570    0.09450    0.05080    0.00800    8.79420    3.58860
 10778.50000   59.28220  107.48000   18.87440   -9999.25   50.59060  162.59680  -25.92860   74.50270   54.94240   -9999.25    2.62240    0.07410    0.04980    0.00850    8.80560    3.55050
 10779.00000   59.12020  106.35440   17.76210   -9999.25   52.99070  164.81760  -25.98280   72.97300   55.96590   -9999.25    2.61400    0.07900    0.05410    0.00670    8.81690    3.52640
 10779.50000   59.56280  105.80000   16.59960   -9999.25   55.46020  167.23110  -26.03710   69.25220   56.48480   -9999.25    2.60560    0.09100    0.05840    0.00490    8.82830    3.52070
 10780.00000   60.00540  106.21400   17.23670   -9999.25   54.87620  165.27420  -26.09140   62.52010   56.48480   -9999.25    2.59720    0.09020    0.06270    0.00310    8.83970    3.62390
 10780.50000   60.44810  106.91910   17.90410   -9999.25   53.93760  161.22890  -26.14570   63.85850   54.97730   -9999.25    2.59310    0.08930    0.06700    0.00140    8.85100    3.68440
 10781.00000   60.89070  107.62430   18.57140   -9999.25   51.92660  156.91200  -26.19990   67.93480   53.96320   -9999.25    2.59970    0.09410    0.06880   -0.00040    8.86240    3.68100
 10781.50000   60.43190  108.32930   19.23880   -9999.25   50.32270  150.55170  -26.25420   65.35490   51.86000   -9999.25    2.60860    0.10540    0.06310    0.00020    8.87350    3.66690
 10782.00000   59.67740  109.03460   19.90610   -9999.25   48.76840  142.77260  -26.30850   60.97590   50.13670   -9999.25    2.61760    0.11650    0.05550    0.00300    8.87730    3.57950
 10782.50000   59.64360  109.73980   20.62370   -9999.25   47.26210  134.06870  -26.36300   56.90960   48.47800   -9999.25    2.62650    0.12520    0.04450    0.00490    8.87630    3.50840
 10783.00000   60.26040  110.44490   20.62370   -9999.25   45.80220  126.97280  -26.41770   51.53050   46.87490   -9999.25    2.64250    0.13030    0.03900    0.00590    8.87520    3.52610
 10783.50000   60.87350  111.15010   20.62370   -9999.25   44.43480  121.30760  -26.46290   51.95460   45.68220   -9999.25    2.65120    0.12730    0.03420    0.00690    8.86990    3.62080
 10784.00000   61.48890  111.85520   20.62370   -9999.25   44.02660  117.80510  -26.40180   52.93830   45.26260   -9999.25    2.65750    0.12220    0.02990    0.00670    8.87640    3.72310
 10784.50000   61.25620  112.56040   20.62370   -9999.25   44.02660  117.03830  -26.34190   53.94170   45.26750   -9999.25    2.65690    0.11940    0.03150    0.00590    8.88290    3.74750
 10785.00000   60.90900  113.08000   20.62370   -9999.25   44.02660  118.79490  -26.28280   54.92970   45.25350   -9999.25    2.65100    0.11950    0.03380    0.00540    8.88940    3.70960
 10785.50000   60.56320  111.61280   20.62370   -9999.25   45.21850  120.43290  -26.22340   53.96870   45.25200   -9999.25    2.64830    0.11960    0.03610    0.00540    8.89590    3.64030
 10786.00000   60.21740  110.28000   20.62370   -9999.25   46.67900  121.22630  -26.16380   52.97620   46.67700   -9999.25    2.65540    0.11970    0.03210    0.00540    8.90240    3.47840
 10786.50000   59.87160  110.28000   20.62370   -9999.25   48.18660  116.59110  -26.10710   55.20520   48.06530   -9999.25    2.66480    0.11660    0.02420    0.00560    8.90890    3.47390
 10787.00000   59.52580  110.89200   20.62370   -9999.25   48.73080  111.74950  -26.12550   58.04700   49.50050   -9999.25    2.67180    0.11080    0.01950    0.00620    8.91540    3.52160
 10787.50000   59.18000  111.88000   20.62370   -9999.25   47.40010  107.30210  -26.36560   60.84190   51.50530   -9999.25    2.67410    0.10660    0.01950    0.00670    8.92190    3.60520
 10788.00000   58.83420  112.86800   20.62370   -9999.25   46.26350  104.72020  -26.59750   60.53850   51.03210   -9999.25    2.67590    0.10430    0.01950    0.00730    8.92840    3.67980
 10788.50000   59.30320  113.08000   21.18540   -9999.25   44.05630  102.71220  -26.82910   60.25430   48.86980   -9999.25    2.67530    0.10200    0.01950    0.00870    8.93490    3.73960
 10789.00000   60.13050  113.08000   22.71630   -9999.25   41.76750  104.28660  -27.06070   58.27240   45.35910   -9999.25    2.67470    0.10280    0.02290    0.01040    8.94320    3.79610
 10789.50000   61.63940  114.53770   24.24720   -9999.25   40.14540  109.05100  -27.27010   53.96050   42.09530   -9999.25    2.66990    0.10740    0.02960    0.00950    8.96950    3.88830
