~Version ---------------------------------------------------
VERS.   2.0 : CWLS log ASCII Standard -VERSION 2.0
WRAP.    NO : One line per depth step
DLM . SPACE : Column Data Section Delimiter
~Well ------------------------------------------------------
STRT .F                 3953.0 : START DEPTH
STOP .F                11845.0 : STOP DEPTH
STEP .F                    0.5 : STEP
NULL .                -9999.25 : NULL VALUE
COMP .                         : COMPANY
WELL .                         : WELL
FLD  .                         : FIELD
LOC  .                         : LOCATION
PROV .                         : PROVINCE
CNTY .                         : COUNTY
STAT .                         : STATE
CTRY .                         : COUNTRY
SRVC .                         : SERVICE COMPANY
DATE .                         : DATE
UWI  .                         : UNIQUE WELL ID
API  .                         : API NUMBER
SLAT .WGS84  5.502796021876399 : SURFACE LATITUDE
SLON .WGS84 3.8792671488075143 : SURFACE LONGITUDE
DATUM.F                1831.73 : DEPTH DATUM ELEV
~Curve Information -----------------------------------------
DEPT   .F     : 
DTCO   .US/F  : DELTA-T COMPRESSIONAL
DTSM   .US/F  : DELTA-T SHEAR
CIDP   .MMHO  : INCUCTION DEEP PHASOR CONDUCTIVITY
SFLA   .B     : SPHERICALLY FOCUSED LOG RESISTIVITY AVERAGED OVER 2.5 FT
IDPH   .OHMM  : INDUCTION DEEP PHASOR RESISTIVITY
GRR    .GAPI  : GAMMA RAY FROM RESISTIVITY LOG
SPR    .MV    : SPONTANEOUS POTENTIAL FROM RESISTIVITY LOG
SFLU   .OHMM  : SHALLOW FOCUSED RESISTIVITY (UNAVERAGED)
IMPH   .OHMM  : INDUCTION MEDIUM PHASOR RESISTIVITY
DTST   .US/F  : DELTA-T STONELEY - MONOPOLE STONELEY
RHOB   .G/C3  : BULK DENSITY
NPHI_LS.DEC   : NEUTRON POROSITY LIMESTONE
DPHI_LS.DEC   : DENSITY POROSITY LIMESTONE
DRHO   .G/C3  : BULK DENSITY CORRECTION
CALD   .IN    : CALIPER FROM DENSITY LOG
PEF    .B/E   : PHOTOELECTRIC FACTOR
~Params ----------------------------------------------------
~Other -----------------------------------------------------
~ASCII -----------------------------------------------------
# ...
 9521.50000   63.93050  122.69210   41.88770   -9999.25   22.42810   75.48250  -43.07980   19.54380   21.23650   -9999.25    2.65160    0.18080    0.03730    0.01440    9.13890    3.43000
 9522.00000   61.97770  125.40000   38.04650   -9999.25   24.80230   76.73020  -44.91480   25.07420   25.95430   -9999.25    2.64360    0.16150    0.03390    0.00160    9.03060    3.59410
 9522.50000   60.02490  122.43930   34.20520   -9999.25   27.87880   82.72220  -46.98730   33.07250   31.14690   -9999.25    2.62970    0.14220    0.04690    0.00000    8.92230    3.66250
 9523.00000   58.72100  118.59040   30.36400   -9999.25   31.33350   85.75630  -50.63230   41.46320   37.37840   -9999.25    2.61580    0.12200    0.05990    0.00000    8.81400    3.55870
 9523.50000   58.61040  114.74150   26.52280   -9999.25   34.95550   88.36010  -54.46170   51.03210   45.68220   -9999.25    2.60190    0.09950    0.06910    0.00060    8.73190    3.36010
 9524.00000   58.49970  110.89260   23.26460   -9999.25   38.15850   87.96270  -58.48220   62.23230   47.83960   -9999.25    2.58790    0.07940    0.07530    0.00480    8.66360    3.25700
 9524.50000   58.38910  107.30080   21.75550   -9999.25   42.04120   86.58250  -62.72420   63.68480   48.73080   -9999.25    2.58070    0.08180    0.07550    0.00920    8.59530    3.17210
 9525.00000   58.27840  105.72000   20.98700   -9999.25   41.52210   85.15060  -66.98380   63.15280   48.50650   -9999.25    2.58740    0.08630    0.06890    0.01360    8.52700    3.11720
 9525.50000   58.28060  105.73940   22.44020   -9999.25   40.79170   84.94090  -71.24350   62.10190   46.64070   -9999.25    2.59690    0.09270    0.06210    0.01580    8.49500    2.98420
 9526.00000   58.55730  106.45660   23.89340   -9999.25   40.14540   84.80460  -74.99600   61.09420   44.88130   -9999.25    2.61470    0.09200    0.05480    0.01740    8.49420    2.97740
 9526.50000   58.57520  107.17390   25.34650   -9999.25   37.86610   85.09470  -77.52620   60.81290   43.18820   -9999.25    2.62090    0.09060    0.04950    0.01750    8.49390    2.97660
 9527.00000   57.88360  107.89110   26.79970   -9999.25   35.90660   85.44590  -80.05150   62.08560   41.55900   -9999.25    2.61240    0.08920    0.05480    0.01750    8.49450    2.97460
 9527.50000   57.19200  108.60830   28.25280   -9999.25   34.04850   85.92300  -82.57710   63.53660   39.96050   -9999.25    2.60370    0.08780    0.06350    0.01710    8.49510    2.95460
 9528.00000   56.52000  109.16000   29.70600   -9999.25   32.28660   86.82420  -85.10320   65.01830   39.22970   -9999.25    2.59500    0.08700    0.07130    0.01640    8.49570    2.90350
 9528.50000   56.69780  108.77920   31.15920   -9999.25   30.61580   87.71270  -87.62630   66.53150   38.51230   -9999.25    2.58610    0.08930    0.07300    0.01580    8.49630    2.84780
 9529.00000   56.87070  108.31810   32.61230   -9999.25   29.03150   88.58700  -90.15180   67.31070   36.77550   -9999.25    2.57720    0.09380    0.07480    0.01520    8.49690    2.95050
 9529.50000   57.04360  107.85710   34.06550   -9999.25   27.85500   87.86490  -92.75100   66.69240   35.77130   -9999.25    2.56830    0.09810    0.08190    0.01470    8.49750    3.01310
 9530.00000   58.08800  107.39600   35.51870   -9999.25   26.51440   86.89860  -94.95990   64.55130   34.31620   -9999.25    2.55940    0.10190    0.09110    0.01460    8.49810    2.97060
 9530.50000   59.36480  106.93490   36.97180   -9999.25   25.23830   85.92970  -97.14250   62.25280   33.07250   -9999.25    2.55210    0.10350    0.09160    0.01460    8.49850    2.87850
 9531.00000   60.40360  106.47390   38.42500   -9999.25   24.02380   85.16850  -99.30600   60.25430   32.14970   -9999.25    2.55120    0.10510    0.08930    0.01460    8.51290    2.85710
 9531.50000   60.17310  106.01280   39.87820   -9999.25   22.86990   84.68540 -101.47430   60.25430   30.41180   -9999.25    2.55220    0.10810    0.08900    0.01580    8.52820    2.89460
 9532.00000   59.94250  105.55170   41.33130   -9999.25   21.77160   82.85070 -103.60710   59.07440   28.79250   -9999.25    2.55410    0.11150    0.09000    0.01750    8.51860    2.93360
 9532.50000   60.13200  105.20940   42.78450   -9999.25   21.04530   80.37830 -105.01940   56.78350   27.65310   -9999.25    2.55580    0.11360    0.08550    0.02060    8.50570    2.97260
 9533.00000   60.37950  104.95800   44.23770   -9999.25   20.71380   78.42280 -106.24320   54.58140   26.99540   -9999.25    2.56300    0.10650    0.07440    0.02540    8.48640    2.99230
 9533.50000   59.82600  104.70650   45.69080   -9999.25   20.52360   80.22350 -107.47520   53.44210   26.99540   -9999.25    2.57920    0.09700    0.06590    0.03040    8.45850    2.96830
 9534.00000   59.32040  104.98120   46.75420   -9999.25   20.27880   85.37110 -108.66810   55.26020   26.99540   -9999.25    2.59170    0.08750    0.06840    0.03360    8.43060    2.85020
 9534.50000   59.49410  105.59590   46.64830   -9999.25   20.33000   90.44570 -109.86800   56.94280   26.99540   -9999.25    2.58660    0.08380    0.07510    0.02930    8.40270    2.80680
 9535.00000   59.69200  105.80000   46.54240   -9999.25   20.43290   94.85490 -111.06820   58.67660   26.99540   -9999.25    2.57310    0.08030    0.08180    0.02580    8.38340    2.83430
 9535.50000   59.88000  104.52150   46.43650   -9999.25   20.53630   95.89380 -112.26940   60.46320   26.99500   -9999.25    2.56880    0.07950    0.08170    0.02590    8.38760    2.90530
 9536.00000   59.23540  103.03190   46.33060   -9999.25   20.64020   94.68850 -113.47250   61.47120   26.99620   -9999.25    2.57250    0.08280    0.07650    0.02880    8.39210    2.92670
 9536.50000   58.62060  101.32000   46.22470   -9999.25   20.74460   92.38790 -114.66320   61.66060   27.00200   -9999.25    2.57660    0.08630    0.07320    0.03170    8.40130    2.94060
 9537.00000   58.01000  102.00370   46.11900   -9999.25   20.84960   90.11290 -115.65860   61.94580   26.98750   -9999.25    2.58060    0.08980    0.07200    0.03450    8.40240    2.95140
 9537.50000   57.76800  102.65590   46.01410   -9999.25   20.95510   88.65540 -115.78320   61.13450   27.25380   -9999.25    2.58470    0.09740    0.07080    0.03610    8.40300    2.95930
 9538.00000   58.07320  103.31580   45.91030   -9999.25   21.06110   90.57440 -115.94210   59.70080   27.24320   -9999.25    2.58790    0.10070    0.07190    0.03550    8.39460    2.96530
 9538.50000   58.37920  103.98050   45.80110   -9999.25   21.16770   92.83790 -116.10630   54.18710   27.24540   -9999.25    2.58040    0.10030    0.08120    0.03500    8.38630    2.95130
 9539.00000   58.68610  104.70450   45.06450   -9999.25   21.27480   94.74310 -116.26130   49.18260   27.24590   -9999.25    2.55860    0.09990    0.09070    0.03220    8.37790    2.96670
 9539.50000   58.99240  105.70360   44.11760   -9999.25   21.38240   94.41240 -116.37940   47.83960   27.24880   -9999.25    2.53840    0.10020    0.09830    0.03190    8.36960    3.00270
 9540.00000   59.31730  106.35570   43.17080   -9999.25   21.49060   94.10870 -116.79620   46.59470   27.25040   -9999.25    2.54200    0.10360    0.09500    0.03320    8.36130    2.97550
 9540.50000   58.91610  105.46870   42.22390   -9999.25   21.59540   93.11290 -116.60630   44.84680   27.24050   -9999.25    2.55020    0.10680    0.09020    0.03630    8.35290    2.93350
 9541.00000   58.49470  103.80980   41.27710   -9999.25   22.24250   92.07800 -116.43030   45.68220   27.87450   -9999.25    2.55770    0.10610    0.09140    0.03620    8.35070    2.90300
 9541.50000   58.40030  103.18450   40.33020   -9999.25   23.09350   91.60010 -116.24990   48.06090   29.00250   -9999.25    2.55100    0.10310    0.09580    0.03630    8.34830    2.88090
 9542.00000   59.05120  104.10550   39.38340   -9999.25   23.97300   92.14730 -116.08660   51.48150   30.15540   -9999.25    2.54810    0.10000    0.09090    0.03650    8.34090    2.86720
 9542.50000   59.70210  102.48400   38.43650   -9999.25   24.71880   92.68220 -115.33090   55.68260   31.35180   -9999.25    2.55740    0.09990    0.08230    0.03670    8.34150    2.92760
