~Version ---------------------------------------------------
VERS.   2.0 : CWLS log ASCII Standard -VERSION 2.0
WRAP.    NO : One line per depth step
DLM . SPACE : Column Data Section Delimiter
~Well ------------------------------------------------------
STRT .F                 3953.0 : START DEPTH
STOP .F                11845.0 : STOP DEPTH
STEP .F                    0.5 : STEP
NULL .                -9999.25 : NULL VALUE
COMP .                         : COMPANY
WELL .                         : WELL
FLD  .                         : FIELD
LOC  .                         : LOCATION
PROV .                         : PROVINCE
CNTY .                         : COUNTY
STAT .                         : STATE
CTRY .                         : COUNTRY
SRVC .                         : SERVICE COMPANY
DATE .                         : DATE
UWI  .                         : UNIQUE WELL ID
API  .                         : API NUMBER
SLAT .WGS84  5.502796021876399 : SURFACE LATITUDE
SLON .WGS84 3.8792671488075143 : SURFACE LONGITUDE
DATUM.F                1831.73 : DEPTH DATUM ELEV
~Curve Information -----------------------------------------
DEPT   .F     : 
DTCO   .US/F  : DELTA-T COMPRESSIONAL
DTSM   .US/F  : DELTA-T SHEAR
CIDP   .MMHO  : INCUCTION DEEP PHASOR CONDUCTIVITY
SFLA   .B     : SPHERICALLY FOCUSED LOG RESISTIVITY AVERAGED OVER 2.5 FT
IDPH   .OHMM  : INDUCTION DEEP PHASOR RESISTIVITY
GRR    .GAPI  : GAMMA RAY FROM RESISTIVITY LOG
SPR    .MV    : SPONTANEOUS POTENTIAL FROM RESISTIVITY LOG
SFLU   .OHMM  : SHALLOW FOCUSED RESISTIVITY (UNAVERAGED)
IMPH   .OHMM  : INDUCTION MEDIUM PHASOR RESISTIVITY
DTST   .US/F  : DELTA-T STONELEY - MONOPOLE STONELEY
RHOB   .G/C3  : BULK DENSITY
NPHI_LS.DEC   : NEUTRON POROSITY LIMESTONE
DPHI_LS.DEC   : DENSITY POROSITY LIMESTONE
DRHO   .G/C3  : BULK DENSITY CORRECTION
CALD   .IN    : CALIPER FROM DENSITY LOG
PEF    .B/E   : PHOTOELECTRIC FACTOR
~Params ----------------------------------------------------
~Other -----------------------------------------------------
~ASCII -----------------------------------------------------
# ...
 10059.00000   64.20880  100.92500   31.35950   -9999.25   29.60540   60.26320  -46.32380   35.60660   30.96470   -9999.25    2.63790    0.10990    0.03350    0.02060    9.51410    3.22680
 10059.50000   71.30270  100.76000   32.44830   -9999.25   29.09390   61.89400  -46.93130   31.69460   29.64690   -9999.25    2.62070    0.10890    0.04270    0.02490    9.52380    3.29310
 10060.00000   74.34380  106.24800   33.53760   -9999.25   28.58310   62.95510  -47.35070   29.12840   28.37790   -9999.25    2.60340    0.10610    0.05550    0.02710    9.53340    3.29620
 10060.50000   75.70490  114.00960   33.70220   -9999.25   28.08130   63.86820  -47.92600   28.01060   27.23860   -9999.25    2.59610    0.10340    0.06460    0.02620    9.54310    3.25170
 10061.00000   77.07330  119.48640   33.70220   -9999.25   28.01060   64.78760  -48.18780   28.24740   26.49690   -9999.25    2.59090    0.10090    0.06870    0.02430    9.55270    3.21140
 10061.50000   78.35440  121.48000   32.09710   -9999.25   28.27030   65.93520  -48.47330   29.06390   27.44420   -9999.25    2.58570    0.09520    0.07240    0.01810    9.55340    3.20240
 10062.00000   77.51200  122.05050   30.28170   -9999.25   30.06800   67.98760  -48.75010   31.37850   29.63270   -9999.25    2.58470    0.08490    0.07210    0.01290    9.54040    3.19270
 10062.50000   76.72000  114.62010   28.46620   -9999.25   31.97210   70.03960  -49.02570   34.30040   31.99670   -9999.25    2.58710    0.07890    0.07150    0.01020    9.52300    3.10360
 10063.00000   76.08800  108.01650   26.65080   -9999.25   33.99680   72.09020  -49.30310   37.49430   34.54920   -9999.25    2.59080    0.07450    0.07060    0.00760    9.51220    3.00290
 10063.50000   75.95600  107.14380   24.83540   -9999.25   36.25410   74.14320  -49.20240   40.89320   37.30540   -9999.25    2.59440    0.07140    0.06980    0.00500    9.51380    3.00230
 10064.00000   75.82400  105.76430   23.01990   -9999.25   38.90670   76.18510  -48.80050   44.28050   40.14540   -9999.25    2.59810    0.06700    0.06650    0.00340    9.51540    3.04020
 10064.50000   75.69200  104.38240   21.06140   -9999.25   41.75330   78.29630  -48.40040   47.95700   43.90970   -9999.25    2.60190    0.06260    0.06190    0.00480    9.51700    3.05130
 10065.00000   75.56000  102.99540   19.49000   -9999.25   44.43480   80.39820  -48.00010   51.93440   48.34800   -9999.25    2.60760    0.05820    0.05660    0.00820    9.51870    3.08450
 10065.50000   74.96600  102.43240   19.02490   -9999.25   46.17320   82.53870  -47.60000   58.07050   52.45770   -9999.25    2.61810    0.05390    0.05100    0.01170    9.52080    3.15450
 10066.00000   74.37200  102.79470   18.56650   -9999.25   47.97960   84.41680  -47.19990   57.00940   53.45360   -9999.25    2.62960    0.05520    0.04530    0.01510    9.54340    3.11990
 10066.50000   74.22000  104.68000   18.10670   -9999.25   50.09880   85.81290  -46.79950   54.65290   51.97240   -9999.25    2.63890    0.06030    0.03970    0.01550    9.56800    3.03850
 10067.00000   76.20000  110.26280   17.64450   -9999.25   51.68140   87.20970  -46.39910   51.98280   52.45110   -9999.25    2.64820    0.06540    0.03470    0.01330    9.57920    2.95770
 10067.50000   77.73000  116.02000   17.18580   -9999.25   53.44210   88.05340  -46.00090   53.02040   53.48010   -9999.25    2.65090    0.06420    0.03120    0.01110    9.59040    2.90060
 10068.00000   78.92000  122.04000   16.72500   -9999.25   53.93760   87.21480  -45.74050   62.08430   55.15900   -9999.25    2.63790    0.05200    0.03870    0.00990    9.57820    2.88540
 10068.50000   78.92000  122.60000   17.41730   -9999.25   51.82630   86.05840  -45.91420   72.55020   55.95770   -9999.25    2.62400    0.04150    0.05120    0.00880    9.60480    2.87410
 10069.00000   81.48580  122.69600   18.54060   -9999.25   49.38530   82.72100  -46.41990   70.83810   55.99780   -9999.25    2.61790    0.03790    0.05410    0.00950    9.60350    2.92870
 10069.50000   85.01380  123.48800   19.66390   -9999.25   47.05930   78.78610  -46.91990   66.76160   50.76940   -9999.25    2.61850    0.04010    0.05380    0.01360    9.65000    3.03430
 10070.00000   90.08500  131.12440   20.78720   -9999.25   44.84280   74.80280  -47.41920   59.80680   46.06630   -9999.25    2.62250    0.04910    0.05250    0.03250    9.71460    3.21840
 10070.50000   96.66850  141.59640   21.91050   -9999.25   42.79280   70.75810  -47.91910   50.99410   41.91000   -9999.25    2.62640    0.06230    0.05080    0.05060    9.80160    3.35420
 10071.00000   96.61600  148.78310   23.03380   -9999.25   39.98500   69.38670  -48.15100   43.48000   37.02240   -9999.25    2.63040    0.07550    0.04900    0.05450    9.90150    3.34310
 10071.50000   94.75750  155.08000   24.15710   -9999.25   37.36140   69.30250  -48.17160   38.82330   31.86680   -9999.25    2.63430    0.08780    0.04410    0.05600    9.95530    3.15400
 10072.00000   93.02500  153.06400   25.28040   -9999.25   34.91000   69.21820  -47.42330   36.27000   31.86650   -9999.25    2.63810    0.09680    0.04140    0.03810    9.98320    3.01410
 10072.50000   91.29250  150.04000   25.65390   -9999.25   33.68860   69.16910  -46.43060   35.27950   32.16320   -9999.25    2.64180    0.10170    0.04030    0.01610   10.01100    2.96630
 10073.00000   92.28340  144.41760   25.65390   -9999.25   33.68860   69.46260  -45.42920   36.71280   33.25720   -9999.25    2.64550    0.09910    0.03930    0.01120   10.03890    3.12850
 10073.50000   94.76360  137.71040   25.65390   -9999.25   34.36340   73.20230  -44.29960   40.14540   32.62930   -9999.25    2.64990    0.09610    0.03270    0.00650   10.06680    3.25070
 10074.00000   97.24380  142.40820   25.65390   -9999.25   34.92950   77.53160  -42.22490   38.23520   31.43100   -9999.25    2.65950    0.10330    0.02710    0.00190   10.10460    3.36420
 10074.50000   99.72400  153.48750   25.83170   -9999.25   35.29700   84.00470  -40.13780   35.47830   30.27660   -9999.25    2.67110    0.11370    0.02300   -0.00110   10.14560    3.43390
 10075.00000  101.12240  158.41950   27.16300   -9999.25   33.17780   89.63130  -38.05220   32.92020   28.79700   -9999.25    2.67280    0.11730    0.02120    0.00130   10.17300    3.45560
 10075.50000  102.26380  158.19160   31.26910   -9999.25   29.35280   93.79870  -35.95150   30.54660   26.73720   -9999.25    2.67320    0.10680    0.02580    0.01920   10.30680    3.48800
 10076.00000  103.40480  157.88000   37.06040   -9999.25   25.96470   97.95010  -34.13820   28.34410   24.50950   -9999.25    2.59820    0.09890    0.06780    0.05440   10.44060    3.60560
 10076.50000  105.06620  157.88000   42.85160   -9999.25   22.68290  102.10390  -33.68370   25.40490   19.75920   -9999.25    2.50180    0.14280    0.11410    0.07290   10.57440    3.65600
 10077.00000  107.60120  162.13600   48.64290   -9999.25   19.75260  105.81140  -33.28810   22.24030   15.93440   -9999.25    2.32120    0.15350    0.16400    0.08690   10.83160    3.59810
 10077.50000  110.28000  166.52500   54.43410   -9999.25   17.00680  105.08400  -33.30260   19.01420   12.85030   -9999.25    2.08970    0.17960    0.23150    0.09820   11.14320    3.48800
 10078.00000  109.32800  167.73600   56.84100   -9999.25   17.01830  103.01550  -33.28100   16.15510   10.33850   -9999.25    2.00060    0.23740    0.30060    0.09550   11.35840    3.37290
 10078.50000  106.55600  161.80000   52.52520   -9999.25   18.06950  101.01170  -33.87400   14.01910   10.14940   -9999.25    1.92180    0.29960    0.30070    0.07870   11.58420    3.16160
 10079.00000  103.61810  151.64530   48.79280   -9999.25   19.54680   99.01530  -34.72730   14.65950   12.10420   -9999.25    1.92180    0.29960    0.30080    0.06270   11.84510    2.53720
 10079.50000  100.33270  138.70930   49.21830   -9999.25   19.46020   94.26160  -35.58520   16.65060   17.22330   -9999.25    2.04970    0.29090    0.30090    0.04930   11.93370    2.25730
 10080.00000   97.04740  133.80000   49.61770   -9999.25   19.31190   88.14880  -36.44670   27.85630  108.22870   -9999.25    2.30060    0.10100    0.26930    0.05470   11.40180    2.42600
