~Version ---------------------------------------------------
VERS.   2.0 : CWLS log ASCII Standard -VERSION 2.0
WRAP.    NO : One line per depth step
DLM . SPACE : Column Data Section Delimiter
~Well ------------------------------------------------------
STRT .F                 3953.0 : START DEPTH
STOP .F                11845.0 : STOP DEPTH
STEP .F                    0.5 : STEP
NULL .                -9999.25 : NULL VALUE
COMP .                         : COMPANY
WELL .                         : WELL
FLD  .                         : FIELD
LOC  .                         : LOCATION
PROV .                         : PROVINCE
CNTY .                         : COUNTY
STAT .                         : STATE
CTRY .                         : COUNTRY
SRVC .                         : SERVICE COMPANY
DATE .                         : DATE
UWI  .                         : UNIQUE WELL ID
API  .                         : API NUMBER
SLAT .WGS84  5.502796021876399 : SURFACE LATITUDE
SLON .WGS84 3.8792671488075143 : SURFACE LONGITUDE
DATUM.F                1831.73 : DEPTH DATUM ELEV
~Curve Information -----------------------------------------
DEPT   .F     : 
DTCO   .US/F  : DELTA-T COMPRESSIONAL
DTSM   .US/F  : DELTA-T SHEAR
CIDP   .MMHO  : INCUCTION DEEP PHASOR CONDUCTIVITY
SFLA   .B     : SPHERICALLY FOCUSED LOG RESISTIVITY AVERAGED OVER 2.5 FT
IDPH   .OHMM  : INDUCTION DEEP PHASOR RESISTIVITY
GRR    .GAPI  : GAMMA RAY FROM RESISTIVITY LOG
SPR    .MV    : SPONTANEOUS POTENTIAL FROM RESISTIVITY LOG
SFLU   .OHMM  : SHALLOW FOCUSED RESISTIVITY (UNAVERAGED)
IMPH   .OHMM  : INDUCTION MEDIUM PHASOR RESISTIVITY
DTST   .US/F  : DELTA-T STONELEY - MONOPOLE STONELEY
RHOB   .G/C3  : BULK DENSITY
NPHI_LS.DEC   : NEUTRON POROSITY LIMESTONE
DPHI_LS.DEC   : DENSITY POROSITY LIMESTONE
DRHO   .G/C3  : BULK DENSITY CORRECTION
CALD   .IN    : CALIPER FROM DENSITY LOG
PEF    .B/E   : PHOTOELECTRIC FACTOR
~Params ----------------------------------------------------
~Other -----------------------------------------------------
~ASCII -----------------------------------------------------
# ...
 11478.00000   62.68000  112.08570   53.93900   -9999.25   17.33350  139.73610  -34.89960   18.52590   17.87540  211.83010    2.46650    0.12590    0.14060    0.00920    7.98970    2.88510
 11478.50000   62.68000  109.92680   52.85560   -9999.25   17.68170  139.04110  -34.89960   18.21820   18.12260  211.55740    2.46520    0.12410    0.14400    0.01990    7.97800    2.97540
 11479.00000   66.24160  108.04000   51.77220   -9999.25   18.03700  138.33220  -34.89960   18.15290   18.32500  211.23570    2.46450    0.12180    0.14430    0.03610    7.98290    2.94800
 11479.50000   71.79680  106.61060   50.68880   -9999.25   18.39930  137.65560  -34.89960   18.15290   18.94050  211.06450    2.48070    0.11490    0.13480    0.05510    7.97150    2.94000
 11480.00000   71.73550  105.80000   49.60530   -9999.25   18.76890  136.42630  -34.89940   19.23540   19.58620  211.11860    2.52560    0.11070    0.11780    0.07500    7.96690    2.96280
 11480.50000   68.29880  106.48540   48.52190   -9999.25   19.14590  135.13530  -34.89960   20.47200   20.25660  211.17440    2.55980    0.11400    0.10080    0.08580    7.96220    2.97200
 11481.00000   64.85260  108.39060   47.43850   -9999.25   19.53040  133.80490  -34.90030   21.78810   20.94990  211.23000    2.56700    0.11740    0.09180    0.09070    7.96050    2.91640
 11481.50000   62.09210  112.00140   46.35500   -9999.25   19.92270  134.10970  -34.97630   23.07570   21.66690  211.20620    2.57420    0.12090    0.08380    0.09340    7.96210    2.84710
 11482.00000   62.10220  114.20000   45.27160   -9999.25   20.46680  134.81980  -35.17300   23.13050   21.98870  211.16650    2.57430    0.12060    0.07920    0.08640    7.96370    2.82910
 11482.50000   62.12000  114.25490   44.18820   -9999.25   20.95760  137.13800  -35.36800   23.20170   22.23930  211.12680    2.56710    0.11590    0.08310    0.06990    7.96530    2.81110
 11483.00000   62.12000  114.31040   43.10480   -9999.25   21.49520  139.54120  -35.56340   23.27300   22.40650  211.16580    2.55050    0.11190    0.09280    0.05230    7.96690    2.80110
 11483.50000   62.12000  114.36600   42.02140   -9999.25   22.04660  141.94910  -35.75870   23.51880   22.87450  211.31460    2.53380    0.11060    0.10250    0.04030    7.96850    2.85790
 11484.00000   62.25380  114.42150   41.67670   -9999.25   22.61210  144.35790  -35.95400   23.93000   22.85330  211.47000    2.52350    0.11020    0.11160    0.02820    7.97010    2.88330
 11484.50000   62.39270  114.47710   41.58790   -9999.25   23.11880  144.95850  -36.14930   24.34550   23.24480  211.45950    2.52050    0.10980    0.11230    0.02120    7.97170    2.87920
 11485.00000   62.53160  114.53260   41.49830   -9999.25   23.50550  144.13080  -36.34470   24.61660   23.73470  211.38950    2.51890    0.11040    0.11300    0.01980    7.97320    2.85620
 11485.50000   62.67050  114.58820   41.40750   -9999.25   23.72350  141.85330  -36.54030   24.61400   23.71380  211.31950    2.51620    0.11110    0.11360    0.01890    7.96000    2.84700
 11486.00000   62.80940  114.64370   41.31610   -9999.25   23.72350  139.42260  -36.73560   24.96150   23.98650  211.24940    2.50990    0.11170    0.11520    0.01870    7.94670    2.85610
 11486.50000   62.94820  114.69930   41.22460   -9999.25   23.72350  136.92560  -36.90700   25.54130   24.16540  211.29140    2.49590    0.11230    0.11950    0.01850    7.94680    2.88930
 11487.00000   63.08710  114.76000   41.13320   -9999.25   23.64810  136.12860  -36.90840   25.27480   24.08970  211.34870    2.49610    0.11210    0.12370    0.01860    7.95370    2.97240
 11487.50000   63.24000  114.27000   41.04170   -9999.25   23.50550  135.86130  -36.90770   24.80000   24.01060  211.35000    2.49930    0.11190    0.12560    0.01690    7.96070    3.08030
 11488.00000   62.71420  113.64000   40.95020   -9999.25   23.28960  135.61670  -36.90770   24.33420   23.94340  211.11340    2.50280    0.11170    0.12250    0.01500    7.96770    3.18800
 11488.50000   62.12940  113.08000   40.85880   -9999.25   23.50550  135.36730  -36.90780   23.72350   23.77920  210.89850    2.50770    0.10890    0.11850    0.01660    7.97190    3.25970
 11489.00000   61.54470  112.98040   40.76730   -9999.25   23.72350  135.12280  -36.90750   24.09280   23.72350  210.68350    2.51250    0.10670    0.11470    0.02670    7.95700    3.35140
 11489.50000   61.00000  112.83420   40.16770   -9999.25   24.26440  135.59580  -36.90710   24.78530   23.94340  210.53290    2.50620    0.10940    0.11280    0.04250    7.94480    3.41410
 11490.00000   61.82440  112.68800   39.39190   -9999.25   24.70280  136.17360  -36.84600   25.53220   24.26670  210.62560    2.49990    0.11170    0.11750    0.05840    7.94320    3.16450
 11490.50000   62.59600  112.54180   38.61680   -9999.25   25.14920  136.76500  -36.71310   26.25070   24.99360  210.71830    2.51430    0.11240    0.12170    0.06650    7.94150    2.87390
 11491.00000   63.36760  113.08000   37.84150   -9999.25   25.77810  137.68390  -36.58050   27.25930   25.78830  210.75070    2.52930    0.10890    0.11410    0.06680    7.95000    2.80620
 11491.50000   63.39310  112.68990   37.06860   -9999.25   25.79490  139.81010  -36.44890   28.29820   26.60050  210.75000    2.54150    0.10190    0.10310    0.06300    7.95850    2.82490
 11492.00000   62.46720  112.22690   36.29470   -9999.25   25.92020  141.88890  -36.31760   29.06390   28.27030  210.75000    2.54200    0.09550    0.10090    0.03620    7.96650    2.87500
 11492.50000   61.56000  111.96000   35.88200   -9999.25   26.04620  143.60920  -36.16720   29.00370   28.17830  210.81560    2.53160    0.09490    0.10560    0.01980    7.97450    2.89420
 11493.00000   62.21390  113.22310   36.55270   -9999.25   26.17270  143.73440  -35.77970   28.54500   28.00580  210.87930    2.52120    0.09430    0.11030    0.01860    7.98250    2.90500
 11493.50000   62.85490  114.76000   37.22330   -9999.25   26.25830  144.51850  -35.69260   28.09420   27.83440  210.98010    2.51390    0.09370    0.11330    0.01840    7.98770    2.91640
 11494.00000   63.73280  115.22730   38.22940   -9999.25   25.07420  146.20290  -35.65610   27.65400   27.34140  211.22360    2.51410    0.09290    0.11350    0.02060    7.99290    2.96520
 11494.50000   64.96730  116.00500   41.81340   -9999.25   22.31810  146.67280  -35.42310   27.22420   26.22280  211.47000    2.51910    0.09680    0.11230    0.02240    7.99960    3.04100
 11495.00000   66.20180  116.78270   50.11320   -9999.25   19.67530  147.09660  -35.18740   27.00330   24.38950  211.88780    2.52280    0.10110    0.11010    0.02410    8.01340    3.07440
 11495.50000   67.43630  117.56040   58.41300   -9999.25   17.34540  147.45710  -34.94640   26.26030   21.86930  212.31070    2.52190    0.10660    0.10780    0.02310    8.02730    3.07110
 11496.00000   67.52550  118.33890   66.71280   -9999.25   15.27420  146.90180  -34.99360   22.88480   17.82410  212.73360    2.50830    0.11290    0.11280    0.02070    8.04120    3.13370
 11496.50000   67.27300  118.62680   75.01260   -9999.25   13.33550  143.20890  -35.11230   18.17800   14.53090  213.15000    2.48960    0.11920    0.12490    0.01570    8.05500    3.18720
 11497.00000   66.09260  118.27970   83.31240   -9999.25   11.64300  135.02250  -35.23370   14.25440   11.85200  213.21000    2.46630    0.12550    0.13660    0.01070    8.06890    3.14930
 11497.50000   64.16030  118.12270   91.61220   -9999.25   10.17070  127.83260  -35.35500   11.04180   10.12520  212.67000    2.45470    0.13180    0.14680    0.00730    8.08270    3.02520
 11498.00000   62.23020  116.71160   99.91200   -9999.25    9.00800  123.33390  -35.47610    9.16970    9.04300  212.01760    2.45960    0.13810    0.15020    0.00440    8.09660    2.93320
 11498.50000   60.30540  114.17650  106.13680   -9999.25    8.91120  120.99830  -35.60380    9.00200    8.13300  211.32320    2.46620    0.13880    0.14380    0.00160    8.10870    2.84580
 11499.00000   58.21210  111.64140  106.13680   -9999.25    8.91450  117.37190  -35.69740    9.43050    8.13300  210.22890    2.47690    0.13310    0.13750   -0.00130    8.11520    2.75840
