~Version ---------------------------------------------------
VERS.   2.0 : CWLS log ASCII Standard -VERSION 2.0
WRAP.    NO : One line per depth step
DLM . SPACE : Column Data Section Delimiter
~Well ------------------------------------------------------
STRT .F                 3953.0 : START DEPTH
STOP .F                11845.0 : STOP DEPTH
STEP .F                    0.5 : STEP
NULL .                -9999.25 : NULL VALUE
COMP .                         : COMPANY
WELL .                         : WELL
FLD  .                         : FIELD
LOC  .                         : LOCATION
PROV .                         : PROVINCE
CNTY .                         : COUNTY
STAT .                         : STATE
CTRY .                         : COUNTRY
SRVC .                         : SERVICE COMPANY
DATE .                         : DATE
UWI  .                         : UNIQUE WELL ID
API  .                         : API NUMBER
SLAT .WGS84  5.502796021876399 : SURFACE LATITUDE
SLON .WGS84 3.8792671488075143 : SURFACE LONGITUDE
DATUM.F                1831.73 : DEPTH DATUM ELEV
~Curve Information -----------------------------------------
DEPT   .F     : 
DTCO   .US/F  : DELTA-T COMPRESSIONAL
DTSM   .US/F  : DELTA-T SHEAR
CIDP   .MMHO  : INCUCTION DEEP PHASOR CONDUCTIVITY
SFLA   .B     : SPHERICALLY FOCUSED LOG RESISTIVITY AVERAGED OVER 2.5 FT
IDPH   .OHMM  : INDUCTION DEEP PHASOR RESISTIVITY
GRR    .GAPI  : GAMMA RAY FROM RESISTIVITY LOG
SPR    .MV    : SPONTANEOUS POTENTIAL FROM RESISTIVITY LOG
SFLU   .OHMM  : SHALLOW FOCUSED RESISTIVITY (UNAVERAGED)
IMPH   .OHMM  : INDUCTION MEDIUM PHASOR RESISTIVITY
DTST   .US/F  : DELTA-T STONELEY - MONOPOLE STONELEY
RHOB   .G/C3  : BULK DENSITY
NPHI_LS.DEC   : NEUTRON POROSITY LIMESTONE
DPHI_LS.DEC   : DENSITY POROSITY LIMESTONE
DRHO   .G/C3  : BULK DENSITY CORRECTION
CALD   .IN    : CALIPER FROM DENSITY LOG
PEF    .B/E   : PHOTOELECTRIC FACTOR
~Params ----------------------------------------------------
~Other -----------------------------------------------------
~ASCII -----------------------------------------------------
# ...
 10403.00000   61.83220  105.80000   19.61490   -9999.25   47.90540  106.20990  -34.38270   49.55130   47.83960   -9999.25    2.63050    0.08310    0.04660    0.00200    9.33710    3.29510
 10403.50000   61.56000  104.02200   19.03920   -9999.25   48.44550  106.29240  -33.90740   49.53880   48.73080   -9999.25    2.63220    0.08750    0.04580    0.00210    9.33240    3.31920
 10404.00000   59.90630  102.29300   18.60810   -9999.25   49.18880  104.93860  -33.47490   54.75590   50.21690   -9999.25    2.63880    0.08160    0.04320    0.00270    9.32440    3.36640
 10404.50000   58.27910  100.56400   18.61170   -9999.25   49.17910  102.38800  -33.05470   64.36690   51.97800   -9999.25    2.64400    0.08040    0.03890    0.00400    9.31400    3.41370
 10405.00000   56.65720  100.41280   18.61170   -9999.25   49.18260   99.88610  -32.61780   69.20030   54.44860   -9999.25    2.64920    0.08130    0.03450    0.00530    9.30360    3.46090
 10405.50000   56.47170  100.96610   18.61170   -9999.25   49.18260  100.57150  -32.49250   70.48950   54.96310   -9999.25    2.65070    0.08570    0.03260    0.00630    9.30230    3.56020
 10406.00000   57.34830  101.51940   18.61170   -9999.25   48.28310  103.95410  -32.45470   66.15540   53.75620   -9999.25    2.65070    0.09590    0.03390    0.00650    9.30250    3.68290
 10406.50000   58.22510  101.88000   19.64420   -9999.25   47.19350  107.71110  -32.30560   58.70420   51.16420   -9999.25    2.65070    0.11050    0.03450    0.00640    9.30270    3.78150
 10407.00000   59.10670  104.48960   21.02090   -9999.25   45.94510  111.27630  -32.15920   54.27120   48.69350   -9999.25    2.65070    0.12230    0.03450    0.00660    9.30290    3.71640
 10407.50000   60.08450  107.25600   22.39750   -9999.25   43.74100  112.57670  -32.01250   52.56170   45.26260   -9999.25    2.65070    0.12620    0.03450    0.00560    9.30060    3.69670
 10408.00000   61.76840  110.02240   23.77420   -9999.25   40.48290  113.62470  -31.86570   50.47940   42.34300   -9999.25    2.65070    0.13010    0.03450    0.00510    9.29500    3.62630
 10408.50000   63.45230  112.78880   25.15090   -9999.25   37.46750  117.85490  -31.71890   48.22050   39.97900   -9999.25    2.65070    0.14020    0.03470    0.00470    9.28950    3.53070
 10409.00000   65.13620  115.34850   26.52760   -9999.25   34.67680  127.52000  -31.57210   45.05510   36.61930   -9999.25    2.64890    0.15410    0.03820    0.00490    9.28390    3.46160
 10409.50000   66.82010  119.93990   27.90430   -9999.25   32.38980  137.18780  -31.42530   40.88160   32.21860   -9999.25    2.64620    0.17230    0.04490    0.00510    9.27830    3.43120
 10410.00000   69.13680  124.15340   29.28100   -9999.25   30.75770  146.20060  -31.27850   37.09040   28.34680   -9999.25    2.60990    0.19440    0.05770    0.00400    9.27270    3.40080
 10410.50000   72.17980  128.17240   30.66300   -9999.25   29.87990  152.05650  -31.13170   33.67060   26.99540   -9999.25    2.59320    0.19940    0.07040    0.00270    9.26710    3.37790
 10411.00000   74.10200  129.35360   32.20490   -9999.25   29.76650  157.97630  -30.98490   33.07250   27.90970   -9999.25    2.58830    0.20070    0.07200    0.00290    9.26150    3.40010
 10411.50000   74.60490  131.00000   32.71110   -9999.25   29.60540  161.80820  -30.83810   35.36040   29.07350   -9999.25    2.58470    0.20520    0.07320    0.00570    9.25590    3.44240
 10412.00000   75.00000  133.46400   32.38500   -9999.25   30.48110  165.58020  -30.69140   37.36530   30.28580   -9999.25    2.58190    0.21200    0.07440    0.00590    9.25030    3.47460
 10412.50000   75.29470  136.53780   31.08560   -9999.25   31.59800  169.35120  -30.54460   39.68490   31.54870   -9999.25    2.57960    0.21590    0.07560    0.00500    9.24470    3.46750
 10413.00000   75.58590  138.28000   29.78760   -9999.25   32.76330  173.12610  -30.39780   43.00860   32.86420   -9999.25    2.57740    0.21740    0.07670    0.00490    9.23910    3.38380
 10413.50000   75.87710  138.28000   28.49270   -9999.25   33.96760  176.90520  -30.25100   46.61060   34.23460   -9999.25    2.57340    0.21890    0.07780    0.00570    9.23350    3.32710
 10414.00000   76.48740  137.36320   27.19780   -9999.25   35.21040  180.68640  -30.10420   47.83960   35.66220   -9999.25    2.56750    0.22940    0.08340    0.00590    9.22790    3.35050
 10414.50000   78.28910  136.17760   25.90540   -9999.25   36.60620  182.63670  -29.95740   48.20300   36.74250   -9999.25    2.56120    0.23680    0.08780    0.00850    9.23070    3.41910
 10415.00000   77.80000  134.99360   24.61200   -9999.25   37.20570  182.01220  -29.81060   50.05260   37.48870   -9999.25    2.55490    0.24000    0.08970    0.01360    9.21710    3.54040
 10415.50000   76.17600  133.80890   23.72570   -9999.25   37.89600  179.25530  -29.66360   52.40670   38.25020   -9999.25    2.53390    0.24310    0.09490    0.01880    9.20350    3.66300
 10416.00000   74.44700  133.24300   24.06100   -9999.25   38.33500  176.93690  -29.51690   55.34450   39.04910   -9999.25    2.50600    0.24450    0.10510    0.03150    9.19470    3.53040
 10416.50000   72.71800  133.39030   24.39640   -9999.25   37.73540  174.94190  -29.37110   59.29440   39.04580   -9999.25    2.50600    0.23580    0.11660    0.05260    9.15650    3.43030
 10417.00000   70.98900  133.54890   24.73170   -9999.25   37.12820  172.09270  -29.30150   61.37680   39.58250   -9999.25    2.52260    0.22520    0.11860    0.05720    9.11530    3.20240
 10417.50000   69.40000  133.70700   25.06710   -9999.25   36.53080  164.96460  -29.37650   60.81290   40.15600   -9999.25    2.56390    0.20500    0.09030    0.06140    9.07400    3.00370
 10418.00000   68.54560  132.66550   25.40240   -9999.25   35.93680  156.14680  -29.44910   54.79150   39.78680   -9999.25    2.59790    0.18470    0.05830    0.06140    9.03280    3.00820
 10418.50000   67.76260  130.60240   25.65390   -9999.25   36.65730  141.44590  -29.52180   45.38140   38.45490   -9999.25    2.63810    0.16450    0.04470    0.02920    8.99360    3.41060
 10419.00000   66.56270  127.17520   25.65390   -9999.25   38.77540  126.48820  -29.59460   40.14540   37.11910   -9999.25    2.65510    0.14420    0.03450    0.01420    8.95870    3.67230
 10419.50000   64.10020  123.02560   25.02520   -9999.25   40.85550  110.73670  -29.66730   41.27240   36.27000   -9999.25    2.67210    0.11650    0.02540    0.00830    8.93970    3.83870
 10420.00000   61.63610  118.87600   22.52000   -9999.25   43.27130   94.96590  -29.74000   46.06330   38.47080   -9999.25    2.68040    0.07990    0.01740    0.00770    8.92060    3.92570
 10420.50000   59.17560  114.76000   19.99850   -9999.25   46.53330   79.07330  -29.81280   67.04210   45.27570   -9999.25    2.68660    0.05840    0.01330    0.00710    8.90160    3.99170
 10421.00000   56.71660  112.46010   17.47830   -9999.25   56.46920   74.54770  -29.88600  102.16760   59.45650   -9999.25    2.68510    0.03710    0.01310    0.00660    8.88250    3.94730
 10421.50000   54.25760  110.99550   14.95640   -9999.25   70.48950   73.95620  -29.95950  150.69310   78.07880   -9999.25    2.68400    0.02550    0.01440    0.00680    8.86350    3.79060
 10422.00000   54.33760  109.53090   12.44970   -9999.25   76.05890   72.48030  -30.02840  178.10440   98.95980   -9999.25    2.68250    0.02400    0.01650    0.00690    8.84450    3.64840
 10422.50000   55.76400  108.04000   10.76460   -9999.25   83.99950   71.03580  -29.98050  213.34680  116.52720   -9999.25    2.68060    0.04400    0.01850    0.00650    8.83590    3.62750
 10423.00000   58.29990  108.15910   11.56940   -9999.25   84.77830   71.67260  -29.61350  219.33610  127.24400   -9999.25    2.67210    0.06400    0.02330    0.00640    8.83630    3.67020
 10423.50000   60.83570  110.08720   12.37430   -9999.25   79.47460   77.93380  -29.26070  145.02540  100.64590   -9999.25    2.63760    0.09210    0.03140    0.00670    8.83710    3.83660
 10424.00000   63.37160  112.01530   14.67670   -9999.25   69.34260   84.59390  -28.90830  102.90890   78.69580   -9999.25    2.60080    0.12840    0.05190    0.00690    8.83800    3.99050
