~Version ---------------------------------------------------
VERS.   2.0 : CWLS log ASCII Standard -VERSION 2.0
WRAP.    NO : One line per depth step
DLM . SPACE : Column Data Section Delimiter
~Well ------------------------------------------------------
STRT .F                 3953.0 : START DEPTH
STOP .F                11845.0 : STOP DEPTH
STEP .F                    0.5 : STEP
NULL .                -9999.25 : NULL VALUE
COMP .                         : COMPANY
WELL .                         : WELL
FLD  .                         : FIELD
LOC  .                         : LOCATION
PROV .                         : PROVINCE
CNTY .                         : COUNTY
STAT .                         : STATE
CTRY .                         : COUNTRY
SRVC .                         : SERVICE COMPANY
DATE .                         : DATE
UWI  .                         : UNIQUE WELL ID
API  .                         : API NUMBER
SLAT .WGS84  5.502796021876399 : SURFACE LATITUDE
SLON .WGS84 3.8792671488075143 : SURFACE LONGITUDE
DATUM.F                1831.73 : DEPTH DATUM ELEV
~Curve Information -----------------------------------------
DEPT   .F     : 
DTCO   .US/F  : DELTA-T COMPRESSIONAL
DTSM   .US/F  : DELTA-T SHEAR
CIDP   .MMHO  : INCUCTION DEEP PHASOR CONDUCTIVITY
SFLA   .B     : SPHERICALLY FOCUSED LOG RESISTIVITY AVERAGED OVER 2.5 FT
IDPH   .OHMM  : INDUCTION DEEP PHASOR RESISTIVITY
GRR    .GAPI  : GAMMA RAY FROM RESISTIVITY LOG
SPR    .MV    : SPONTANEOUS POTENTIAL FROM RESISTIVITY LOG
SFLU   .OHMM  : SHALLOW FOCUSED RESISTIVITY (UNAVERAGED)
IMPH   .OHMM  : INDUCTION MEDIUM PHASOR RESISTIVITY
DTST   .US/F  : DELTA-T STONELEY - MONOPOLE STONELEY
RHOB   .G/C3  : BULK DENSITY
NPHI_LS.DEC   : NEUTRON POROSITY LIMESTONE
DPHI_LS.DEC   : DENSITY POROSITY LIMESTONE
DRHO   .G/C3  : BULK DENSITY CORRECTION
CALD   .IN    : CALIPER FROM DENSITY LOG
PEF    .B/E   : PHOTOELECTRIC FACTOR
~Params ----------------------------------------------------
~Other -----------------------------------------------------
~ASCII -----------------------------------------------------
# ...
 11650.00000   64.20560  115.10110   30.01340   -9999.25   31.29650  122.42190  -20.10290   32.35130   32.11240  211.82740    2.46780    0.10180    0.13880    0.01630    7.98340    2.88090
 11650.50000   64.92040  115.29850   30.35220   -9999.25   31.14750  123.10010  -19.52610   34.57650   33.38840  211.71000    2.47940    0.09670    0.13550    0.01380    7.98080    2.89270
 11651.00000   65.63520  117.02170   30.68830   -9999.25   30.15690  124.63220  -19.33890   37.35250   34.31620  211.82040    2.49140    0.09340    0.13230    0.01100    7.97820    2.96230
 11651.50000   66.35010  118.93130   32.68410   -9999.25   28.47760  126.11080  -18.47000   42.04120   34.95550  212.37000    2.50340    0.09010    0.12540    0.00880    7.97160    3.06200
 11652.00000   67.06490  120.84090   34.68840   -9999.25   26.71320  129.57280  -16.90710   40.36580   33.71350  213.55080    2.51540    0.08900    0.11330    0.00860    7.97130    3.30440
 11652.50000   66.31010  123.16000   36.69520   -9999.25   25.06190  137.58050  -15.34770   36.54290   30.13600  214.11000    2.55700    0.10240    0.09220    0.01120    7.97030    3.54480
 11653.00000   65.32980  124.28000   38.73240   -9999.25   23.53560  152.58330  -13.78390   29.00390   25.64990  214.17000    2.59280    0.11890    0.07340    0.01380    7.96930    3.57510
 11653.50000   64.34950  124.28000   42.02720   -9999.25   22.16200  162.33150  -12.21870   17.43130   21.83160  213.56900    2.61360    0.13110    0.05480    0.01560    7.96830    3.56810
 11654.00000   63.80000  124.28000   45.37220   -9999.25   20.86720  171.38380  -10.65320   18.33790   20.78990  212.73580    2.62850    0.12500    0.04450    0.01680    7.96730    3.53420
 11654.50000   63.80000  125.71920   48.71730   -9999.25   19.64890  168.75830   -9.21740   20.38450   20.28070  211.90250    2.63350    0.11670    0.04370    0.01780    7.96630    3.50020
 11655.00000   63.79760  127.08000   52.06240   -9999.25   18.50520  162.91690   -8.91590   22.59470   19.78390  211.53000    2.63520    0.11310    0.04350    0.01840    7.96530    3.48080
 11655.50000   63.79640  126.74070   53.82290   -9999.25   17.66070  158.63910   -8.60670   25.07420   19.36000  211.85380    2.64160    0.11910    0.04340    0.02100    7.96430    3.48380
 11656.00000   64.87320  125.92380   53.58650   -9999.25   17.42370  163.39290   -8.29110   23.82360   18.98160  212.17130    2.65730    0.13040    0.03570    0.02700    7.96330    3.48670
 11656.50000   66.64380  125.10680   53.08480   -9999.25   17.32670  170.54640   -7.99840   21.81850   18.60820  212.49000    2.67420    0.13930    0.02520    0.03270    7.96230    3.49630
 11657.00000   69.59650  124.28000   52.81690   -9999.25   17.49900  177.72070   -8.14690   20.27880   18.48530  212.40180    2.68040    0.14400    0.01730    0.03810    7.96130    3.53010
 11657.50000   74.39420  122.12400   51.36440   -9999.25   17.82190  184.91180   -8.50150   19.90790   18.48150  212.25300    2.67240    0.14440    0.02000    0.04120    7.96030    3.57380
 11658.00000   78.60080  119.94160   49.85910   -9999.25   18.53230  188.75600   -8.85020   20.09250   19.02210  212.10420    2.66340    0.14050    0.02580    0.03910    7.95930    3.54400
 11658.50000   80.06120  117.56000   48.35390   -9999.25   19.33630  187.08450   -9.21670   20.47230   19.72500  212.10270    2.64190    0.13640    0.03700    0.03360    7.95830    3.45940
 11659.00000   80.37830  117.72610   46.84860   -9999.25   20.17600  181.12220  -10.07650   23.28240   21.98630  212.23680    2.61150    0.12700    0.05210    0.02810    7.95730    3.42710
 11659.50000   80.34930  118.18910   45.34330   -9999.25   21.43330  172.86260  -10.93830   27.21580   24.34240  212.53440    2.58100    0.11550    0.07240    0.02380    7.95630    3.31050
 11660.00000   78.04430  118.68000   43.83900   -9999.25   22.03960  163.36030  -11.79720   32.29250   26.95090  212.83200    2.55050    0.10390    0.09400    0.01880    7.95340    3.19090
 11660.50000   74.40300  119.25520   42.33870   -9999.25   22.49530  148.34330  -12.65090   40.51760   29.33340  213.12960    2.53390    0.10340    0.10220    0.01410    7.94850    3.00860
 11661.00000   70.76200  119.00000   40.75620   -9999.25   22.86370  141.03520  -13.49800   36.07850   29.33340  213.33000    2.55170    0.10960    0.09230    0.01280    7.94350    2.91490
 11661.50000   67.87410  118.73010   39.74980   -9999.25   23.07570  148.22370  -14.01400   30.24000   26.64630  213.27000    2.57810    0.12670    0.07990    0.01150    7.93850    2.90240
 11662.00000   66.60960  118.46070   40.87320   -9999.25   23.07570  154.08340  -14.01450   25.63570   24.54270  213.19460    2.60450    0.14300    0.06260    0.00970    7.93350    2.98510
 11662.50000   65.48000  118.20000   42.07750   -9999.25   22.56940  166.78830  -13.97360   21.63210   22.86370  213.08900    2.61280    0.13990    0.05470    0.00780    7.92850    3.18600
 11663.00000   64.95280  117.20160   43.28170   -9999.25   22.17310  177.35900  -15.02730   21.83260   22.31130  212.98340    2.58190    0.13010    0.06290    0.00660    7.92350    3.19120
 11663.50000   64.47390  115.34990   44.48590   -9999.25   21.83260  168.22060  -15.89820   24.43530   21.83260  212.87780    2.54790    0.12470    0.09500    0.00620    7.91860    3.07520
 11664.00000   63.99500  114.76000   45.77470   -9999.25   21.57130  159.30130  -16.27010   25.07460   21.43330  212.77220    2.52470    0.12100    0.10830    0.00580    7.92420    2.90840
 11664.50000   63.51440  115.57010   45.17480   -9999.25   21.43330  144.54510  -17.34780   24.42880   21.77050  212.66660    2.51620    0.11840    0.11600    0.00550    7.93340    2.79160
 11665.00000   63.03240  116.49600   44.52970   -9999.25   21.23650  138.41630  -18.41140   23.82730   22.35100  212.71400    2.51060    0.11870    0.11730    0.00510    7.94190    2.78500
 11665.50000   62.72570  117.42190   43.88460   -9999.25   21.23650  135.29860  -19.48860   23.28940   22.46800  213.11080    2.51290    0.11890    0.11510    0.00590    7.94980    2.83220
 11666.00000   62.93730  117.69570   43.23940   -9999.25   21.28280  136.40860  -20.56890   23.06790   22.56220  213.33000    2.51530    0.11800    0.11260    0.00690    7.95240    2.87200
 11666.50000   63.16160  117.04220   42.59430   -9999.25   21.43330  137.61170  -21.25450   23.72350   22.65370  213.13920    2.51740    0.11710    0.11020    0.00810    7.96870    2.82900
 11667.00000   66.42190  116.38860   41.94920   -9999.25   21.63210  138.20830  -21.69310   24.38950   22.97100  212.91700    2.51900    0.11440    0.11030    0.01040    7.98860    2.85550
 11667.50000   71.44800  115.88000   41.30410   -9999.25   22.17220  137.10560  -21.92430   24.97600   23.43850  212.73840    2.51950    0.11120    0.11090    0.01340    8.00840    2.92310
 11668.00000   76.47410  115.52970   40.65900   -9999.25   22.98070  135.45380  -22.20500   25.85060   23.91560  212.55980    2.52010    0.10800    0.11130    0.02480    8.07060    3.02880
 11668.50000   81.50030  116.05550   40.01380   -9999.25   23.72350  136.18230  -22.49340   27.16500   24.38950  212.17940    2.53250    0.10480    0.10590    0.03410    8.01670    3.08530
 11669.00000   83.88640  115.88760   39.36870   -9999.25   23.97320  137.72290  -22.78550   28.54620   25.40800  211.82530    2.54250    0.10360    0.09900    0.04120    7.94610    3.06410
 11669.50000   82.28000  114.23320   38.72360   -9999.25   24.37800  137.94720  -22.85030   29.06390   26.40210  212.10540    2.54670    0.10480    0.09220    0.04830    7.88900    3.05770
 11670.00000   77.06640  111.46790   38.07810   -9999.25   24.79120  137.13320  -22.84960   29.06620   27.24040  212.38550    2.53770    0.10990    0.09430    0.05100    7.84660    3.04440
 11670.50000   71.65840  108.60000   37.43300   -9999.25   25.21120  136.35550  -22.85540   28.79690   27.25650  212.66650    2.52660    0.11510    0.10160    0.04980    7.82670    3.02000
 11671.00000   69.49620  110.37660   36.78740   -9999.25   25.54470  138.19760  -22.89300   28.52770   27.00330  212.71950    2.51980    0.11910    0.10840    0.04640    7.83420    2.99560
