~Version ---------------------------------------------------
VERS.   2.0 : CWLS log ASCII Standard -VERSION 2.0
WRAP.    NO : One line per depth step
DLM . SPACE : Column Data Section Delimiter
~Well ------------------------------------------------------
STRT .F                 3953.0 : START DEPTH
STOP .F                11845.0 : STOP DEPTH
STEP .F                    0.5 : STEP
NULL .                -9999.25 : NULL VALUE
COMP .                         : COMPANY
WELL .                         : WELL
FLD  .                         : FIELD
LOC  .                         : LOCATION
PROV .                         : PROVINCE
CNTY .                         : COUNTY
STAT .                         : STATE
CTRY .                         : COUNTRY
SRVC .                         : SERVICE COMPANY
DATE .                         : DATE
UWI  .                         : UNIQUE WELL ID
API  .                         : API NUMBER
SLAT .WGS84  5.502796021876399 : SURFACE LATITUDE
SLON .WGS84 3.8792671488075143 : SURFACE LONGITUDE
DATUM.F                1831.73 : DEPTH DATUM ELEV
~Curve Information -----------------------------------------
DEPT   .F     : 
DTCO   .US/F  : DELTA-T COMPRESSIONAL
DTSM   .US/F  : DELTA-T SHEAR
CIDP   .MMHO  : INCUCTION DEEP PHASOR CONDUCTIVITY
SFLA   .B     : SPHERICALLY FOCUSED LOG RESISTIVITY AVERAGED OVER 2.5 FT
IDPH   .OHMM  : INDUCTION DEEP PHASOR RESISTIVITY
GRR    .GAPI  : GAMMA RAY FROM RESISTIVITY LOG
SPR    .MV    : SPONTANEOUS POTENTIAL FROM RESISTIVITY LOG
SFLU   .OHMM  : SHALLOW FOCUSED RESISTIVITY (UNAVERAGED)
IMPH   .OHMM  : INDUCTION MEDIUM PHASOR RESISTIVITY
DTST   .US/F  : DELTA-T STONELEY - MONOPOLE STONELEY
RHOB   .G/C3  : BULK DENSITY
NPHI_LS.DEC   : NEUTRON POROSITY LIMESTONE
DPHI_LS.DEC   : DENSITY POROSITY LIMESTONE
DRHO   .G/C3  : BULK DENSITY CORRECTION
CALD   .IN    : CALIPER FROM DENSITY LOG
PEF    .B/E   : PHOTOELECTRIC FACTOR
~Params ----------------------------------------------------
~Other -----------------------------------------------------
~ASCII -----------------------------------------------------
# ...
 10940.50000   71.15000  104.12000   21.39490   -9999.25   43.62220  124.59450  -22.75630   45.28910   40.89320   -9999.25    2.64710    0.11350    0.03920    0.00220    8.77260    3.50860
 10941.00000   69.43500  104.43850   20.68340   -9999.25   43.62220  126.87150  -22.60300   43.62220   40.51760   -9999.25    2.64970    0.11590    0.03780    0.00230    8.77090    3.52380
 10941.50000   68.39200  105.63900   19.97280   -9999.25   44.68570  125.66570  -22.44960   44.84680   42.43100   -9999.25    2.65240    0.10780    0.03540    0.00370    8.75440    3.51890
 10942.00000   67.71090  106.83950   19.26260   -9999.25   46.51930  120.63530  -22.29600   49.14000   46.22050   -9999.25    2.65500    0.09510    0.03180    0.00640    8.73760    3.47800
 10942.50000   66.04010  108.04000   18.55250   -9999.25   49.14370  115.59370  -22.14230   55.62120   50.49160   -9999.25    2.65920    0.08300    0.02760    0.00900    8.72090    3.41280
 10943.00000   64.36560  108.04000   17.84240   -9999.25   51.79400  111.71630  -21.98870   62.95720   55.45180   -9999.25    2.66510    0.07470    0.02510    0.01030    8.71530    3.37800
 10943.50000   64.36500  106.92000   17.13220   -9999.25   53.31560  111.33030  -21.83570   71.26070   59.62150   -9999.25    2.66450    0.06790    0.02660    0.01070    8.71120    3.37890
 10944.00000   64.36110  104.98990   16.66250   -9999.25   54.88590  114.06730  -21.67980   80.65940   64.30730   -9999.25    2.66030    0.06470    0.02900    0.01110    8.70710    3.40390
 10944.50000   64.35940  102.97760   16.91400   -9999.25   56.50240  122.00620  -21.75740   83.99950   66.17760   -9999.25    2.66030    0.07090    0.03050    0.01030    8.70300    3.48470
 10945.00000   64.35810  100.96530   17.16420   -9999.25   58.60890  130.20730  -21.94360   75.36280   64.36290   -9999.25    2.66490    0.07800    0.02640    0.00630    8.69880    3.53790
 10945.50000   63.46400  100.43520   17.41680   -9999.25   57.74560  137.91780  -22.13190   68.54720   62.12900   -9999.25    2.67020    0.08800    0.02230    0.00280    8.69470    3.55240
 10946.00000   62.46620  101.36320   17.66850   -9999.25   56.17500  139.11090  -22.33840   61.94580   59.33820   -9999.25    2.67960    0.09030    0.01810    0.00200    8.69060    3.56680
 10946.50000   62.53350  102.28730   17.92030   -9999.25   54.64710  137.84660  -22.78510   61.37680   56.48480   -9999.25    2.68310    0.09200    0.01400    0.00130    8.68480    3.56430
 10947.00000   63.16680  103.20590   18.17150   -9999.25   53.61250  138.18350  -23.32950   64.12520   55.12120   -9999.25    2.68770    0.09360    0.01050    0.00040    8.69000    3.54720
 10947.50000   63.80000  104.12360   18.42300   -9999.25   53.00010  138.62070  -23.82290   66.11030   53.92790   -9999.25    2.69240    0.09520    0.00920   -0.00060    8.67520    3.53360
 10948.00000   62.88530  105.04230   18.57300   -9999.25   52.39460  139.68150  -24.31960   68.17200   53.44780   -9999.25    2.69710    0.09530    0.00800   -0.00160    8.65210    3.55710
 10948.50000   63.31840  105.80880   18.41820   -9999.25   51.98280  145.16530  -24.81940   69.19440   53.44980   -9999.25    2.69740    0.09470    0.00780   -0.00250    8.66970    3.64940
 10949.00000   64.14160  105.80570   18.26340   -9999.25   52.01660  151.48140  -25.31870   69.39390   53.44210   -9999.25    2.69190    0.09610    0.01070   -0.00350    8.65440    3.79690
 10949.50000   62.80490  105.80000   18.10870   -9999.25   51.93930  156.67750  -25.81810   69.60680   53.93760   -9999.25    2.68060    0.09800    0.01360   -0.00430    8.65310    3.84270
 10950.00000   60.68820  105.80000   17.95390   -9999.25   53.39360  163.10750  -26.31880   69.84190   54.83300   -9999.25    2.66700    0.09960    0.01760   -0.00510    8.65450    3.68780
 10950.50000   58.76000  105.80000   17.79910   -9999.25   54.31310  170.57660  -26.81420   71.80260   55.62890   -9999.25    2.65510    0.09420    0.02260   -0.00600    8.65590    3.53760
 10951.00000   58.39480  104.91830   17.64430   -9999.25   55.45180  176.66220  -26.97480   74.50270   56.43630   -9999.25    2.65350    0.08760    0.02710   -0.00710    8.65720    3.40100
 10951.50000   58.05950  104.25050   16.85110   -9999.25   57.92460  179.53920  -27.09250   75.89070   59.01600   -9999.25    2.65190    0.08670    0.03150   -0.00660    8.65860    3.26440
 10952.00000   57.72420  103.58280   15.84510   -9999.25   60.91510  182.46760  -27.20750   74.50270   64.57260   -9999.25    2.64910    0.08600    0.03590   -0.00580    8.66000    3.22030
 10952.50000   57.38890  102.91500   14.83900   -9999.25   64.27530  185.54750  -27.20700   79.10870   69.76140   -9999.25    2.64210    0.08540    0.04060   -0.00510    8.66140    3.22140
 10953.00000   57.05350  102.24730   13.83300   -9999.25   70.81470  178.13510  -26.96410   98.98330   75.62850   -9999.25    2.63050    0.07910    0.04700   -0.00430    8.66270    3.21740
 10953.50000   56.71820  101.57950   12.82700   -9999.25   77.33580  167.28130  -26.73150  131.97360   84.56510   -9999.25    2.61980    0.05920    0.05660   -0.00180    8.66800    3.19800
 10954.00000   56.75990  100.76000   12.57540   -9999.25   77.32890  156.01350  -26.50390  183.82790   97.52890   -9999.25    2.60910    0.03910    0.06160    0.00080    8.67630    3.15430
 10954.50000   57.34680  100.76000   12.57540   -9999.25   75.89600  152.80120  -26.38760  231.82390  107.76880   -9999.25    2.60290    0.03070    0.06290    0.00330    8.68470    3.08850
 10955.00000   57.93360  100.76000   12.57540   -9999.25   74.15980  159.73710  -25.83850  172.61110  100.96030   -9999.25    2.61250    0.04010    0.06150    0.00600    8.69300    3.01150
 10955.50000   58.52040  100.98080   12.91080   -9999.25   71.14300  168.27740  -25.31900  134.48860   92.97470   -9999.25    2.62740    0.06280    0.05230    0.00840    8.70290    2.96380
 10956.00000   59.10720  101.57360   14.25220   -9999.25   63.93720  162.60340  -24.82040   89.24400   70.52560   -9999.25    2.64790    0.08770    0.03990    0.01070    8.71680    3.07250
 10956.50000   59.69400  102.16640   15.88100   -9999.25   56.78350  148.16430  -24.32050   61.94580   57.67000   -9999.25    2.65530    0.11240    0.02850    0.01040    8.73100    3.28140
 10957.00000   60.28080  103.76410   17.60560   -9999.25   51.03210  134.86330  -23.81930   59.83870   52.99190   -9999.25    2.66210    0.11050    0.02760    0.00920    8.74520    3.49020
 10957.50000   60.44000  106.22310   19.33030   -9999.25   47.29090  125.68920  -23.31800   58.33910   48.28310   -9999.25    2.66360    0.10710    0.02670    0.00770    8.75930    3.59160
 10958.00000   60.44000  108.68210   20.95910   -9999.25   44.12830  121.59380  -22.81780   55.21240   45.31960   -9999.25    2.66520    0.10690    0.02590    0.00540    8.77350    3.62630
 10958.50000   60.92250  111.14120   22.30210   -9999.25   41.17720  121.28430  -22.31710   51.37170   42.20020   -9999.25    2.66570    0.11620    0.02550    0.00370    8.78770    3.75300
 10959.00000   61.45450  111.57680   23.64320   -9999.25   39.24480  122.02430  -21.79320   47.79820   40.14540   -9999.25    2.66600    0.11760    0.02510    0.00570    8.80190    3.87660
 10959.50000   61.98650  111.77560   24.98580   -9999.25   38.20250  124.94770  -21.79840   46.10580   38.51230   -9999.25    2.66640    0.11900    0.02440    0.00760    8.81610    3.88080
 10960.00000   62.51850  111.95890   26.32850   -9999.25   37.18790  129.98310  -22.01850   45.33230   36.94560   -9999.25    2.66690    0.11920    0.02340    0.00960    8.83030    3.73980
 10960.50000   63.05050  112.74840   27.19890   -9999.25   36.20030  134.79150  -22.25000   44.64030   36.10300   -9999.25    2.66720    0.11920    0.02240    0.01150    8.84450    3.68430
 10961.00000   63.30020  113.64000   27.91750   -9999.25   35.23890  138.84670  -22.36980   43.97370   35.38140   -9999.25    2.66750    0.11890    0.02400    0.01200    8.85870    3.69810
 10961.50000   63.39200  113.68950   28.63610   -9999.25   34.30300  138.26690  -21.95220   43.06460   34.77450   -9999.25    2.66580    0.11850    0.02680    0.01210    8.87290    3.72290
