~Version ---------------------------------------------------
VERS.   2.0 : CWLS log ASCII Standard -VERSION 2.0
WRAP.    NO : One line per depth step
DLM . SPACE : Column Data Section Delimiter
~Well ------------------------------------------------------
STRT .F                 389.0 : START DEPTH
STOP .F                6978.0 : STOP DEPTH
STEP .F                   0.5 : STEP
NULL .               -9999.25 : NULL VALUE
COMP .                        : COMPANY
WELL .                        : WELL
FLD  .                        : FIELD
LOC  .                        : LOCATION
PROV .                        : PROVINCE
CNTY .                        : COUNTY
STAT .                        : STATE
CTRY .                        : COUNTRY
SRVC .                        : SERVICE COMPANY
DATE .                        : DATE
UWI  .                        : UNIQUE WELL ID
API  .                        : API NUMBER
SLAT .WGS84 2.342778254542104 : SURFACE LATITUDE
SLON .WGS84 4.998612833871007 : SURFACE LONGITUDE
DATUM.F               2186.32 : DEPTH DATUM ELEV
~Curve Information -----------------------------------------
DEPT.F     : 1 MEASURED DEPTH
DT  .US/F  : DELTA-T (INTERVAL TRANSIT TIME)
DTCO.US/F  : DELTA-T COMPRESSIONAL
DTSM.US/F  : DELTA-T SHEAR
GRR .GAPI  : GAMMA RAY FROM RESISTIVITY LOG
SPR .MV    : SPONTANEOUS POTENTIAL FROM RESISTIVITY LOG
ILD .OHMM  : INDUCTION DEEP RESISTIVITY
ILM .OHMM  : INDUCTION MEDIUM RESISTIVITY
SFLU.OHMM  : SHALLOW FOCUSED RESISTIVITY (UNAVERAGED)
CALD.IN    : CALIPER FROM DENSITY LOG
DRHO.G/C3  : BULK DENSITY CORRECTION
NPHI.DEC   : NEUTRON POROSITY
DPHI.DEC   : DENSITY POROSITY
PEF .B/E   : PHOTOELECTRIC FACTOR
RHOB.G/C3  : BULK DENSITY
~Params ----------------------------------------------------
~Other -----------------------------------------------------
~ASCII -----------------------------------------------------
# ...
 6955.00000   -9999.25   65.35380  110.68220   -9999.25 -122.03040    3.84780    3.96490    7.30780    7.81140    0.01410    0.13770    0.10710    3.13390    2.51460
 6955.50000   -9999.25   65.27230  109.23200   -9999.25 -118.75330    4.08180    4.36510    7.87800    7.82180    0.02190    0.14470    0.08490    3.33430    2.55440
 6956.00000   -9999.25   65.26470  108.29100   -9999.25 -116.59290    4.39600    4.80570    8.69010    7.83210    0.02500    0.15120    0.06480    3.33780    2.58980
 6956.50000   -9999.25   65.27480  108.21130   -9999.25 -116.38070    4.73430    5.17550    9.66640    7.82040    0.02720    0.15120    0.05900    3.25550    2.60900
 6957.00000   -9999.25   65.29550  109.14510   -9999.25 -116.18630    5.09870    5.43640   10.45980    7.80280    0.02730    0.14490    0.07770    3.11240    2.59540
 6957.50000   -9999.25   65.39430  110.75640   -9999.25 -115.57570    5.44210    5.71040   10.51610    7.79210    0.02510    0.13990    0.09260    2.99290    2.56520
 6958.00000   -9999.25   65.70470  111.65960   -9999.25 -114.00460    5.80040    5.99830   10.25080    7.81170    0.02290    0.14010    0.10250    3.01840    2.54150
 6958.50000   -9999.25   65.29260  112.24790   -9999.25 -112.18190    6.18220    6.36880   10.05340    7.83140    0.02040   -9999.25    0.10630    3.14000    2.52610
 6959.00000   -9999.25   65.25270  111.65650   -9999.25 -109.76300    6.58910    6.82840   11.26300    7.83990    0.01800   -9999.25    0.10160    3.38050    2.53160
 6959.50000   -9999.25   64.53670  110.46180   -9999.25 -107.22250    6.88970    7.32130   13.11990    7.84640    0.01630   -9999.25    0.08330    3.79330    2.55500
 6960.00000   -9999.25   64.18910  108.95760   -9999.25 -104.45260    7.04930    7.84970   14.31450    7.85400    0.01520   -9999.25    0.05850    4.34110    2.60420
 6960.50000   -9999.25   64.22160  108.84920   -9999.25 -103.20080    7.24230    7.93350   14.64790    7.86250    0.01440   -9999.25    0.03700    4.48730    2.63430
 6961.00000   -9999.25   64.25400  109.01940   -9999.25 -103.86510    7.32070    7.90630   13.88160    7.84190    0.01930   -9999.25    0.02910    4.28170    2.66080
 6961.50000   -9999.25   64.28640  109.05410   -9999.25 -105.18230    7.05720    7.43710   11.71910    7.83860    0.02470   -9999.25    0.04010    3.67510    2.65300
 6962.00000   -9999.25   64.31760  109.06940   -9999.25 -106.74630    6.71590    6.92660    8.60850    7.84430    0.02600   -9999.25    0.07060    3.03500    2.60630
 6962.50000   -9999.25   64.32160  109.07320   -9999.25 -107.85950    6.34700    6.47430    6.75360    7.84990    0.02210   -9999.25    0.10110    2.91550    2.55920
 6963.00000   -9999.25   64.32560  109.07700   -9999.25 -108.50500    5.90960    6.13390    6.64400    7.83630    0.01660   -9999.25    0.11040    3.06490    2.52530
 6963.50000   -9999.25   64.32960  109.08070   -9999.25 -108.06100    5.50230    5.81140    7.71850    7.82260    0.01410   -9999.25    0.10400    3.36190    2.52160
 6964.00000   -9999.25   64.33290  109.08450   -9999.25 -106.43070    5.12310    5.50590    8.85430    7.84350    0.01310   -9999.25    0.08910    3.57570    2.55050
 6964.50000   -9999.25   -9999.25   -9999.25   -9999.25 -104.21930    4.77000    5.21640    8.97480    7.87170    0.01220   -9999.25    0.08300    3.61710    2.56660
 6965.00000   -9999.25   -9999.25   -9999.25   -9999.25 -102.22420    4.58120    4.94220    7.25410    7.90080    0.01220   -9999.25    0.08750    3.58130    2.56190
 6965.50000   -9999.25   -9999.25   -9999.25   -9999.25 -100.68740    4.58110    4.92500    5.38940    7.93030    0.01230   -9999.25    0.09510    3.58910    2.54620
 6966.00000   -9999.25   -9999.25   -9999.25   -9999.25 -100.81290    4.62640    5.18190    4.78550    7.95980    0.01360   -9999.25    0.09710    3.60360    2.54450
 6966.50000   -9999.25   -9999.25   -9999.25   -9999.25 -101.63890    4.82880    5.45810    5.21320    7.96340    0.01240   -9999.25    0.09250    3.65090    2.54490
 6967.00000   -9999.25   -9999.25   -9999.25   -9999.25 -102.44300    5.17370    5.74900    6.02010    7.94310    0.01130   -9999.25    0.08100    3.78080    2.55930
 6967.50000   -9999.25   -9999.25   -9999.25   -9999.25 -103.08620    5.54310    6.21810    7.78010    7.93400    0.01180   -9999.25    0.06550    3.86810    2.57740
 6968.00000   -9999.25   -9999.25   -9999.25   -9999.25 -105.03210    5.89200    6.80940    9.99310    7.90410    0.01250   -9999.25    0.05240    3.82190    2.60950
 6968.50000   -9999.25   -9999.25   -9999.25   -9999.25 -108.52050    5.89180    7.38860   13.01860    7.87260    0.01310   -9999.25    0.04700    3.62400    2.62260
 6969.00000   -9999.25   -9999.25   -9999.25   -9999.25 -112.49790    5.87480    7.33900   15.51950    7.84240    0.01370   -9999.25    0.05110    3.35400    2.62820
 6969.50000   -9999.25   -9999.25   -9999.25   -9999.25 -115.47370    5.79810    6.40890   15.82720    7.82580    0.01320   -9999.25    0.06320    3.01910    2.61990
 6970.00000   -9999.25   -9999.25   -9999.25   -9999.25 -117.90460    5.56600    5.92100   12.83990    7.81970    0.01250   -9999.25    0.08180    2.83810    2.59580
 6970.50000   -9999.25   -9999.25   -9999.25   -9999.25 -119.66510    5.29180    5.51860    9.14590    7.81700    0.01180   -9999.25    0.10530    2.69090    2.55550
 6971.00000   -9999.25   -9999.25   -9999.25   -9999.25 -119.85860    5.19400    5.40960    7.31550    7.82020    0.01350   -9999.25    0.12280    2.63620    2.51700
 6971.50000   -9999.25   -9999.25   -9999.25   -9999.25 -119.58310   -9999.25    5.38750    7.08970    7.82230    0.01730   -9999.25    0.12800    2.61140    2.49050
 6972.00000   -9999.25   -9999.25   -9999.25   -9999.25 -119.72670   -9999.25    5.38730    8.30650    7.82370    0.02440   -9999.25    0.11610    2.65450    2.49760
 6972.50000   -9999.25   -9999.25   -9999.25   -9999.25 -121.05720   -9999.25    5.17440   10.05340    7.82510    0.03050   -9999.25    0.10270    2.71250    2.52870
 6973.00000   -9999.25   -9999.25   -9999.25   -9999.25 -123.65190   -9999.25    4.90430   11.38350    7.82020    0.03380   -9999.25    0.09480    2.77610    2.54280
 6973.50000   -9999.25   -9999.25   -9999.25   -9999.25 -126.21140   -9999.25    4.47680   11.57470    7.77900    0.03920   -9999.25    0.09060    2.83970    2.55170
 6974.00000   -9999.25   -9999.25   -9999.25   -9999.25 -128.65390   -9999.25    4.07600   11.22320    7.72430    0.04300   -9999.25    0.08780    2.84320    2.55850
 6974.50000   -9999.25   -9999.25   -9999.25   -9999.25 -130.55560   -9999.25    3.64640   10.88960    7.64500    0.04630   -9999.25    0.08880    2.81530    2.55980
 6975.00000   -9999.25   -9999.25   -9999.25   -9999.25 -132.08160   -9999.25    3.50430   10.79360    7.55110    0.04780   -9999.25    0.09710    2.71440    2.54960
 6975.50000   -9999.25   -9999.25   -9999.25   -9999.25 -133.46840   -9999.25   -9999.25   -9999.25    7.40640    0.05040   -9999.25    0.11620    2.63980    2.53140
 6976.00000   -9999.25   -9999.25   -9999.25   -9999.25 -133.95650   -9999.25   -9999.25   -9999.25    7.25440    0.05510   -9999.25    0.13740    2.57080    2.49640
 6976.50000   -9999.25   -9999.25   -9999.25   -9999.25 -133.92990   -9999.25   -9999.25   -9999.25    6.97740    0.06900   -9999.25    0.16940    2.44990    2.44350
 6977.00000   -9999.25   -9999.25   -9999.25   -9999.25 -133.77600   -9999.25   -9999.25   -9999.25    6.81940    0.10050   -9999.25    0.19520    2.42410    2.40400
 6977.50000   -9999.25   -9999.25   -9999.25   -9999.25 -133.38050   -9999.25   -9999.25   -9999.25    6.81940    0.13750   -9999.25    0.19090    2.40820    2.38190
 6978.00000   -9999.25   -9999.25   -9999.25   -9999.25 -133.05150   -9999.25   -9999.25   -9999.25    6.81420    0.17460   -9999.25    0.17550    2.42240    2.38700
