~Version ---------------------------------------------------
VERS.   2.0 : CWLS log ASCII Standard -VERSION 2.0
WRAP.    NO : One line per depth step
DLM . SPACE : Column Data Section Delimiter
~Well ------------------------------------------------------
STRT .F                 389.0 : START DEPTH
STOP .F                6978.0 : STOP DEPTH
STEP .F                   0.5 : STEP
NULL .               -9999.25 : NULL VALUE
COMP .                        : COMPANY
WELL .                        : WELL
FLD  .                        : FIELD
LOC  .                        : LOCATION
PROV .                        : PROVINCE
CNTY .                        : COUNTY
STAT .                        : STATE
CTRY .                        : COUNTRY
SRVC .                        : SERVICE COMPANY
DATE .                        : DATE
UWI  .                        : UNIQUE WELL ID
API  .                        : API NUMBER
SLAT .WGS84 2.342778254542104 : SURFACE LATITUDE
SLON .WGS84 4.998612833871007 : SURFACE LONGITUDE
DATUM.F               2186.32 : DEPTH DATUM ELEV
~Curve Information -----------------------------------------
DEPT.F     : 1 MEASURED DEPTH
DT  .US/F  : DELTA-T (INTERVAL TRANSIT TIME)
DTCO.US/F  : DELTA-T COMPRESSIONAL
DTSM.US/F  : DELTA-T SHEAR
GRR .GAPI  : GAMMA RAY FROM RESISTIVITY LOG
SPR .MV    : SPONTANEOUS POTENTIAL FROM RESISTIVITY LOG
ILD .OHMM  : INDUCTION DEEP RESISTIVITY
ILM .OHMM  : INDUCTION MEDIUM RESISTIVITY
SFLU.OHMM  : SHALLOW FOCUSED RESISTIVITY (UNAVERAGED)
CALD.IN    : CALIPER FROM DENSITY LOG
DRHO.G/C3  : BULK DENSITY CORRECTION
NPHI.DEC   : NEUTRON POROSITY
DPHI.DEC   : DENSITY POROSITY
PEF .B/E   : PHOTOELECTRIC FACTOR
RHOB.G/C3  : BULK DENSITY
~Params ----------------------------------------------------
~Other -----------------------------------------------------
~ASCII -----------------------------------------------------
# ...
 1614.00000   83.40590   -9999.25   -9999.25   50.91350  -92.60450    1.16190    1.05670    3.34500    9.19920   -9999.25   -9999.25   -9999.25   -9999.25   -9999.25
 1614.50000   81.67390   -9999.25   -9999.25   53.33920  -93.71110    1.38120    1.15620    2.30560    8.94640   -9999.25   -9999.25   -9999.25   -9999.25   -9999.25
 1615.00000   83.90910   -9999.25   -9999.25   48.98180  -94.63620    1.63530    1.46910    2.07450    8.78230   -9999.25   -9999.25   -9999.25   -9999.25   -9999.25
 1615.50000   88.50100   -9999.25   -9999.25   40.61550  -92.83130    1.92940    1.90790    2.52130    8.73160   -9999.25   -9999.25   -9999.25   -9999.25   -9999.25
 1616.00000   90.30300   -9999.25   -9999.25   29.25680  -91.22810    2.27640    2.49620    4.78200    8.78900   -9999.25   -9999.25   -9999.25   -9999.25   -9999.25
 1616.50000   90.32980   -9999.25   -9999.25   19.98930  -89.84170    2.68580    3.26600   11.37860    9.13520   -9999.25   -9999.25   -9999.25   -9999.25   -9999.25
 1617.00000   90.57690   -9999.25   -9999.25   16.05540  -88.52690    3.12760    3.90410   20.17800   10.34320   -9999.25   -9999.25   -9999.25   -9999.25   -9999.25
 1617.50000   95.57260   -9999.25   -9999.25   20.74270  -87.18070    3.54230    4.21130   23.42060   12.01080   -9999.25   -9999.25   -9999.25   -9999.25   -9999.25
 1618.00000  106.21990   -9999.25   -9999.25   31.87390  -86.41830    3.59020    3.81280  316.13820   12.61090   -9999.25   -9999.25   -9999.25   -9999.25   -9999.25
 1618.50000  116.86180   -9999.25   -9999.25   42.41760  -87.23570    3.04330    2.80160  984.72180   11.78750   -9999.25   -9999.25   -9999.25   -9999.25   -9999.25
 1619.00000  120.06420   -9999.25   -9999.25   49.82800  -89.56750    2.34820    2.05850  582.44570   10.15970   -9999.25   -9999.25   -9999.25   -9999.25   -9999.25
 1619.50000  120.18900   -9999.25   -9999.25   55.16030  -92.66430    1.81180    1.56240   10.82360    9.75300   -9999.25   -9999.25   -9999.25   -9999.25   -9999.25
 1620.00000  119.33130   -9999.25   -9999.25   61.05740  -94.62340    1.56200    1.19730    2.58620    9.68810   -9999.25   -9999.25   -9999.25   -9999.25   -9999.25
 1620.50000  118.20260   -9999.25   -9999.25   67.42240  -95.53870    1.36860    1.12450    2.03350    9.48310   -9999.25   -9999.25   -9999.25   -9999.25   -9999.25
 1621.00000  115.73780   -9999.25   -9999.25   67.60110  -95.53330    1.26690    1.13220    2.10350    8.99050   -9999.25   -9999.25   -9999.25   -9999.25   -9999.25
 1621.50000  114.67150   -9999.25   -9999.25   61.20900  -95.31840    1.28770    1.16710    2.21880    8.89630   -9999.25   -9999.25   -9999.25   -9999.25   -9999.25
 1622.00000  118.62850   -9999.25   -9999.25   51.54460  -94.76470    1.46660    1.39080    2.25760    8.88410   -9999.25   -9999.25   -9999.25   -9999.25   -9999.25
 1622.50000  123.26000   -9999.25   -9999.25   36.08400  -93.70820    1.73370    2.03020    3.33810    8.89030   -9999.25   -9999.25   -9999.25   -9999.25   -9999.25
 1623.00000  125.33740   -9999.25   -9999.25   23.79730  -91.55100    2.09200    2.96340   11.32160    8.94540   -9999.25   -9999.25   -9999.25   -9999.25   -9999.25
 1623.50000  125.65440   -9999.25   -9999.25   16.90120  -89.78250    2.52450    3.53120  301.15800    8.98570   -9999.25   -9999.25   -9999.25   -9999.25   -9999.25
 1624.00000  124.30590   -9999.25   -9999.25   16.13770  -88.36800    3.04630    3.92800 1510.23990    9.04560   -9999.25   -9999.25   -9999.25   -9999.25   -9999.25
 1624.50000  127.61050   -9999.25   -9999.25   22.37410  -87.26830    3.59470    3.65980 1501.20830    9.08770   -9999.25   -9999.25   -9999.25   -9999.25   -9999.25
 1625.00000  136.40210   -9999.25   -9999.25   33.90500  -87.88770    3.93630    3.28070  601.74170    9.06570   -9999.25   -9999.25   -9999.25   -9999.25   -9999.25
 1625.50000  141.13560   -9999.25   -9999.25   42.67140  -90.07330    4.15790    2.94090   12.48860    9.04660   -9999.25   -9999.25   -9999.25   -9999.25   -9999.25
 1626.00000  144.24100   -9999.25   -9999.25   44.01000  -92.61650    4.13970    2.73930    4.12990    9.02010   -9999.25   -9999.25   -9999.25   -9999.25   -9999.25
 1626.50000  149.98430   -9999.25   -9999.25   43.70450  -93.07440    3.71000    2.76010    3.55660    8.98120   -9999.25   -9999.25   -9999.25   -9999.25   -9999.25
 1627.00000  152.02180   -9999.25   -9999.25   38.67720  -91.14780    3.22080    2.82620    4.57230    8.95090   -9999.25   -9999.25   -9999.25   -9999.25   -9999.25
 1627.50000  151.65580   -9999.25   -9999.25   31.96820  -88.59280    3.11700    3.05910    6.36060    8.95750   -9999.25   -9999.25   -9999.25   -9999.25   -9999.25
 1628.00000  150.55780   -9999.25   -9999.25   28.77560  -87.33580    3.11860    3.31990    7.07280    9.13920   -9999.25   -9999.25   -9999.25   -9999.25   -9999.25
 1628.50000  148.29450   -9999.25   -9999.25   27.07470  -85.44950    3.34750    3.60300    6.79610    9.34430   -9999.25   -9999.25   -9999.25   -9999.25   -9999.25
 1629.00000  149.00660   -9999.25   -9999.25   28.94630  -83.60150    3.70860    3.81920    6.70240    9.64140   -9999.25   -9999.25   -9999.25   -9999.25   -9999.25
 1629.50000  152.71560   -9999.25   -9999.25   31.88240  -81.99900    3.90240    3.92150    8.82130   10.14800   -9999.25   -9999.25   -9999.25   -9999.25   -9999.25
 1630.00000  154.15010   -9999.25   -9999.25   38.59180  -81.55260    3.03920    3.68320   11.27820   10.87120   -9999.25   -9999.25   -9999.25   -9999.25   -9999.25
 1630.50000  153.50220   -9999.25   -9999.25   45.02480  -80.78120    2.36690    2.71290    9.48160   11.37770   -9999.25   -9999.25   -9999.25   -9999.25   -9999.25
 1631.00000  151.08760   -9999.25   -9999.25   53.46350  -81.55680    1.89850    2.06220    5.09510   11.53300   -9999.25   -9999.25   -9999.25   -9999.25   -9999.25
 1631.50000  138.51040   -9999.25   -9999.25   58.31610  -84.46340    1.55070    1.62720    2.87240   10.92040   -9999.25   -9999.25   -9999.25   -9999.25   -9999.25
 1632.00000  113.64490   -9999.25   -9999.25   62.45360  -87.54780    1.35660    1.28400    2.17730   10.22570   -9999.25   -9999.25   -9999.25   -9999.25   -9999.25
 1632.50000  102.57500   -9999.25   -9999.25   63.80970  -90.56050    1.30820    1.08160    1.83640    9.56340   -9999.25   -9999.25   -9999.25   -9999.25   -9999.25
 1633.00000  100.08060   -9999.25   -9999.25   63.49370  -93.06920    1.33750    1.11260    1.46730    9.22910   -9999.25   -9999.25   -9999.25   -9999.25   -9999.25
 1633.50000   98.83250   -9999.25   -9999.25   61.23950  -93.96230    1.43390    1.23800    1.31670    9.11590   -9999.25   -9999.25   -9999.25   -9999.25   -9999.25
 1634.00000   97.67810   -9999.25   -9999.25   52.95540  -93.10570    1.55330    1.57520    1.61380    9.07080   -9999.25   -9999.25   -9999.25   -9999.25   -9999.25
 1634.50000   88.42160   -9999.25   -9999.25   41.26040  -91.95540    1.86390    2.17620    3.83680    9.07670   -9999.25   -9999.25   -9999.25   -9999.25   -9999.25
 1635.00000   68.50200   -9999.25   -9999.25   24.93860  -90.43950    2.30140    3.00650   12.10630    9.10970   -9999.25   -9999.25   -9999.25   -9999.25   -9999.25
 1635.50000   59.18580   -9999.25   -9999.25   15.18220  -88.97190    3.03620    3.92860   38.37620    9.12900   -9999.25   -9999.25   -9999.25   -9999.25   -9999.25
 1636.00000   58.01960   -9999.25   -9999.25   11.07230  -88.23300    4.06190    5.04460  103.57970    8.94250   -9999.25   -9999.25   -9999.25   -9999.25   -9999.25
 1636.50000   61.52700   -9999.25   -9999.25   12.12700  -88.19990    5.25880    4.86220  139.65680    8.75060   -9999.25   -9999.25   -9999.25   -9999.25   -9999.25
 1637.00000   63.89440   -9999.25   -9999.25   16.91890  -88.51300    5.96640    4.57440   79.02580    8.73580   -9999.25   -9999.25   -9999.25   -9999.25   -9999.25
 1637.50000   65.60900   -9999.25   -9999.25   26.78750  -88.87260    6.71900    4.30360   14.06670    8.72830   -9999.25   -9999.25   -9999.25   -9999.25   -9999.25
 1638.00000   69.06290   -9999.25   -9999.25   36.91230  -88.62240    6.38370    4.58720    9.21470    8.72540   -9999.25   -9999.25   -9999.25   -9999.25   -9999.25
