~Version ---------------------------------------------------
VERS.   2.0 : CWLS log ASCII Standard -VERSION 2.0
WRAP.    NO : One line per depth step
DLM . SPACE : Column Data Section Delimiter
~Well ------------------------------------------------------
STRT .F                 389.0 : START DEPTH
STOP .F                6978.0 : STOP DEPTH
STEP .F                   0.5 : STEP
NULL .               -9999.25 : NULL VALUE
COMP .                        : COMPANY
WELL .                        : WELL
FLD  .                        : FIELD
LOC  .                        : LOCATION
PROV .                        : PROVINCE
CNTY .                        : COUNTY
STAT .                        : STATE
CTRY .                        : COUNTRY
SRVC .                        : SERVICE COMPANY
DATE .                        : DATE
UWI  .                        : UNIQUE WELL ID
API  .                        : API NUMBER
SLAT .WGS84 2.342778254542104 : SURFACE LATITUDE
SLON .WGS84 4.998612833871007 : SURFACE LONGITUDE
DATUM.F               2186.32 : DEPTH DATUM ELEV
~Curve Information -----------------------------------------
DEPT.F     : 1 MEASURED DEPTH
DT  .US/F  : DELTA-T (INTERVAL TRANSIT TIME)
DTCO.US/F  : DELTA-T COMPRESSIONAL
DTSM.US/F  : DELTA-T SHEAR
GRR .GAPI  : GAMMA RAY FROM RESISTIVITY LOG
SPR .MV    : SPONTANEOUS POTENTIAL FROM RESISTIVITY LOG
ILD .OHMM  : INDUCTION DEEP RESISTIVITY
ILM .OHMM  : INDUCTION MEDIUM RESISTIVITY
SFLU.OHMM  : SHALLOW FOCUSED RESISTIVITY (UNAVERAGED)
CALD.IN    : CALIPER FROM DENSITY LOG
DRHO.G/C3  : BULK DENSITY CORRECTION
NPHI.DEC   : NEUTRON POROSITY
DPHI.DEC   : DENSITY POROSITY
PEF .B/E   : PHOTOELECTRIC FACTOR
RHOB.G/C3  : BULK DENSITY
~Params ----------------------------------------------------
~Other -----------------------------------------------------
~ASCII -----------------------------------------------------
# ...
 4554.00000   -9999.25   75.03020  131.52910   97.26450  -54.17420   13.90490   16.78940   23.53360    9.36850   -9999.25   -9999.25   -9999.25   -9999.25   -9999.25
 4554.50000   -9999.25   72.88210  129.72000   87.03950  -54.66090   14.76720   17.91380   28.66880    9.34160   -9999.25   -9999.25   -9999.25   -9999.25   -9999.25
 4555.00000   -9999.25   72.07150  132.35460   79.62120  -54.83640   15.68300   17.98540   30.32980    9.33540   -9999.25   -9999.25   -9999.25   -9999.25   -9999.25
 4555.50000   -9999.25   70.90050  131.51230   77.31480  -54.61280   16.65570   17.81810   28.26130    9.33240   -9999.25   -9999.25   -9999.25   -9999.25   -9999.25
 4556.00000   -9999.25   70.87520  127.51370   82.59380  -54.27600   17.68860   18.42120   24.43980    9.33420   -9999.25   -9999.25   -9999.25   -9999.25   -9999.25
 4556.50000   -9999.25   71.97240  124.71940   87.04610  -53.96270   17.92720   19.10520   22.21680    9.33980   -9999.25   -9999.25   -9999.25   -9999.25   -9999.25
 4557.00000   -9999.25   71.27460  122.55340   81.80650  -54.52990   17.92720   19.72410   22.72730    9.35630   -9999.25   -9999.25   -9999.25   -9999.25   -9999.25
 4557.50000   -9999.25   69.48850  120.58800   75.14900  -55.16440   17.56980   19.90990   25.41910    9.39440   -9999.25   -9999.25   -9999.25   -9999.25   -9999.25
 4558.00000   -9999.25   69.79260  124.00890   68.04680  -55.79890   17.11430   19.41340   27.71880    9.43910   -9999.25   -9999.25   -9999.25   -9999.25   -9999.25
 4558.50000   -9999.25   70.96150  128.09060   72.58760  -56.28970   16.60470   17.95040   27.00380    9.48750   -9999.25   -9999.25   -9999.25   -9999.25   -9999.25
 4559.00000   -9999.25   71.69730  129.60690   80.42380  -55.89310   16.40030   17.28210   24.42770    9.55200   -9999.25   -9999.25   -9999.25   -9999.25   -9999.25
 4559.50000   -9999.25   72.23480  130.53310   87.54710  -55.22980   16.05260   16.40970   22.38220    9.64240   -9999.25   -9999.25   -9999.25   -9999.25   -9999.25
 4560.00000   -9999.25   72.82980  131.49530   88.64900  -54.65550   14.86680   15.22500   20.57360    9.72410   -9999.25   -9999.25   -9999.25   -9999.25   -9999.25
 4560.50000   -9999.25   74.40280  132.21060   89.54930  -54.51460   13.15640   13.85350   19.32880    9.81530   -9999.25   -9999.25   -9999.25   -9999.25   -9999.25
 4561.00000   -9999.25   75.64060  132.92590   90.50490  -54.87340   11.88850   12.60550   17.89480    9.90530   -9999.25   -9999.25   -9999.25   -9999.25   -9999.25
 4561.50000   -9999.25   75.97280  133.85620   93.32660  -55.01070   10.80990   11.46990   16.11980    9.97550   -9999.25   -9999.25   -9999.25   -9999.25   -9999.25
 4562.00000   -9999.25   75.80330  137.04040   95.63480  -55.22240    9.82910   10.40590   13.96050   10.05140   -9999.25   -9999.25   -9999.25   -9999.25   -9999.25
 4562.50000   -9999.25   77.23170  140.49970   98.28280  -55.41870    8.93730    9.43660   12.10460   10.24980   -9999.25   -9999.25   -9999.25   -9999.25   -9999.25
 4563.00000   -9999.25   78.09000  145.22500  104.51930  -55.56360    8.12640    8.55750   10.60380   10.41490   -9999.25   -9999.25   -9999.25   -9999.25   -9999.25
 4563.50000   -9999.25   79.15480  146.84360  113.99260  -56.23080    7.61790    7.76030    9.70090   10.48800   -9999.25   -9999.25   -9999.25   -9999.25   -9999.25
 4564.00000   -9999.25   79.54200  149.93420  123.53780  -57.19130    7.28290    7.40860    9.33870   10.54730   -9999.25   -9999.25   -9999.25   -9999.25   -9999.25
 4564.50000   -9999.25   78.16520  153.69100  123.51280  -57.95330    6.96260    7.13110    9.40840   10.61400   -9999.25   -9999.25   -9999.25   -9999.25   -9999.25
 4565.00000   -9999.25   76.39950  156.80050  121.01750  -58.26960    6.65640    6.86400    9.92060   10.69930   -9999.25   -9999.25   -9999.25   -9999.25   -9999.25
 4565.50000   -9999.25   76.77530  158.70130  118.83330  -58.39630    6.36360    6.60690   10.23970   10.87190   -9999.25   -9999.25   -9999.25   -9999.25   -9999.25
 4566.00000   -9999.25   80.68210  164.47440  116.66610  -57.93710    6.08370    6.35950   10.19840   11.05420   -9999.25   -9999.25   -9999.25   -9999.25   -9999.25
 4566.50000   -9999.25   86.89360  172.77810  113.02760  -57.24370    5.97410    6.28850    9.55250   11.25140   -9999.25   -9999.25   -9999.25   -9999.25   -9999.25
 4567.00000   -9999.25   91.88320  175.47630  108.80540  -57.87850    6.41360    6.92370    8.85410   11.57540   -9999.25   -9999.25   -9999.25   -9999.25   -9999.25
 4567.50000   -9999.25   93.89310  155.27170  104.46170  -58.75180    7.28270    8.17290    8.18440   11.58230   -9999.25   -9999.25   -9999.25   -9999.25   -9999.25
 4568.00000   -9999.25   94.67820  128.91450  100.85690  -59.39750    8.26950    9.84370    7.79290   11.04160   -9999.25   -9999.25   -9999.25   -9999.25   -9999.25
 4568.50000   -9999.25   95.34240  113.62070   94.07530  -59.77010    9.37580   12.32690   10.18550   10.47170   -9999.25   -9999.25   -9999.25   -9999.25   -9999.25
 4569.00000   -9999.25   89.31670  112.60250   85.10690  -59.71930   10.35420   15.43640   15.24150   10.32240   -9999.25   -9999.25   -9999.25   -9999.25   -9999.25
 4569.50000   -9999.25   73.12270  109.08790   73.31750  -59.27020   11.43480   16.27110   35.56970   10.26430   -9999.25   -9999.25   -9999.25   -9999.25   -9999.25
 4570.00000   -9999.25   63.26910  100.92050   62.91840  -58.82320   12.62810   16.97580   84.87420   10.30260   -9999.25   -9999.25   -9999.25   -9999.25   -9999.25
 4570.50000   -9999.25   61.70300  100.10800   63.68150  -58.55070   14.07580   15.79160   91.48170   10.37750   -9999.25   -9999.25   -9999.25   -9999.25   -9999.25
 4571.00000   -9999.25   63.03020  104.90620   74.59640  -58.29000   15.96960   14.23200   59.83950   10.46030   -9999.25   -9999.25   -9999.25   -9999.25   -9999.25
 4571.50000   -9999.25   66.54590  110.98830   93.48180  -58.02930   18.11820   13.25080   28.49860   10.51460   -9999.25   -9999.25   -9999.25   -9999.25   -9999.25
 4572.00000   -9999.25   71.24400  116.97580  105.63590  -58.23330   17.85420   13.85310   18.23980   10.55990   -9999.25   -9999.25   -9999.25   -9999.25   -9999.25
 4572.50000   -9999.25   71.45100  118.66100  104.04640  -58.98460   16.08910   16.98180   15.56590   10.57680   -9999.25   -9999.25   -9999.25   -9999.25   -9999.25
 4573.00000   -9999.25   68.69680  114.67630   96.54600  -59.73210   14.49850   16.68960   19.17210   10.60360   -9999.25   -9999.25   -9999.25   -9999.25   -9999.25
 4573.50000   -9999.25   65.08860  110.44660   87.30290  -59.92800   13.06510   16.03230   27.30560   10.66470   -9999.25   -9999.25   -9999.25   -9999.25   -9999.25
 4574.00000   -9999.25   63.34630  104.14450   81.80350  -59.58710   11.78130   13.42300   29.88510   10.74830   -9999.25   -9999.25   -9999.25   -9999.25   -9999.25
 4574.50000   -9999.25   63.10990   98.33710   86.92490  -59.59480   10.81120   10.61470   24.80440   10.88170   -9999.25   -9999.25   -9999.25   -9999.25   -9999.25
 4575.00000   -9999.25   62.44490   92.34500   97.85830  -59.91890   10.04470    8.47490   16.61790   11.19810   -9999.25   -9999.25   -9999.25   -9999.25   -9999.25
 4575.50000   -9999.25   57.92160   83.65800  110.31350  -60.40510    9.61950    7.43280   11.50170   11.69840   -9999.25   -9999.25   -9999.25   -9999.25   -9999.25
 4576.00000   -9999.25   53.76270   77.61750  116.94730  -60.52970    9.21240    7.15440    9.28370   12.15220   -9999.25   -9999.25   -9999.25   -9999.25   -9999.25
 4576.50000   -9999.25   55.05040   78.61440  117.66470  -60.56380    8.82260    7.43190    8.85570   12.23160   -9999.25   -9999.25   -9999.25   -9999.25   -9999.25
 4577.00000   -9999.25   57.05190   81.42430  114.18980  -60.67430    8.44920    7.78930    9.10940   12.22810   -9999.25   -9999.25   -9999.25   -9999.25   -9999.25
 4577.50000   -9999.25   55.59590   80.25080  111.54420  -60.88540    8.12970    8.26680    9.75600   12.47560   -9999.25   -9999.25   -9999.25   -9999.25   -9999.25
 4578.00000   -9999.25   53.07930   76.53220  106.63490  -61.14140    8.04810    8.51390   10.62970   12.30150   -9999.25   -9999.25   -9999.25   -9999.25   -9999.25
