~Version ---------------------------------------------------
VERS.   2.0 : CWLS log ASCII Standard -VERSION 2.0
WRAP.    NO : One line per depth step
DLM . SPACE : Column Data Section Delimiter
~Well ------------------------------------------------------
STRT .F                 389.0 : START DEPTH
STOP .F                6978.0 : STOP DEPTH
STEP .F                   0.5 : STEP
NULL .               -9999.25 : NULL VALUE
COMP .                        : COMPANY
WELL .                        : WELL
FLD  .                        : FIELD
LOC  .                        : LOCATION
PROV .                        : PROVINCE
CNTY .                        : COUNTY
STAT .                        : STATE
CTRY .                        : COUNTRY
SRVC .                        : SERVICE COMPANY
DATE .                        : DATE
UWI  .                        : UNIQUE WELL ID
API  .                        : API NUMBER
SLAT .WGS84 2.342778254542104 : SURFACE LATITUDE
SLON .WGS84 4.998612833871007 : SURFACE LONGITUDE
DATUM.F               2186.32 : DEPTH DATUM ELEV
~Curve Information -----------------------------------------
DEPT.F     : 1 MEASURED DEPTH
DT  .US/F  : DELTA-T (INTERVAL TRANSIT TIME)
DTCO.US/F  : DELTA-T COMPRESSIONAL
DTSM.US/F  : DELTA-T SHEAR
GRR .GAPI  : GAMMA RAY FROM RESISTIVITY LOG
SPR .MV    : SPONTANEOUS POTENTIAL FROM RESISTIVITY LOG
ILD .OHMM  : INDUCTION DEEP RESISTIVITY
ILM .OHMM  : INDUCTION MEDIUM RESISTIVITY
SFLU.OHMM  : SHALLOW FOCUSED RESISTIVITY (UNAVERAGED)
CALD.IN    : CALIPER FROM DENSITY LOG
DRHO.G/C3  : BULK DENSITY CORRECTION
NPHI.DEC   : NEUTRON POROSITY
DPHI.DEC   : DENSITY POROSITY
PEF .B/E   : PHOTOELECTRIC FACTOR
RHOB.G/C3  : BULK DENSITY
~Params ----------------------------------------------------
~Other -----------------------------------------------------
~ASCII -----------------------------------------------------
# ...
 2888.00000   84.95930   -9999.25   -9999.25   77.33450  -61.07650    6.44780    5.91160    5.61400    9.83950   -9999.25   -9999.25   -9999.25   -9999.25   -9999.25
 2888.50000   83.86810   -9999.25   -9999.25   74.38260  -60.47970    6.46920    6.01800    5.84510    9.81180   -9999.25   -9999.25   -9999.25   -9999.25   -9999.25
 2889.00000   83.51280   -9999.25   -9999.25   64.89860  -59.60340    6.46920    6.10040    6.94790    9.79620   -9999.25   -9999.25   -9999.25   -9999.25   -9999.25
 2889.50000   84.47760   -9999.25   -9999.25   60.69080  -58.71760    6.46920    6.18390    8.48350    9.79280   -9999.25   -9999.25   -9999.25   -9999.25   -9999.25
 2890.00000   84.23130   -9999.25   -9999.25   62.74920  -57.94010    6.49660    6.26860    9.19850    9.79370   -9999.25   -9999.25   -9999.25   -9999.25   -9999.25
 2890.50000   82.15440   -9999.25   -9999.25   68.49110  -57.34470    6.53540    6.35440    9.11980    9.79240   -9999.25   -9999.25   -9999.25   -9999.25   -9999.25
 2891.00000   79.94490   -9999.25   -9999.25   73.31710  -57.12100    6.61220    6.44140    8.75950    9.78460   -9999.25   -9999.25   -9999.25   -9999.25   -9999.25
 2891.50000   78.77430   -9999.25   -9999.25   75.23240  -57.26050    6.73020    6.55250    8.37280    9.77050   -9999.25   -9999.25   -9999.25   -9999.25   -9999.25
 2892.00000   80.16740   -9999.25   -9999.25   73.88620  -57.74280    7.13140    6.69100    8.03440    9.73090   -9999.25   -9999.25   -9999.25   -9999.25   -9999.25
 2892.50000   81.66110   -9999.25   -9999.25   70.33580  -58.22660    7.55650    7.07880    7.82960    9.64870   -9999.25   -9999.25   -9999.25   -9999.25   -9999.25
 2893.00000   80.56830   -9999.25   -9999.25   64.31760  -58.71700    8.14510    7.55300    8.02980    9.52550   -9999.25   -9999.25   -9999.25   -9999.25   -9999.25
 2893.50000   81.69240   -9999.25   -9999.25   59.15020  -59.14070    9.28840    8.20200    9.40840    9.37360   -9999.25   -9999.25   -9999.25   -9999.25   -9999.25
 2894.00000   85.16370   -9999.25   -9999.25   52.29050  -59.66750   10.59210   10.73940   12.64200    9.24060   -9999.25   -9999.25   -9999.25   -9999.25   -9999.25
 2894.50000   83.58790   -9999.25   -9999.25   40.40090  -60.76580   12.07890   14.06180   22.00770    9.20780   -9999.25   -9999.25   -9999.25   -9999.25   -9999.25
 2895.00000   78.35530   -9999.25   -9999.25   31.77110  -61.27120   13.93010   18.00020   37.66610    9.19940   -9999.25   -9999.25   -9999.25   -9999.25   -9999.25
 2895.50000   76.25540   -9999.25   -9999.25   29.47910  -61.83400   17.14400   21.67150   46.23680    9.22560   -9999.25   -9999.25   -9999.25   -9999.25   -9999.25
 2896.00000   74.31130   -9999.25   -9999.25   32.19050  -62.49230   20.92610   24.50230   46.45390    9.28850   -9999.25   -9999.25   -9999.25   -9999.25   -9999.25
 2896.50000   67.79690   -9999.25   -9999.25   34.03830  -63.03320   23.85080   26.41180   42.97420    9.33740   -9999.25   -9999.25   -9999.25   -9999.25   -9999.25
 2897.00000   63.96910   -9999.25   -9999.25   34.48570  -63.35910   27.18430   28.47010   41.33040    9.37540   -9999.25   -9999.25   -9999.25   -9999.25   -9999.25
 2897.50000   63.61310   -9999.25   -9999.25   33.70890  -63.53510   27.65870   30.00930   40.29630    9.41470   -9999.25   -9999.25   -9999.25   -9999.25   -9999.25
 2898.00000   63.45670   -9999.25   -9999.25   33.82130  -63.94940   27.07510   30.15100   39.06250    9.45810   -9999.25   -9999.25   -9999.25   -9999.25   -9999.25
 2898.50000   63.42150   -9999.25   -9999.25   34.70290  -64.20760   26.34440   30.06380   37.76230    9.50450   -9999.25   -9999.25   -9999.25   -9999.25   -9999.25
 2899.00000   63.38820   -9999.25   -9999.25   36.03520  -63.87730   25.24270   28.97080   37.62720    9.54650   -9999.25   -9999.25   -9999.25   -9999.25   -9999.25
 2899.50000   59.52440   -9999.25   -9999.25   37.30440  -63.65880   24.51390   27.64680   37.62780    9.59530   -9999.25   -9999.25   -9999.25   -9999.25   -9999.25
 2900.00000   58.96450   -9999.25   -9999.25   38.67200  -63.40530   23.99760   26.38350   36.29120    9.64850   -9999.25   -9999.25   -9999.25   -9999.25   -9999.25
 2900.50000   66.61410   -9999.25   -9999.25   40.01390  -62.97960   23.49220   25.17790   33.31850    9.70160   -9999.25   -9999.25   -9999.25   -9999.25   -9999.25
 2901.00000   72.66880   -9999.25   -9999.25   40.92400  -62.09370   22.99740   23.98970   30.22260    9.75440   -9999.25   -9999.25   -9999.25   -9999.25   -9999.25
 2901.50000   78.51800   -9999.25   -9999.25   41.39660  -61.18040   21.89360   22.83450   28.43290    9.80230   -9999.25   -9999.25   -9999.25   -9999.25   -9999.25
 2902.00000   83.18250   -9999.25   -9999.25   41.61570  -61.13580   20.59520   21.73500   27.16330    9.85170   -9999.25   -9999.25   -9999.25   -9999.25   -9999.25
 2902.50000   80.51890   -9999.25   -9999.25   42.01860  -61.82290   19.31070   19.40580   25.06360    9.91830   -9999.25   -9999.25   -9999.25   -9999.25   -9999.25
 2903.00000   82.24560   -9999.25   -9999.25   44.00550  -62.45600   17.14860   16.58830   22.27260   10.00980   -9999.25   -9999.25   -9999.25   -9999.25   -9999.25
 2903.50000   93.53660   -9999.25   -9999.25   46.02410  -63.48160   15.22870   14.17990   19.62610   10.10820   -9999.25   -9999.25   -9999.25   -9999.25   -9999.25
 2904.00000   96.87760   -9999.25   -9999.25   49.61250  -64.49390   12.78600   12.12120   17.22690   10.40190   -9999.25   -9999.25   -9999.25   -9999.25   -9999.25
 2904.50000   87.67730   -9999.25   -9999.25   53.58350  -65.33730   10.63150   10.02790   13.99180   10.66110   -9999.25   -9999.25   -9999.25   -9999.25   -9999.25
 2905.00000   83.61610   -9999.25   -9999.25   58.43480  -65.70970    8.84010    7.51110   10.60920   11.01350   -9999.25   -9999.25   -9999.25   -9999.25   -9999.25
 2905.50000   83.96030   -9999.25   -9999.25   64.68520  -66.00920    7.48540    5.62600    7.83150   11.64600   -9999.25   -9999.25   -9999.25   -9999.25   -9999.25
 2906.00000   86.47040   -9999.25   -9999.25   71.00750  -66.71100    6.42840    4.78460    5.71950   12.25720   -9999.25   -9999.25   -9999.25   -9999.25   -9999.25
 2906.50000   89.18270   -9999.25   -9999.25   77.32980  -67.41860    5.52060    4.25020    4.40420   12.56300   -9999.25   -9999.25   -9999.25   -9999.25   -9999.25
 2907.00000   90.59210   -9999.25   -9999.25   78.42100  -68.39620    4.74100    4.13590    4.31380   12.92990   -9999.25   -9999.25   -9999.25   -9999.25   -9999.25
 2907.50000   91.23360   -9999.25   -9999.25   77.23860  -69.37880    4.38580    4.02470    4.28010   13.74880   -9999.25   -9999.25   -9999.25   -9999.25   -9999.25
 2908.00000   89.59860   -9999.25   -9999.25   77.08850  -69.94390    4.07570    3.76990    4.23790   14.21290   -9999.25   -9999.25   -9999.25   -9999.25   -9999.25
 2908.50000   87.05290   -9999.25   -9999.25   78.28350  -70.23220    3.78750    3.51010    4.01970   14.15690   -9999.25   -9999.25   -9999.25   -9999.25   -9999.25
 2909.00000   89.41260   -9999.25   -9999.25   79.70100  -69.92570    3.66930    3.26810    3.79730   13.70540   -9999.25   -9999.25   -9999.25   -9999.25   -9999.25
 2909.50000   94.84080   -9999.25   -9999.25   83.46190  -69.86820    3.62690    3.19420    3.54910   13.30700   -9999.25   -9999.25   -9999.25   -9999.25   -9999.25
 2910.00000   96.28120   -9999.25   -9999.25   85.56980  -69.74510    3.65710    3.27950    3.52230   13.07460   -9999.25   -9999.25   -9999.25   -9999.25   -9999.25
 2910.50000   96.37130   -9999.25   -9999.25   86.33440  -69.44400    3.73410    3.37360    3.60010   12.92370   -9999.25   -9999.25   -9999.25   -9999.25   -9999.25
 2911.00000   97.67050   -9999.25   -9999.25   86.01560  -69.16450    3.81270    3.47040    3.71060   12.63590   -9999.25   -9999.25   -9999.25   -9999.25   -9999.25
 2911.50000   99.55610   -9999.25   -9999.25   86.64920  -69.09270    3.89300    3.57000    3.84500   12.52300   -9999.25   -9999.25   -9999.25   -9999.25   -9999.25
 2912.00000   98.73220   -9999.25   -9999.25   88.25320  -69.30970    3.97500    3.67250    3.98420   12.58840   -9999.25   -9999.25   -9999.25   -9999.25   -9999.25
