~Version ---------------------------------------------------
VERS.   2.0 : CWLS log ASCII Standard -VERSION 2.0
WRAP.    NO : One line per depth step
DLM . SPACE : Column Data Section Delimiter
~Well ------------------------------------------------------
STRT .F                 389.0 : START DEPTH
STOP .F                6978.0 : STOP DEPTH
STEP .F                   0.5 : STEP
NULL .               -9999.25 : NULL VALUE
COMP .                        : COMPANY
WELL .                        : WELL
FLD  .                        : FIELD
LOC  .                        : LOCATION
PROV .                        : PROVINCE
CNTY .                        : COUNTY
STAT .                        : STATE
CTRY .                        : COUNTRY
SRVC .                        : SERVICE COMPANY
DATE .                        : DATE
UWI  .                        : UNIQUE WELL ID
API  .                        : API NUMBER
SLAT .WGS84 2.342778254542104 : SURFACE LATITUDE
SLON .WGS84 4.998612833871007 : SURFACE LONGITUDE
DATUM.F               2186.32 : DEPTH DATUM ELEV
~Curve Information -----------------------------------------
DEPT.F     : 1 MEASURED DEPTH
DT  .US/F  : DELTA-T (INTERVAL TRANSIT TIME)
DTCO.US/F  : DELTA-T COMPRESSIONAL
DTSM.US/F  : DELTA-T SHEAR
GRR .GAPI  : GAMMA RAY FROM RESISTIVITY LOG
SPR .MV    : SPONTANEOUS POTENTIAL FROM RESISTIVITY LOG
ILD .OHMM  : INDUCTION DEEP RESISTIVITY
ILM .OHMM  : INDUCTION MEDIUM RESISTIVITY
SFLU.OHMM  : SHALLOW FOCUSED RESISTIVITY (UNAVERAGED)
CALD.IN    : CALIPER FROM DENSITY LOG
DRHO.G/C3  : BULK DENSITY CORRECTION
NPHI.DEC   : NEUTRON POROSITY
DPHI.DEC   : DENSITY POROSITY
PEF .B/E   : PHOTOELECTRIC FACTOR
RHOB.G/C3  : BULK DENSITY
~Params ----------------------------------------------------
~Other -----------------------------------------------------
~ASCII -----------------------------------------------------
# ...
 3280.00000   65.50520   -9999.25   -9999.25   41.52490  -93.25550    9.79250   10.13950   12.76910    8.61150   -9999.25   -9999.25   -9999.25   -9999.25   -9999.25
 3280.50000   64.91000   -9999.25   -9999.25   38.92560  -93.72020    9.79130   10.10790   14.11300    8.61060   -9999.25   -9999.25   -9999.25   -9999.25   -9999.25
 3281.00000   64.39110   -9999.25   -9999.25   38.58090  -92.87260    9.79190   10.10850   14.54350    8.61050   -9999.25   -9999.25   -9999.25   -9999.25   -9999.25
 3281.50000   64.55000   -9999.25   -9999.25   38.06520  -91.93630    9.79250   10.17850   14.19050    8.60800   -9999.25   -9999.25   -9999.25   -9999.25   -9999.25
 3282.00000   64.20580   -9999.25   -9999.25   35.71170  -90.88320    9.93510   10.43290   13.90340    8.60360   -9999.25   -9999.25   -9999.25   -9999.25   -9999.25
 3282.50000   63.14900   -9999.25   -9999.25   32.59980  -89.62260   10.16880   10.91990   14.95500    8.59720   -9999.25   -9999.25   -9999.25   -9999.25   -9999.25
 3283.00000   62.30650   -9999.25   -9999.25   30.81020  -87.99600   10.40800   11.45930   18.06240    8.59070   -9999.25   -9999.25   -9999.25   -9999.25   -9999.25
 3283.50000   62.98320   -9999.25   -9999.25   32.63570  -85.46890   10.65280   11.64920   20.52820    8.58990   -9999.25   -9999.25   -9999.25   -9999.25   -9999.25
 3284.00000   64.89450   -9999.25   -9999.25   41.90440  -82.56020   10.90340   11.59390   20.29220    8.59710   -9999.25   -9999.25   -9999.25   -9999.25   -9999.25
 3284.50000   66.72670   -9999.25   -9999.25   51.17230  -80.36570   11.15990   11.66630   17.10220    8.60240   -9999.25   -9999.25   -9999.25   -9999.25   -9999.25
 3285.00000   68.64200   -9999.25   -9999.25   57.03640  -78.27080   11.40790   11.73920   14.39600    8.60960   -9999.25   -9999.25   -9999.25   -9999.25   -9999.25
 3285.50000   70.39680   -9999.25   -9999.25   59.19350  -76.25130   11.40790   11.76600   13.37570    8.61050   -9999.25   -9999.25   -9999.25   -9999.25   -9999.25
 3286.00000   71.73600   -9999.25   -9999.25   59.44840  -74.36840   11.41210   11.79220   12.70940    8.61060   -9999.25   -9999.25   -9999.25   -9999.25   -9999.25
 3286.50000   72.32290   -9999.25   -9999.25   59.70330  -73.14870   11.41830   11.81840   12.29210    8.61030   -9999.25   -9999.25   -9999.25   -9999.25   -9999.25
 3287.00000   72.20590   -9999.25   -9999.25   58.70990  -72.75770   11.42460   11.84580   12.53270    8.61040   -9999.25   -9999.25   -9999.25   -9999.25   -9999.25
 3287.50000   70.85520   -9999.25   -9999.25   55.49360  -72.70000   11.43090   11.89620   13.99140    8.61070   -9999.25   -9999.25   -9999.25   -9999.25   -9999.25
 3288.00000   69.41340   -9999.25   -9999.25   53.10470  -72.61530   11.40400   11.87550   15.57140    8.61120   -9999.25   -9999.25   -9999.25   -9999.25   -9999.25
 3288.50000   69.29490   -9999.25   -9999.25   51.77200  -72.24430   11.23830   11.72810   16.68720    8.61130   -9999.25   -9999.25   -9999.25   -9999.25   -9999.25
 3289.00000   70.74540   -9999.25   -9999.25   54.61020  -71.38990   11.12310   11.58240   16.30160    8.61030   -9999.25   -9999.25   -9999.25   -9999.25   -9999.25
 3289.50000   72.27770   -9999.25   -9999.25   60.05980  -70.78840   11.00910   11.43860   14.16730    8.61060   -9999.25   -9999.25   -9999.25   -9999.25   -9999.25
 3290.00000   72.64050   -9999.25   -9999.25   64.15310  -70.30000   11.00900   11.52250   12.06630    8.61120   -9999.25   -9999.25   -9999.25   -9999.25   -9999.25
 3290.50000   72.50350   -9999.25   -9999.25   64.98160  -70.84640   11.19110   11.74300   11.01920    8.61130   -9999.25   -9999.25   -9999.25   -9999.25   -9999.25
 3291.00000   71.35910   -9999.25   -9999.25   61.71220  -71.60670   11.46060   11.94440   12.40900    8.61270   -9999.25   -9999.25   -9999.25   -9999.25   -9999.25
 3291.50000   70.37920   -9999.25   -9999.25   58.72230  -72.46280   11.73650   12.10190   14.00200    8.60960   -9999.25   -9999.25   -9999.25   -9999.25   -9999.25
 3292.00000   69.63760   -9999.25   -9999.25   55.84020  -72.69770   12.01910   12.35960   15.01130    8.59410   -9999.25   -9999.25   -9999.25   -9999.25   -9999.25
 3292.50000   69.49030   -9999.25   -9999.25   53.92000  -72.58310   12.30850   12.62290   15.32640    8.59040   -9999.25   -9999.25   -9999.25   -9999.25   -9999.25
 3293.00000   69.54000   -9999.25   -9999.25   52.40310  -72.33060   12.60490   12.89170   15.11620    8.59040   -9999.25   -9999.25   -9999.25   -9999.25   -9999.25
 3293.50000   69.43820   -9999.25   -9999.25   50.75990  -72.20620   12.90840   13.30910   15.08960    8.57720   -9999.25   -9999.25   -9999.25   -9999.25   -9999.25
 3294.00000   68.84830   -9999.25   -9999.25   50.95460  -72.59060   13.21930   13.75700   15.30290    8.56110   -9999.25   -9999.25   -9999.25   -9999.25   -9999.25
 3294.50000   68.22860   -9999.25   -9999.25   52.80280  -73.27770   13.63380   14.22000   15.73210    8.54040   -9999.25   -9999.25   -9999.25   -9999.25   -9999.25
 3295.00000   67.58040   -9999.25   -9999.25   54.61520  -73.70970   14.08040   14.69870   16.33390    8.51380   -9999.25   -9999.25   -9999.25   -9999.25   -9999.25
 3295.50000   67.08020   -9999.25   -9999.25   55.46480  -74.17040   14.54170   15.19340   17.19910    8.49540   -9999.25   -9999.25   -9999.25   -9999.25   -9999.25
 3296.00000   66.50120   -9999.25   -9999.25   56.13350  -74.67810   15.01810   15.70470   17.98710    8.49220   -9999.25   -9999.25   -9999.25   -9999.25   -9999.25
 3296.50000   65.89850   -9999.25   -9999.25   56.44690  -74.99550   15.51010   16.28620   18.92560    8.49150   -9999.25   -9999.25   -9999.25   -9999.25   -9999.25
 3297.00000   65.43730   -9999.25   -9999.25   55.32470  -74.87660   16.01830   16.93130   20.41930    8.48320   -9999.25   -9999.25   -9999.25   -9999.25   -9999.25
 3297.50000   65.19150   -9999.25   -9999.25   54.14360  -75.36010   16.54300   17.57100   22.09420    8.47110   -9999.25   -9999.25   -9999.25   -9999.25   -9999.25
 3298.00000   65.10210   -9999.25   -9999.25   54.04010  -75.79870   17.08500   18.20850   23.15330    8.48030   -9999.25   -9999.25   -9999.25   -9999.25   -9999.25
 3298.50000   65.28750   -9999.25   -9999.25   57.03410  -75.90470   17.64470   18.86920   23.56260    8.51220   -9999.25   -9999.25   -9999.25   -9999.25   -9999.25
 3299.00000   65.44710   -9999.25   -9999.25   60.26040  -75.34620   18.06910   19.55380   23.26170    8.54440   -9999.25   -9999.25   -9999.25   -9999.25   -9999.25
 3299.50000   65.54070   -9999.25   -9999.25   61.54320  -74.87450   18.29520   19.86480   23.45740    8.56380   -9999.25   -9999.25   -9999.25   -9999.25   -9999.25
 3300.00000   65.52130   -9999.25   -9999.25   58.35350  -74.44170   18.52410   19.92760   24.24200    8.58000   -9999.25   -9999.25   -9999.25   -9999.25   -9999.25
 3300.50000   65.45260   -9999.25   -9999.25   54.38360  -73.92500   18.22870   19.99060   24.91070    8.59360   -9999.25   -9999.25   -9999.25   -9999.25   -9999.25
 3301.00000   65.19810   -9999.25   -9999.25   51.06320  -73.79680   18.34360   20.05380   24.71710    8.60460   -9999.25   -9999.25   -9999.25   -9999.25   -9999.25
 3301.50000   64.83340   -9999.25   -9999.25   47.56830  -74.05830   18.75590   20.11720   24.23850    8.61760   -9999.25   -9999.25   -9999.25   -9999.25   -9999.25
 3302.00000   69.43960   -9999.25   -9999.25   44.54300  -74.86020   19.23250   20.16900   24.73710    8.61180   -9999.25   -9999.25   -9999.25   -9999.25   -9999.25
 3302.50000   81.11500   -9999.25   -9999.25   41.91150  -75.67020   19.52180   20.16900   26.03790    8.61310   -9999.25   -9999.25   -9999.25   -9999.25   -9999.25
 3303.00000  101.46430   -9999.25   -9999.25   41.45070  -75.38790   18.80560   20.11700   26.71270    8.61600   -9999.25   -9999.25   -9999.25   -9999.25   -9999.25
 3303.50000  127.07410   -9999.25   -9999.25   42.49210  -74.80000   16.95280   20.01300   26.81980    8.60980   -9999.25   -9999.25   -9999.25   -9999.25   -9999.25
 3304.00000  139.81000   -9999.25   -9999.25   43.63940  -74.29050   15.31150   18.20050   27.27980    8.62460   -9999.25   -9999.25   -9999.25   -9999.25   -9999.25
