~Version ---------------------------------------------------
VERS.   2.0 : CWLS log ASCII Standard -VERSION 2.0
WRAP.    NO : One line per depth step
DLM . SPACE : Column Data Section Delimiter
~Well ------------------------------------------------------
STRT .F                 389.0 : START DEPTH
STOP .F                6978.0 : STOP DEPTH
STEP .F                   0.5 : STEP
NULL .               -9999.25 : NULL VALUE
COMP .                        : COMPANY
WELL .                        : WELL
FLD  .                        : FIELD
LOC  .                        : LOCATION
PROV .                        : PROVINCE
CNTY .                        : COUNTY
STAT .                        : STATE
CTRY .                        : COUNTRY
SRVC .                        : SERVICE COMPANY
DATE .                        : DATE
UWI  .                        : UNIQUE WELL ID
API  .                        : API NUMBER
SLAT .WGS84 2.342778254542104 : SURFACE LATITUDE
SLON .WGS84 4.998612833871007 : SURFACE LONGITUDE
DATUM.F               2186.32 : DEPTH DATUM ELEV
~Curve Information -----------------------------------------
DEPT.F     : 1 MEASURED DEPTH
DT  .US/F  : DELTA-T (INTERVAL TRANSIT TIME)
DTCO.US/F  : DELTA-T COMPRESSIONAL
DTSM.US/F  : DELTA-T SHEAR
GRR .GAPI  : GAMMA RAY FROM RESISTIVITY LOG
SPR .MV    : SPONTANEOUS POTENTIAL FROM RESISTIVITY LOG
ILD .OHMM  : INDUCTION DEEP RESISTIVITY
ILM .OHMM  : INDUCTION MEDIUM RESISTIVITY
SFLU.OHMM  : SHALLOW FOCUSED RESISTIVITY (UNAVERAGED)
CALD.IN    : CALIPER FROM DENSITY LOG
DRHO.G/C3  : BULK DENSITY CORRECTION
NPHI.DEC   : NEUTRON POROSITY
DPHI.DEC   : DENSITY POROSITY
PEF .B/E   : PHOTOELECTRIC FACTOR
RHOB.G/C3  : BULK DENSITY
~Params ----------------------------------------------------
~Other -----------------------------------------------------
~ASCII -----------------------------------------------------
# ...
 3745.50000   62.24030   -9999.25   -9999.25   85.22730  -64.72030    5.94180    3.71530    5.53020   12.19610   -9999.25   -9999.25   -9999.25   -9999.25   -9999.25
 3746.00000   53.47590   -9999.25   -9999.25   84.14900  -64.35980    5.87130    3.86660    4.15810   12.74980   -9999.25   -9999.25   -9999.25   -9999.25   -9999.25
 3746.50000   47.47550   -9999.25   -9999.25   80.04990  -64.98960    5.93780    5.06490    4.07100   12.04080   -9999.25   -9999.25   -9999.25   -9999.25   -9999.25
 3747.00000   48.66510   -9999.25   -9999.25   66.41650  -66.08410    6.38420    7.60000    4.68890   10.59040   -9999.25   -9999.25   -9999.25   -9999.25   -9999.25
 3747.50000   49.24270   -9999.25   -9999.25   51.88960  -67.06960    6.76080   10.80890    7.97290    9.59970   -9999.25   -9999.25   -9999.25   -9999.25   -9999.25
 3748.00000   46.11340   -9999.25   -9999.25   40.54100  -68.05420    7.15960   10.42230   15.51840    9.21870   -9999.25   -9999.25   -9999.25   -9999.25   -9999.25
 3748.50000   47.24440   -9999.25   -9999.25   36.69420  -68.43070    9.37250    9.77060   38.34590    9.20440   -9999.25   -9999.25   -9999.25   -9999.25   -9999.25
 3749.00000   51.31400   -9999.25   -9999.25   40.22280  -68.16910   12.40660   10.75730   29.73240    9.37230   -9999.25   -9999.25   -9999.25   -9999.25   -9999.25
 3749.50000   55.38360   -9999.25   -9999.25   41.71000  -68.05370   16.42290   13.14260   16.63310    9.37340   -9999.25   -9999.25   -9999.25   -9999.25   -9999.25
 3750.00000   62.68440   -9999.25   -9999.25   37.08920  -67.84620   23.91690   16.29590   18.78560    9.22080   -9999.25   -9999.25   -9999.25   -9999.25   -9999.25
 3750.50000   60.41850   -9999.25   -9999.25   31.68710  -68.47080   33.31250   23.33750   27.64500    9.07010   -9999.25   -9999.25   -9999.25   -9999.25   -9999.25
 3751.00000   56.47680   -9999.25   -9999.25   22.27340  -68.96850   30.92740   33.85890   49.12270    9.08360   -9999.25   -9999.25   -9999.25   -9999.25   -9999.25
 3751.50000   54.53380   -9999.25   -9999.25   16.84820  -69.33180   27.65280   34.09290   84.05050    9.12540   -9999.25   -9999.25   -9999.25   -9999.25   -9999.25
 3752.00000   54.39450   -9999.25   -9999.25   16.49820  -69.26590   29.13210   36.49070  102.67120    9.15880   -9999.25   -9999.25   -9999.25   -9999.25   -9999.25
 3752.50000   55.61580   -9999.25   -9999.25   19.03770  -69.20520   32.36670   44.10410  105.93230    9.17400   -9999.25   -9999.25   -9999.25   -9999.25   -9999.25
 3753.00000   58.88810   -9999.25   -9999.25   22.04750  -68.56710   33.74450   49.31080   94.66650    9.18540   -9999.25   -9999.25   -9999.25   -9999.25   -9999.25
 3753.50000   59.94820   -9999.25   -9999.25   24.86830  -68.19060   34.33050   49.42000   67.17930    9.18910   -9999.25   -9999.25   -9999.25   -9999.25   -9999.25
 3754.00000   60.66140   -9999.25   -9999.25   28.60590  -67.93320   29.69580   37.49540   44.52530    9.20350   -9999.25   -9999.25   -9999.25   -9999.25   -9999.25
 3754.50000   64.12030   -9999.25   -9999.25   32.65020  -67.65480   24.52780   28.58110   29.15460    9.22150   -9999.25   -9999.25   -9999.25   -9999.25   -9999.25
 3755.00000   68.37260   -9999.25   -9999.25   35.90310  -67.26090   20.25920   21.95570   23.18880    9.28140   -9999.25   -9999.25   -9999.25   -9999.25   -9999.25
 3755.50000   70.50780   -9999.25   -9999.25   39.64770  -66.90570   17.08190   17.98690   19.56670    9.34130   -9999.25   -9999.25   -9999.25   -9999.25   -9999.25
 3756.00000   72.89380   -9999.25   -9999.25   45.03300  -66.45570   14.57040   15.41530   16.63670    9.34230   -9999.25   -9999.25   -9999.25   -9999.25   -9999.25
 3756.50000   75.55940   -9999.25   -9999.25   51.03950  -65.75360   13.35740   13.73880   14.45310    9.31190   -9999.25   -9999.25   -9999.25   -9999.25   -9999.25
 3757.00000   74.43440   -9999.25   -9999.25   52.16230  -65.30540   12.44810   12.77000   13.68160    9.32700   -9999.25   -9999.25   -9999.25   -9999.25   -9999.25
 3757.50000   71.52430   -9999.25   -9999.25   51.39340  -64.93310   11.60070   11.99470   13.96770    9.40380   -9999.25   -9999.25   -9999.25   -9999.25   -9999.25
 3758.00000   70.57540   -9999.25   -9999.25   52.77080  -64.49850   10.61790   11.07860   14.16760    9.53570   -9999.25   -9999.25   -9999.25   -9999.25   -9999.25
 3758.50000   70.53960   -9999.25   -9999.25   56.91060  -63.96350    9.43910    9.41970   13.46950    9.65500   -9999.25   -9999.25   -9999.25   -9999.25   -9999.25
 3759.00000   72.47510   -9999.25   -9999.25   63.76470  -63.37160    8.60620    8.00910   11.68610    9.73470   -9999.25   -9999.25   -9999.25   -9999.25   -9999.25
 3759.50000   76.69520   -9999.25   -9999.25   71.27250  -63.47730    8.07700    7.43100    9.89310    9.81520   -9999.25   -9999.25   -9999.25   -9999.25   -9999.25
 3760.00000   81.16160   -9999.25   -9999.25   79.07430  -63.72150    7.59730    7.14730    8.51110    9.80800   -9999.25   -9999.25   -9999.25   -9999.25   -9999.25
 3760.50000   84.24050   -9999.25   -9999.25   86.87610  -63.18430    7.42870    7.05920    7.57070    9.75710   -9999.25   -9999.25   -9999.25   -9999.25   -9999.25
 3761.00000   86.37770   -9999.25   -9999.25   96.46000  -62.53710    7.26380    6.97060    6.82040    9.66020   -9999.25   -9999.25   -9999.25   -9999.25   -9999.25
 3761.50000   87.23800   -9999.25   -9999.25  117.39430  -62.07860    7.10250    6.87260    6.65320    9.61430   -9999.25   -9999.25   -9999.25   -9999.25   -9999.25
 3762.00000   87.06620   -9999.25   -9999.25  164.78010  -62.00050    6.94490    6.77600    6.84660    9.57570   -9999.25   -9999.25   -9999.25   -9999.25   -9999.25
 3762.50000   86.04400   -9999.25   -9999.25  219.27440  -63.09150    6.92180    6.71800    7.44400    9.54510   -9999.25   -9999.25   -9999.25   -9999.25   -9999.25
 3763.00000   84.84970   -9999.25   -9999.25  259.69720  -64.03740    7.03030    6.84210    8.06210    9.52220   -9999.25   -9999.25   -9999.25   -9999.25   -9999.25
 3763.50000   84.72460   -9999.25   -9999.25  258.73520  -64.54810    7.14290    6.98090    8.65240    9.51500   -9999.25   -9999.25   -9999.25   -9999.25   -9999.25
 3764.00000   85.20870   -9999.25   -9999.25  214.95130  -64.93620    7.25730    7.12250    8.80930    9.50960   -9999.25   -9999.25   -9999.25   -9999.25   -9999.25
 3764.50000   84.89870   -9999.25   -9999.25  171.16740  -65.26890    7.34670    7.26700    8.93100    9.50430   -9999.25   -9999.25   -9999.25   -9999.25   -9999.25
 3765.00000   84.27800   -9999.25   -9999.25  133.76710  -65.23570    7.44950    7.41440    9.04110    9.49890   -9999.25   -9999.25   -9999.25   -9999.25   -9999.25
 3765.50000   83.98030   -9999.25   -9999.25  100.44560  -65.28400    7.49820    7.53970    9.29890    9.49950   -9999.25   -9999.25   -9999.25   -9999.25   -9999.25
 3766.00000   84.09080   -9999.25   -9999.25   87.21490  -65.36010    7.52450    7.48810    9.53370    9.50230   -9999.25   -9999.25   -9999.25   -9999.25   -9999.25
 3766.50000   85.55070   -9999.25   -9999.25   83.73830  -65.13160    7.52240    7.43700    9.55850    9.50440   -9999.25   -9999.25   -9999.25   -9999.25   -9999.25
 3767.00000   88.41760   -9999.25   -9999.25   87.01300  -64.56690    7.46980    7.38610    9.36870    9.50220   -9999.25   -9999.25   -9999.25   -9999.25   -9999.25
 3767.50000   89.39830   -9999.25   -9999.25   89.68030  -64.43620    7.23030    6.91810    9.14550    9.49470   -9999.25   -9999.25   -9999.25   -9999.25   -9999.25
 3768.00000   88.36950   -9999.25   -9999.25   92.68280  -64.32900    6.82200    6.35150    8.78360    9.48720   -9999.25   -9999.25   -9999.25   -9999.25   -9999.25
 3768.50000   89.11180   -9999.25   -9999.25   96.73930  -64.01710    6.24790    5.85570    8.26740    9.47570   -9999.25   -9999.25   -9999.25   -9999.25   -9999.25
 3769.00000   90.45280   -9999.25   -9999.25  101.78530  -63.68930    5.72210    5.39860    7.63330    9.49740   -9999.25   -9999.25   -9999.25   -9999.25   -9999.25
 3769.50000   90.34120   -9999.25   -9999.25  107.32430  -63.62550    5.44770    4.97720    6.85400    9.50750   -9999.25   -9999.25   -9999.25   -9999.25   -9999.25
