~Version ---------------------------------------------------
VERS.   2.0 : CWLS log ASCII Standard -VERSION 2.0
WRAP.    NO : One line per depth step
DLM . SPACE : Column Data Section Delimiter
~Well ------------------------------------------------------
STRT .F                 389.0 : START DEPTH
STOP .F                6978.0 : STOP DEPTH
STEP .F                   0.5 : STEP
NULL .               -9999.25 : NULL VALUE
COMP .                        : COMPANY
WELL .                        : WELL
FLD  .                        : FIELD
LOC  .                        : LOCATION
PROV .                        : PROVINCE
CNTY .                        : COUNTY
STAT .                        : STATE
CTRY .                        : COUNTRY
SRVC .                        : SERVICE COMPANY
DATE .                        : DATE
UWI  .                        : UNIQUE WELL ID
API  .                        : API NUMBER
SLAT .WGS84 2.342778254542104 : SURFACE LATITUDE
SLON .WGS84 4.998612833871007 : SURFACE LONGITUDE
DATUM.F               2186.32 : DEPTH DATUM ELEV
~Curve Information -----------------------------------------
DEPT.F     : 1 MEASURED DEPTH
DT  .US/F  : DELTA-T (INTERVAL TRANSIT TIME)
DTCO.US/F  : DELTA-T COMPRESSIONAL
DTSM.US/F  : DELTA-T SHEAR
GRR .GAPI  : GAMMA RAY FROM RESISTIVITY LOG
SPR .MV    : SPONTANEOUS POTENTIAL FROM RESISTIVITY LOG
ILD .OHMM  : INDUCTION DEEP RESISTIVITY
ILM .OHMM  : INDUCTION MEDIUM RESISTIVITY
SFLU.OHMM  : SHALLOW FOCUSED RESISTIVITY (UNAVERAGED)
CALD.IN    : CALIPER FROM DENSITY LOG
DRHO.G/C3  : BULK DENSITY CORRECTION
NPHI.DEC   : NEUTRON POROSITY
DPHI.DEC   : DENSITY POROSITY
PEF .B/E   : PHOTOELECTRIC FACTOR
RHOB.G/C3  : BULK DENSITY
~Params ----------------------------------------------------
~Other -----------------------------------------------------
~ASCII -----------------------------------------------------
# ...
 2496.00000   66.86600   -9999.25   -9999.25   56.94330  -75.18080    3.51430    3.79820    7.64330    8.94600   -9999.25   -9999.25   -9999.25   -9999.25   -9999.25
 2496.50000   65.37150   -9999.25   -9999.25   58.47100  -75.17890    3.74270    3.94990    6.68390    8.89350   -9999.25   -9999.25   -9999.25   -9999.25   -9999.25
 2497.00000   60.90580   -9999.25   -9999.25   54.99500  -76.47150    3.99730    4.42730    5.87390    8.89140   -9999.25   -9999.25   -9999.25   -9999.25   -9999.25
 2497.50000   59.64330   -9999.25   -9999.25   50.20460  -79.31890    4.42360    4.96230    5.18980    8.89410   -9999.25   -9999.25   -9999.25   -9999.25   -9999.25
 2498.00000   63.69740   -9999.25   -9999.25   43.38960  -82.06970    5.08030    5.48690    4.71860    8.88980   -9999.25   -9999.25   -9999.25   -9999.25   -9999.25
 2498.50000   67.84310   -9999.25   -9999.25   36.84530  -83.51790    5.70730    6.00690    5.61020    8.88650   -9999.25   -9999.25   -9999.25   -9999.25   -9999.25
 2499.00000   67.27020   -9999.25   -9999.25   32.32210  -84.13880    5.96790    6.57610    8.02730    8.88770   -9999.25   -9999.25   -9999.25   -9999.25   -9999.25
 2499.50000   66.10250   -9999.25   -9999.25   28.16150  -84.23320    6.24040    7.19930   13.94720    8.89050   -9999.25   -9999.25   -9999.25   -9999.25   -9999.25
 2500.00000   66.24400   -9999.25   -9999.25   26.13630  -84.55090    6.52540    7.64230   21.06560    8.88890   -9999.25   -9999.25   -9999.25   -9999.25   -9999.25
 2500.50000   66.54180   -9999.25   -9999.25   25.86710  -85.02290    6.82330    7.67850   22.89060    8.88730   -9999.25   -9999.25   -9999.25   -9999.25   -9999.25
 2501.00000   66.88800   -9999.25   -9999.25   26.79090  -84.93780    6.90470    7.50610   17.20900    8.89710   -9999.25   -9999.25   -9999.25   -9999.25   -9999.25
 2501.50000   70.35600   -9999.25   -9999.25   32.67650  -84.08490    6.86530    7.35030   10.06240    8.91440   -9999.25   -9999.25   -9999.25   -9999.25   -9999.25
 2502.00000   75.57820   -9999.25   -9999.25   42.74360  -81.34460    6.76630    7.14630    7.23680    8.92490   -9999.25   -9999.25   -9999.25   -9999.25   -9999.25
 2502.50000   79.98860   -9999.25   -9999.25   53.31380  -76.99850    6.68240    6.94790    6.68310    8.93540   -9999.25   -9999.25   -9999.25   -9999.25   -9999.25
 2503.00000   83.66720   -9999.25   -9999.25   63.13920  -71.37660    6.59960    6.75510    7.90380    8.95630   -9999.25   -9999.25   -9999.25   -9999.25   -9999.25
 2503.50000   86.24610   -9999.25   -9999.25   72.85280  -67.03990    6.36370    6.56770    9.61020    8.94600   -9999.25   -9999.25   -9999.25   -9999.25   -9999.25
 2504.00000   84.36470   -9999.25   -9999.25   69.69700  -66.07140    6.09290    6.38540   10.19850    8.91230   -9999.25   -9999.25   -9999.25   -9999.25   -9999.25
 2504.50000   80.95430   -9999.25   -9999.25   63.76250  -65.38000    5.89030    6.32070    9.71490    8.83200   -9999.25   -9999.25   -9999.25   -9999.25   -9999.25
 2505.00000   75.58660   -9999.25   -9999.25   57.83810  -65.73240    5.92100    6.57410    7.99330    8.73620   -9999.25   -9999.25   -9999.25   -9999.25   -9999.25
 2505.50000   69.96240   -9999.25   -9999.25   54.24060  -65.75190    6.20760    6.94990    6.87040    8.72520   -9999.25   -9999.25   -9999.25   -9999.25   -9999.25
 2506.00000   68.94810   -9999.25   -9999.25   52.61960  -65.08820    6.65130    7.34710    7.59070    8.72480   -9999.25   -9999.25   -9999.25   -9999.25   -9999.25
 2506.50000   70.64100   -9999.25   -9999.25   51.56490  -63.52470    7.12680    7.76710    9.37850    8.72430   -9999.25   -9999.25   -9999.25   -9999.25   -9999.25
 2507.00000   70.03600   -9999.25   -9999.25   51.86640  -61.99650    7.72890    8.40940    9.82560    8.72330   -9999.25   -9999.25   -9999.25   -9999.25   -9999.25
 2507.50000   66.27670   -9999.25   -9999.25   50.80550  -61.03670    8.55170    9.24060    9.88090    8.72310   -9999.25   -9999.25   -9999.25   -9999.25   -9999.25
 2508.00000   63.68090   -9999.25   -9999.25   48.47980  -60.55050    9.60930   10.16720   10.67820    8.72320   -9999.25   -9999.25   -9999.25   -9999.25   -9999.25
 2508.50000   63.94150   -9999.25   -9999.25   41.05170  -61.34740   10.97630   11.94770   17.82510    8.72320   -9999.25   -9999.25   -9999.25   -9999.25   -9999.25
 2509.00000   64.47340   -9999.25   -9999.25   37.08750  -62.43420   12.86880   14.04010   23.24210    8.72260   -9999.25   -9999.25   -9999.25   -9999.25   -9999.25
 2509.50000   61.19500   -9999.25   -9999.25   37.12060  -63.28790   15.20450   17.20610   24.72700    8.72070   -9999.25   -9999.25   -9999.25   -9999.25   -9999.25
 2510.00000   57.55640   -9999.25   -9999.25   39.03620  -64.21460   18.80080   21.31150   24.69250    8.72180   -9999.25   -9999.25   -9999.25   -9999.25   -9999.25
 2510.50000   56.25830   -9999.25   -9999.25   38.13880  -65.38380   23.24770   25.23190   30.75870    8.72350   -9999.25   -9999.25   -9999.25   -9999.25   -9999.25
 2511.00000   55.80460   -9999.25   -9999.25   33.15480  -66.85460   26.67110   28.95800   40.89760    8.72520   -9999.25   -9999.25   -9999.25   -9999.25   -9999.25
 2511.50000   55.72510   -9999.25   -9999.25   26.75590  -67.68630   29.25330   33.23440   57.64260    8.72640   -9999.25   -9999.25   -9999.25   -9999.25   -9999.25
 2512.00000   57.26340   -9999.25   -9999.25   23.19700  -68.42250   31.17600   41.76830   76.72380    8.72740   -9999.25   -9999.25   -9999.25   -9999.25   -9999.25
 2512.50000   58.48020   -9999.25   -9999.25   20.73410  -69.28580   33.03740   45.73990   90.49770    8.72750   -9999.25   -9999.25   -9999.25   -9999.25   -9999.25
 2513.00000   59.27230   -9999.25   -9999.25   22.37560  -69.74200   35.26280   42.73500   88.57580    8.72670   -9999.25   -9999.25   -9999.25   -9999.25   -9999.25
 2513.50000   58.27580   -9999.25   -9999.25   25.68920  -70.16230   37.37520   38.45950   65.50860    8.72720   -9999.25   -9999.25   -9999.25   -9999.25   -9999.25
 2514.00000   56.59700   -9999.25   -9999.25   29.11390  -69.39720   38.99030   36.97120   47.58270    8.73990   -9999.25   -9999.25   -9999.25   -9999.25   -9999.25
 2514.50000   56.54010   -9999.25   -9999.25   29.00170  -69.12370   38.10700   39.91640   41.88550    8.74870   -9999.25   -9999.25   -9999.25   -9999.25   -9999.25
 2515.00000   58.73100   -9999.25   -9999.25   26.22800  -68.75600   35.40270   42.78380   54.29090    8.74130   -9999.25   -9999.25   -9999.25   -9999.25   -9999.25
 2515.50000   61.48720   -9999.25   -9999.25   25.79320  -68.36360   31.92510   38.24720   70.48980    8.72690   -9999.25   -9999.25   -9999.25   -9999.25   -9999.25
 2516.00000   63.44970   -9999.25   -9999.25   30.85120  -68.53430   30.09710   33.61160   66.61610    8.72790   -9999.25   -9999.25   -9999.25   -9999.25   -9999.25
 2516.50000   64.11460   -9999.25   -9999.25   44.36150  -68.98840   28.66150   29.11560   47.89280    8.72960   -9999.25   -9999.25   -9999.25   -9999.25   -9999.25
 2517.00000   63.15780   -9999.25   -9999.25   62.41730  -68.88330   27.29440   25.16030   34.14910    8.73080   -9999.25   -9999.25   -9999.25   -9999.25   -9999.25
 2517.50000   62.03990   -9999.25   -9999.25   77.98610  -68.63690   26.42280   24.21930   26.33010    8.73190   -9999.25   -9999.25   -9999.25   -9999.25   -9999.25
 2518.00000   60.83230   -9999.25   -9999.25   80.70570  -68.39010   25.80430   25.36510   26.17360    8.73290   -9999.25   -9999.25   -9999.25   -9999.25   -9999.25
 2518.50000   59.29460   -9999.25   -9999.25   75.78250  -68.36680   25.78340   26.41430   29.13990    8.73210   -9999.25   -9999.25   -9999.25   -9999.25   -9999.25
 2519.00000   58.10200   -9999.25   -9999.25   68.31410  -69.14130   26.36420   27.50680   33.40250    8.72900   -9999.25   -9999.25   -9999.25   -9999.25   -9999.25
 2519.50000   57.68640   -9999.25   -9999.25   59.33070  -70.04990   27.33160   29.71750   39.56810    8.72890   -9999.25   -9999.25   -9999.25   -9999.25   -9999.25
 2520.00000   57.83930   -9999.25   -9999.25   50.65530  -71.47220   28.33450   32.40600   48.44690    8.73350   -9999.25   -9999.25   -9999.25   -9999.25   -9999.25
