~Version ---------------------------------------------------
VERS.   2.0 : CWLS log ASCII Standard -VERSION 2.0
WRAP.    NO : One line per depth step
DLM . SPACE : Column Data Section Delimiter
~Well ------------------------------------------------------
STRT .F                 389.0 : START DEPTH
STOP .F                6978.0 : STOP DEPTH
STEP .F                   0.5 : STEP
NULL .               -9999.25 : NULL VALUE
COMP .                        : COMPANY
WELL .                        : WELL
FLD  .                        : FIELD
LOC  .                        : LOCATION
PROV .                        : PROVINCE
CNTY .                        : COUNTY
STAT .                        : STATE
CTRY .                        : COUNTRY
SRVC .                        : SERVICE COMPANY
DATE .                        : DATE
UWI  .                        : UNIQUE WELL ID
API  .                        : API NUMBER
SLAT .WGS84 2.342778254542104 : SURFACE LATITUDE
SLON .WGS84 4.998612833871007 : SURFACE LONGITUDE
DATUM.F               2186.32 : DEPTH DATUM ELEV
~Curve Information -----------------------------------------
DEPT.F     : 1 MEASURED DEPTH
DT  .US/F  : DELTA-T (INTERVAL TRANSIT TIME)
DTCO.US/F  : DELTA-T COMPRESSIONAL
DTSM.US/F  : DELTA-T SHEAR
GRR .GAPI  : GAMMA RAY FROM RESISTIVITY LOG
SPR .MV    : SPONTANEOUS POTENTIAL FROM RESISTIVITY LOG
ILD .OHMM  : INDUCTION DEEP RESISTIVITY
ILM .OHMM  : INDUCTION MEDIUM RESISTIVITY
SFLU.OHMM  : SHALLOW FOCUSED RESISTIVITY (UNAVERAGED)
CALD.IN    : CALIPER FROM DENSITY LOG
DRHO.G/C3  : BULK DENSITY CORRECTION
NPHI.DEC   : NEUTRON POROSITY
DPHI.DEC   : DENSITY POROSITY
PEF .B/E   : PHOTOELECTRIC FACTOR
RHOB.G/C3  : BULK DENSITY
~Params ----------------------------------------------------
~Other -----------------------------------------------------
~ASCII -----------------------------------------------------
# ...
  732.00000   79.22020   -9999.25   -9999.25   45.16520   54.98870   15.78710   12.25130   45.25190   10.03490   -9999.25   -9999.25   -9999.25   -9999.25   -9999.25
  732.50000   80.78550   -9999.25   -9999.25   56.19600   40.61550   18.05520   11.64340   29.23740    9.92740   -9999.25   -9999.25   -9999.25   -9999.25   -9999.25
  733.00000   82.87100   -9999.25   -9999.25   72.58490   34.31360   17.95750   11.47110   21.35310   10.20730   -9999.25   -9999.25   -9999.25   -9999.25   -9999.25
  733.50000   93.29810   -9999.25   -9999.25   85.31540   25.43720   15.10290   11.02560   22.20740   10.62850   -9999.25   -9999.25   -9999.25   -9999.25   -9999.25
  734.00000  110.25380   -9999.25   -9999.25   89.24530   17.81280   11.05800    9.64230   22.55500   10.55750   -9999.25   -9999.25   -9999.25   -9999.25   -9999.25
  734.50000  118.28590   -9999.25   -9999.25   84.43580   11.01990    9.03240    8.28680   19.04150   10.40880   -9999.25   -9999.25   -9999.25   -9999.25   -9999.25
  735.00000  118.66840   -9999.25   -9999.25   79.64190    5.44780    7.33490    5.31680   12.97550   10.39410   -9999.25   -9999.25   -9999.25   -9999.25   -9999.25
  735.50000  120.23200   -9999.25   -9999.25   80.57470    1.66690    6.23700    4.23610    9.03300   10.29500   -9999.25   -9999.25   -9999.25   -9999.25   -9999.25
  736.00000  123.52190   -9999.25   -9999.25   88.07440    0.36320    5.72020    4.07270    8.68770   10.22590   -9999.25   -9999.25   -9999.25   -9999.25   -9999.25
  736.50000  126.14450   -9999.25   -9999.25   95.63060   -0.49810    5.28950    3.93200    9.74430   10.42620   -9999.25   -9999.25   -9999.25   -9999.25   -9999.25
  737.00000  126.57960   -9999.25   -9999.25   99.54850   -0.52940    4.81460    3.78080   11.40980   11.06190   -9999.25   -9999.25   -9999.25   -9999.25   -9999.25
  737.50000  122.78080   -9999.25   -9999.25  100.58150   -0.56060    4.45500    3.64900   13.75100   12.00420   -9999.25   -9999.25   -9999.25   -9999.25   -9999.25
  738.00000  115.23290   -9999.25   -9999.25   98.89690   -1.54460    4.27510    3.52330   16.39460   12.43930   -9999.25   -9999.25   -9999.25   -9999.25   -9999.25
  738.50000  108.00510   -9999.25   -9999.25   94.18970   -2.73770    4.15790    3.40330   18.32230   12.18660   -9999.25   -9999.25   -9999.25   -9999.25   -9999.25
  739.00000  102.11580   -9999.25   -9999.25   89.30030   -4.45000    4.19390    3.26010   17.38840   11.54850   -9999.25   -9999.25   -9999.25   -9999.25   -9999.25
  739.50000  101.87310   -9999.25   -9999.25   88.54440   -5.46560    4.27220    3.23870   14.55590   10.69670   -9999.25   -9999.25   -9999.25   -9999.25   -9999.25
  740.00000  104.86640   -9999.25   -9999.25   89.44670   -6.30390    4.26720    3.23980   14.72130   10.11870   -9999.25   -9999.25   -9999.25   -9999.25   -9999.25
  740.50000  106.11640   -9999.25   -9999.25   90.29900   -5.95170    4.25090    3.24390   16.30310    9.82540   -9999.25   -9999.25   -9999.25   -9999.25   -9999.25
  741.00000  103.37490   -9999.25   -9999.25   89.59590   -5.83630    4.05470    3.26000   15.70740    9.90190   -9999.25   -9999.25   -9999.25   -9999.25   -9999.25
  741.50000  101.99490   -9999.25   -9999.25   88.35000   -5.26210    3.82980    3.26310   12.43880   10.12930   -9999.25   -9999.25   -9999.25   -9999.25   -9999.25
  742.00000  101.78250   -9999.25   -9999.25   87.65470   -4.63000    3.79460    3.21830    9.96070   10.41950   -9999.25   -9999.25   -9999.25   -9999.25   -9999.25
  742.50000  101.37540   -9999.25   -9999.25   88.28260   -3.34720    3.83090    3.11070    8.89490   10.41900   -9999.25   -9999.25   -9999.25   -9999.25   -9999.25
  743.00000  100.94140   -9999.25   -9999.25   92.70930   -3.57950    4.06430    3.15430    7.68720   10.19880   -9999.25   -9999.25   -9999.25   -9999.25   -9999.25
  743.50000  100.22960   -9999.25   -9999.25   96.20000   -4.45990    4.55320    3.36990    6.72060    9.86420   -9999.25   -9999.25   -9999.25   -9999.25   -9999.25
  744.00000   96.27400   -9999.25   -9999.25   97.40290   -5.32260    4.82840    3.89610    6.62660    9.68600   -9999.25   -9999.25   -9999.25   -9999.25   -9999.25
  744.50000   93.57360   -9999.25   -9999.25   94.87340   -6.22490    5.26060    4.61690    6.94670    9.82560   -9999.25   -9999.25   -9999.25   -9999.25   -9999.25
  745.00000   95.18970   -9999.25   -9999.25   89.66920   -6.95680    5.69120    5.24420    7.94800   10.30310   -9999.25   -9999.25   -9999.25   -9999.25   -9999.25
  745.50000   94.57590   -9999.25   -9999.25   85.54390   -7.85370    6.15040    5.51990    9.95460   10.83020   -9999.25   -9999.25   -9999.25   -9999.25   -9999.25
  746.00000   89.07700   -9999.25   -9999.25   81.07700   -8.93690    6.35800    5.81010   12.86270   10.97710   -9999.25   -9999.25   -9999.25   -9999.25   -9999.25
  746.50000   88.80700   -9999.25   -9999.25   78.24860  -10.21150    6.62610    5.98670   14.99640   11.08790   -9999.25   -9999.25   -9999.25   -9999.25   -9999.25
  747.00000   92.33220   -9999.25   -9999.25   75.74890  -11.27460    6.76010    5.32790   14.07420   11.83600   -9999.25   -9999.25   -9999.25   -9999.25   -9999.25
  747.50000   95.76730   -9999.25   -9999.25   73.39610  -12.29460    6.54900    5.00820   11.58940   12.84900   -9999.25   -9999.25   -9999.25   -9999.25   -9999.25
  748.00000   98.38370   -9999.25   -9999.25   73.33210  -13.46090    6.31170    4.86610    9.55210   13.04180   -9999.25   -9999.25   -9999.25   -9999.25   -9999.25
  748.50000   95.18930   -9999.25   -9999.25   76.27290  -15.36230    5.77800    4.70520    8.14640   12.32090   -9999.25   -9999.25   -9999.25   -9999.25   -9999.25
  749.00000   85.80150   -9999.25   -9999.25   79.16170  -16.82910    5.20560    4.20630    7.60430   11.04460   -9999.25   -9999.25   -9999.25   -9999.25   -9999.25
  749.50000   81.01910   -9999.25   -9999.25   80.34860  -18.00150    4.81840    3.95700    7.60990   10.55610   -9999.25   -9999.25   -9999.25   -9999.25   -9999.25
  750.00000   83.24300   -9999.25   -9999.25   81.49900  -17.89430    4.72620    3.93060    8.08170   10.86450   -9999.25   -9999.25   -9999.25   -9999.25   -9999.25
  750.50000   87.16130   -9999.25   -9999.25   82.71440  -17.41640    4.67490    3.95060    8.52970   11.64640   -9999.25   -9999.25   -9999.25   -9999.25   -9999.25
  751.00000   89.51310   -9999.25   -9999.25   87.65130  -16.05430    4.70130    4.09920    9.03530   12.47360   -9999.25   -9999.25   -9999.25   -9999.25   -9999.25
  751.50000   91.69920   -9999.25   -9999.25   92.82260  -14.46110    4.70750    4.15150    9.30020   12.40100   -9999.25   -9999.25   -9999.25   -9999.25   -9999.25
  752.00000   90.53220   -9999.25   -9999.25   97.14190  -13.42660    4.72920    4.19020    9.19820   11.91440   -9999.25   -9999.25   -9999.25   -9999.25   -9999.25
  752.50000   84.21870   -9999.25   -9999.25   94.86300  -12.93570    4.77060    4.21050    8.62830   12.47280   -9999.25   -9999.25   -9999.25   -9999.25   -9999.25
  753.00000   83.43020   -9999.25   -9999.25   91.17570  -13.21310    4.91670    4.24600    7.99810   13.44130   -9999.25   -9999.25   -9999.25   -9999.25   -9999.25
  753.50000   89.64130   -9999.25   -9999.25   88.93790  -13.91300    5.14030    4.31700    7.59640   13.27450   -9999.25   -9999.25   -9999.25   -9999.25   -9999.25
  754.00000   90.82230   -9999.25   -9999.25   88.22390  -14.95450    5.38000    4.37040    7.90820   11.69360   -9999.25   -9999.25   -9999.25   -9999.25   -9999.25
  754.50000   90.53010   -9999.25   -9999.25   87.03350  -15.55640    5.72560    4.39710    7.92440   10.73020   -9999.25   -9999.25   -9999.25   -9999.25   -9999.25
  755.00000   91.57810   -9999.25   -9999.25   81.30610  -16.36050    6.10070    4.36250    7.14170   10.67210   -9999.25   -9999.25   -9999.25   -9999.25   -9999.25
  755.50000   95.50130   -9999.25   -9999.25   76.35290  -17.04260    6.37180    4.56350    6.56250   11.34800   -9999.25   -9999.25   -9999.25   -9999.25   -9999.25
  756.00000  102.25090   -9999.25   -9999.25   73.67930  -18.05130    6.32010    4.60930    6.65850   13.69730   -9999.25   -9999.25   -9999.25   -9999.25   -9999.25
