~Version ---------------------------------------------------
VERS.   2.0 : CWLS log ASCII Standard -VERSION 2.0
WRAP.    NO : One line per depth step
DLM . SPACE : Column Data Section Delimiter
~Well ------------------------------------------------------
STRT .F                 389.0 : START DEPTH
STOP .F                6978.0 : STOP DEPTH
STEP .F                   0.5 : STEP
NULL .               -9999.25 : NULL VALUE
COMP .                        : COMPANY
WELL .                        : WELL
FLD  .                        : FIELD
LOC  .                        : LOCATION
PROV .                        : PROVINCE
CNTY .                        : COUNTY
STAT .                        : STATE
CTRY .                        : COUNTRY
SRVC .                        : SERVICE COMPANY
DATE .                        : DATE
UWI  .                        : UNIQUE WELL ID
API  .                        : API NUMBER
SLAT .WGS84 2.342778254542104 : SURFACE LATITUDE
SLON .WGS84 4.998612833871007 : SURFACE LONGITUDE
DATUM.F               2186.32 : DEPTH DATUM ELEV
~Curve Information -----------------------------------------
DEPT.F     : 1 MEASURED DEPTH
DT  .US/F  : DELTA-T (INTERVAL TRANSIT TIME)
DTCO.US/F  : DELTA-T COMPRESSIONAL
DTSM.US/F  : DELTA-T SHEAR
GRR .GAPI  : GAMMA RAY FROM RESISTIVITY LOG
SPR .MV    : SPONTANEOUS POTENTIAL FROM RESISTIVITY LOG
ILD .OHMM  : INDUCTION DEEP RESISTIVITY
ILM .OHMM  : INDUCTION MEDIUM RESISTIVITY
SFLU.OHMM  : SHALLOW FOCUSED RESISTIVITY (UNAVERAGED)
CALD.IN    : CALIPER FROM DENSITY LOG
DRHO.G/C3  : BULK DENSITY CORRECTION
NPHI.DEC   : NEUTRON POROSITY
DPHI.DEC   : DENSITY POROSITY
PEF .B/E   : PHOTOELECTRIC FACTOR
RHOB.G/C3  : BULK DENSITY
~Params ----------------------------------------------------
~Other -----------------------------------------------------
~ASCII -----------------------------------------------------
# ...
 4137.50000   53.99180   -9999.25   -9999.25   17.38610 -111.19420  104.76900  102.16570  117.56680    8.13770   -9999.25   -9999.25   -9999.25   -9999.25   -9999.25
 4138.00000   53.43440   -9999.25   -9999.25   15.88920 -110.79740  108.99530  107.24000  125.28900    8.14480   -9999.25   -9999.25   -9999.25   -9999.25   -9999.25
 4138.50000   52.38670   -9999.25   -9999.25   14.32650 -109.82230  115.70510  112.56640  155.48050    8.14540   -9999.25   -9999.25   -9999.25   -9999.25   -9999.25
 4139.00000   51.31060   -9999.25   -9999.25   12.76380 -109.35190  122.83270  121.04320  199.84850    8.14510   -9999.25   -9999.25   -9999.25   -9999.25   -9999.25
 4139.50000   50.71180   -9999.25   -9999.25   13.18580 -108.97710  130.39930  130.60780  234.45670    8.14770   -9999.25   -9999.25   -9999.25   -9999.25   -9999.25
 4140.00000   50.47670   -9999.25   -9999.25   13.89730 -108.88380  138.43220  140.92820  239.65190    8.14340   -9999.25   -9999.25   -9999.25   -9999.25   -9999.25
 4140.50000   50.20530   -9999.25   -9999.25   15.22250 -108.94010  146.95980  152.06420  244.05660    8.13860   -9999.25   -9999.25   -9999.25   -9999.25   -9999.25
 4141.00000   49.87900   -9999.25   -9999.25   15.71210 -109.17030  156.01270  164.08000  270.31710    8.15370   -9999.25   -9999.25   -9999.25   -9999.25   -9999.25
 4141.50000   49.55280   -9999.25   -9999.25   15.08880 -109.30880  160.23960  174.54540  299.38800    8.16700   -9999.25   -9999.25   -9999.25   -9999.25   -9999.25
 4142.00000   49.24520   -9999.25   -9999.25   14.38040 -109.29610  157.27250  169.61110  305.72460    8.19020   -9999.25   -9999.25   -9999.25   -9999.25   -9999.25
 4142.50000   49.14320   -9999.25   -9999.25   14.14450 -109.24020  154.36040  152.96630  307.91760    8.22990   -9999.25   -9999.25   -9999.25   -9999.25   -9999.25
 4143.00000   49.17220   -9999.25   -9999.25   14.63840 -108.90040  151.50220  145.15540  311.68250    8.26670   -9999.25   -9999.25   -9999.25   -9999.25   -9999.25
 4143.50000   49.33120   -9999.25   -9999.25   14.51730 -108.62600  148.69690  131.21010  314.53710    8.26600   -9999.25   -9999.25   -9999.25   -9999.25   -9999.25
 4144.00000   49.59260   -9999.25   -9999.25   14.39620 -109.11060  146.55020  121.19960  312.79340    8.26260   -9999.25   -9999.25   -9999.25   -9999.25   -9999.25
 4144.50000   50.06170   -9999.25   -9999.25   13.95810 -109.63880  144.45760  116.15820  297.86160    8.26160   -9999.25   -9999.25   -9999.25   -9999.25   -9999.25
 4145.00000   50.63970   -9999.25   -9999.25   12.89090 -109.66780  143.12870  111.66460  278.29440    8.24210   -9999.25   -9999.25   -9999.25   -9999.25   -9999.25
 4145.50000   51.06830   -9999.25   -9999.25   12.40470 -109.65460  143.79130  107.80860  252.37480    8.24170   -9999.25   -9999.25   -9999.25   -9999.25   -9999.25
 4146.00000   51.55260   -9999.25   -9999.25   12.83060 -109.65140  149.36620  107.31760  225.77980    8.26130   -9999.25   -9999.25   -9999.25   -9999.25   -9999.25
 4146.50000   51.98250   -9999.25   -9999.25   13.25430 -109.67500  159.92380  111.65350  205.69230    8.26100   -9999.25   -9999.25   -9999.25   -9999.25   -9999.25
 4147.00000   51.81820   -9999.25   -9999.25   13.58100 -109.56640  168.94460  119.56110  193.07010    8.26110   -9999.25   -9999.25   -9999.25   -9999.25   -9999.25
 4147.50000   51.34540   -9999.25   -9999.25   14.24870 -109.01190  181.38760  140.73020  201.33800    8.27150   -9999.25   -9999.25   -9999.25   -9999.25   -9999.25
 4148.00000   50.82110   -9999.25   -9999.25   14.13840 -108.55830  194.40190  155.81530  219.24570    8.28160   -9999.25   -9999.25   -9999.25   -9999.25   -9999.25
 4148.50000   50.51110   -9999.25   -9999.25   14.02800 -108.14700  209.91150  174.91370  258.57280    8.28520   -9999.25   -9999.25   -9999.25   -9999.25   -9999.25
 4149.00000   50.37230   -9999.25   -9999.25   13.77900 -108.11600  240.29140  189.27870  282.70160    8.30100   -9999.25   -9999.25   -9999.25   -9999.25   -9999.25
 4149.50000   50.28470   -9999.25   -9999.25   13.59470 -108.25390  277.54240  204.49120  292.44310    8.30180   -9999.25   -9999.25   -9999.25   -9999.25   -9999.25
 4150.00000   50.19710   -9999.25   -9999.25   13.67130 -108.48340  322.92760  238.18740  267.20980    8.29600   -9999.25   -9999.25   -9999.25   -9999.25   -9999.25
 4150.50000   49.92550   -9999.25   -9999.25   14.16660 -108.66420  383.08200  292.80900  244.44130    8.28340   -9999.25   -9999.25   -9999.25   -9999.25   -9999.25
 4151.00000   49.65390   -9999.25   -9999.25   14.57050 -108.50130  497.89890  359.95660  234.65460    8.25630   -9999.25   -9999.25   -9999.25   -9999.25   -9999.25
 4151.50000   49.30960   -9999.25   -9999.25   14.97440 -107.67780  621.99270  435.71870  248.59410    8.25380   -9999.25   -9999.25   -9999.25   -9999.25   -9999.25
 4152.00000   48.96640   -9999.25   -9999.25   15.23800 -106.74850  852.11720  510.14750  308.09840    8.26090   -9999.25   -9999.25   -9999.25   -9999.25   -9999.25
 4152.50000   48.79780   -9999.25   -9999.25   15.20350 -106.02530 1199.13200  602.65940  384.60280    8.26100   -9999.25   -9999.25   -9999.25   -9999.25   -9999.25
 4153.00000   48.52230   -9999.25   -9999.25   15.87470 -106.35700 1458.45730  744.21490  419.92970    8.26110   -9999.25   -9999.25   -9999.25   -9999.25   -9999.25
 4153.50000   48.35250   -9999.25   -9999.25   16.76540 -107.06030 1696.66980 1001.24970  434.82930    8.26170   -9999.25   -9999.25   -9999.25   -9999.25   -9999.25
 4154.00000   48.34500   -9999.25   -9999.25   16.83160 -107.27910 1786.25350 1243.31900  490.07040    8.25780   -9999.25   -9999.25   -9999.25   -9999.25   -9999.25
 4154.50000   48.44150   -9999.25   -9999.25   15.90420 -107.26910 1817.90550 1524.57020  586.05050    8.24860   -9999.25   -9999.25   -9999.25   -9999.25   -9999.25
 4155.00000   48.60600   -9999.25   -9999.25   14.97670 -107.20120 1788.68910 1556.16000  680.20140    8.24510   -9999.25   -9999.25   -9999.25   -9999.25   -9999.25
 4155.50000   48.81950   -9999.25   -9999.25   13.57860 -106.77070 1723.96390 1477.10520  739.09500    8.26020   -9999.25   -9999.25   -9999.25   -9999.25   -9999.25
 4156.00000   49.10800   -9999.25   -9999.25   12.40670 -105.61240 1613.31200 1091.56640  772.75990    8.26070   -9999.25   -9999.25   -9999.25   -9999.25   -9999.25
 4156.50000   49.45840   -9999.25   -9999.25   12.68220 -104.52760 1528.91600  820.88180  658.05340    8.26120   -9999.25   -9999.25   -9999.25   -9999.25   -9999.25
 4157.00000   49.74050   -9999.25   -9999.25   13.34600 -103.58690 1541.92710  791.94270  559.47210    8.26090   -9999.25   -9999.25   -9999.25   -9999.25   -9999.25
 4157.50000   49.56650   -9999.25   -9999.25   14.11210 -103.63970 1617.40010  855.08440  530.47210    8.25630   -9999.25   -9999.25   -9999.25   -9999.25   -9999.25
 4158.00000   49.26390   -9999.25   -9999.25   14.87820 -104.40810 1669.52830  893.92900  553.55650    8.22610   -9999.25   -9999.25   -9999.25   -9999.25   -9999.25
 4158.50000   48.92350   -9999.25   -9999.25   15.64440 -105.19170 1795.68640  950.11370  636.94640    8.18370   -9999.25   -9999.25   -9999.25   -9999.25   -9999.25
 4159.00000   48.60130   -9999.25   -9999.25   16.50300 -105.16660 1857.00930  963.99770  734.11070    8.14220   -9999.25   -9999.25   -9999.25   -9999.25   -9999.25
 4159.50000   48.45250   -9999.25   -9999.25   18.22920 -104.35550 1934.51340  848.04310  809.11850    8.13750   -9999.25   -9999.25   -9999.25   -9999.25   -9999.25
 4160.00000   48.34690   -9999.25   -9999.25   20.33990 -103.08340 1987.68240  676.98390  867.46360    8.13640   -9999.25   -9999.25   -9999.25   -9999.25   -9999.25
 4160.50000   48.22460   -9999.25   -9999.25   22.19740 -101.69840 1985.26460  572.35580  943.86740    8.13680   -9999.25   -9999.25   -9999.25   -9999.25   -9999.25
 4161.00000   48.24950   -9999.25   -9999.25   22.31290 -100.69410 1982.85110  526.79550 1012.97630    8.13720   -9999.25   -9999.25   -9999.25   -9999.25   -9999.25
 4161.50000   48.30490   -9999.25   -9999.25   21.90850 -101.17020 1980.44030  528.45810 1122.86380    8.13750   -9999.25   -9999.25   -9999.25   -9999.25   -9999.25
