~Version ---------------------------------------------------
VERS.   2.0 : CWLS log ASCII Standard -VERSION 2.0
WRAP.    NO : One line per depth step
DLM . SPACE : Column Data Section Delimiter
~Well ------------------------------------------------------
STRT .F                 389.0 : START DEPTH
STOP .F                6978.0 : STOP DEPTH
STEP .F                   0.5 : STEP
NULL .               -9999.25 : NULL VALUE
COMP .                        : COMPANY
WELL .                        : WELL
FLD  .                        : FIELD
LOC  .                        : LOCATION
PROV .                        : PROVINCE
CNTY .                        : COUNTY
STAT .                        : STATE
CTRY .                        : COUNTRY
SRVC .                        : SERVICE COMPANY
DATE .                        : DATE
UWI  .                        : UNIQUE WELL ID
API  .                        : API NUMBER
SLAT .WGS84 2.342778254542104 : SURFACE LATITUDE
SLON .WGS84 4.998612833871007 : SURFACE LONGITUDE
DATUM.F               2186.32 : DEPTH DATUM ELEV
~Curve Information -----------------------------------------
DEPT.F     : 1 MEASURED DEPTH
DT  .US/F  : DELTA-T (INTERVAL TRANSIT TIME)
DTCO.US/F  : DELTA-T COMPRESSIONAL
DTSM.US/F  : DELTA-T SHEAR
GRR .GAPI  : GAMMA RAY FROM RESISTIVITY LOG
SPR .MV    : SPONTANEOUS POTENTIAL FROM RESISTIVITY LOG
ILD .OHMM  : INDUCTION DEEP RESISTIVITY
ILM .OHMM  : INDUCTION MEDIUM RESISTIVITY
SFLU.OHMM  : SHALLOW FOCUSED RESISTIVITY (UNAVERAGED)
CALD.IN    : CALIPER FROM DENSITY LOG
DRHO.G/C3  : BULK DENSITY CORRECTION
NPHI.DEC   : NEUTRON POROSITY
DPHI.DEC   : DENSITY POROSITY
PEF .B/E   : PHOTOELECTRIC FACTOR
RHOB.G/C3  : BULK DENSITY
~Params ----------------------------------------------------
~Other -----------------------------------------------------
~ASCII -----------------------------------------------------
# ...
 6563.00000   -9999.25   47.18000   88.30050   19.35400  -80.71190 1097.18080  378.86820  604.13020    8.13540    0.00220    0.03270   -0.06430    3.64040    2.81830
 6563.50000   -9999.25   47.15650   88.31420   20.11410  -80.47250  699.23650  310.44270  601.67800    8.15430    0.00170    0.03330   -0.06220    3.68810    2.81710
 6564.00000   -9999.25   47.11410   88.32790   22.91620  -80.23210  525.88350  246.44140  456.02660    8.17430    0.00140    0.03690   -0.05590    3.67500    2.80730
 6564.50000   -9999.25   47.06820   88.28950   26.82890  -80.09160  370.23740  209.48730  334.53030    8.19610    0.00120    0.04320   -0.04700    3.54190    2.79560
 6565.00000   -9999.25   47.17730   88.24250   30.09890  -80.34360  288.77310  176.13510  195.03440    8.21010    0.00100    0.05140   -0.04080    3.41910    2.78350
 6565.50000   -9999.25   47.44200   88.23330   31.68770  -81.27320  283.53380  177.51570  134.87340    8.20240    0.00090    0.05650   -0.03980    3.38040    2.77810
 6566.00000   -9999.25   48.62270   88.23150   29.96610  -82.84530  286.62890  200.01500  120.74500    8.19080    0.00070    0.05790   -0.04220    3.43710    2.77990
 6566.50000   -9999.25   49.99780   88.32350   26.90470  -83.96650  295.04790  225.36600  145.93550    8.17930    0.00050    0.06100   -0.04640    3.51520    2.78640
 6567.00000   -9999.25   50.36190   88.60770   24.25810  -85.49220  303.71400  251.13660  185.43620    8.15550   -0.00070    0.07120   -0.03960    3.44420    2.77980
 6567.50000   -9999.25   50.48610   89.07510   20.86490  -86.82120  312.63480  281.12080  229.12660    8.14490   -0.00200    0.08990   -0.02040    3.33900    2.74270
 6568.00000   -9999.25   50.50180   90.78190   16.93460  -88.05500  328.56630  303.89500  303.82000    8.14150   -0.00450    0.09560    0.00300    3.34920    2.71220
 6568.50000   -9999.25   50.51380   91.75930   14.73420  -89.38710  363.66010  328.51400  334.53200    8.13820   -0.00380    0.09050    0.00770    3.41620    2.69350
 6569.00000   -9999.25   50.65110   91.52830   15.56430  -90.71470  402.50240  355.12750  353.14620    8.13600   -0.00220    0.07340   -0.00040    3.48980    2.70850
 6569.50000   -9999.25   50.90250   90.53000   19.96850  -92.24010  441.04760  357.13440  311.61660    8.13480   -0.00120    0.06240   -0.01630    3.52130    2.73440
 6570.00000   -9999.25   50.58580   90.15950   21.27770  -93.83440  451.31400  323.47590  272.25500    8.13320   -0.00050    0.06100   -0.02640    3.41010    2.75990
 6570.50000   -9999.25   50.26790   90.69340   22.22680  -95.29340  441.53530  295.76100  248.31770    8.13160   -0.00030    0.06790   -0.03180    3.33890    2.76270
 6571.00000   -9999.25   50.52610   91.24640   19.39540  -96.91840  398.50660  292.23330  268.07000    8.13000   -0.00030    0.07740   -0.03330    3.35290    2.76550
 6571.50000   -9999.25   51.17320   90.87400   18.25600  -98.25090  368.85600  265.13590  301.20190    8.13430    0.00030    0.08600   -0.03350    3.41460    2.76580
 6572.00000   -9999.25   49.65340   89.22100   18.73500  -98.90440  354.82060  237.80260  319.39580    8.14360    0.00400    0.08820   -0.03160    3.39050    2.76570
 6572.50000   -9999.25   47.33110   87.56790   19.90300 -100.11780  349.01610  215.83430  293.73670    8.15780    0.00820    0.08910   -0.02840    3.33750    2.76260
 6573.00000   -9999.25   48.71830   91.37150   21.07040 -101.04660  346.63940  200.07290  248.31210    8.18780    0.01350    0.08870   -0.02690    3.32310    2.75760
 6573.50000   -9999.25   51.92160   94.48060   22.01230 -101.83810  345.61230  193.36370  194.69730    8.22480    0.01420    0.08800   -0.02640    3.38580    2.75580
 6574.00000   -9999.25   51.98660   96.60620   22.00590 -102.62330  354.64900  227.33730  151.08250    8.20900    0.01350    0.08690   -0.02590    3.43070    2.75550
 6574.50000   -9999.25   49.57900   98.13990   20.93640 -103.47400  368.29370  298.37390  161.79180    8.18550    0.01240    0.08630   -0.02470    3.47560    2.75490
 6575.00000   -9999.25   47.56620   98.32600   20.05240 -105.02500  378.05250  333.16130  207.19070    8.17950    0.00790    0.08960   -0.02110    3.48780    2.75210
 6575.50000   -9999.25   48.35170   97.90950   20.77800 -106.14180  395.84000  328.90830  283.41670    8.17350    0.00340    0.09950   -0.01070    3.46880    2.74250
 6576.00000   -9999.25   51.02990   97.09270   23.02470 -106.95430  414.46440  324.36520  334.48020    8.16750    0.00020    0.11030    0.00880    3.43130    2.72050
 6576.50000   -9999.25   52.33010   95.91840   27.73410 -107.20170  456.76520  320.62190  321.42250    8.16150   -0.00310    0.11560    0.02580    3.40970    2.69530
 6577.00000   -9999.25   50.49650   94.75630   32.39860 -107.00670  488.47310  323.08260  281.78170    8.15290   -0.00440    0.10810    0.03050    3.44060    2.66680
 6577.50000   -9999.25   48.77650   93.90060   34.34180 -106.61290  474.08770  346.96490  253.81050    8.14320   -0.00450    0.09430    0.02400    3.52340    2.65770
 6578.00000   -9999.25   48.55800   91.94370   32.88070 -106.81960  457.45030  343.77810  267.26940    8.13360   -0.00340    0.08230    0.00810    3.58220    2.67150
 6578.50000   -9999.25   48.66730   91.03130   28.02980 -107.27900  398.45430  302.59130  301.78290    8.13570   -0.00210    0.07400   -0.00750    3.57100    2.70890
 6579.00000   -9999.25   49.50680   89.94620   25.40430 -107.49190  329.19120  266.47970  321.23360    8.14680   -0.00070    0.07650   -0.01980    3.52740    2.73380
 6579.50000   -9999.25   49.49680   89.56410   24.87100 -107.29250  272.09870  234.67780  311.63670    8.15790    0.00040    0.08270   -0.02700    3.49510    2.74940
 6580.00000   -9999.25   49.08310   89.52760   25.77650 -106.99470  224.90780  202.33270  287.56230    8.16000    0.00050    0.08630   -0.03110    3.50240    2.76280
 6580.50000   -9999.25   49.48100   89.53270   27.03390 -106.85880  213.23040  173.98660  263.30730    8.16000    0.00070    0.08510   -0.03300    3.50960    2.76530
 6581.00000   -9999.25   49.69470   89.52390   27.13400 -106.86310  206.89850  157.25090  242.08780    8.16010    0.00110    0.07850   -0.03450    3.46550    2.76740
 6581.50000   -9999.25   48.15010   88.27640   26.52070 -106.81040  202.80700  153.65440  217.60690    8.15640    0.00190    0.07190   -0.03820    3.32970    2.77310
 6582.00000   -9999.25   47.62940   87.26070   25.81080 -106.52100  200.70570  161.34430  205.87320    8.15090    0.00330    0.06700   -0.04350    3.23810    2.78150
 6582.50000   -9999.25   48.26330   87.61290   25.10080 -106.06350  208.43780  172.99390  244.10330    8.14550    0.00550    0.06340   -0.04650    3.23930    2.78880
 6583.00000   -9999.25   49.49370   90.17020   24.47510 -105.30160  223.25010  192.41610  336.62130    8.14010    0.00790    0.06520   -0.04680    3.31250    2.78840
 6583.50000   -9999.25   50.68970   92.79230   23.10880 -104.23530  251.33190  217.49480  407.03860    8.13460    0.00860    0.07100   -0.04020    3.37820    2.78000
 6584.00000   -9999.25   49.82160   90.26060   20.61670 -103.08130  273.04790  245.84220  420.41460    8.13040    0.00850    0.07490   -0.03240    3.39540    2.76670
 6584.50000   -9999.25   49.91370   89.36760   17.42020 -102.29690  280.41640  255.90560  452.22520    8.13590    0.00760    0.07280   -0.02580    3.36830    2.75530
 6585.00000   -9999.25   52.08450   89.76110   15.94170 -101.26310  277.76460  227.52520  508.33000    8.14140    0.00660    0.06370   -0.01970    3.32250    2.74660
 6585.50000   -9999.25   53.18510   90.90680   16.66650 -100.16060  268.57800  175.34100  453.65320    8.13600    0.00650    0.05360   -0.00530    3.08720    2.72670
 6586.00000   -9999.25   52.32770   90.81760   20.93150  -99.16840  273.70050  147.85660  310.91380    8.14300    0.00870    0.05540    0.01800    2.91630    2.69290
 6586.50000   -9999.25   52.57260   90.40360   26.42040  -98.07130  289.08240  145.02240  133.79500    8.15810    0.01080    0.06740    0.03500    2.94020    2.66070
 6587.00000   -9999.25   53.59390   90.09540   27.77240  -97.02970  290.40090  190.00700  106.88610    8.20130    0.01650    0.07480    0.02630    3.00070    2.64810
