~Version ---------------------------------------------------
VERS.   2.0 : CWLS log ASCII Standard -VERSION 2.0
WRAP.    NO : One line per depth step
DLM . SPACE : Column Data Section Delimiter
~Well ------------------------------------------------------
STRT .F                 389.0 : START DEPTH
STOP .F                6978.0 : STOP DEPTH
STEP .F                   0.5 : STEP
NULL .               -9999.25 : NULL VALUE
COMP .                        : COMPANY
WELL .                        : WELL
FLD  .                        : FIELD
LOC  .                        : LOCATION
PROV .                        : PROVINCE
CNTY .                        : COUNTY
STAT .                        : STATE
CTRY .                        : COUNTRY
SRVC .                        : SERVICE COMPANY
DATE .                        : DATE
UWI  .                        : UNIQUE WELL ID
API  .                        : API NUMBER
SLAT .WGS84 2.342778254542104 : SURFACE LATITUDE
SLON .WGS84 4.998612833871007 : SURFACE LONGITUDE
DATUM.F               2186.32 : DEPTH DATUM ELEV
~Curve Information -----------------------------------------
DEPT.F     : 1 MEASURED DEPTH
DT  .US/F  : DELTA-T (INTERVAL TRANSIT TIME)
DTCO.US/F  : DELTA-T COMPRESSIONAL
DTSM.US/F  : DELTA-T SHEAR
GRR .GAPI  : GAMMA RAY FROM RESISTIVITY LOG
SPR .MV    : SPONTANEOUS POTENTIAL FROM RESISTIVITY LOG
ILD .OHMM  : INDUCTION DEEP RESISTIVITY
ILM .OHMM  : INDUCTION MEDIUM RESISTIVITY
SFLU.OHMM  : SHALLOW FOCUSED RESISTIVITY (UNAVERAGED)
CALD.IN    : CALIPER FROM DENSITY LOG
DRHO.G/C3  : BULK DENSITY CORRECTION
NPHI.DEC   : NEUTRON POROSITY
DPHI.DEC   : DENSITY POROSITY
PEF .B/E   : PHOTOELECTRIC FACTOR
RHOB.G/C3  : BULK DENSITY
~Params ----------------------------------------------------
~Other -----------------------------------------------------
~ASCII -----------------------------------------------------
# ...
 4946.00000   -9999.25   57.31720  107.24250   48.70850 -130.89570    8.19850   11.83260   54.68100    8.18250   -9999.25   -9999.25   -9999.25   -9999.25   -9999.25
 4946.50000   -9999.25   58.36470  102.63890   43.83510 -131.02600    7.96800   10.46710   40.91690    8.16450   -9999.25   -9999.25   -9999.25   -9999.25   -9999.25
 4947.00000   -9999.25   57.88250  100.57180   39.25420 -131.02600    7.77570    9.58070   32.63700    8.15830   -9999.25   -9999.25   -9999.25   -9999.25   -9999.25
 4947.50000   -9999.25   55.58230  100.02550   35.81060 -131.02600    7.60680    8.87860   26.49650    8.15820   -9999.25   -9999.25   -9999.25   -9999.25   -9999.25
 4948.00000   -9999.25   56.07300  103.34710   30.40660 -131.16030    7.46700    8.75060   22.58190    8.15860   -9999.25   -9999.25   -9999.25   -9999.25   -9999.25
 4948.50000   -9999.25   57.38460  105.32670   25.32210 -131.54480    7.29280    8.89010   24.04730    8.13820   -9999.25   -9999.25   -9999.25   -9999.25   -9999.25
 4949.00000   -9999.25   59.74230  105.62550   20.19450 -132.47670    7.04050    9.03190   28.67900    8.10890   -9999.25   -9999.25   -9999.25   -9999.25   -9999.25
 4949.50000   -9999.25   62.78400  105.92420   19.69700 -133.37930    6.76380    9.10500   32.16140    8.10260   -9999.25   -9999.25   -9999.25   -9999.25   -9999.25
 4950.00000   -9999.25   64.85700  105.65780   21.68580 -133.61900    6.49790    9.11850   29.73720    8.09680   -9999.25   -9999.25   -9999.25   -9999.25   -9999.25
 4950.50000   -9999.25   65.25440  105.45560   21.64770 -133.68870    6.18770    9.13120   21.51020    8.08970   -9999.25   -9999.25   -9999.25   -9999.25   -9999.25
 4951.00000   -9999.25   64.04810  107.64870   21.81540 -133.41980    5.78450    8.89820   18.05340    8.08150   -9999.25   -9999.25   -9999.25   -9999.25   -9999.25
 4951.50000   -9999.25   61.26920  112.60880   22.55460 -133.21120    5.12910    8.32740   18.64480    8.02120   -9999.25   -9999.25   -9999.25   -9999.25   -9999.25
 4952.00000   -9999.25   59.96940  123.23280   23.87770 -132.73470    4.21380    7.04880   22.59210    8.03710   -9999.25   -9999.25   -9999.25   -9999.25   -9999.25
 4952.50000   -9999.25   60.64370  130.38790   23.84000 -132.30550    3.06760    5.78090   24.48820    8.17760   -9999.25   -9999.25   -9999.25   -9999.25   -9999.25
 4953.00000   -9999.25   63.87910  139.41060   22.81890 -132.43510    2.38220    4.27930   21.94510    8.45010   -9999.25   -9999.25   -9999.25   -9999.25   -9999.25
 4953.50000   -9999.25   73.61000  152.52110   20.74090 -132.89260    1.77640    3.02560   17.99250    9.01500   -9999.25   -9999.25   -9999.25   -9999.25   -9999.25
 4954.00000   -9999.25   86.43620  162.40130   18.57110 -133.17430    1.35060    2.19940   13.57780    8.98640   -9999.25   -9999.25   -9999.25   -9999.25   -9999.25
 4954.50000   -9999.25   96.62790  166.05650   17.77930 -133.45620    1.06010    1.54970    8.77340    8.57380   -9999.25   -9999.25   -9999.25   -9999.25   -9999.25
 4955.00000   -9999.25  103.46200  165.10200   17.93430 -133.97210    0.86700    1.18360    4.12980    8.36460   -9999.25   -9999.25   -9999.25   -9999.25   -9999.25
 4955.50000   -9999.25  105.92340  164.95460   18.08940 -134.19100    0.74100    0.97190    2.30880    8.29730   -9999.25   -9999.25   -9999.25   -9999.25   -9999.25
 4956.00000   -9999.25  102.71340  164.93750   18.00760 -134.50160    0.66870    0.87390    2.11240    8.30160   -9999.25   -9999.25   -9999.25   -9999.25   -9999.25
 4956.50000   -9999.25  102.71990  165.04160   16.84580 -135.15870    0.60410    0.82160    2.26360    8.30340   -9999.25   -9999.25   -9999.25   -9999.25   -9999.25
 4957.00000   -9999.25  103.04220  165.14570   15.36680 -135.27370    0.57720    0.78290    2.55240    8.30400   -9999.25   -9999.25   -9999.25   -9999.25   -9999.25
 4957.50000   -9999.25  100.44610  161.49470   14.04810 -135.19250    0.60250    0.81010    2.75180    8.28990   -9999.25   -9999.25   -9999.25   -9999.25   -9999.25
 4958.00000   -9999.25   97.76670  154.46740   13.03640 -134.84280    0.65270    0.85870    2.81600    8.25740   -9999.25   -9999.25   -9999.25   -9999.25   -9999.25
 4958.50000   -9999.25   88.28510  144.85520   12.15890 -134.30450    0.71140    0.94530    2.96440    8.20220   -9999.25   -9999.25   -9999.25   -9999.25   -9999.25
 4959.00000   -9999.25   81.16320  139.99030   11.97570 -134.29930    0.79970    1.06170    3.48370    8.13640   -9999.25   -9999.25   -9999.25   -9999.25   -9999.25
 4959.50000   -9999.25   80.01860  138.76670   13.65140 -134.55730    0.91470    1.20920    4.25730    8.07190   -9999.25   -9999.25   -9999.25   -9999.25   -9999.25
 4960.00000   -9999.25   77.35750  133.89290   16.38720 -134.63480    1.06940    1.40120    4.53790    8.00140   -9999.25   -9999.25   -9999.25   -9999.25   -9999.25
 4960.50000   -9999.25   73.20680  127.17720   18.88830 -135.61760    1.26060    1.66920    4.56520    7.99590   -9999.25   -9999.25   -9999.25   -9999.25   -9999.25
 4961.00000   -9999.25   69.36780  120.45240   19.98420 -136.68770    1.47740    1.99330    4.93280    7.99620   -9999.25   -9999.25   -9999.25   -9999.25   -9999.25
 4961.50000   -9999.25   66.79880  115.00510   19.83190 -136.75930    1.62620    2.28300    6.26160    7.99640   -9999.25   -9999.25   -9999.25   -9999.25   -9999.25
 4962.00000   -9999.25   65.00450  109.60920   19.16840 -135.69080    1.69780    2.34700    7.97330    7.99700   -9999.25   -9999.25   -9999.25   -9999.25   -9999.25
 4962.50000   -9999.25   61.73430  104.68040   17.97220 -134.48870    1.73870    2.37010    8.92290    8.01530   -9999.25   -9999.25   -9999.25   -9999.25   -9999.25
 4963.00000   -9999.25   60.51060  103.05260   17.57970 -132.90850    1.78050    2.23090    7.59490    8.04430   -9999.25   -9999.25   -9999.25   -9999.25   -9999.25
 4963.50000   -9999.25   61.46540  104.12520   17.75070 -131.37890    1.76830    2.06270    5.56350    8.08670   -9999.25   -9999.25   -9999.25   -9999.25   -9999.25
 4964.00000   -9999.25   56.36590   96.09150   18.11040 -130.33830    1.75200    1.94740    5.17870    8.09210   -9999.25   -9999.25   -9999.25   -9999.25   -9999.25
 4964.50000   -9999.25   49.03020   88.42870   18.55750 -130.49280    1.73580    1.99680    5.76160    8.04840   -9999.25   -9999.25   -9999.25   -9999.25   -9999.25
 4965.00000   -9999.25   48.55080   86.68730   19.33940 -131.32330    1.72920    2.12660    7.07770    8.00480   -9999.25   -9999.25   -9999.25   -9999.25   -9999.25
 4965.50000   -9999.25   49.56140   86.57950   19.52150 -132.38050    1.74550    2.31030   14.16530    7.98830   -9999.25   -9999.25   -9999.25   -9999.25   -9999.25
 4966.00000   -9999.25   48.76610   79.69480   19.50070 -133.44880    1.77110    2.37850   23.22680    7.98200   -9999.25   -9999.25   -9999.25   -9999.25   -9999.25
 4966.50000   -9999.25   48.71120   75.16560   17.45350 -134.53310    1.84860    2.47470   23.78670    7.97580   -9999.25   -9999.25   -9999.25   -9999.25   -9999.25
 4967.00000   -9999.25   54.22110   85.01680   14.84080 -134.59370    1.97240    2.55520   14.01250    7.96950   -9999.25   -9999.25   -9999.25   -9999.25   -9999.25
 4967.50000   -9999.25   62.73040   97.72440   14.30990 -134.14760    2.12070    2.74140    7.51840    7.96330   -9999.25   -9999.25   -9999.25   -9999.25   -9999.25
 4968.00000   -9999.25   63.87840   99.50740   15.17200 -134.03670    2.17350    2.85990    5.51890    7.95700   -9999.25   -9999.25   -9999.25   -9999.25   -9999.25
 4968.50000   -9999.25   63.34030  100.01040   16.80040 -134.14160    2.18800    2.99480    5.26740    7.95420   -9999.25   -9999.25   -9999.25   -9999.25   -9999.25
 4969.00000   -9999.25   63.73620   99.18530   18.41380 -134.40400    2.05340    2.95720    6.08840    7.98220   -9999.25   -9999.25   -9999.25   -9999.25   -9999.25
 4969.50000   -9999.25   61.50270   94.56560   19.74840 -134.66650    1.91400    2.77130    7.04890    8.01500   -9999.25   -9999.25   -9999.25   -9999.25   -9999.25
 4970.00000   -9999.25   56.93130   87.36770   19.42540 -134.93910    1.75140    2.51070    7.21600    8.05290   -9999.25   -9999.25   -9999.25   -9999.25   -9999.25
