~Version ---------------------------------------------------
VERS.   2.0 : CWLS log ASCII Standard -VERSION 2.0
WRAP.    NO : One line per depth step
DLM . SPACE : Column Data Section Delimiter
~Well ------------------------------------------------------
STRT .F                 389.0 : START DEPTH
STOP .F                6978.0 : STOP DEPTH
STEP .F                   0.5 : STEP
NULL .               -9999.25 : NULL VALUE
COMP .                        : COMPANY
WELL .                        : WELL
FLD  .                        : FIELD
LOC  .                        : LOCATION
PROV .                        : PROVINCE
CNTY .                        : COUNTY
STAT .                        : STATE
CTRY .                        : COUNTRY
SRVC .                        : SERVICE COMPANY
DATE .                        : DATE
UWI  .                        : UNIQUE WELL ID
API  .                        : API NUMBER
SLAT .WGS84 2.342778254542104 : SURFACE LATITUDE
SLON .WGS84 4.998612833871007 : SURFACE LONGITUDE
DATUM.F               2186.32 : DEPTH DATUM ELEV
~Curve Information -----------------------------------------
DEPT.F     : 1 MEASURED DEPTH
DT  .US/F  : DELTA-T (INTERVAL TRANSIT TIME)
DTCO.US/F  : DELTA-T COMPRESSIONAL
DTSM.US/F  : DELTA-T SHEAR
GRR .GAPI  : GAMMA RAY FROM RESISTIVITY LOG
SPR .MV    : SPONTANEOUS POTENTIAL FROM RESISTIVITY LOG
ILD .OHMM  : INDUCTION DEEP RESISTIVITY
ILM .OHMM  : INDUCTION MEDIUM RESISTIVITY
SFLU.OHMM  : SHALLOW FOCUSED RESISTIVITY (UNAVERAGED)
CALD.IN    : CALIPER FROM DENSITY LOG
DRHO.G/C3  : BULK DENSITY CORRECTION
NPHI.DEC   : NEUTRON POROSITY
DPHI.DEC   : DENSITY POROSITY
PEF .B/E   : PHOTOELECTRIC FACTOR
RHOB.G/C3  : BULK DENSITY
~Params ----------------------------------------------------
~Other -----------------------------------------------------
~ASCII -----------------------------------------------------
# ...
 5338.00000   -9999.25   53.20350  100.31740   25.44990 -103.70420   65.28410   69.36780  150.37690    8.29760   -9999.25   -9999.25   -9999.25   -9999.25   -9999.25
 5338.50000   -9999.25   52.94040   98.38790   26.28610 -103.65820   69.00520   77.24190  158.22530    8.29670   -9999.25   -9999.25   -9999.25   -9999.25   -9999.25
 5339.00000   -9999.25   52.02450   96.91970   26.93230 -104.02170   72.93830   86.00990  172.60750    8.29840   -9999.25   -9999.25   -9999.25   -9999.25   -9999.25
 5339.50000   -9999.25   51.44220   96.37610   27.49340 -104.75390   77.09570   95.77310  188.98940    8.29920   -9999.25   -9999.25   -9999.25   -9999.25   -9999.25
 5340.00000   -9999.25   52.22760   97.45210   27.47400 -104.73420   81.49000   96.81820  191.67290    8.29850   -9999.25   -9999.25   -9999.25   -9999.25   -9999.25
 5340.50000   -9999.25   52.22230   98.12500   27.01890 -104.41770   83.74240   95.47420  183.58620    8.29690   -9999.25   -9999.25   -9999.25   -9999.25   -9999.25
 5341.00000   -9999.25   52.21720   98.24800   26.12140 -103.70680   83.88050   93.93670  166.49440    8.29550   -9999.25   -9999.25   -9999.25   -9999.25   -9999.25
 5341.50000   -9999.25   52.19450   98.35470   26.50530 -102.79860   80.85410   88.69460  159.57000    8.29460   -9999.25   -9999.25   -9999.25   -9999.25   -9999.25
 5342.00000   -9999.25   52.24030   98.21370   28.31830 -101.69120   77.49770   82.37980  159.14800    8.29480   -9999.25   -9999.25   -9999.25   -9999.25   -9999.25
 5342.50000   -9999.25   52.25320   98.61140   29.63950 -100.68890   74.28060   75.88810  160.71560    8.29580   -9999.25   -9999.25   -9999.25   -9999.25   -9999.25
 5343.00000   -9999.25   52.27800   98.71630   29.97580 -100.17650   71.19700   72.31890  160.64540    8.29650   -9999.25   -9999.25   -9999.25   -9999.25   -9999.25
 5343.50000   -9999.25   52.51560   98.27130   30.05850  -99.70620   68.82510   70.27000  159.81780    8.29550   -9999.25   -9999.25   -9999.25   -9999.25   -9999.25
 5344.00000   -9999.25   52.58290   96.93760   30.15920  -99.26410   68.30970   69.55220  158.71990    8.29450   -9999.25   -9999.25   -9999.25   -9999.25   -9999.25
 5344.50000   -9999.25   51.88710   95.73870   30.17800  -99.35320   67.79820   70.88970  157.98660    8.29800   -9999.25   -9999.25   -9999.25   -9999.25   -9999.25
 5345.00000   -9999.25   52.44560   95.80480   29.93070  -98.60000   67.71920   72.09440  161.58010    8.29470   -9999.25   -9999.25   -9999.25   -9999.25   -9999.25
 5345.50000   -9999.25   52.44430   95.72420   31.10260  -96.97130   68.07620   73.75940  165.68650    8.29190   -9999.25   -9999.25   -9999.25   -9999.25   -9999.25
 5346.00000   -9999.25   52.20740   96.14010   32.32680  -94.47820   72.65100   76.11380  165.83370    8.29630   -9999.25   -9999.25   -9999.25   -9999.25   -9999.25
 5346.50000   -9999.25   50.48640   96.23380   32.74250  -92.11890   78.68060   82.67290  162.21980    8.29580   -9999.25   -9999.25   -9999.25   -9999.25   -9999.25
 5347.00000   -9999.25   49.45190   96.24980   33.15820  -90.48300   85.21060   89.79720  158.10070    8.30560   -9999.25   -9999.25   -9999.25   -9999.25   -9999.25
 5347.50000   -9999.25   49.97340   96.26580   32.16560  -88.91790   92.28260   97.53550  155.56300    8.30000   -9999.25   -9999.25   -9999.25   -9999.25   -9999.25
 5348.00000   -9999.25   50.13630   95.03400   31.15390  -87.37800  102.86430  111.28150  158.61720    8.29450   -9999.25   -9999.25   -9999.25   -9999.25   -9999.25
 5348.50000   -9999.25   49.23150   94.24130   29.92290  -85.80460  121.56750  137.67110  177.35720    8.28930   -9999.25   -9999.25   -9999.25   -9999.25   -9999.25
 5349.00000   -9999.25   49.21860   94.25830   29.43820  -83.41730  143.67130  170.31890  231.00960    8.28160   -9999.25   -9999.25   -9999.25   -9999.25   -9999.25
 5349.50000   -9999.25   49.13900   94.27620   31.39460  -81.03300  184.52700  216.88430  342.35900    8.27920   -9999.25   -9999.25   -9999.25   -9999.25   -9999.25
 5350.00000   -9999.25   48.53770   94.52840   33.28060  -78.68060  276.17630  286.42210  465.15050    8.28050   -9999.25   -9999.25   -9999.25   -9999.25   -9999.25
 5350.50000   -9999.25   48.22940   94.61070   34.61230  -76.74650  423.23090  380.42900  573.65250    8.27990   -9999.25   -9999.25   -9999.25   -9999.25   -9999.25
 5351.00000   -9999.25   48.25360   93.04730   33.70570  -74.98320  488.56370  566.32110  706.45900    8.27370   -9999.25   -9999.25   -9999.25   -9999.25   -9999.25
 5351.50000   -9999.25   48.20530   91.47370   33.21930  -73.04980  311.90230  842.37120  966.47660    8.31050   -9999.25   -9999.25   -9999.25   -9999.25   -9999.25
 5352.00000   -9999.25   48.00390   91.99250   33.50140  -71.12990  203.32680  655.08010  956.10740    8.36860   -9999.25   -9999.25   -9999.25   -9999.25   -9999.25
 5352.50000   -9999.25   47.47270   93.52110   34.00920  -69.26920  126.78580  221.65920  749.90490    8.40990   -9999.25   -9999.25   -9999.25   -9999.25   -9999.25
 5353.00000   -9999.25   48.94990   94.68680   38.76360  -67.73950   85.75690  118.79790  397.44410    8.43850   -9999.25   -9999.25   -9999.25   -9999.25   -9999.25
 5353.50000   -9999.25   51.31280   99.34000   50.32820  -66.22220   78.94390   43.29800  168.45970    8.51100   -9999.25   -9999.25   -9999.25   -9999.25   -9999.25
 5354.00000   -9999.25   54.16270  103.78770   66.12880  -64.67630   77.14240   55.71840   78.85530    8.59700   -9999.25   -9999.25   -9999.25   -9999.25   -9999.25
 5354.50000   -9999.25   56.35650  104.27630   67.29680  -63.72690   77.67210   97.90200   50.07180    8.61260   -9999.25   -9999.25   -9999.25   -9999.25   -9999.25
 5355.00000   -9999.25   57.78900  105.57450   59.23930  -63.14630   78.21270  143.44470   70.29180    8.50870   -9999.25   -9999.25   -9999.25   -9999.25   -9999.25
 5355.50000   -9999.25   57.77120  105.11490   46.97480  -62.86330   79.42220  297.73720  183.85640    8.44860   -9999.25   -9999.25   -9999.25   -9999.25   -9999.25
 5356.00000   -9999.25   55.96760   98.15580   37.72700  -62.86160   86.23250  664.87290  497.95280    8.44060   -9999.25   -9999.25   -9999.25   -9999.25   -9999.25
 5356.50000   -9999.25   53.61510   97.97490   33.32770  -62.83580  118.67860  854.25160  803.48550    8.43500   -9999.25   -9999.25   -9999.25   -9999.25   -9999.25
 5357.00000   -9999.25   50.35040   97.36420   33.03220  -62.16710  245.36420  913.62050  882.30570    8.41020   -9999.25   -9999.25   -9999.25   -9999.25   -9999.25
 5357.50000   -9999.25   49.13850   97.23870   33.23250  -61.29010  507.28270  977.11490 1070.04200    8.36640   -9999.25   -9999.25   -9999.25   -9999.25   -9999.25
 5358.00000   -9999.25   48.25310   97.20330   33.16060  -60.68190 1304.72950 1163.20170 1353.08560    8.33470   -9999.25   -9999.25   -9999.25   -9999.25   -9999.25
 5358.50000   -9999.25   47.57980   97.25660   31.45020  -60.03410 2030.31560 1440.79910 1676.22140    8.31310   -9999.25   -9999.25   -9999.25   -9999.25   -9999.25
 5359.00000   -9999.25   48.03710   97.30370   29.22250  -60.40020   -9999.25 1784.64420 1740.25160    8.29770   -9999.25   -9999.25   -9999.25   -9999.25   -9999.25
 5359.50000   -9999.25   48.00050   97.25030   28.13800  -60.83700   -9999.25 1822.89540 1773.16150    8.29930   -9999.25   -9999.25   -9999.25   -9999.25   -9999.25
 5360.00000   -9999.25   47.58940   97.21340   28.40230  -61.07100   -9999.25 1827.14940 1728.98620    8.30090   -9999.25   -9999.25   -9999.25   -9999.25   -9999.25
 5360.50000   -9999.25   48.07900   97.32330   32.35500  -61.26950   -9999.25 1826.63990 1679.29960    8.30030   -9999.25   -9999.25   -9999.25   -9999.25   -9999.25
 5361.00000   -9999.25   49.03140   97.77700   36.54990  -61.41340   -9999.25 1896.44820 1644.28540    8.29270   -9999.25   -9999.25   -9999.25   -9999.25   -9999.25
 5361.50000   -9999.25   49.17200   97.33250   36.80660  -61.74810   -9999.25 1949.23330 1619.98690    8.28740   -9999.25   -9999.25   -9999.25   -9999.25   -9999.25
 5362.00000   -9999.25   48.46060   97.29420   36.77680  -62.11050   -9999.25 1884.20900 1608.80930    8.29180   -9999.25   -9999.25   -9999.25   -9999.25   -9999.25
