~Version ---------------------------------------------------
VERS.   2.0 : CWLS log ASCII Standard -VERSION 2.0
WRAP.    NO : One line per depth step
DLM . SPACE : Column Data Section Delimiter
~Well ------------------------------------------------------
STRT .F                 389.0 : START DEPTH
STOP .F                6978.0 : STOP DEPTH
STEP .F                   0.5 : STEP
NULL .               -9999.25 : NULL VALUE
COMP .                        : COMPANY
WELL .                        : WELL
FLD  .                        : FIELD
LOC  .                        : LOCATION
PROV .                        : PROVINCE
CNTY .                        : COUNTY
STAT .                        : STATE
CTRY .                        : COUNTRY
SRVC .                        : SERVICE COMPANY
DATE .                        : DATE
UWI  .                        : UNIQUE WELL ID
API  .                        : API NUMBER
SLAT .WGS84 2.342778254542104 : SURFACE LATITUDE
SLON .WGS84 4.998612833871007 : SURFACE LONGITUDE
DATUM.F               2186.32 : DEPTH DATUM ELEV
~Curve Information -----------------------------------------
DEPT.F     : 1 MEASURED DEPTH
DT  .US/F  : DELTA-T (INTERVAL TRANSIT TIME)
DTCO.US/F  : DELTA-T COMPRESSIONAL
DTSM.US/F  : DELTA-T SHEAR
GRR .GAPI  : GAMMA RAY FROM RESISTIVITY LOG
SPR .MV    : SPONTANEOUS POTENTIAL FROM RESISTIVITY LOG
ILD .OHMM  : INDUCTION DEEP RESISTIVITY
ILM .OHMM  : INDUCTION MEDIUM RESISTIVITY
SFLU.OHMM  : SHALLOW FOCUSED RESISTIVITY (UNAVERAGED)
CALD.IN    : CALIPER FROM DENSITY LOG
DRHO.G/C3  : BULK DENSITY CORRECTION
NPHI.DEC   : NEUTRON POROSITY
DPHI.DEC   : DENSITY POROSITY
PEF .B/E   : PHOTOELECTRIC FACTOR
RHOB.G/C3  : BULK DENSITY
~Params ----------------------------------------------------
~Other -----------------------------------------------------
~ASCII -----------------------------------------------------
# ...
 5754.50000   -9999.25   53.87530  102.72860   44.73140  -53.09480   58.82340   78.42810   92.47620    9.35380    0.00890    0.01720    0.01280    4.95130    2.68920
 5755.00000   -9999.25   53.21440  102.56900   37.15360  -51.98120   59.94310   75.39330  143.31010    9.32020    0.01100    0.01430    0.00930    5.03760    2.69040
 5755.50000   -9999.25   52.64630  102.38720   30.84590  -50.46220   63.97250   69.15150  189.81810    9.28550    0.01220    0.01180   -0.00020    5.17520    2.69510
 5756.00000   -9999.25   52.44480  101.69240   27.07400  -48.93050   69.05100   69.04880  168.85520    9.25080    0.01060    0.01220   -0.00460    5.23280    2.70730
 5756.50000   -9999.25   51.35400  100.82270   24.95370  -47.59140   75.68540   74.85000  143.49310    9.22320    0.00800    0.01330   -0.00230    5.26600    2.71770
 5757.00000   -9999.25   51.61270  101.11270   22.49900  -46.76500   82.95710   81.13870  151.77280    9.21750    0.00540    0.01380    0.00270    5.21870    2.71390
 5757.50000   -9999.25   52.29260  101.49550   22.13240  -46.56660   90.92750   81.12000  166.87000    9.21180    0.00290    0.01370    0.00530    5.11950    2.70230
 5758.00000   -9999.25   52.82390  100.16660   23.94040  -46.65400   93.15890   81.07600  164.40900    9.20400    0.00170    0.01370    0.00300    5.07850    2.70170
 5758.50000   -9999.25   52.52410   99.28620   27.92690  -46.31910   95.03800   80.92340  153.50480    9.19450    0.00130    0.01370   -0.00140    5.26460    2.71290
 5759.00000   -9999.25   52.94210   99.68750   31.60710  -45.79900   96.95500   80.85450  144.61260    9.15770    0.00080    0.01410   -0.00030    5.43160    2.71290
 5759.50000   -9999.25   52.43150  100.91360   35.07380  -45.20520   98.79480   81.32270  136.65980    9.12010    0.00040    0.01480    0.00420    5.40780    2.70710
 5760.00000   -9999.25   52.79290  101.25760   39.62840  -44.43000   98.79260   85.71080  126.56940    9.08240   -0.00010    0.01620    0.00980    5.20880    2.70090
 5760.50000   -9999.25   52.27030  101.25110   41.69130  -43.60710   98.79130   89.84070  137.57080    9.04480   -0.00050    0.01470    0.00920    5.14660    2.69480
 5761.00000   -9999.25   52.33030  101.24980   41.25220  -42.95690   93.79270   92.50770  178.03670    9.03370    0.00020    0.01240    0.00510    5.15090    2.69420
 5761.50000   -9999.25   52.98350  101.27130   39.31580  -42.57950   86.25910   91.06690  206.63900    9.04760    0.00130    0.01170    0.00150    5.15480    2.70420
 5762.00000   -9999.25   53.29010  101.36480   37.46080  -42.34460   79.64990   80.36270  179.59660    9.05280    0.00030    0.01340    0.00160    5.10580    2.70810
 5762.50000   -9999.25   53.46390  102.06060   38.91740  -42.46280   74.59060   65.95810  130.15940    9.03970   -0.00070    0.01640    0.00320    5.03960    2.70800
 5763.00000   -9999.25   54.49560  105.01820   41.62480  -42.79220   74.59060   60.25140   98.41550    9.02660   -0.00070    0.02010    0.00350    5.05720    2.70700
 5763.50000   -9999.25   55.18360  105.21160   43.83330  -42.88180   74.59060   55.03850   72.52810    9.02660   -0.00060    0.02350    0.00360    5.07820    2.70600
 5764.00000   -9999.25   55.23620  104.73560   45.49060  -42.89230   75.13490   55.93750   73.89140    9.02660    0.00150    0.02630    0.00400    5.11470    2.70500
 5764.50000   -9999.25   55.12010  104.04940   45.69750  -42.92170   76.45080   64.41770   75.95980    9.02090    0.00340    0.02580    0.00660    5.17190    2.70350
 5765.00000   -9999.25   53.73530  102.95900   45.41220  -43.22140   80.42960   72.96830   83.44800    8.99840    0.00190    0.02070    0.00900    5.37810    2.69980
 5765.50000   -9999.25   51.44410  101.71300   45.72540  -43.64160   87.24020   82.65180  150.84930    8.97590    0.00180    0.01380    0.01090    5.46520    2.69600
 5766.00000   -9999.25   50.50300   99.72130   48.15140  -44.24220  100.74740   92.94870  263.74010    8.95340    0.00220    0.00890    0.01180    5.52330    2.69220
 5766.50000   -9999.25   49.77980   99.45540   51.06130  -44.83380  122.30050  103.97600  295.20930    8.93090    0.00300    0.00910    0.00960    5.43800    2.69090
 5767.00000   -9999.25   49.32130   98.80750   52.16810  -44.53600  148.46310  139.50810  240.73030    8.90840    0.00400    0.00990    0.00640    5.32660    2.69320
 5767.50000   -9999.25   49.71220   98.63040   51.33590  -43.81120  179.27330  163.80000  198.12200    8.89820    0.00620    0.01040    0.00380    5.33610    2.69860
 5768.00000   -9999.25   52.34110   99.17890   49.29740  -43.52560  189.95830  181.80870  204.53160    8.87280    0.00560    0.01120    0.00350    5.41400    2.70180
 5768.50000   -9999.25   52.34400   99.08240   48.34370  -43.67740  180.03480  165.81950  218.89710    8.84750    0.00490    0.01140    0.00500    5.47940    2.70320
 5769.00000   -9999.25   51.78280   98.38650   48.50890  -44.06000  156.05110  142.73810  234.21590    8.81320    0.00370    0.01060    0.00570    5.45550    2.70160
 5769.50000   -9999.25   52.75040   98.16150   47.67170  -44.42770  133.74550  119.50460  232.04180    8.77770    0.00250    0.01090    0.00500    5.37050    2.70080
 5770.00000   -9999.25   53.59700   98.97020   46.13300  -44.21520  111.75520  100.28510  183.65050    8.75210    0.00210    0.01210    0.00410    5.34310    2.70000
 5770.50000   -9999.25   54.05840   99.81200   46.17300  -43.57740   93.38040   86.73850  126.96110    8.75140    0.00340    0.01470    0.00500    5.31770    2.69920
 5771.00000   -9999.25   54.27000  101.18330   47.97170  -42.94050   78.02690   74.17770   91.67000    8.75140    0.00400    0.01860    0.00770    5.28570    2.69850
 5771.50000   -9999.25   54.68800  101.26070   56.61170  -42.96240   67.10320   62.00800   73.07620    8.74700    0.00400    0.02230    0.01030    5.14590    2.69850
 5772.00000   -9999.25   55.36980  102.44540   69.87910  -43.21190   58.90050   52.10180   67.18310    8.74170    0.00290    0.02460    0.01150    4.96660    2.69350
 5772.50000   -9999.25   56.52710  103.81990   84.82280  -43.79350   51.70050   47.28320   61.80450    8.73630    0.00080    0.03140    0.01290    4.83710    2.68720
 5773.00000   -9999.25   57.39460  105.07390   89.82500  -44.57770   46.39920   42.91030   56.05180    8.73100   -0.00130    0.03680    0.01530    4.82050    2.68200
 5773.50000   -9999.25   57.39460  105.78990   86.43350  -43.98500   44.73830   41.12460   52.17930    8.72570   -0.00340    0.04100    0.02020    4.86630    2.67660
 5774.00000   -9999.25   57.12330  105.74770   79.28770  -42.67110   43.13670   40.38610   52.20170    8.72040   -0.00550    0.04100    0.02420    4.97440    2.67350
 5774.50000   -9999.25   56.48550  104.98900   69.63110  -41.56660   42.14260   40.42330   53.18430    8.72650   -0.00670    0.03940    0.02510    5.02780    2.66880
 5775.00000   -9999.25   55.95550  104.28890   64.23090  -41.08510   42.53910   40.79220   54.16870    8.73270   -0.00530    0.03870    0.02370    4.96590    2.66800
 5775.50000   -9999.25   55.38110  103.86210   60.49060  -40.87610   45.05530   42.52850   56.04420    8.73890   -0.00400    0.03570    0.02320    4.89150    2.66860
 5776.00000   -9999.25   55.35370  102.86590   56.19730  -41.28090   47.72040   44.34020   62.53640    8.74520   -0.00280    0.03080    0.02250    4.90750    2.66980
 5776.50000   -9999.25   54.33850  102.40710   53.18290  -42.44660   50.54310   47.32280   71.09510    8.75140   -0.00150    0.02560    0.01890    4.98440    2.67190
 5777.00000   -9999.25   54.16730  102.24500   52.39380  -43.68430   56.08780   51.84890   79.66130    8.75760   -0.00230    0.02120    0.01370    5.03690    2.67790
 5777.50000   -9999.25   54.16570  101.97060   57.00200  -44.63850   63.70020   56.80800   83.53000    8.74890   -0.00320    0.01940    0.00980    5.05170    2.68850
 5778.00000   -9999.25   54.21560  101.30920   69.39260  -45.23560   72.34570   63.08700   84.73430    8.73930   -0.00410    0.01890    0.00800    5.04610    2.69990
 5778.50000   -9999.25   54.15430  100.49490   83.04240  -46.01150   82.16460   74.30710   91.27160    8.72970   -0.00430    0.01780    0.00750    5.03340    2.69940
