~Version ---------------------------------------------------
VERS.   2.0 : CWLS log ASCII Standard -VERSION 2.0
WRAP.    NO : One line per depth step
DLM . SPACE : Column Data Section Delimiter
~Well ------------------------------------------------------
STRT .F                 389.0 : START DEPTH
STOP .F                6978.0 : STOP DEPTH
STEP .F                   0.5 : STEP
NULL .               -9999.25 : NULL VALUE
COMP .                        : COMPANY
WELL .                        : WELL
FLD  .                        : FIELD
LOC  .                        : LOCATION
PROV .                        : PROVINCE
CNTY .                        : COUNTY
STAT .                        : STATE
CTRY .                        : COUNTRY
SRVC .                        : SERVICE COMPANY
DATE .                        : DATE
UWI  .                        : UNIQUE WELL ID
API  .                        : API NUMBER
SLAT .WGS84 2.342778254542104 : SURFACE LATITUDE
SLON .WGS84 4.998612833871007 : SURFACE LONGITUDE
DATUM.F               2186.32 : DEPTH DATUM ELEV
~Curve Information -----------------------------------------
DEPT.F     : 1 MEASURED DEPTH
DT  .US/F  : DELTA-T (INTERVAL TRANSIT TIME)
DTCO.US/F  : DELTA-T COMPRESSIONAL
DTSM.US/F  : DELTA-T SHEAR
GRR .GAPI  : GAMMA RAY FROM RESISTIVITY LOG
SPR .MV    : SPONTANEOUS POTENTIAL FROM RESISTIVITY LOG
ILD .OHMM  : INDUCTION DEEP RESISTIVITY
ILM .OHMM  : INDUCTION MEDIUM RESISTIVITY
SFLU.OHMM  : SHALLOW FOCUSED RESISTIVITY (UNAVERAGED)
CALD.IN    : CALIPER FROM DENSITY LOG
DRHO.G/C3  : BULK DENSITY CORRECTION
NPHI.DEC   : NEUTRON POROSITY
DPHI.DEC   : DENSITY POROSITY
PEF .B/E   : PHOTOELECTRIC FACTOR
RHOB.G/C3  : BULK DENSITY
~Params ----------------------------------------------------
~Other -----------------------------------------------------
~ASCII -----------------------------------------------------
# ...
 2055.00000   70.04420   -9999.25   -9999.25   71.62670  -65.34510   11.40150   12.30470   20.79550    9.03480   -9999.25   -9999.25   -9999.25   -9999.25   -9999.25
 2055.50000   71.77770   -9999.25   -9999.25   73.05810  -65.84330    9.80590   10.78980   14.73940    9.04030   -9999.25   -9999.25   -9999.25   -9999.25   -9999.25
 2056.00000   72.85200   -9999.25   -9999.25   67.20200  -66.39050    8.70750    9.46140    9.45810    9.04680   -9999.25   -9999.25   -9999.25   -9999.25   -9999.25
 2056.50000   70.37250   -9999.25   -9999.25   56.97870  -69.87730    7.75080    8.29660    7.07910    9.05530   -9999.25   -9999.25   -9999.25   -9999.25   -9999.25
 2057.00000   65.80380   -9999.25   -9999.25   47.15260  -74.12300    6.89930    7.27580    6.25740    9.05450   -9999.25   -9999.25   -9999.25   -9999.25   -9999.25
 2057.50000   63.96260   -9999.25   -9999.25   37.32910  -77.75870    6.14750    6.67460    5.66590    9.00920   -9999.25   -9999.25   -9999.25   -9999.25   -9999.25
 2058.00000   63.71650   -9999.25   -9999.25   30.06750  -78.53130    5.83790    6.12310    5.61130    9.02930   -9999.25   -9999.25   -9999.25   -9999.25   -9999.25
 2058.50000   65.01670   -9999.25   -9999.25   29.53020  -77.99060    5.62290    5.61710    6.00790    9.04950   -9999.25   -9999.25   -9999.25   -9999.25   -9999.25
 2059.00000   70.54720   -9999.25   -9999.25   34.73230  -74.05350    5.63850    5.27460    6.43250    9.04910   -9999.25   -9999.25   -9999.25   -9999.25   -9999.25
 2059.50000   74.87740   -9999.25   -9999.25   42.20450  -70.18000    6.11040    5.38910    6.06730    9.05070   -9999.25   -9999.25   -9999.25   -9999.25   -9999.25
 2060.00000   75.01490   -9999.25   -9999.25   43.46560  -68.31310    6.64040    6.25510    5.72820    9.07100   -9999.25   -9999.25   -9999.25   -9999.25   -9999.25
 2060.50000   71.71160   -9999.25   -9999.25   38.73260  -67.60610    7.21640    7.26040    7.27270    9.09540   -9999.25   -9999.25   -9999.25   -9999.25   -9999.25
 2061.00000   66.45710   -9999.25   -9999.25   33.02890  -68.91280    7.84230    8.42710   10.00500    9.14470   -9999.25   -9999.25   -9999.25   -9999.25   -9999.25
 2061.50000   64.90940   -9999.25   -9999.25   31.49260  -70.17610    8.52250    9.09010   14.17920    9.19370   -9999.25   -9999.25   -9999.25   -9999.25   -9999.25
 2062.00000   64.87940   -9999.25   -9999.25   32.99930  -70.91940    9.26160    9.65560   14.97590    9.23280   -9999.25   -9999.25   -9999.25   -9999.25   -9999.25
 2062.50000   64.75910   -9999.25   -9999.25   35.22040  -71.43240    9.93380   10.25640   13.58750    9.28180   -9999.25   -9999.25   -9999.25   -9999.25   -9999.25
 2063.00000   63.73980   -9999.25   -9999.25   35.66680  -70.97300   10.27350   10.89450   12.16650    9.32730   -9999.25   -9999.25   -9999.25   -9999.25   -9999.25
 2063.50000   62.88150   -9999.25   -9999.25   37.68580  -70.11010   10.62470   11.14460   11.61780    9.36170   -9999.25   -9999.25   -9999.25   -9999.25   -9999.25
 2064.00000   65.53770   -9999.25   -9999.25   42.84160  -69.14140   10.66660   11.06590   11.41310    9.41740   -9999.25   -9999.25   -9999.25   -9999.25   -9999.25
 2064.50000   67.62600   -9999.25   -9999.25   48.08840  -69.03230   10.51760   10.87730   11.62430    9.47080   -9999.25   -9999.25   -9999.25   -9999.25   -9999.25
 2065.00000   68.16970   -9999.25   -9999.25   52.64000  -68.58240   10.36130   10.69180   12.23050    9.50640   -9999.25   -9999.25   -9999.25   -9999.25   -9999.25
 2065.50000   69.84210   -9999.25   -9999.25   60.14130  -67.52600   10.21850   10.50960   11.93950    9.54570   -9999.25   -9999.25   -9999.25   -9999.25   -9999.25
 2066.00000   70.59740   -9999.25   -9999.25   69.75040  -66.39890   10.21620   10.41300   10.17400    9.62020   -9999.25   -9999.25   -9999.25   -9999.25   -9999.25
 2066.50000   69.59820   -9999.25   -9999.25   78.83110  -65.27020   10.13730   10.41060    9.61710    9.69330   -9999.25   -9999.25   -9999.25   -9999.25   -9999.25
 2067.00000   67.04830   -9999.25   -9999.25   74.57430  -64.73930    9.89710   10.56490   10.42090    9.80260   -9999.25   -9999.25   -9999.25   -9999.25   -9999.25
 2067.50000   66.23500   -9999.25   -9999.25   67.20310  -65.01350    9.30710   10.45100   13.04820    9.99150   -9999.25   -9999.25   -9999.25   -9999.25   -9999.25
 2068.00000   71.12370   -9999.25   -9999.25   59.72850  -65.80780    8.56550    9.18280   15.18790   10.09890   -9999.25   -9999.25   -9999.25   -9999.25   -9999.25
 2068.50000   76.32430   -9999.25   -9999.25   57.04620  -66.78810    7.88290    7.92070   14.30020   10.17770   -9999.25   -9999.25   -9999.25   -9999.25   -9999.25
 2069.00000   77.96810   -9999.25   -9999.25   60.97530  -66.87210    7.25480    6.41840   10.32090   10.16930   -9999.25   -9999.25   -9999.25   -9999.25   -9999.25
 2069.50000   77.89310   -9999.25   -9999.25   67.45890  -65.23900    6.90380    5.83070    6.85840   10.13640   -9999.25   -9999.25   -9999.25   -9999.25   -9999.25
 2070.00000   78.13490   -9999.25   -9999.25   67.25740  -62.59310    6.67420    5.82970    4.95880   10.15010   -9999.25   -9999.25   -9999.25   -9999.25   -9999.25
 2070.50000   78.24190   -9999.25   -9999.25   64.51880  -61.22230    6.45220    5.86710    5.12750   10.16090   -9999.25   -9999.25   -9999.25   -9999.25   -9999.25
 2071.00000   78.75380   -9999.25   -9999.25   59.28540  -60.88170    6.25660    5.98770    5.88370   10.11450   -9999.25   -9999.25   -9999.25   -9999.25   -9999.25
 2071.50000   79.29590   -9999.25   -9999.25   58.20080  -60.54090    6.30080    6.11080    6.85130   10.02440   -9999.25   -9999.25   -9999.25   -9999.25   -9999.25
 2072.00000   79.64160   -9999.25   -9999.25   59.42920  -60.35500    6.67840    6.61860    6.62930   10.05850   -9999.25   -9999.25   -9999.25   -9999.25   -9999.25
 2072.50000   80.16850   -9999.25   -9999.25   60.28650  -60.20460    7.12320    7.29450    6.68690   10.09260   -9999.25   -9999.25   -9999.25   -9999.25   -9999.25
 2073.00000   76.19300   -9999.25   -9999.25   59.40260  -59.57820    7.59770    8.03950    8.00940   10.13040   -9999.25   -9999.25   -9999.25   -9999.25   -9999.25
 2073.50000   67.61640   -9999.25   -9999.25   56.55370  -59.60840    8.10370    8.86060   10.74660   10.18840   -9999.25   -9999.25   -9999.25   -9999.25   -9999.25
 2074.00000   66.23780   -9999.25   -9999.25   56.47700  -60.27960    8.26060    8.93230   13.84650   10.24620   -9999.25   -9999.25   -9999.25   -9999.25   -9999.25
 2074.50000   71.69390   -9999.25   -9999.25   59.37010  -61.51760    8.24010    8.96910   14.93140   10.21550   -9999.25   -9999.25   -9999.25   -9999.25   -9999.25
 2075.00000   74.88850   -9999.25   -9999.25   65.10850  -62.20710    8.17280    8.93910   12.30050   10.17350   -9999.25   -9999.25   -9999.25   -9999.25   -9999.25
 2075.50000   75.91980   -9999.25   -9999.25   70.72860  -61.96340    8.04090    8.81060    9.37510   10.17220   -9999.25   -9999.25   -9999.25   -9999.25   -9999.25
 2076.00000   75.35460   -9999.25   -9999.25   74.34540  -61.57650    7.87020    8.59760    7.26770   10.22980   -9999.25   -9999.25   -9999.25   -9999.25   -9999.25
 2076.50000   71.13030   -9999.25   -9999.25   76.75580  -61.18980    7.70310    8.27140    7.06420   10.29900   -9999.25   -9999.25   -9999.25   -9999.25   -9999.25
 2077.00000   68.64250   -9999.25   -9999.25   77.05510  -60.80290    7.53950    7.95750    7.77350   10.27480   -9999.25   -9999.25   -9999.25   -9999.25   -9999.25
 2077.50000   70.51080   -9999.25   -9999.25   75.37200  -61.21960    7.37940    7.65550    8.55410   10.17870   -9999.25   -9999.25   -9999.25   -9999.25   -9999.25
 2078.00000   72.58930   -9999.25   -9999.25   73.66070  -62.15080    7.34300    7.60720    8.84110   10.13290   -9999.25   -9999.25   -9999.25   -9999.25   -9999.25
 2078.50000   69.56040   -9999.25   -9999.25   72.00820  -63.05920    7.57440    7.89230    7.59110   10.12950   -9999.25   -9999.25   -9999.25   -9999.25   -9999.25
 2079.00000   62.91760   -9999.25   -9999.25   67.34740  -63.67070    7.92550    8.35920    6.67180   10.17960   -9999.25   -9999.25   -9999.25   -9999.25   -9999.25
