~Version ---------------------------------------------------
VERS.   2.0 : CWLS log ASCII Standard -VERSION 2.0
WRAP.    NO : One line per depth step
DLM . SPACE : Column Data Section Delimiter
~Well ------------------------------------------------------
STRT .F                 389.0 : START DEPTH
STOP .F                6978.0 : STOP DEPTH
STEP .F                   0.5 : STEP
NULL .               -9999.25 : NULL VALUE
COMP .                        : COMPANY
WELL .                        : WELL
FLD  .                        : FIELD
LOC  .                        : LOCATION
PROV .                        : PROVINCE
CNTY .                        : COUNTY
STAT .                        : STATE
CTRY .                        : COUNTRY
SRVC .                        : SERVICE COMPANY
DATE .                        : DATE
UWI  .                        : UNIQUE WELL ID
API  .                        : API NUMBER
SLAT .WGS84 2.342778254542104 : SURFACE LATITUDE
SLON .WGS84 4.998612833871007 : SURFACE LONGITUDE
DATUM.F               2186.32 : DEPTH DATUM ELEV
~Curve Information -----------------------------------------
DEPT.F     : 1 MEASURED DEPTH
DT  .US/F  : DELTA-T (INTERVAL TRANSIT TIME)
DTCO.US/F  : DELTA-T COMPRESSIONAL
DTSM.US/F  : DELTA-T SHEAR
GRR .GAPI  : GAMMA RAY FROM RESISTIVITY LOG
SPR .MV    : SPONTANEOUS POTENTIAL FROM RESISTIVITY LOG
ILD .OHMM  : INDUCTION DEEP RESISTIVITY
ILM .OHMM  : INDUCTION MEDIUM RESISTIVITY
SFLU.OHMM  : SHALLOW FOCUSED RESISTIVITY (UNAVERAGED)
CALD.IN    : CALIPER FROM DENSITY LOG
DRHO.G/C3  : BULK DENSITY CORRECTION
NPHI.DEC   : NEUTRON POROSITY
DPHI.DEC   : DENSITY POROSITY
PEF .B/E   : PHOTOELECTRIC FACTOR
RHOB.G/C3  : BULK DENSITY
~Params ----------------------------------------------------
~Other -----------------------------------------------------
~ASCII -----------------------------------------------------
# ...
 1173.00000   86.70950   -9999.25   -9999.25   61.58910  -66.77910    2.60500    2.19350    3.32340   10.24300   -9999.25   -9999.25   -9999.25   -9999.25   -9999.25
 1173.50000   81.68930   -9999.25   -9999.25   63.13280  -67.67060    2.43240    2.14460    2.61640   10.45210   -9999.25   -9999.25   -9999.25   -9999.25   -9999.25
 1174.00000   82.02420   -9999.25   -9999.25   55.79500  -67.36100    2.27120    2.09670    2.98450   10.37640   -9999.25   -9999.25   -9999.25   -9999.25   -9999.25
 1174.50000   86.52030   -9999.25   -9999.25   49.61460  -66.57410    2.12520    2.05600    4.46130   10.00770   -9999.25   -9999.25   -9999.25   -9999.25   -9999.25
 1175.00000   94.37730   -9999.25   -9999.25   50.05980  -65.90140    2.05420    2.02380    5.64910    9.70560   -9999.25   -9999.25   -9999.25   -9999.25   -9999.25
 1175.50000  100.31560   -9999.25   -9999.25   53.83720  -65.65240    2.20370    2.01400    4.98050    9.61540   -9999.25   -9999.25   -9999.25   -9999.25   -9999.25
 1176.00000   97.03850   -9999.25   -9999.25   56.20170  -66.03160    2.40230    2.21760    4.10160    9.55790   -9999.25   -9999.25   -9999.25   -9999.25   -9999.25
 1176.50000   88.82440   -9999.25   -9999.25   54.25680  -66.59650    2.63900    2.78960    3.75280    9.52190   -9999.25   -9999.25   -9999.25   -9999.25   -9999.25
 1177.00000   82.77160   -9999.25   -9999.25   48.57000  -66.69860    3.02360    3.26430    4.07060    9.54460   -9999.25   -9999.25   -9999.25   -9999.25   -9999.25
 1177.50000   80.06300   -9999.25   -9999.25   44.11040  -67.40150    3.46430    3.71370    4.78280    9.61630   -9999.25   -9999.25   -9999.25   -9999.25   -9999.25
 1178.00000   77.87800   -9999.25   -9999.25   38.61890  -68.25470    3.96930    4.22500    5.99600    9.69480   -9999.25   -9999.25   -9999.25   -9999.25   -9999.25
 1178.50000   76.42580   -9999.25   -9999.25   34.58770  -69.08020    4.08810    4.74110   10.03950    9.76020   -9999.25   -9999.25   -9999.25   -9999.25   -9999.25
 1179.00000   77.70820   -9999.25   -9999.25   28.35620  -69.68290    3.80090    4.56480   18.23490    9.73260   -9999.25   -9999.25   -9999.25   -9999.25   -9999.25
 1179.50000   79.87170   -9999.25   -9999.25   25.72430  -69.76650    3.52980    3.92840   20.09280    9.61950   -9999.25   -9999.25   -9999.25   -9999.25   -9999.25
 1180.00000   85.10880   -9999.25   -9999.25   29.31950  -69.30990    3.25770    3.21190   11.70640    9.54520   -9999.25   -9999.25   -9999.25   -9999.25   -9999.25
 1180.50000   82.93940   -9999.25   -9999.25   37.41360  -68.71850    3.00670    2.41610    4.36140    9.51220   -9999.25   -9999.25   -9999.25   -9999.25   -9999.25
 1181.00000   69.45030   -9999.25   -9999.25   45.47400  -68.30230    2.77490    2.35570    2.20720    9.53410   -9999.25   -9999.25   -9999.25   -9999.25   -9999.25
 1181.50000   65.31330   -9999.25   -9999.25   54.52410  -67.53970    2.52940    2.29690    2.37710    9.57890   -9999.25   -9999.25   -9999.25   -9999.25   -9999.25
 1182.00000   66.20480   -9999.25   -9999.25   63.06490  -66.31700    2.26440    2.17010    2.88210    9.66800   -9999.25   -9999.25   -9999.25   -9999.25   -9999.25
 1182.50000   67.49630   -9999.25   -9999.25   69.55270  -64.76900    2.02710    2.04950    3.64870    9.71990   -9999.25   -9999.25   -9999.25   -9999.25   -9999.25
 1183.00000   71.75790   -9999.25   -9999.25   74.26400  -64.13750    1.95880    1.99330    4.09310    9.63050   -9999.25   -9999.25   -9999.25   -9999.25   -9999.25
 1183.50000   70.67530   -9999.25   -9999.25   73.01750  -64.57870    1.94020    1.98290    4.20920    9.55360   -9999.25   -9999.25   -9999.25   -9999.25   -9999.25
 1184.00000   56.06850   -9999.25   -9999.25   71.54010  -65.95770    1.99920    1.99570    4.12010    9.56040   -9999.25   -9999.25   -9999.25   -9999.25   -9999.25
 1184.50000   46.45050   -9999.25   -9999.25   70.70520  -66.57010    2.27220    2.02870    3.55320    9.57640   -9999.25   -9999.25   -9999.25   -9999.25   -9999.25
 1185.00000   47.73120   -9999.25   -9999.25   69.88240  -66.25150    2.62220    2.43810    2.69500    9.43340   -9999.25   -9999.25   -9999.25   -9999.25   -9999.25
 1185.50000   48.45440   -9999.25   -9999.25   66.26120  -65.56860    3.08750    2.89650    2.68050    9.36980   -9999.25   -9999.25   -9999.25   -9999.25   -9999.25
 1186.00000   51.87140   -9999.25   -9999.25   53.85020  -65.12250    3.63540    3.35930    3.97930    9.36980   -9999.25   -9999.25   -9999.25   -9999.25   -9999.25
 1186.50000   55.60210   -9999.25   -9999.25   41.79390  -64.86820    4.28050    3.89610    8.79260    9.38540   -9999.25   -9999.25   -9999.25   -9999.25   -9999.25
 1187.00000   52.43770   -9999.25   -9999.25   34.74460  -65.42090    5.04000    4.51860   12.84460    9.38610   -9999.25   -9999.25   -9999.25   -9999.25   -9999.25
 1187.50000   55.13340   -9999.25   -9999.25   33.29410  -66.74630    5.93440    5.97900   15.08200    9.33540   -9999.25   -9999.25   -9999.25   -9999.25   -9999.25
 1188.00000   64.01860   -9999.25   -9999.25   30.43980  -68.19310    6.84940    7.50290   17.63100    9.22540   -9999.25   -9999.25   -9999.25   -9999.25   -9999.25
 1188.50000   69.70370   -9999.25   -9999.25   27.38920  -68.68120    7.65110    7.06690   20.06460    9.11360   -9999.25   -9999.25   -9999.25   -9999.25   -9999.25
 1189.00000   69.06860   -9999.25   -9999.25   29.78170  -68.76430    8.52740    6.59830   16.38780    9.04370   -9999.25   -9999.25   -9999.25   -9999.25   -9999.25
 1189.50000   64.96470   -9999.25   -9999.25   34.20800  -69.09080    8.52690    6.54050   11.41540    9.04620   -9999.25   -9999.25   -9999.25   -9999.25   -9999.25
 1190.00000   60.24780   -9999.25   -9999.25   34.76880  -69.81800    8.13970    6.78640   11.11270    9.05180   -9999.25   -9999.25   -9999.25   -9999.25   -9999.25
 1190.50000   61.43530   -9999.25   -9999.25   29.22060  -71.76710    7.38590    6.86240   14.64030    9.05930   -9999.25   -9999.25   -9999.25   -9999.25   -9999.25
 1191.00000   66.74990   -9999.25   -9999.25   23.98190  -73.57850    6.49890    6.68660   17.43960    9.07850   -9999.25   -9999.25   -9999.25   -9999.25   -9999.25
 1191.50000   70.53260   -9999.25   -9999.25   25.48120  -74.42680    6.30830    6.48490   13.81170    9.15050   -9999.25   -9999.25   -9999.25   -9999.25   -9999.25
 1192.00000   72.32400   -9999.25   -9999.25   29.60670  -74.24610    6.23850    6.48290    8.17110    9.32380   -9999.25   -9999.25   -9999.25   -9999.25   -9999.25
 1192.50000   72.48840   -9999.25   -9999.25   33.42930  -74.47620    6.00020    6.52840    8.17170    9.32400   -9999.25   -9999.25   -9999.25   -9999.25   -9999.25
 1193.00000   70.97880   -9999.25   -9999.25   34.01780  -76.88390    4.96040    5.93570   13.96280    9.34280   -9999.25   -9999.25   -9999.25   -9999.25   -9999.25
 1193.50000   77.77040   -9999.25   -9999.25   34.01390  -81.31650    4.27850    4.76990   24.09790    9.44340   -9999.25   -9999.25   -9999.25   -9999.25   -9999.25
 1194.00000   87.55390   -9999.25   -9999.25   34.84140  -85.38390    3.81260    3.85880   26.09630    9.51670   -9999.25   -9999.25   -9999.25   -9999.25   -9999.25
 1194.50000   90.64430   -9999.25   -9999.25   36.84320  -87.76430    3.50220    3.13470   12.87810    9.50450   -9999.25   -9999.25   -9999.25   -9999.25   -9999.25
 1195.00000   85.13950   -9999.25   -9999.25   38.71200  -87.40430    3.38880    2.84800    4.79960    9.49890   -9999.25   -9999.25   -9999.25   -9999.25   -9999.25
 1195.50000   79.12490   -9999.25   -9999.25   39.11700  -85.28320    3.27910    2.85910    3.96130    9.50990   -9999.25   -9999.25   -9999.25   -9999.25   -9999.25
 1196.00000   72.71330   -9999.25   -9999.25   38.44770  -82.41580    3.29650    2.96620    4.16700    9.49350   -9999.25   -9999.25   -9999.25   -9999.25   -9999.25
 1196.50000   67.51370   -9999.25   -9999.25   37.42070  -79.00870    3.37190    3.19050    4.50490    9.47720   -9999.25   -9999.25   -9999.25   -9999.25   -9999.25
 1197.00000   65.68840   -9999.25   -9999.25   33.77380  -76.49350    3.78700    3.53630    5.98070    9.41830   -9999.25   -9999.25   -9999.25   -9999.25   -9999.25
