~Version ---------------------------------------------------
VERS.   2.0 : CWLS log ASCII Standard -VERSION 2.0
WRAP.    NO : One line per depth step
DLM . SPACE : Column Data Section Delimiter
~Well ------------------------------------------------------
STRT .F                 389.0 : START DEPTH
STOP .F                6978.0 : STOP DEPTH
STEP .F                   0.5 : STEP
NULL .               -9999.25 : NULL VALUE
COMP .                        : COMPANY
WELL .                        : WELL
FLD  .                        : FIELD
LOC  .                        : LOCATION
PROV .                        : PROVINCE
CNTY .                        : COUNTY
STAT .                        : STATE
CTRY .                        : COUNTRY
SRVC .                        : SERVICE COMPANY
DATE .                        : DATE
UWI  .                        : UNIQUE WELL ID
API  .                        : API NUMBER
SLAT .WGS84 2.342778254542104 : SURFACE LATITUDE
SLON .WGS84 4.998612833871007 : SURFACE LONGITUDE
DATUM.F               2186.32 : DEPTH DATUM ELEV
~Curve Information -----------------------------------------
DEPT.F     : 1 MEASURED DEPTH
DT  .US/F  : DELTA-T (INTERVAL TRANSIT TIME)
DTCO.US/F  : DELTA-T COMPRESSIONAL
DTSM.US/F  : DELTA-T SHEAR
GRR .GAPI  : GAMMA RAY FROM RESISTIVITY LOG
SPR .MV    : SPONTANEOUS POTENTIAL FROM RESISTIVITY LOG
ILD .OHMM  : INDUCTION DEEP RESISTIVITY
ILM .OHMM  : INDUCTION MEDIUM RESISTIVITY
SFLU.OHMM  : SHALLOW FOCUSED RESISTIVITY (UNAVERAGED)
CALD.IN    : CALIPER FROM DENSITY LOG
DRHO.G/C3  : BULK DENSITY CORRECTION
NPHI.DEC   : NEUTRON POROSITY
DPHI.DEC   : DENSITY POROSITY
PEF .B/E   : PHOTOELECTRIC FACTOR
RHOB.G/C3  : BULK DENSITY
~Params ----------------------------------------------------
~Other -----------------------------------------------------
~ASCII -----------------------------------------------------
# ...
 6146.50000   -9999.25   61.15550  109.66090   51.76680  -31.35410   20.67100   22.27810   33.87910    9.82020   -0.00300    0.06800    0.02790    4.87260    2.66320
 6147.00000   -9999.25   61.46410  109.74510   51.23200  -31.29480   19.70210   20.79210   31.26000    9.80490   -0.00350    0.07410    0.02670    4.91690    2.66480
 6147.50000   -9999.25   62.55090  112.19780   54.38660  -31.27920   18.21640   19.04830   27.97370    9.78960   -0.00370    0.08250    0.02610    4.77210    2.66540
 6148.00000   -9999.25   64.09500  115.33340   59.90670  -31.14380   16.70490   17.45070   24.00590    9.78320   -0.00260    0.09430    0.02550    4.43570    2.66610
 6148.50000   -9999.25   65.36500  116.83560   66.58250  -30.46680   15.31880   15.99710   19.76020    9.81340   -0.00170    0.10580    0.02500    4.05310    2.66660
 6149.00000   -9999.25   66.53320  119.96920   70.52720  -29.74010   14.04780   14.87420   17.19450    9.84360   -0.00210    0.11510    0.02540    3.78870    2.66660
 6149.50000   -9999.25   67.40220  122.14150   73.04170  -28.83480   12.94680   13.83010   15.80430    9.88160   -0.00140    0.12450    0.02880    3.71010    2.66260
 6150.00000   -9999.25   69.06460  123.55390   74.92730  -27.94160   12.36100   12.85930   15.13790    9.95940   -0.00080    0.13320    0.03390    3.68910    2.65410
 6150.50000   -9999.25   69.83950  124.08340   76.82850  -27.26800   11.80170   11.95670   14.58550    9.97140   -0.00010    0.14150    0.03770    3.68620    2.64570
 6151.00000   -9999.25   69.22070  124.22030   80.04810  -27.25200   11.44620   11.82690   14.33100    9.96580    0.00070    0.14640    0.03990    3.69610    2.64180
 6151.50000   -9999.25   69.20110  124.36510   83.86530  -27.55090   11.35200   11.71360   14.50870    9.96080    0.00140    0.14620    0.04080    3.73460    2.63980
 6152.00000   -9999.25   69.20230  124.76460   83.71150  -28.50270   11.25860   11.60150   14.87390    9.96150    0.00170    0.14530    0.04160    3.79090    2.63840
 6152.50000   -9999.25   69.43790  125.61630   82.36640  -29.19540   11.16590   11.49040   15.07080    9.96250    0.00180    0.14450    0.04220    3.79760    2.63770
 6153.00000   -9999.25   70.05830  126.46800   81.55010  -29.53060   11.07400   11.38040   14.91440    9.96470    0.00190    0.14250    0.04250    3.79080    2.63740
 6153.50000   -9999.25   70.18200  127.03180   84.03500  -29.04840   10.98280   11.27140   14.49380    9.96160    0.00290    0.14270    0.04240    3.77190    2.63710
 6154.00000   -9999.25   70.31390  127.60380   87.60690  -28.34750   10.89240   11.16350   13.88650    9.96110    0.00420    0.14620    0.04290    3.74060    2.63670
 6154.50000   -9999.25   70.76200  127.90310   89.35750  -28.01690   10.85600   11.16030   13.20770    9.96220    0.00520    0.15370    0.04390    3.68730    2.63550
 6155.00000   -9999.25   71.17440  127.22390   89.45170  -28.63370   10.85990   11.28180   12.80510    9.99130    0.00590    0.16290    0.04470    3.58940    2.63370
 6155.50000   -9999.25   71.42800  127.11680   87.33130  -29.40560   11.00460   11.58950   12.71720   10.03170    0.00520    0.16480    0.04550    3.52520    2.63210
 6156.00000   -9999.25   71.14790  124.99780   84.69830  -29.54230   11.21440   11.93190   13.46700   10.06000    0.00470    0.15880    0.04440    3.57340    2.63230
 6156.50000   -9999.25   70.02080  123.11940   81.03540  -29.91620   11.42820   12.28450   14.82780   10.08110    0.00430    0.14780    0.03990    3.69780    2.63770
 6157.00000   -9999.25   68.91550  120.89490   74.33120  -30.61660   11.64600   12.88980   16.75700   10.09640    0.00310    0.13570    0.03650    3.86540    2.64390
 6157.50000   -9999.25   68.09660  120.39400   70.19420  -30.37040   11.86800   13.00400   18.74030   10.09460    0.00200    0.12510    0.03620    4.02790    2.64890
 6158.00000   -9999.25   67.12970  120.14510   68.84490  -29.45960   12.09420   12.95280   19.16140   10.08990    0.00220    0.11810    0.03700    4.02990    2.64890
 6158.50000   -9999.25   66.63990  120.42330   68.80250  -27.89680   12.26310   12.90190   18.25080   10.09260    0.00080    0.11870    0.03770    3.97070    2.64610
 6159.00000   -9999.25   67.40450  121.23690   70.09550  -27.07200   12.32150   12.85120   16.12850   10.09530    0.00050    0.12820    0.03790    3.88330    2.64570
 6159.50000   -9999.25   67.86510  122.07010   75.40180  -26.72200   12.23290   12.81240   14.56790   10.09120    0.00100    0.14210    0.04060    3.79460    2.64550
 6160.00000   -9999.25   67.89140  122.20330   78.90230  -26.72550   12.14480   12.84830   14.09910   10.11260    0.00090    0.14930    0.04510    3.72320    2.64060
 6160.50000   -9999.25   67.61380  122.03830   77.49150  -27.05450   12.05740   12.88440   15.03160   10.15610    0.00090    0.14460    0.04750    3.78940    2.63180
 6161.00000   -9999.25   67.32760  121.62950   72.27080  -27.62340   11.97070   12.92060   16.31120   10.15690    0.00250    0.13410    0.04230    3.92730    2.62780
 6161.50000   -9999.25   67.20760  121.12940   69.60170  -27.84810   11.88450   12.71800   16.88340   10.15260    0.00430    0.12990    0.03610    3.99120    2.63560
 6162.00000   -9999.25   67.45710  121.72950   70.45560  -28.30150   11.73060   12.26800   16.74320   10.16970    0.00570    0.12930    0.03240    4.01790    2.64720
 6162.50000   -9999.25   68.08060  124.10610   75.99820  -29.08900   11.57870   11.83390   16.16950   10.20320    0.00690    0.12990    0.03150    3.99630    2.65500
 6163.00000   -9999.25   68.23520  126.20470   84.17720  -29.97350   11.39700   11.41520   15.39220   10.23560    0.00820    0.13420    0.03180    3.89960    2.65760
 6163.50000   -9999.25   68.81650  127.40900   91.03160  -30.16520   10.85720   11.01140   14.39150   10.25550    0.01040    0.14270    0.03400    3.83580    2.65500
 6164.00000   -9999.25   69.88620  128.25700   92.64460  -29.88740   10.34300   10.62180   13.30780   10.26640    0.01490    0.15220    0.03650    3.83880    2.65010
 6164.50000   -9999.25   70.86670  130.24950   92.83660  -29.43710    9.85310   10.24590   12.42590   10.28450    0.02330    0.16240    0.03870    3.85920    2.64680
 6165.00000   -9999.25   72.07950  132.20860   92.46690  -29.36330    9.48020    9.88340   11.63030   10.32370    0.03610    0.17120    0.04060    3.81220    2.64270
 6165.50000   -9999.25   73.21890  132.50500   91.86850  -29.32570    9.33170    9.53370   11.06390   10.38340    0.05160    0.18200    0.05060    3.55460    2.63990
 6166.00000   -9999.25   73.97510  134.87370   88.88920  -29.23550    9.18550    9.19640   11.04710   10.52780    0.05280    0.18740    0.07180    3.31520    2.62300
 6166.50000   -9999.25   74.15640  135.37240   84.98660  -28.94080    9.04160    9.14260   11.45900   10.59130    0.04950    0.18660    0.08670    3.35000    2.59070
 6167.00000   -9999.25   73.93770  135.08820   81.33010  -28.55270    8.90000    9.11710   12.34120   10.46570    0.04110    0.17530    0.08900    3.43010    2.56260
 6167.50000   -9999.25   73.70000  134.57120   81.46150  -28.15380    8.76050    9.09160   12.87650   10.41660    0.03550    0.16900    0.07270    3.48750    2.55850
 6168.00000   -9999.25   74.10280  134.92740   86.37140  -27.88980    8.67730    9.06630   12.62730   10.42040    0.03340    0.16910    0.05620    3.43550    2.59270
 6168.50000   -9999.25   74.54820  135.31430   94.09450  -27.29510    8.75320    9.04100   11.46780   10.43200    0.03400    0.18280    0.04980    3.31670    2.61740
 6169.00000   -9999.25   75.27680  135.70120   96.70690  -26.61160    8.82970    9.08710   10.62660   10.45590    0.04080    0.19580    0.05420    3.28750    2.62660
 6169.50000   -9999.25   76.10300  135.75030   96.74240  -26.39800    8.91330    9.21830   10.50130   10.43200    0.04860    0.19810    0.06130    3.34840    2.61330
 6170.00000   -9999.25   76.57060  134.03810   95.44260  -25.92920    8.99800    9.35130   11.19720   10.30510    0.04660    0.19140    0.06070    3.43670    2.60260
 6170.50000   -9999.25   76.54680  131.78180   94.29740  -25.30470    9.08350    9.48630   12.27700   10.21380    0.03800    0.17700    0.05560    3.53480    2.60680
