~Version ---------------------------------------------------
VERS.   2.0 : CWLS log ASCII Standard -VERSION 2.0
WRAP.    NO : One line per depth step
DLM . SPACE : Column Data Section Delimiter
~Well ------------------------------------------------------
STRT .FT              10800.0 : START DEPTH
STOP .FT              11348.0 : STOP DEPTH
STEP .FT                  0.5 : STEP
NULL .               -9999.25 : NULL VALUE
COMP .                        : COMPANY
WELL .                        : WELL
FLD  .                        : FIELD
LOC  .                        : LOCATION
PROV .                        : PROVINCE
CNTY .                        : COUNTY
STAT .                        : STATE
CTRY .                        : COUNTRY
SRVC .                        : SERVICE COMPANY
DATE .                        : DATE
UWI  .                        : UNIQUE WELL ID
API  .                        : API NUMBER
SLAT .WGS84 2.390879301679199 : SURFACE LATITUDE
SLON .WGS84    7.525782313053 : SURFACE LONGITUDE
DATUM.F               3216.78 : DEPTH DATUM ELEV
~Curve Information -----------------------------------------
DEPT.FT    : DEPTH
CALD.IN    : CALIPER FROM DENSITY LOG
DPHI.DEC   : DENSITY POROSITY
DRHO.G/C3  : DENSITY CORRECTION
DTCO.US/F  : DELTA TIME COMPRESSIONAL
DTSM.US/F  : DELTA TIME SHEAR
GRS .GAPI  : GAMMA RAY FROM SONIC LOG
LLD .OHMM  : LATEROLOG DEEP RESISTIVITY
LLS .OHMM  : LATEROLOG SHALLOW RESISTIVITY
MSFL.OHMM  : MICROSPHERICALLY FOCUSED LOG RES.
NPHI.DEC   : NEUTRON POROSITY
PEF .B/E   : PHOTOELECTRIC FACTOR
RHOB.G/C3  : BULK DENSITY
SGR .GAPI  : SMOOTHED GAMMA RAY
~Params ----------------------------------------------------
~Other -----------------------------------------------------
~ASCII -----------------------------------------------------
# ...
 10956.00000   -9999.25   -9999.25   -9999.25   -9999.25   -9999.25   13.24740   -9999.25   -9999.25   -9999.25    0.10840   -9999.25   -9999.25   19.88390
 10956.50000   -9999.25   -9999.25   -9999.25   -9999.25   -9999.25   13.68390   -9999.25   -9999.25   -9999.25    0.11070   -9999.25   -9999.25   21.53840
 10957.00000   -9999.25   -9999.25   -9999.25   -9999.25   -9999.25   11.97570   -9999.25   -9999.25   -9999.25    0.11490   -9999.25   -9999.25   21.82510
 10957.50000   -9999.25   -9999.25   -9999.25   -9999.25   -9999.25   11.86810   -9999.25   -9999.25   -9999.25    0.11780   -9999.25   -9999.25   21.30370
 10958.00000   -9999.25   -9999.25   -9999.25   -9999.25   -9999.25   13.71010   -9999.25   -9999.25   -9999.25    0.12140   -9999.25   -9999.25   20.91810
 10958.50000   -9999.25   -9999.25   -9999.25   -9999.25   -9999.25   15.87090   -9999.25   -9999.25   -9999.25    0.11250   -9999.25   -9999.25   22.98010
 10959.00000   -9999.25   -9999.25   -9999.25   -9999.25   -9999.25   17.64270   -9999.25   -9999.25   -9999.25    0.10590   -9999.25   -9999.25   24.24630
 10959.50000   -9999.25   -9999.25   -9999.25   -9999.25   -9999.25   18.52520   -9999.25   -9999.25   -9999.25    0.09860   -9999.25   -9999.25   26.39030
 10960.00000   -9999.25   -9999.25   -9999.25   -9999.25   -9999.25   17.18040   -9999.25   -9999.25   -9999.25    0.09150   -9999.25   -9999.25   27.62650
 10960.50000   -9999.25   -9999.25   -9999.25   -9999.25   -9999.25   16.28170   -9999.25   -9999.25   -9999.25    0.09080   -9999.25   -9999.25   26.61360
 10961.00000   -9999.25   -9999.25   -9999.25   -9999.25   -9999.25   14.93770   -9999.25   -9999.25   -9999.25    0.09550   -9999.25   -9999.25   25.54650
 10961.50000   -9999.25   -9999.25   -9999.25   -9999.25   -9999.25   15.46070   -9999.25   -9999.25   -9999.25    0.09950   -9999.25   -9999.25   24.21300
 10962.00000   -9999.25   -9999.25   -9999.25   -9999.25   -9999.25   16.77630   -9999.25   -9999.25   -9999.25    0.10110   -9999.25   -9999.25   23.34300
 10962.50000   -9999.25   -9999.25   -9999.25   -9999.25   -9999.25   18.13840   -9999.25   -9999.25   -9999.25    0.10180   -9999.25   -9999.25   23.92510
 10963.00000   -9999.25   -9999.25   -9999.25   -9999.25   -9999.25   18.75480   -9999.25   -9999.25   -9999.25    0.10810   -9999.25   -9999.25   24.30820
 10963.50000   -9999.25   -9999.25   -9999.25   -9999.25   -9999.25   19.96840   -9999.25   -9999.25   -9999.25    0.14150   -9999.25   -9999.25   25.02770
 10964.00000   -9999.25   -9999.25   -9999.25   -9999.25   -9999.25   20.86600   -9999.25   -9999.25   -9999.25    0.13920   -9999.25   -9999.25   26.46070
 10964.50000   -9999.25   -9999.25   -9999.25   -9999.25   -9999.25   23.68160   -9999.25   -9999.25   -9999.25    0.12270   -9999.25   -9999.25   28.48300
 10965.00000   -9999.25   -9999.25   -9999.25   -9999.25   -9999.25   28.66310   -9999.25   -9999.25   -9999.25    0.10620   -9999.25   -9999.25   32.55160
 10965.50000   -9999.25   -9999.25   -9999.25   -9999.25   -9999.25   32.66050   -9999.25   -9999.25   -9999.25    0.08980   -9999.25   -9999.25   40.34170
 10966.00000    5.79410    0.01170    0.00930   47.93650   84.70590   41.55400   -9999.25   -9999.25   -9999.25    0.06270    3.05490    2.69070   48.14940
 10966.50000    6.02940    0.00560    0.01670   47.47330   82.94120   37.53950   -9999.25   -9999.25   -9999.25    0.04980    2.72700    2.69740   56.02260
 10967.00000    6.00000   -0.03190    0.02250   46.85300   82.35290   32.63480   -9999.25   -9999.25   -9999.25    0.04510    2.68600    2.70450   59.28780
 10967.50000    5.52940   -0.04890    0.02410   46.10050   82.34340   27.28490   -9999.25   -9999.25   -9999.25    0.04640    2.75700    2.72980   51.04250
 10968.00000    5.29410   -0.05260    0.02250   45.17780   81.76470   26.38580   88.87230   85.51750 1806.15170    0.04750    2.92070    2.80000   40.03050
 10968.50000    5.44280   -0.05190    0.01800   45.04710   81.66430   26.37690  239.43390  201.21040 1973.75560    0.04510    3.17150    2.80000   34.03690
 10969.00000    5.50000   -0.05310    0.01630   45.04810   81.17650   25.81290  926.01710  952.48080 1976.73830    0.04420    3.09520    2.80390   35.11680
 10969.50000    5.39230   -0.05660    0.01060   44.80050   80.98590   24.14610 1828.98840 2259.57130 1979.72110    0.04260    3.09460    2.81170   35.64220
 10970.00000    5.19230   -0.06010    0.01060   44.44000   80.58820   21.18980 1824.70200 3150.17580 1982.70370    0.04080    3.09410    2.81760   33.06460
 10970.50000    5.02320   -0.06370    0.01060   44.20960   80.58820   19.47470  874.63860 3989.04320 1985.68650    0.04020    3.06410    2.81810   28.33510
 10971.00000    4.77990   -0.06540    0.01050   43.99590   80.58820   18.32050  191.99000 4877.74020 1988.66920    0.03870    3.06350    2.82060   23.13970
 10971.50000    4.58820   -0.06130    0.01310   43.64500   80.00000   16.52960   64.55140 5681.67380 1991.65190    0.03820    3.03350    2.82750   21.53540
 10972.00000    4.58820   -0.06430    0.01640   43.29400   80.00000   16.07590  131.09860 5997.56880 1994.63460    0.03760    3.03290    2.83480   19.65410
 10972.50000    4.58820   -0.07020    0.01710   43.20690   80.00000   16.51340  349.65000 6056.51660 1997.61730    0.03640    3.03240    2.83760   19.91840
 10973.00000    4.58820   -0.07420    0.02090   43.29570   80.00000   16.50380 1224.65080 6185.86380 2000.00000    0.03580    3.03180    2.83640   20.90220
 10973.50000    4.58820   -0.07540    0.02210   43.64850   80.00000   14.71490 1893.91880 5107.45410 1988.40260    0.03580    3.03120    2.83520   21.15750
 10974.00000    4.58820   -0.06960    0.02210   43.73730   80.00000   12.92580 1766.44580 4253.64940 1635.28410    0.03590    3.03060    2.83380   20.07970
 10974.50000    4.58820   -0.06630    0.01620   44.00210   80.00000   12.91690 1046.44650 3673.78170   88.47860    0.03530    3.06980    2.83070   19.15460
 10975.00000    4.52940   -0.06600    0.01620   44.00290   80.00000   13.87240 1443.58670 3294.80620   50.02160    0.03470    3.08820    2.82620   19.35400
 10975.50000    4.47060   -0.06600    0.01610   44.00380   80.00000   14.68060 1840.72680 3074.94900  195.39680    0.03470    3.19010    2.82140   19.55440
 10976.00000    4.46750   -0.06600    0.01610   44.00470   80.00000   14.95290 2237.86690 3293.50270 2000.00000    0.03530    3.23670    2.81600   19.09650
 10976.50000    4.35290   -0.06480    0.01610   44.00560   80.00000   16.44380 2647.16700 3476.72900  229.92770    0.03520    3.32180    2.80880   17.99500
 10977.00000    4.29410   -0.06130    0.01610   44.00650   80.00000   17.97940 3689.92800 3670.15010  129.84870    0.03460    3.43870    2.81000   18.47840
 10977.50000    4.33120   -0.05770    0.01600   43.91920   80.00000   18.94000 4576.59720 3874.34420  646.59330    0.03400    3.32050    2.81510   21.62240
 10978.00000    4.37220   -0.05710    0.01600   43.89210   80.00000   20.86490 5261.96970 4093.02640 2000.00000    0.03360    3.20230    2.82050   24.22460
 10978.50000    4.47060   -0.06370    0.01600   43.83300   80.00000   21.74780 4964.80080 4337.77880 2000.00000    0.03360    3.14290    2.82660   24.96150
 10979.00000    4.57250   -0.07080    0.01590   43.83400   80.00000   23.51930 4481.48140 4557.59180 1919.26250    0.03250    3.11290    2.83420   24.49680
 10979.50000    4.58820   -0.07480    0.01590   43.74690   79.41180   25.29020 4184.34030 4268.67240  116.45830    0.02970    3.11240    2.83680   25.88670
 10980.00000    4.64710   -0.07490    0.01590   43.65980   79.41180   25.28160 3946.70020 3988.54860 1824.87450    0.02680    3.14120    2.84010   27.29040
 10980.50000    4.58820   -0.07540    0.01590   43.66070   79.41180   24.37200 3642.37820 3835.73580 2000.00000    0.02390    3.14060    2.84200   27.09580
 10981.00000    4.58820   -0.07540    0.01580   43.48580   79.41180   23.48370 3899.15800 3816.76640 1998.50810    0.02100    3.14000    2.84450   26.87370
 10981.50000    4.64710   -0.07540    0.01580   43.31070   79.06930   23.47480 4529.59720 4407.65580  556.72220    0.01880    3.13940    2.84710   26.96670
