~Version ---------------------------------------------------
VERS.   2.0 : CWLS log ASCII Standard -VERSION 2.0
WRAP.    NO : One line per depth step
DLM . SPACE : Column Data Section Delimiter
~Well ------------------------------------------------------
STRT .FT              10800.0 : START DEPTH
STOP .FT              11348.0 : STOP DEPTH
STEP .FT                  0.5 : STEP
NULL .               -9999.25 : NULL VALUE
COMP .                        : COMPANY
WELL .                        : WELL
FLD  .                        : FIELD
LOC  .                        : LOCATION
PROV .                        : PROVINCE
CNTY .                        : COUNTY
STAT .                        : STATE
CTRY .                        : COUNTRY
SRVC .                        : SERVICE COMPANY
DATE .                        : DATE
UWI  .                        : UNIQUE WELL ID
API  .                        : API NUMBER
SLAT .WGS84 2.390879301679199 : SURFACE LATITUDE
SLON .WGS84    7.525782313053 : SURFACE LONGITUDE
DATUM.F               3216.78 : DEPTH DATUM ELEV
~Curve Information -----------------------------------------
DEPT.FT    : DEPTH
CALD.IN    : CALIPER FROM DENSITY LOG
DPHI.DEC   : DENSITY POROSITY
DRHO.G/C3  : DENSITY CORRECTION
DTCO.US/F  : DELTA TIME COMPRESSIONAL
DTSM.US/F  : DELTA TIME SHEAR
GRS .GAPI  : GAMMA RAY FROM SONIC LOG
LLD .OHMM  : LATEROLOG DEEP RESISTIVITY
LLS .OHMM  : LATEROLOG SHALLOW RESISTIVITY
MSFL.OHMM  : MICROSPHERICALLY FOCUSED LOG RES.
NPHI.DEC   : NEUTRON POROSITY
PEF .B/E   : PHOTOELECTRIC FACTOR
RHOB.G/C3  : BULK DENSITY
SGR .GAPI  : SMOOTHED GAMMA RAY
~Params ----------------------------------------------------
~Other -----------------------------------------------------
~ASCII -----------------------------------------------------
# ...
 11268.00000    4.54710   -0.06560    0.03510   46.53810   80.18770   16.77150 1365.68180 1438.75420 1972.97500    0.03650    3.18590    2.81560   19.02770
 11268.50000    4.54630   -0.06000    0.02770   46.58750   80.18480   15.42050 1222.46310 1181.91860 1509.73510    0.03710    3.06810    2.80300   19.55640
 11269.00000    4.54560   -0.05380    0.02140   45.77400   80.18190   14.10580 1608.25700 1437.68010 1779.19030    0.03650    2.95030    2.78100   20.18770
 11269.50000    4.54490   -0.04590    0.01850   44.90770   80.17910   13.21740 2000.00000 1794.73190 1972.97500    0.03230    2.83250    2.75820   19.47560
 11270.00000    4.49800   -0.03880    0.01630   44.61570   80.17620   12.32970 2928.93990 2644.03980 1423.37560    0.02940    2.71470    2.74390   17.85530
 11270.50000    4.48440   -0.03000    0.01260   44.99910   80.17340   11.44160 2817.89650 2893.36870   91.16300    0.02710    2.59690    2.74560   16.27800
 11271.00000    4.36610   -0.01880    0.01210   45.35270   80.17050   11.44380 2683.91530 2652.00270  264.72490    0.02610    2.60590    2.75670   15.80750
 11271.50000    4.33590   -0.03040    0.01850   45.88220   80.16760   11.44590 2450.13920 2466.45510  132.10580    0.02530    2.85000    2.78200   16.72180
 11272.00000    4.45290   -0.04970    0.02440   46.05990   80.16470   13.67360 2472.88060 2487.62230   83.86850    0.02470    2.96270    2.80760   17.49200
 11272.50000    4.62860   -0.06620    0.02730   45.70970   80.16180   16.87050 3092.99410 2838.04320 1081.16110    0.02470    3.03750    2.82240   20.46270
 11273.00000    4.83380   -0.07260    0.03020   45.34240   80.15880   21.15150 3742.99580 3339.68430  704.13340    0.02470    3.03740    2.82430   23.06290
 11273.50000    4.89320   -0.06610    0.03320   44.96260   80.15590   27.06400 3846.39310 3894.46120 1375.66550    0.02350    3.02410    2.80370   27.45450
 11274.00000    4.92060   -0.05790    0.03610   44.61860   80.15290   36.54070 3449.18410 3492.48220  223.75590    0.02290    2.96300    2.80370   32.80990
 11274.50000    4.92520   -0.04960    0.03950   44.19540   80.15000   41.72590 2928.93990 3006.92190  392.04830    0.02290    2.94860    2.80720   35.89130
 11275.00000    4.94860   -0.05270    0.04190   43.92950   80.14710   38.66840 3092.99410 3131.16360  288.89740    0.02290    2.94850    2.80710   35.53220
 11275.50000    4.96660   -0.05710    0.04280   43.60850   80.14410   35.60290 3593.08810 3684.57130  375.85430    0.02710    2.94840    2.80230   35.57030
 11276.00000    5.03540   -0.06140    0.04690   43.52830   80.14120   31.92980 4184.03560 4219.57280 1300.74070    0.03650    3.00700    2.79760   35.77590
 11276.50000    4.94630   -0.05450    0.04780   43.26040   80.13760   28.76250 4926.34770 4832.25930 1972.97500    0.04130    3.03630    2.79480   33.90300
 11277.00000    4.86990   -0.05000    0.04910   43.96630   80.13480   27.49410 4333.43460 5100.79300 1946.31510    0.04610    3.06560    2.79280   29.52110
 11277.50000    4.62120   -0.04780    0.04770   45.37560   81.30840   27.49660 2361.23780 2516.13310 1956.74720    0.05060    3.06540    2.79180   25.55370
 11278.00000    4.59110   -0.04870    0.04480   47.31280   81.89380   27.05370  672.44570 1128.53820  987.40940    0.04870    3.06530    2.79180   21.18150
 11278.50000    4.53150   -0.04720    0.04180   49.95380   81.30270   27.05580  459.17340  454.06780   94.44720    0.04510    3.05980    2.79180   20.92420
 11279.00000    4.47200   -0.04720    0.04770   49.60360   80.71160   26.61290  550.28610  646.24550  723.87520    0.04050    2.99140    2.79180   20.80670
 11279.50000    4.47130   -0.04960    0.05350   48.72560   80.12050   26.61500  784.98020  971.12120 2000.00000    0.03710    2.94720    2.79640   20.85330
 11280.00000    4.47060   -0.05430    0.05650   47.14370   80.11760   25.72700 1119.42770 1206.57180 1413.91670    0.03650    2.86480    2.80290   20.06730
 11280.50000    4.46990   -0.05780    0.05790   46.79350   80.11470   -9999.25 1661.11350 1291.03020 1000.68020    0.03410    2.81530    2.80520   19.48580
 11281.00000    4.50060   -0.05900    0.05350   46.77190   80.11180   -9999.25 1698.33780  847.09140  546.77940    0.03180    2.77030    2.79930   18.78280
 11281.50000    4.56070   -0.05420    0.04990   46.44500   80.10880   -9999.25 1305.69370  700.19480 1345.94670    0.03000    2.77010    2.78540   18.36120
 11282.00000    4.58540   -0.04450    0.04230   46.22410   80.10590   -9999.25  883.08070  662.98240  751.17630    0.03120    2.77000    2.77850   20.03880
 11282.50000    4.58460   -0.03920    0.03470   46.09650   80.69160   -9999.25  932.54340  666.19340 1079.73250    0.03180    2.74040    2.77340   22.20090
 11283.00000    4.58380   -0.03570    0.02860   46.23900   81.27700   -9999.25  772.39780  744.44360  331.98510    0.03290    2.71090    2.76960   24.16300
 11283.50000    4.58310   -0.03290    0.02320   47.01450   81.27350   -9999.25 1028.86940  931.66550 1772.56010    0.03410    2.71070    2.76720   24.72770
 11284.00000    4.58240   -0.03240    0.01810   47.11060   81.27060   -9999.25 1721.27930 1284.80130 2000.00000    0.03280    2.79880    2.76520   24.12580
 11284.50000    4.58160   -0.03410    0.01520   46.89590   81.26770   -9999.25 2145.44780 1798.31080 1482.82190    0.02900    2.91810    2.76960   23.48630
 11285.00000    4.58070   -0.03870    0.01220   46.80940   81.26470   -9999.25 2487.16480 2128.86690  467.77180    0.02670    2.82790    2.77300   23.10300
 11285.50000    4.58000   -0.04480    0.01220   46.28350   81.26130   -9999.25 5190.76270 3664.55470  305.96240    0.02470    2.76900    2.77750   21.63470
 11286.00000    4.57930   -0.04950    0.01220   45.75740   81.25840   -9999.25 7198.51660 5658.43700  391.76030    0.02730    2.78530    2.78230   21.47630
 11286.50000    4.57860   -0.04710    0.01800   45.05520   81.25550   -9999.25 8362.41600 6935.48000  543.57700    0.02940    2.82750    2.78710   21.42410
 11287.00000    4.66610   -0.04710    0.01960   45.05690   81.25270   -9999.25 8711.30570 7835.35300  836.16120    0.03090    2.91130    2.79190   21.46450
 11287.50000    4.72430   -0.05010    0.02390   45.41060   81.24980   -9999.25 8830.80760 8732.54200 1405.48080    0.03180    2.97430    2.79740   21.54310
 11288.00000    4.99110   -0.05360    0.02710   45.59970   81.24700   -9999.25 8464.07030 8739.83300 1919.45040    0.03350    3.06240    2.80050   22.77960
 11288.50000    5.29870   -0.05540    0.02980   45.76600   81.24410   -9999.25 6031.01170 7118.92330 2000.00000    0.03410    3.06220    2.80260   29.78130
 11289.00000    5.67270   -0.05400    0.03220   45.76770   81.24120   -9999.25 3755.25610 4916.58350 1764.58960    0.03650    3.17970    2.80470   38.44030
 11289.50000    5.38420   -0.05040    0.03560   45.76950   81.23820   -9999.25 2537.44530 2779.07450  779.53530    0.03650    3.17950    2.80850   49.63800
 11290.00000    4.90880   -0.05100    0.03930   45.77130   81.13800   -9999.25 2487.16480 2499.14230 1203.53550    0.03760    3.06180    2.81350   46.94340
 11290.50000    4.80810   -0.05490    0.04150   45.47400   80.64410   -9999.25 2791.82810 2743.74290  186.70250    0.03880    3.06160    2.81810   40.27390
 11291.00000    4.72280   -0.06060    0.04440   45.68110   80.64120   -9999.25 3395.15650 3163.37570  756.66050    0.04010    3.17910    2.81670   34.30810
 11291.50000    4.65930   -0.06590    0.04730   46.12840   80.63820   -9999.25 4340.11130 3750.44460 1847.44210    0.04130    3.20840    2.81190   28.43520
 11292.00000    4.57060   -0.06470    0.04730   46.57040   80.63530   -9999.25 5013.89210 4609.32670 1292.59750    0.04240    3.16930    2.80760   22.29800
 11292.50000    4.48150   -0.05650    0.04140   47.10000   80.63230   -9999.25 4982.24760 5340.68950 1517.54540    0.04080    3.06100    2.80770   17.33050
 11293.00000    4.45140   -0.05410    0.03550   47.54160   80.62940   -9999.25 4640.08350 5006.42330 1675.79370    0.03840    3.00460    2.80900   14.64140
 11293.50000    4.45070   -0.05650    0.02960   48.07110   80.62650   -9999.25 4061.83520 4619.97220 1276.59200    0.03650    2.94310    2.81110   14.14850
