~Version ---------------------------------------------------
VERS.   2.0 : CWLS log ASCII Standard -VERSION 2.0
WRAP.    NO : One line per depth step
DLM . SPACE : Column Data Section Delimiter
~Well ------------------------------------------------------
STRT .FT              10800.0 : START DEPTH
STOP .FT              11348.0 : STOP DEPTH
STEP .FT                  0.5 : STEP
NULL .               -9999.25 : NULL VALUE
COMP .                        : COMPANY
WELL .                        : WELL
FLD  .                        : FIELD
LOC  .                        : LOCATION
PROV .                        : PROVINCE
CNTY .                        : COUNTY
STAT .                        : STATE
CTRY .                        : COUNTRY
SRVC .                        : SERVICE COMPANY
DATE .                        : DATE
UWI  .                        : UNIQUE WELL ID
API  .                        : API NUMBER
SLAT .WGS84 2.390879301679199 : SURFACE LATITUDE
SLON .WGS84    7.525782313053 : SURFACE LONGITUDE
DATUM.F               3216.78 : DEPTH DATUM ELEV
~Curve Information -----------------------------------------
DEPT.FT    : DEPTH
CALD.IN    : CALIPER FROM DENSITY LOG
DPHI.DEC   : DENSITY POROSITY
DRHO.G/C3  : DENSITY CORRECTION
DTCO.US/F  : DELTA TIME COMPRESSIONAL
DTSM.US/F  : DELTA TIME SHEAR
GRS .GAPI  : GAMMA RAY FROM SONIC LOG
LLD .OHMM  : LATEROLOG DEEP RESISTIVITY
LLS .OHMM  : LATEROLOG SHALLOW RESISTIVITY
MSFL.OHMM  : MICROSPHERICALLY FOCUSED LOG RES.
NPHI.DEC   : NEUTRON POROSITY
PEF .B/E   : PHOTOELECTRIC FACTOR
RHOB.G/C3  : BULK DENSITY
SGR .GAPI  : SMOOTHED GAMMA RAY
~Params ----------------------------------------------------
~Other -----------------------------------------------------
~ASCII -----------------------------------------------------
# ...
 11242.00000    4.64400   -0.05270    0.03490   43.84290   80.34120   21.99700 6043.43900 6036.44630 2000.00000    0.02240    2.98760    2.77440   25.31660
 11242.50000    4.64330   -0.04460    0.03700   43.84460   79.16120   21.99930 6760.29350 6636.87700   22.14760    0.02040    2.84040    2.76350   25.54200
 11243.00000    4.64260   -0.03940    0.04060   44.19820   79.15840   21.48460 8167.94820 7600.55910  835.73990    0.01840    2.72260    2.77180   25.35560
 11243.50000    4.70070   -0.03080    0.04440   44.33500   78.56730   20.22300 9817.02830 9970.66410 2000.00000    0.01820    2.57260    2.78450   24.91890
 11244.00000    4.75950   -0.04410    0.05310   45.04680   78.56440   20.22550 12106.66410 12388.08400 1697.96620    0.01700    2.58600    2.80300   24.50760
 11244.50000    4.87580   -0.06000    0.05900   45.08310   78.56160   19.78230 12990.44040 13076.37600  117.67850    0.01630    2.83900    2.82510   24.58600
 11245.00000    4.87500   -0.06940    0.06490   44.43940   78.55870   20.23000 10542.01170 9643.91500   52.65240    0.02000    3.09050    2.83990   24.82990
 11245.50000    4.87430   -0.07590    0.07810   43.80260   78.55590   20.45030 8711.30570 7553.29640   28.24290    0.02530    3.19250    2.83510   25.04830
 11246.00000    4.87350   -0.07830    0.08110   43.29410   77.96470   21.37230 7397.36960 6756.67580   88.86410    0.02940    3.15080    2.82300   25.24500
 11246.50000    4.87280   -0.07120    0.08090   43.51810   77.96180   22.01750 6633.45900 6241.43160   62.45510    0.03290    3.07460    2.80980   25.60340
 11247.00000    4.87210   -0.05450    0.08250   44.56460   77.95880   20.23920 5788.53220 5594.46630   35.60800    0.03590    3.05790    2.79780   24.75810
 11247.50000    4.87130   -0.05410    0.08440   45.27010   78.54440   18.46090 2055.24830 3313.10620   57.00980    0.03820    3.01540    2.78660   23.13550
 11248.00000    4.87060   -0.05180    0.08980   45.71170   79.44120   15.79250 1618.24040 2226.06910  195.33830    0.04010    2.95640    2.78390   19.66950
 11248.50000    4.86970   -0.04730    0.09460   45.88930   80.49430   14.90430 1156.90420  922.74880  603.48180    0.04250    2.95630    2.79010   19.23520
 11249.00000    4.86900   -0.04400    0.09050   45.97900   82.65350   14.90660  668.54130  589.22030 1525.45740    0.04350    3.04440    2.79580   18.33240
 11249.50000    4.86830   -0.04960    0.06960   46.15670   82.65000   16.25130  555.67000  542.95540   12.85310    0.04090    3.07370    2.80060   19.14530
 11250.00000    4.98520   -0.05820    0.05740   46.07040   82.64710   17.65700  587.00500  621.79280 1261.22350    0.03760    3.13240    2.80590   20.21220
 11250.50000    5.04330   -0.05660    0.05440   45.62090   82.64410   18.67330  689.55070  751.84150 1577.32690    0.03450    3.19100    2.81320   22.80780
 11251.00000    5.13090   -0.05460    0.06030   45.23530   82.64060   20.44770  832.97090  837.93130  456.03860    0.03210    3.12350    2.82270   25.97750
 11251.50000    5.09600   -0.05930    0.06470   44.79180   81.46130   22.29060  949.88480  959.59990  247.40490    0.03240    3.06660    2.83040   29.15920
 11252.00000    4.94370   -0.06700    0.06020   44.47030   80.87020   23.82200 1031.31010 1040.81350  604.84800    0.03590    2.95530    2.83120   31.59360
 11252.50000    4.72580   -0.07110    0.06020   44.31940   80.27910   23.82420 1039.93530 1010.22280 1243.36690    0.03650    2.87470    2.82450   30.10190
 11253.00000    4.62790   -0.07130    0.06170   44.47990   80.27630   22.50900 1083.30410  873.19460 1028.81270    0.03760    2.82440    2.81160   27.06640
 11253.50000    4.70450   -0.05700    0.05570   44.75170   81.44990   21.64260 1042.09500  670.91510   57.40270    0.03470    2.71960    2.77490   24.53500
 11254.00000    4.82520   -0.04500    0.05430   46.41220   82.03530   23.83130  871.13060  508.47920 1265.42200    0.03180    2.81260    2.78430   24.32180
 11254.50000    4.94630   -0.04040    0.06040   47.49420   82.03230   25.61380  512.05190  453.85170 1347.98740    0.02710    3.01340    2.80290   25.58240
 11255.00000    4.97790   -0.04940    0.06600   48.46360   81.97980   27.39640  459.17340  497.31270  609.54170    0.02460    3.05050    2.81600   28.01910
 11255.50000    4.97720   -0.06310    0.07090   48.81720   80.85000   29.17900  505.12270  607.62400  121.82710    0.02240    2.95430    2.81400   30.14010
 11256.00000    4.85870   -0.06640    0.07190   47.93920   80.25880   30.96160  681.67030  979.36700   84.01720    0.02120    2.83650    2.80420   31.75800
 11256.50000    4.74030   -0.05980    0.07050   47.14910   80.25590   29.18330 1275.74450 1481.77380  390.85860    0.02250    2.83630    2.80420   34.60570
 11257.00000    4.50430   -0.05510    0.06600   45.65520   80.25290   23.83700 1893.91880 2464.94780  341.14220    0.02540    2.95380    2.80790   32.57480
 11257.50000    4.49950   -0.05790    0.06010   45.30500   80.25000   20.15640 3708.47900 3577.58330 1745.60420    0.03030    2.95660    2.81200   30.81950
 11258.00000    4.65000   -0.06160    0.06010   45.13070   80.24710   18.50730 4027.84010 3957.37060  499.31110    0.03350    3.01750    2.81490   28.40810
 11258.50000    4.91400   -0.06160    0.05420   45.30850   80.24410   20.64900 3818.07230 3668.49240 1972.97500    0.03440    3.04160    2.81600   25.13680
 11259.00000    5.09690   -0.06160    0.06000   45.27480   80.24120   24.33410 3062.39840 2833.20460 1727.57560    0.03350    2.99320    2.81740   25.01440
 11259.50000    5.27330   -0.06160    0.06000   44.91330   80.23770   29.34730 2331.02270 2341.89040  755.15990    0.03470    2.87110    2.82470   28.57120
 11260.00000    5.34130   -0.06630    0.06000   44.69770   80.23530   32.66990 1501.30540 1435.69400 1666.88040    0.03710    2.83530    2.81590   35.78970
 11260.50000    5.35230   -0.06920    0.05820   44.96360   80.23200   34.95680 1271.20690 1219.41040 1276.59200    0.03650    2.92580    2.80780   40.85640
 11261.00000    5.16490   -0.06690    0.04390   44.96540   80.22910   35.37730 1179.63640 1123.66380 1242.32520    0.03410    3.04090    2.80110   38.51210
 11261.50000    5.00340   -0.05390    0.02630   44.96720   80.22620   30.09610 1091.77190 1093.25500 1144.94540    0.03410    3.07010    2.79820   35.00140
 11262.00000    4.91040   -0.04950    0.01790   44.96930   80.22340   27.42770 1151.38610 1169.78140  609.77280    0.03530    3.07000    2.79820   31.65900
 11262.50000    4.84930   -0.04980    0.01290   44.97100   80.22050   23.86900 1355.39730 1414.44180 1590.05300    0.03520    3.06980    2.79820   29.80160
 11263.00000    4.81900   -0.05280    0.01290   44.97270   80.21760   22.09070 1972.93530 4366.42530  659.65340    0.03330    3.06970    2.80610   28.42990
 11263.50000    4.75940   -0.05790    0.01440   44.62250   80.21470   21.20270 6000.02690 5728.02150 1868.47770    0.03120    3.04010    2.81630   27.10750
 11264.00000    4.72930   -0.06270    0.01870   44.62420   80.21180   20.31460 7092.16410 7116.79790  238.34610    0.02870    3.01060    2.82530   25.79150
 11264.50000    4.78740   -0.06760    0.02460   44.62590   80.20880   23.87760 8259.39360 8374.62890 1069.65250    0.02550    3.01420    2.83010   24.57940
 11265.00000    4.93380   -0.07270    0.03040   44.71550   80.20590   26.60090 9447.55860 9721.80760  257.13720    0.02270    3.06910    2.82890   28.34600
 11265.50000    5.08010   -0.07330    0.03630   44.71160   80.20290   29.22320 7219.35600 7820.53120  771.68600    0.02120    3.08500    2.82750   34.87460
 11266.00000    5.01940   -0.07090    0.03920   44.63100   80.20000   25.32150 3402.50850 4859.94380 1972.97500    0.02770    3.16730    2.81940   36.03860
 11266.50000    4.83290   -0.06620    0.04220   45.05570   80.19710   21.20690 2260.91600 3321.42160 2000.00000    0.03410    3.18630    2.81570   30.23050
 11267.00000    4.65690   -0.06150    0.04360   45.49660   80.19410   18.40390 1918.63400 2229.41090 1972.97500    0.03410    3.24500    2.81570   25.17620
 11267.50000    4.56410   -0.06500    0.04140   46.07340   80.19120   17.48720 1652.68370 1729.45410 1972.97500    0.03410    3.24490    2.81570   19.99170
