~Version ---------------------------------------------------
VERS.   2.0 : CWLS log ASCII Standard -VERSION 2.0
WRAP.    NO : One line per depth step
DLM . SPACE : Column Data Section Delimiter
~Well ------------------------------------------------------
STRT .FT              10800.0 : START DEPTH
STOP .FT              11348.0 : STOP DEPTH
STEP .FT                  0.5 : STEP
NULL .               -9999.25 : NULL VALUE
COMP .                        : COMPANY
WELL .                        : WELL
FLD  .                        : FIELD
LOC  .                        : LOCATION
PROV .                        : PROVINCE
CNTY .                        : COUNTY
STAT .                        : STATE
CTRY .                        : COUNTRY
SRVC .                        : SERVICE COMPANY
DATE .                        : DATE
UWI  .                        : UNIQUE WELL ID
API  .                        : API NUMBER
SLAT .WGS84 2.390879301679199 : SURFACE LATITUDE
SLON .WGS84    7.525782313053 : SURFACE LONGITUDE
DATUM.F               3216.78 : DEPTH DATUM ELEV
~Curve Information -----------------------------------------
DEPT.FT    : DEPTH
CALD.IN    : CALIPER FROM DENSITY LOG
DPHI.DEC   : DENSITY POROSITY
DRHO.G/C3  : DENSITY CORRECTION
DTCO.US/F  : DELTA TIME COMPRESSIONAL
DTSM.US/F  : DELTA TIME SHEAR
GRS .GAPI  : GAMMA RAY FROM SONIC LOG
LLD .OHMM  : LATEROLOG DEEP RESISTIVITY
LLS .OHMM  : LATEROLOG SHALLOW RESISTIVITY
MSFL.OHMM  : MICROSPHERICALLY FOCUSED LOG RES.
NPHI.DEC   : NEUTRON POROSITY
PEF .B/E   : PHOTOELECTRIC FACTOR
RHOB.G/C3  : BULK DENSITY
SGR .GAPI  : SMOOTHED GAMMA RAY
~Params ----------------------------------------------------
~Other -----------------------------------------------------
~ASCII -----------------------------------------------------
# ...
 11164.00000    4.59290   -0.04270    0.02120   45.16600   80.42350   43.01510  877.89730  881.85060 2000.00000    0.02800    3.05880    2.78790   42.04470
 11164.50000    4.59210   -0.05070    0.02120   45.16510   80.41760   35.89560  970.85660  984.62610 2000.00000    0.03440    3.15970    2.79180   42.30290
 11165.00000    4.59120   -0.05820    0.01970   45.06180   80.41180   33.67220 1129.09520 1145.54330 2000.00000    0.03760    3.20480    2.80100   40.12330
 11165.50000    4.50190   -0.06290    0.01970   44.89940   80.40590   32.33900 1305.43310 1280.05680 2000.00000    0.03760    3.19000    2.81360   37.77940
 11166.00000    4.44220   -0.06630    0.01960   44.81060   80.40000   32.34120 1558.93200 1443.95570 2000.00000    0.03760    3.05880    2.82420   33.39210
 11166.50000    4.35310   -0.06930    0.02260   44.75340   80.39410   30.40450 1776.44380 1792.56270 2000.00000    0.03680    3.00000    2.83240   29.71440
 11167.00000    4.35230   -0.07500    0.02840   44.45690   80.67520   26.73160 1895.78630 1860.08530 2000.00000    0.03620    3.05880    2.83660   29.33990
 11167.50000    4.41020   -0.07770    0.03300   44.06750   80.97060   23.44560 1950.66910 1767.45260 2000.00000    0.03530    3.11760    2.83980   29.13570
 11168.00000    4.46820   -0.07950    0.03420   43.71010   81.55290   22.42990 1894.49620 1543.87540 2000.00000    0.03360    3.17650    2.84220   28.21110
 11168.50000    4.58500   -0.07970    0.03060   43.62270   82.13440   23.92220 1508.91360 1287.62000 2000.00000    0.03300    3.29410    2.84360   31.38000
 11169.00000    4.58410   -0.07730    0.02740   43.94880   82.71770   25.97540 1088.26570 1030.77550 2000.00000    0.03530    3.41180    2.84110   32.55300
 11169.50000    4.61900   -0.07260    0.02080   44.62830   82.71130   29.65750  862.90960  864.90480 2000.00000    0.03830    3.41180    2.83630   35.42180
 11170.00000    4.70010   -0.06320    0.01310   45.06730   82.70560   32.15880  722.79200  674.14780 2000.00000    0.04010    3.40800    2.82570   34.94560
 11170.50000    4.79400   -0.05960    0.00840   45.15450   82.69990   34.14210  638.35080  626.81040 2000.00000    0.04010    3.16610    2.81640   37.28980
 11171.00000    4.84070   -0.06490    0.00460   45.15360   82.69410   35.92470  722.69590  661.70620 2000.00000    0.03650    2.93690    2.81180   39.36520
 11171.50000    4.93280   -0.07200    0.00460   44.80080   82.68820   36.81700  874.51450  800.20910 2000.00000    0.03300    2.91180    2.81310   41.14340
 11172.00000    4.86690   -0.07850    0.00900   44.44800   81.99410   37.70940 1058.22580 1078.79600 2000.00000    0.02940    3.03690    2.82350   41.12310
 11172.50000    4.79980   -0.07960    0.01040   44.09530   80.76940   38.60180 1315.90360 1494.42680 2000.00000    0.02580    3.13580    2.83700   40.26860
 11173.00000    4.70890   -0.07720    0.01340   43.83050   80.31760   38.60390 1528.56510 1758.78760 2000.00000    0.02350    3.17650    2.84290   39.39080
 11173.50000    4.78640   -0.07480    0.01630   43.64940   80.31180   38.60610 1800.34640 1856.77220 2000.00000    0.02130    3.16420    2.84290   38.66010
 11174.00000    4.89870   -0.07220    0.01620   43.38890   80.30590   37.71800 1772.40610 1758.32070  628.37770    0.02130    3.14710    2.83980   38.19200
 11174.50000    4.92740   -0.06950    0.02060   43.21200   80.30000   37.97880 1727.62760 1733.34140 1946.31510    0.02290    3.14710    2.83500   41.33210
 11175.00000    5.01460   -0.06480    0.01890   43.24000   80.29410   40.57700 1739.37710 1757.85390 2000.00000    0.02370    3.16420    2.82940   43.99410
 11175.50000    5.04320   -0.06720    0.01610   43.38630   80.28720   42.74300 1835.03000 1859.45360 2000.00000    0.02370    3.17650    2.82630   46.89290
 11176.00000    5.04230   -0.07760    0.02330   43.38530   79.69330   44.84830 4130.98680 2043.35610 2000.00000    0.02370    3.17650    2.83040   47.95790
 11176.50000    5.04140   -0.08540    0.02910   43.24070   79.68760   42.89100 4864.41750 3234.18190 2000.00000    0.02490    3.17650    2.83930   42.07170
 11177.00000    5.07000   -0.08890    0.03470   43.03170   80.27060   40.45230 4606.10010 3287.07670  931.32670    0.02840    3.23530    2.84900   38.86180
 11177.50000    5.12920   -0.08180    0.04140   43.10400   80.26450   34.68640 2394.86380 2223.32200  722.62810    0.03200    3.29410    2.85880   39.34350
 11178.00000    5.15650   -0.07710    0.04680   43.42280   80.25880   29.72450 1726.79250 1320.48470 1818.32310    0.03430    3.35540    2.85410   39.45440
 11178.50000    5.00560   -0.07350    0.05130   43.77820   80.25290   28.83610 1635.09350 1250.48080 1928.98300    0.03370    3.17650    2.84740   39.61030
 11179.00000    4.65860   -0.07000    0.04530   44.18310   80.32300   28.83860 1680.15010 1267.41540 1930.92700    0.03320    3.05880    2.83880   36.31810
 11179.50000    4.44790   -0.07000    0.03360   44.52270   80.83000   27.95050 1823.14890 1289.25540 1932.87100    0.03200    3.05880    2.83070   31.39010
 11180.00000    4.44710   -0.06940    0.02760   44.78580   80.82350   27.06230 2005.45740 1431.12920 1934.81490    0.03080    3.07050    2.82620   26.32440
 11180.50000    4.44620   -0.06760    0.02170   45.04890   81.40680   24.83910 2298.00710 1923.42540 1936.75890    0.03080    3.17650    2.82350   24.45880
 11181.00000    4.47190   -0.06290    0.02170   45.13610   81.40000   21.72550 2780.75490 2563.82250 1938.70290    0.03080    3.17650    2.81910   25.58770
 11181.50000    4.56210   -0.06160    0.02610   44.60730   80.80590   21.84260 3143.31790 3044.00390 1940.64690    0.03220    3.17650    2.81680   27.50070
 11182.00000    4.66610   -0.06050    0.02750   44.07850   80.80000   25.52150 2976.39670 2842.28980 1942.59080    0.03360    3.17650    2.81220   30.55250
 11182.50000    5.26600   -0.05760    0.03060   44.07770   80.20480   31.07220 2527.29520 2276.05130 1944.53480    0.03560    3.17650    2.80840   35.96610
 11183.00000    5.50050   -0.05570    0.03370   44.07680   80.19910   36.91100 1749.29820 1933.08510 1946.47880    0.03660    3.17650    2.81810   47.21600
 11183.50000    5.38190   -0.06380    0.03920   43.89860   80.19340   43.97740 1523.84960 1557.80250 1948.42270    0.03790    3.17650    2.82940   54.40530
 11184.00000    5.14580   -0.06930    0.04120   43.72320   80.18770   46.66470 1235.42330 1231.75380 1950.36670    0.03970    3.17650    2.81540   53.48950
 11184.50000    4.88020   -0.05280    0.03910   43.70120   80.18200   43.86830 1331.37740 1391.75740 1952.31070    0.04060    3.05880    2.77190   48.13040
 11185.00000    4.61470   -0.03100    0.03320   43.44270   80.17630   37.68090 1696.67400 1706.08850 1954.25460    0.04270    2.94120    2.69900   39.56640
 11185.50000    4.43730    0.01110    0.02440   43.36860   80.17060   28.86760 2526.25950 1954.07350 1956.19860    0.04500    2.70590    2.62090   31.84600
 11186.00000    4.34820    0.04450    0.01850   43.36770   80.16470   23.97370 3801.57840 2790.37770 1958.14260    0.04740    2.52940    2.60590   23.69250
 11186.50000    4.35000    0.06040    0.02870   43.71890   80.15880   19.96990 4663.29000 3967.08890 1960.08650    0.04980    2.58820    2.70030   22.17800
 11187.00000    4.38470    0.02920    0.04190   43.87060   80.15290   21.75250 3887.21800 3748.09910 1962.03050    0.04270    2.70590    2.78560   22.64260
 11187.50000    4.57600   -0.04910    0.05070   43.94430   80.14710   25.31540 2949.51150 2733.19780 1963.97450    0.03570    2.94120    2.83250   27.42510
 11188.00000    4.74280   -0.06740    0.05510   43.76330   80.14120   30.65880 2370.67190 2334.92380 1965.91850    0.02860    3.11760    2.84370   33.15950
 11188.50000    4.90280   -0.07440    0.05070   43.71520   80.13530   34.22180 2144.35300 2110.86060 1967.86240    0.02390    3.11360    2.84250   37.47870
 11189.00000    4.83860   -0.08150    0.04850   43.95180   80.12940   37.78480 2293.73050 2154.28520 1969.80640    0.02390    3.05880    2.84120   35.15290
 11189.50000    4.68530   -0.08090    0.04470   44.06540   80.12350   34.85620 2794.82760 2456.61450 1971.75040    0.02390    3.06410    2.84550   31.58820
