~Version ---------------------------------------------------
VERS.   2.0 : CWLS log ASCII Standard -VERSION 2.0
WRAP.    NO : One line per depth step
DLM . SPACE : Column Data Section Delimiter
~Well ------------------------------------------------------
STRT .FT              10800.0 : START DEPTH
STOP .FT              11348.0 : STOP DEPTH
STEP .FT                  0.5 : STEP
NULL .               -9999.25 : NULL VALUE
COMP .                        : COMPANY
WELL .                        : WELL
FLD  .                        : FIELD
LOC  .                        : LOCATION
PROV .                        : PROVINCE
CNTY .                        : COUNTY
STAT .                        : STATE
CTRY .                        : COUNTRY
SRVC .                        : SERVICE COMPANY
DATE .                        : DATE
UWI  .                        : UNIQUE WELL ID
API  .                        : API NUMBER
SLAT .WGS84 2.390879301679199 : SURFACE LATITUDE
SLON .WGS84    7.525782313053 : SURFACE LONGITUDE
DATUM.F               3216.78 : DEPTH DATUM ELEV
~Curve Information -----------------------------------------
DEPT.FT    : DEPTH
CALD.IN    : CALIPER FROM DENSITY LOG
DPHI.DEC   : DENSITY POROSITY
DRHO.G/C3  : DENSITY CORRECTION
DTCO.US/F  : DELTA TIME COMPRESSIONAL
DTSM.US/F  : DELTA TIME SHEAR
GRS .GAPI  : GAMMA RAY FROM SONIC LOG
LLD .OHMM  : LATEROLOG DEEP RESISTIVITY
LLS .OHMM  : LATEROLOG SHALLOW RESISTIVITY
MSFL.OHMM  : MICROSPHERICALLY FOCUSED LOG RES.
NPHI.DEC   : NEUTRON POROSITY
PEF .B/E   : PHOTOELECTRIC FACTOR
RHOB.G/C3  : BULK DENSITY
SGR .GAPI  : SMOOTHED GAMMA RAY
~Params ----------------------------------------------------
~Other -----------------------------------------------------
~ASCII -----------------------------------------------------
# ...
 10982.00000    4.70590   -0.07810    0.01580   43.31150   78.82350   23.46590 5051.22660 6029.35840 1815.61190    0.01660    3.13880    2.84600   27.43660
 10982.50000    4.70750   -0.08010    0.01610   43.31240   78.82350   21.11430 5481.50490 7367.42870 2000.00000    0.01550    3.13820    2.82940   27.80120
 10983.00000    4.67580   -0.07800    0.01570   43.31330   78.82350   18.91560 5948.43550 8733.55180 2000.00000    0.01550    3.13760    2.82940   25.20470
 10983.50000    4.58820   -0.06770    0.01570   43.31410   78.82350   17.88800 6652.01560 9602.91410 2000.00000    0.01550    3.13710    2.83250   23.42030
 10984.00000    4.58820   -0.06120    0.01270   43.57890   78.82350   16.95640 8325.81150 10275.79690 1501.32650    0.01610    3.13640    2.83730   22.67840
 10984.50000    4.58820   -0.06650    0.00960   44.01960   78.82350   16.29810 9875.21580 10701.31350    8.82100    0.01670    3.13580    2.84220   21.88130
 10985.00000    4.62600   -0.07180    0.00380   44.02050   78.82350   15.84440 10833.22560 9861.53610  164.79880    0.01730    3.13520    2.84710   21.04030
 10985.50000    4.68680   -0.07530    0.00970   44.02140   79.41180   14.94560 9192.24510 8041.98340 1267.64270    0.01730    3.13460    2.85900   21.16840
 10986.00000    4.70590   -0.07890    0.01440   44.02230   80.00000   14.49200 7511.23680 5571.66700 1999.63750    0.01730    3.07530    2.86360   21.76430
 10986.50000    4.74970   -0.08240    0.01930   44.06330   80.00000   15.37360 5993.89160 3635.72680 1998.55820    0.01910    3.07470    2.86470   23.16430
 10987.00000    4.81040   -0.08490    0.02240   44.37600   80.00000   16.26240 3122.13720 2638.33250 1997.47900    0.01980    3.01530    2.86310   23.20000
 10987.50000    4.82350   -0.08870    0.02720   44.61140   80.00000   18.98930 3414.20650 3164.91140 1996.39980    0.02090    2.95590    2.85820   23.29820
 10988.00000    4.82350   -0.08950    0.02350   44.72960   80.00000   21.20560 4289.34470 3866.14180 1995.32060    0.02020    2.89650    2.85290   23.34490
 10988.50000    4.82350   -0.08550    0.02130   44.61500   80.00000   22.46090 4718.57710 4568.76900 1994.24130    0.01970    2.95480    2.85350   25.24990
 10989.00000    4.82350   -0.08170    0.02120   44.20560   80.00000   19.50180 5051.22660 5158.05270 1993.16210    0.01970    2.96810    2.85410   25.04060
 10989.50000    4.76470   -0.07680    0.01970   43.75610   80.00000   17.29630 5334.15330 5462.53120 1992.08290    0.01980    3.05060    2.85560   23.44240
 10990.00000    4.70590   -0.07400    0.02120   43.32570   80.00000   17.50650 5481.50490 5752.36620 1991.00370    0.01950    3.07070    2.85510   21.29930
 10990.50000    4.58820   -0.08000    0.02110   43.32650   80.00000   19.14280 5632.92720 5792.79830 1989.92430    0.02040    3.07000    2.84640   21.33570
 10991.00000    4.52320   -0.08470    0.02700   43.50340   80.00000   20.63340 5611.15430 5636.15330 1988.84510    0.02280    3.06940    2.82940   21.94800
 10991.50000    4.53960   -0.07530    0.03290   43.94410   80.00000   21.51500 4977.31150 4787.40670 1987.76590    0.02690    3.06880    2.82540   23.23090
 10992.00000    4.58820   -0.06940    0.04160   44.29690   80.00000   21.95150 4060.23680 4066.47440 1986.68660    0.03160    3.06810    2.82650   24.70090
 10992.50000    4.58820   -0.06120    0.04470   44.38570   80.00000   23.27830 3500.83180 3271.42330 1985.60740    0.03450    3.06760    2.83130   26.17910
 10993.00000    4.58820   -0.06410    0.05040   44.65050   80.00000   23.26970 2746.60960 2297.51610 1984.52820    0.03340    3.06710    2.83530   27.63670
 10993.50000    4.60130   -0.07060    0.05210   44.91540   80.00000   25.04870 2121.34690 1848.32060 1983.44900    0.03160    3.06640    2.82940   29.13170
 10994.00000    4.61760   -0.07530    0.05330   44.38840   80.04540   26.88510 1867.61130 1584.44250 1982.36980    0.02930    3.06590    2.80130   29.73090
 10994.50000    4.58820   -0.06820    0.05030   43.77340   81.35820   28.58520 1757.20620 1421.53760 1981.29050    0.02810    3.06530    2.78680   28.52320
 10995.00000    4.52940   -0.05610    0.04170   43.51030   82.35290   28.36940 1442.17570 1058.81910 1980.21130    0.02930    3.06470    2.77460   27.07760
 10995.50000    4.58820   -0.04180    0.02740   44.12700   82.71820   26.78770 1036.03800  922.75260 1979.13210    0.03180    3.06410    2.76320   25.67970
 10996.00000    4.70590   -0.03340    0.01490   45.27160   83.75660   30.14010  971.45020 1024.71480 1978.05290    0.03490    3.06350    2.75880   26.97340
 10996.50000    4.82350   -0.02470    0.01490   45.80030   84.70590   33.82170 1120.28970 1168.59690 1976.97360    0.03840    3.05670    2.79120   30.39220
 10997.00000    4.97060   -0.02770    0.02080   45.80120   84.70590   38.64540 1374.99870 1332.15370 1975.89440    0.04180    3.02480    2.80190   33.96810
 10997.50000    5.11760   -0.04230    0.02660   45.80210   84.70590   44.10820 1251.07130 1071.69960 1974.81520    0.04410    3.00300    2.81240   37.56260
 10998.00000    5.20590   -0.05740    0.03830   45.80290   84.70590   42.76430 1075.63590  910.31310 1973.73600    0.04240    3.03190    2.82650   39.08500
 10998.50000    4.95920   -0.06810    0.05600   45.80380   84.70590   35.63400  949.41190  861.99740 1769.51490    0.04110    3.03120    2.84230   33.53110
 10999.00000    4.77700   -0.07840    0.06620   45.80470   84.70590   28.50380  929.59100 1000.72990 1502.98000    0.03930    3.03060    2.84710   28.28240
 10999.50000    4.60980   -0.08470    0.07360   45.83030   84.70590   24.48930 1144.00110 1130.65000 1481.08400    0.03880    3.02990    2.84260   22.90800
 11000.00000    4.58820   -0.08230    0.08240   45.92380   84.70590   21.36500 1293.24520 1294.90950 1972.97500    0.04120    3.05880    2.82990   23.09880
 11000.50000    4.58820   -0.07760    0.07940   45.77340   84.70590   20.91130 1442.17570 1488.03210 1972.97500    0.04350    3.05820    2.82070   24.84260
 11001.00000    4.58820   -0.07290    0.07270   45.34020   84.70590   21.34780 1675.35520 1751.03380 1972.97500    0.04410    3.05760    2.81580   26.71180
 11001.50000    4.58820   -0.06640    0.06060   45.10530   84.70590   20.92740 1843.00720 1768.78470 1972.97500    0.04360    3.05700    2.81180   28.47050
 11002.00000    4.55880   -0.06110    0.06020   45.15420   84.70590   19.13810 1698.33780 1526.05220 1972.97500    0.04300    3.11530    2.81180   27.73030
 11002.50000    4.51980   -0.05820    0.05670   45.54710   84.70590   17.75960 1520.40720 1258.24930 1877.95240    0.04120    3.17350    2.81180   24.35510
 11003.00000    4.58820   -0.05870    0.04870   45.81190   84.11760   16.65610 1128.52000 1383.69560   39.75620    0.04120    3.26280    2.81180   23.30290
 11003.50000    4.58820   -0.05890    0.04130   45.81270   84.11760   15.97720 1414.38040 1652.00120 2000.00000    0.04130    3.29000    2.81110   23.61780
 11004.00000    4.58820   -0.05990    0.03430   46.16540   83.97940   16.95350 1898.03060 1964.45830 2000.00000    0.04400    3.17180    2.80920   24.38120
 11004.50000    4.67650   -0.05820    0.01860   45.99030   83.80170   19.52500 2197.35790 2279.53440 2000.00000    0.04600    3.05350    2.80470   26.49930
 11005.00000    4.70640   -0.05340    0.02030   45.81520   83.62390   20.50450 3027.16500 4270.82030 2000.00000    0.04330    3.09160    2.78820   27.77030
 11005.50000    4.82350   -0.04990    0.02030   45.80870   83.44610   20.84730 4662.00100 5306.65330 2000.00000    0.04050    3.14070    2.78820   25.88340
 11006.00000    4.89140   -0.04340    0.02170   45.62760   83.26830   19.50450 5716.46040 5914.69530 2000.00000    0.03810    3.14000    2.79140   22.30250
 11006.50000    4.96080   -0.04570    0.02460   45.46590   83.09050   19.49780 6723.71390 6592.40920 2000.00000    0.03520    3.11000    2.79620   22.63780
 11007.00000    5.05880   -0.04960    0.02610   45.46690   82.91280   20.76940 7527.06050 7248.63280 2000.00000    0.03400    3.09250    2.80130   23.20120
 11007.50000    5.15750   -0.05340    0.03040   45.31660   82.73500   21.70100 8336.54490 7756.55320 2000.00000    0.03530    3.04990    2.80740   24.61150
