~Version ---------------------------------------------------
VERS.   2.0 : CWLS log ASCII Standard -VERSION 2.0
WRAP.    NO : One line per depth step
DLM . SPACE : Column Data Section Delimiter
~Well ------------------------------------------------------
STRT .FT              10800.0 : START DEPTH
STOP .FT              11348.0 : STOP DEPTH
STEP .FT                  0.5 : STEP
NULL .               -9999.25 : NULL VALUE
COMP .                        : COMPANY
WELL .                        : WELL
FLD  .                        : FIELD
LOC  .                        : LOCATION
PROV .                        : PROVINCE
CNTY .                        : COUNTY
STAT .                        : STATE
CTRY .                        : COUNTRY
SRVC .                        : SERVICE COMPANY
DATE .                        : DATE
UWI  .                        : UNIQUE WELL ID
API  .                        : API NUMBER
SLAT .WGS84 2.390879301679199 : SURFACE LATITUDE
SLON .WGS84    7.525782313053 : SURFACE LONGITUDE
DATUM.F               3216.78 : DEPTH DATUM ELEV
~Curve Information -----------------------------------------
DEPT.FT    : DEPTH
CALD.IN    : CALIPER FROM DENSITY LOG
DPHI.DEC   : DENSITY POROSITY
DRHO.G/C3  : DENSITY CORRECTION
DTCO.US/F  : DELTA TIME COMPRESSIONAL
DTSM.US/F  : DELTA TIME SHEAR
GRS .GAPI  : GAMMA RAY FROM SONIC LOG
LLD .OHMM  : LATEROLOG DEEP RESISTIVITY
LLS .OHMM  : LATEROLOG SHALLOW RESISTIVITY
MSFL.OHMM  : MICROSPHERICALLY FOCUSED LOG RES.
NPHI.DEC   : NEUTRON POROSITY
PEF .B/E   : PHOTOELECTRIC FACTOR
RHOB.G/C3  : BULK DENSITY
SGR .GAPI  : SMOOTHED GAMMA RAY
~Params ----------------------------------------------------
~Other -----------------------------------------------------
~ASCII -----------------------------------------------------
# ...
 11190.00000    4.48850   -0.07850    0.04070   43.71250   80.11660   32.44790 3139.73360 2965.92260 1973.69430    0.02400    3.15390    2.84710   30.20260
 11190.50000    4.31090   -0.07440    0.04010   43.71160   80.11090   33.56310 3049.37160 2915.56490 1856.05430    0.02450    3.17650    2.85090   30.31360
 11191.00000    4.42760   -0.08040    0.04610   43.79870   80.10520   34.51290 2689.50170 2496.95390   64.00290    0.02400    3.17650    2.86020   34.13240
 11191.50000    4.66190   -0.08760    0.05050   44.23780   80.09950   35.73990 2205.42850 2116.56570 2000.00000    0.02320    3.17650    2.87210   39.75150
 11192.00000    4.83750   -0.09500    0.04610   44.58880   80.09390   36.01780 2302.35010 2264.07010 2000.00000    0.02260    3.17650    2.87060   45.73920
 11192.50000    5.01310   -0.09360    0.04460   44.93980   80.08820   36.69310 2916.88620 2931.54220 1998.91360    0.02220    3.17650    2.86380   47.16150
 11193.00000    5.01230   -0.08550    0.03860   45.11500   80.08240   37.35760 3902.83060 3593.63550 1981.53060    0.02340    3.17650    2.85390   44.96030
 11193.50000    4.80550   -0.07980    0.03860   44.40320   80.07650   37.80530 5637.85890 4060.44650 1278.54100    0.02400    3.17650    2.84260   43.08540
 11194.00000    4.65760   -0.07720    0.03860   43.68160   80.07060   39.58790 6729.95650 4286.61910  172.78840    0.02400    3.17650    2.83100   42.58880
 11194.50000    4.71560   -0.07690    0.03560   43.35280   80.06470   41.37040 7106.37600 4404.09520 2000.00000    0.02400    3.14710    2.82210   41.39020
 11195.00000    4.64640   -0.07550    0.03260   43.73340   80.05880   36.03130 7711.20510 4058.82930 2000.00000    0.02400    3.05880    2.80950   35.67260
 11195.50000    4.52490   -0.06910    0.03080   44.13090   80.05290   30.69220 8367.54490 3265.48630 2000.00000    0.02400    3.00000    2.80150   28.57870
 11196.00000    4.41880   -0.05970    0.02290   44.40600   80.04710   26.24340 7104.95850 2627.21070 2000.00000    0.02400    2.85290    2.80040   21.33160
 11196.50000    4.45500   -0.05240    0.01490   44.40500   80.04120   20.35150 6199.56400 2323.81180 2000.00000    0.02460    2.73530    2.80370   18.86750
 11197.00000    4.48510   -0.05060    0.02160   44.40410   80.03410   16.26880 5625.62700 2231.42140 2000.00000    0.02470    2.67650    2.80660   18.88510
 11197.50000    4.53400   -0.05770    0.02860   44.43980   80.02840   14.52590 5014.33790 2231.11840 2000.00000    0.02470    2.70590    2.81620   18.75820
 11198.00000    4.53290   -0.06240    0.03660   44.57830   80.02280   12.89890 3556.83250 2230.81570 2000.00000    0.02470    2.77150    2.80890   18.53030
 11198.50000    4.56090   -0.06000    0.04560   44.44390   80.01710   12.90130 2070.43920 2188.90330 2000.00000    0.02540    2.83350    2.78710   18.91710
 11199.00000    4.60620   -0.05410    0.05160   44.40060   80.01140   12.90360 1280.09690 1952.64420 2000.00000    0.02670    2.91180    2.75390   19.97280
 11199.50000    4.64780   -0.04350    0.05880   44.57550   80.00570   13.79600  681.70810 1295.08140 2000.00000    0.03100    2.91180    2.72350   21.16480
 11200.00000    4.66480   -0.02990    0.06180   44.75060   80.00000   14.68840  519.07060  588.92030    7.63750    0.03670    2.92160    2.72350   22.41380
 11200.50000    4.71880   -0.01730    0.05580   44.74970   80.03220   16.08340  578.80830  514.04430  146.40270    0.04020    2.94120    2.74050   23.84430
 11201.00000    4.77280   -0.01800    0.05580   44.83680   80.57690   18.25410 1054.04940  565.92290 1040.94040    0.04150    2.96730    2.76120   23.95840
 11201.50000    4.82140   -0.03090    0.05290   45.10000   80.69160   20.92690 2027.00920  800.54790 2000.00000    0.04020    3.05880    2.77060   24.20240
 11202.00000    4.82870   -0.03600    0.04990   45.80290   81.15370   23.59970 2854.12230 2288.47510 2000.00000    0.03710    3.05880    2.77400   31.77620
 11202.50000    4.88880   -0.03100    0.04990   45.37560   80.94700   25.38220 4174.04000 4764.47410 2000.00000    0.03410    3.07040    2.78500   34.02370
 11203.00000    4.91940   -0.03340    0.04990   44.76150   80.31240   26.71970 9199.23830 7198.45360 2000.00000    0.03000    3.05880    2.80590   35.48050
 11203.50000    4.93600   -0.04100    0.04990   44.72810   79.95880   28.50230 9527.06930 5308.62210 2000.00000    0.03120    2.94120    2.80920   34.41130
 11204.00000    4.96760   -0.05110    0.04990   45.11680   79.95290   29.86490 6633.45900 3617.62920 2000.00000    0.03290    2.82350    2.81110   35.32940
 11204.50000    4.93440   -0.05640    0.05870   45.11850   79.94600   29.59430 5051.22660 2907.38870 2000.00000    0.03470    2.70590    2.81410   33.97810
 11205.00000    4.90430   -0.05760    0.06460   44.41640   79.94030   26.14340 4783.30660 2680.99950 2000.00000    0.03650    2.78070    2.82160   29.36870
 11205.50000    4.81540   -0.06490    0.07340   43.87890   79.93460   22.66730 4468.30080 2467.29960 2000.00000    0.03890    3.08040    2.83610   24.97720
 11206.00000    4.69700   -0.07260    0.09690   43.60470   79.92890   16.73700 4289.34470 2320.73830 2000.00000    0.04160    3.30840    2.85290   20.59450
 11206.50000    4.78450   -0.08750    0.10280   43.71790   79.92320   13.38170 3896.61500 2252.13010 2000.00000    0.04060    3.32160    2.85700   16.35370
 11207.00000    4.87200   -0.08650    0.10860   43.85520   79.91750   14.71960 3642.37820 2260.59620 2000.00000    0.03690    3.26260    2.86110   15.63010
 11207.50000    4.96200   -0.08220    0.10530   44.10280   79.91180   15.38410 4098.23680 2366.65650 2000.00000    0.03320    3.20370    2.86570   19.58660
 11208.00000    5.05250   -0.08510    0.10240   44.33870   79.90590   18.67070 4494.57370 2528.39990 2000.00000    0.02940    3.20350    2.87060   25.10390
 11208.50000    5.16400   -0.09120    0.09680   44.07680   79.90000   23.62870 4800.96290 2716.15140 2000.00000    0.03030    3.20340    2.86630   28.78970
 11209.00000    5.14970   -0.09280    0.08990   44.07860   79.89410   25.41130 5051.22660 2988.75420 2000.00000    0.03410    3.08560    2.86250   29.88830
 11209.50000    4.96000   -0.08570    0.08250   44.08070   79.88820   25.41350 5289.21970 3315.15800 2000.00000    0.03820    3.02300    2.85560   30.15910
 11210.00000    4.79800   -0.08280    0.06510   44.25840   79.88230   23.63520 5398.06490 3574.36300 2000.00000    0.04120    2.96370    2.85250   27.34260
 11210.50000    4.72360   -0.08100    0.05740   44.43600   79.87650   21.41180 5196.08500 2988.96510 2000.00000    0.04350    2.87320    2.84580   24.45990
 11211.00000    4.68970   -0.08100    0.05410   44.52570   79.87060   18.74340 3732.41110 2470.64140 2000.00000    0.04590    2.84970    2.83690   21.51260
 11211.50000    4.65540   -0.07160    0.04970   45.14320   80.03340   16.52000 1543.84590 2008.11470 2000.00000    0.04820    2.94820    2.82840   20.91530
 11212.00000    4.59990   -0.06630    0.04960   46.02470   80.44710   16.04130 1293.24520 1286.45040 2000.00000    0.05060    3.02150    2.82460   20.26700
 11212.50000    4.56970   -0.06920    0.04670   46.64220   81.61680   15.12300 1442.17570 1278.97270 1754.74680    0.05290    3.05510    2.82230   18.87350
 11213.00000    4.56900   -0.06920    0.04230   47.28400   82.20000   14.02010 2027.43600 1641.93870  432.96110    0.05480    3.02560    2.81540   18.51180
 11213.50000    4.56830   -0.06590    0.03180   47.97710   82.19370   12.27530 3321.18920 2692.79390  772.16470    0.05560    3.02540    2.81010   18.45200
 11214.00000    4.56760   -0.05500    0.01960   47.96700   80.42330   11.18950 4818.88230 2946.10210 2000.00000    0.05650    3.02530    2.80910   18.74550
 11214.50000    4.56690   -0.05150    0.01430   47.92210   79.82940   10.82960 4982.87160 3064.89990 2000.00000    0.05330    3.02510    2.81140   16.53950
 11215.00000    4.56620   -0.05770    0.01900   47.61850   77.47060    9.85910 2453.50760 2649.19900 2000.00000    0.04960    3.02500    2.81280   14.22650
 11215.50000    4.65710   -0.06010    0.01820   47.26830   77.32300   10.54790 1211.24340 1450.98610 2000.00000    0.04620    3.02480    2.81280   12.78830
