~Version ---------------------------------------------------
VERS.   2.0 : CWLS log ASCII Standard -VERSION 2.0
WRAP.    NO : One line per depth step
DLM . SPACE : Column Data Section Delimiter
~Well ------------------------------------------------------
STRT .FT              10800.0 : START DEPTH
STOP .FT              11348.0 : STOP DEPTH
STEP .FT                  0.5 : STEP
NULL .               -9999.25 : NULL VALUE
COMP .                        : COMPANY
WELL .                        : WELL
FLD  .                        : FIELD
LOC  .                        : LOCATION
PROV .                        : PROVINCE
CNTY .                        : COUNTY
STAT .                        : STATE
CTRY .                        : COUNTRY
SRVC .                        : SERVICE COMPANY
DATE .                        : DATE
UWI  .                        : UNIQUE WELL ID
API  .                        : API NUMBER
SLAT .WGS84 2.390879301679199 : SURFACE LATITUDE
SLON .WGS84    7.525782313053 : SURFACE LONGITUDE
DATUM.F               3216.78 : DEPTH DATUM ELEV
~Curve Information -----------------------------------------
DEPT.FT    : DEPTH
CALD.IN    : CALIPER FROM DENSITY LOG
DPHI.DEC   : DENSITY POROSITY
DRHO.G/C3  : DENSITY CORRECTION
DTCO.US/F  : DELTA TIME COMPRESSIONAL
DTSM.US/F  : DELTA TIME SHEAR
GRS .GAPI  : GAMMA RAY FROM SONIC LOG
LLD .OHMM  : LATEROLOG DEEP RESISTIVITY
LLS .OHMM  : LATEROLOG SHALLOW RESISTIVITY
MSFL.OHMM  : MICROSPHERICALLY FOCUSED LOG RES.
NPHI.DEC   : NEUTRON POROSITY
PEF .B/E   : PHOTOELECTRIC FACTOR
RHOB.G/C3  : BULK DENSITY
SGR .GAPI  : SMOOTHED GAMMA RAY
~Params ----------------------------------------------------
~Other -----------------------------------------------------
~ASCII -----------------------------------------------------
# ...
 11086.00000    4.82350   -0.05450    0.00960   46.11880   85.71760   27.33830 1983.08460 1560.26970 1831.66650    0.05500    3.28110    2.79520   29.19010
 11086.50000    4.77980   -0.04650    0.01550   45.95860   85.72350   26.28050 2000.00000 1851.54940 1976.60840    0.05250    3.25120    2.78710   29.42150
 11087.00000    4.76470   -0.04040    0.02150   45.95950   85.72940   24.44340 1986.08410 2238.96610 1976.46750    0.04910    3.19180    2.77950   25.16200
 11087.50000    4.76470   -0.03470    0.03330   46.36340   85.73530   22.29160 1677.64790 2433.32280 1976.33310    0.05300    3.19120    2.76910   23.91940
 11088.00000    4.79410   -0.03230    0.03980   46.90450   85.74120   20.18990 1098.18360 1544.31730 1976.19860    0.06050    3.19060    2.76910   23.94290
 11088.50000    4.82350   -0.03420    0.04600   47.60880   86.40120   18.40410  760.17160  557.16500    9.03790    0.06750    3.22440    2.77430   24.31630
 11089.00000    5.02940   -0.03940    0.04230   48.24970   88.10700   24.96010  411.75560  341.88210 1975.90320    0.07150    3.25510    2.78210   23.63990
 11089.50000    5.17650   -0.04410    0.02850   48.66420   88.31650   33.79470  313.54240  317.45420 1030.62000    0.06110    3.28590    2.79130   31.87800
 11090.00000    5.29410   -0.04820    0.01880   48.07640   86.35380   45.56090  309.29940  310.30650   46.23740    0.05980    3.30600    2.80150   48.80080
 11090.50000    5.41180   -0.05120    0.01460   47.46140   85.77060   60.65980  313.54240  312.21360 2000.00000    0.06160    3.30530    2.80000   63.37350
 11091.00000    5.16110   -0.05760    0.01010   47.37430   85.77710   63.02400  322.84980  316.40650 2000.00000    0.06210    3.30470    2.79590   64.02620
 11091.50000    4.71370   -0.05590    0.00930   47.37510   85.78280   55.75060  347.00740  334.00900 2000.00000    0.06040    3.30410    2.79560   62.90140
 11092.00000    4.32480   -0.05120    0.00930   47.37600   85.78850   41.50080  416.01750  409.41890 2000.00000    0.05750    3.21520    2.79960   53.22270
 11092.50000    4.16880   -0.05360    0.00930   47.02490   85.79430   30.81180  705.91200  632.22610  399.69730    0.05510    3.18520    2.80560   44.23280
 11093.00000    4.00000   -0.05850    0.00920   46.84200   85.80000   27.24450 1403.67700 1487.53770 1146.03110    0.05280    3.24350    2.81180   34.90190
 11093.50000    4.19750   -0.06090    0.00920   46.55700   85.78240   25.45760 2396.79150 2057.86790 1895.74060    0.04930    3.30170    2.81650   25.70990
 11094.00000    4.31010   -0.05930    0.00480   46.25990   83.99550   27.24570 2487.16480 2595.36470 2000.00000    0.04690    3.30110    2.81210   27.74030
 11094.50000    4.53920   -0.04960    0.00330   45.70880   82.72060   30.89290 2380.09720 2457.58570 2000.00000    0.04810    3.35940    2.79680   31.99570
 11095.00000    4.67650   -0.04320    0.00770   45.09850   81.11710   32.55970 2195.02200 2216.60790 2000.00000    0.05280    3.35880    2.78560   35.45570
 11095.50000    4.82350   -0.04280    0.00920   45.23010   81.12350   31.35620 1893.91880 1614.30510 1794.85340    0.05020    3.38770    2.79480   36.12800
 11096.00000    4.94120   -0.05030    0.01250   45.74270   80.54040   30.76630 1905.08520 1202.71580 1974.05350    0.04550    3.38280    2.80150   37.35430
 11096.50000    5.14710   -0.05720    0.01490   45.97620   79.95790   33.67980 2122.37400 1163.24660 1973.91460    0.04330    3.35710    2.80910   41.54690
 11097.00000    5.41180   -0.06110    0.01490   45.71340   79.96470   36.09460 2200.13890 1437.10390 1973.78040    0.04210    3.36460    2.81180   46.32890
 11097.50000    5.85290   -0.06050    0.01490   45.62610   79.97060   33.61280 3952.64650 1846.26380 1973.64620    0.04170    3.34590    2.80950   46.31080
 11098.00000    5.58290   -0.05700    0.01070   45.36320   79.38820   31.47890 5077.83060 3894.56740 1973.51200    0.04280    3.26070    2.80470   38.43600
 11098.50000    5.37130   -0.05350    0.00460   45.27600   79.39410   28.72650 5829.06010 5543.26560 1973.37770    0.04490    3.13660    2.79980   30.79820
 11099.00000    5.16480   -0.04880    0.00460   44.92500   79.40000   25.53440 6560.19730 6095.05470 1556.97950    0.04740    3.02850    2.79410   23.77400
 11099.50000    5.05100   -0.05350    0.00880   44.57390   79.40700   21.81550 7397.36960 6701.77340 1311.90650    0.05230    3.00650    2.79310   21.51470
 11100.00000    4.94120   -0.05520    0.00880   44.31090   80.00100   19.58350 3743.43630 7469.66940 2000.00000    0.05530    3.05880    2.79340   19.45000
 11100.50000    4.90000   -0.05280    0.00880   44.22370   80.59490   17.35150 2319.52340 3257.88990 2000.00000    0.06000    3.08760    2.79510   13.75380
 11101.00000    4.88240   -0.04700    0.00730   44.23640   81.18890   16.00970 1907.85680 2253.94800 2000.00000    0.06080    3.08700    2.79810   14.13780
 11101.50000    4.88240   -0.05150    0.00580   44.93040   83.54760   14.66790 1280.66890 1273.52880 2000.00000    0.06120    3.05700    2.80440   14.65360
 11102.00000    4.82350   -0.05870    0.00580   45.73090   83.53680   12.47180 1191.41330 1041.39040 2000.00000    0.05890    3.05640    2.81370   15.92230
 11102.50000    4.76470   -0.06510    0.00570   45.98680   83.49910   13.36460 1824.70350 1586.53120 1602.38770    0.05530    3.05590    2.82160   15.20410
 11103.00000    4.70590   -0.06880    0.00280   45.79120   83.49340   14.25700 1945.46080 1944.84350 1999.18400    0.05300    3.05530    2.81930   14.86910
 11103.50000    4.58820   -0.06280    0.00570   45.63670   83.48770   14.25910 1775.16800 1703.90910 2000.00000    0.05680    3.05470    2.81180   13.24780
 11104.00000    4.58120   -0.05810    0.00860   45.82990   83.48200   12.48090 1331.18070 1255.06370 2000.00000    0.06540    3.05410    2.81190   13.27230
 11104.50000    4.58030   -0.05800    0.00860   45.99050   83.47630   10.70260 1075.18550 1059.88050  142.23940    0.07370    3.05350    2.81320   13.19330
 11105.00000    4.57940   -0.05800    0.01150   45.99130   83.47060    9.36940 1121.36790 1149.72050    0.71430    0.07300    3.06230    2.81640   13.27290
 11105.50000    4.57840   -0.05800    0.01290   45.72830   82.82650    8.87290 1390.41630 1386.57070  419.58480    0.06620    3.12240    2.82090   13.05280
 11106.00000    4.57750   -0.06040    0.01440   45.71310   81.69410    9.14500 3353.71440 1765.96740 1972.97500    0.05920    3.16940    2.82460   15.10660
 11106.50000    4.63550   -0.06390    0.01110   45.99390   82.27710   12.82930 6449.42330 5760.08250 2000.00000    0.05440    3.16880    2.82590   19.05940
 11107.00000    4.69350   -0.06870    0.01210   45.99470   82.27060   16.51250 7702.04350 7979.28370 2000.00000    0.04930    3.22710    2.82350   22.74900
 11107.50000    4.72200   -0.06970    0.01710   45.01720   81.67650   18.70970 7560.11910 7254.51510 2000.00000    0.04260    3.28520    2.82350   26.53130
 11108.00000    4.80940   -0.06690    0.02410   44.58880   81.08230   22.08980 6809.27730 6777.22900 2000.00000    0.03660    3.10510    2.82740   29.73270
 11108.50000    4.80850   -0.06260    0.03440   44.58970   81.07650   24.92220 6775.13620 6594.70120 2000.00000    0.03660    3.04310    2.83790   31.90970
 11109.00000    4.80760   -0.06570    0.04430   44.55020   81.07060   26.74630 6447.23050 6593.82520 2000.00000    0.03900    2.94120    2.84840   31.55280
 11109.50000    4.80680   -0.07210    0.05280   44.13460   81.06370   26.74850 6446.79100 6503.99410 2000.00000    0.03900    2.94120    2.85150   30.49400
 11110.00000    4.90870   -0.08030    0.06410   43.29660   81.05800   27.64130 6417.27440 6592.10450    5.45480    0.03900    2.94120    2.84710   28.94310
 11110.50000    5.12560   -0.08330    0.07290   43.09870   81.05230   30.31410 5979.69630 5753.96830  863.08400    0.03720    2.94120    2.84250   30.52680
 11111.00000    5.30810   -0.07070    0.06700   44.20340   81.63480   33.87710 5433.00000 5154.15670 1917.90530    0.03670    2.94120    2.83070   33.60660
 11111.50000    5.56860   -0.05940    0.05520   45.08240   82.21740   37.44010 4360.93210 4548.81490 2000.00000    0.03900    2.94120    2.81370   38.39110
