~Version ---------------------------------------------------
VERS.   2.0 : CWLS log ASCII Standard -VERSION 2.0
WRAP.    NO : One line per depth step
DLM . SPACE : Column Data Section Delimiter
~Well ------------------------------------------------------
STRT .FT              10800.0 : START DEPTH
STOP .FT              11348.0 : STOP DEPTH
STEP .FT                  0.5 : STEP
NULL .               -9999.25 : NULL VALUE
COMP .                        : COMPANY
WELL .                        : WELL
FLD  .                        : FIELD
LOC  .                        : LOCATION
PROV .                        : PROVINCE
CNTY .                        : COUNTY
STAT .                        : STATE
CTRY .                        : COUNTRY
SRVC .                        : SERVICE COMPANY
DATE .                        : DATE
UWI  .                        : UNIQUE WELL ID
API  .                        : API NUMBER
SLAT .WGS84 2.390879301679199 : SURFACE LATITUDE
SLON .WGS84    7.525782313053 : SURFACE LONGITUDE
DATUM.F               3216.78 : DEPTH DATUM ELEV
~Curve Information -----------------------------------------
DEPT.FT    : DEPTH
CALD.IN    : CALIPER FROM DENSITY LOG
DPHI.DEC   : DENSITY POROSITY
DRHO.G/C3  : DENSITY CORRECTION
DTCO.US/F  : DELTA TIME COMPRESSIONAL
DTSM.US/F  : DELTA TIME SHEAR
GRS .GAPI  : GAMMA RAY FROM SONIC LOG
LLD .OHMM  : LATEROLOG DEEP RESISTIVITY
LLS .OHMM  : LATEROLOG SHALLOW RESISTIVITY
MSFL.OHMM  : MICROSPHERICALLY FOCUSED LOG RES.
NPHI.DEC   : NEUTRON POROSITY
PEF .B/E   : PHOTOELECTRIC FACTOR
RHOB.G/C3  : BULK DENSITY
SGR .GAPI  : SMOOTHED GAMMA RAY
~Params ----------------------------------------------------
~Other -----------------------------------------------------
~ASCII -----------------------------------------------------
# ...
 11008.00000    5.17650   -0.05640    0.03790   45.11670   82.55720   24.01100 7041.33300 5751.60790 2000.00000    0.03840    3.04930    2.81590   25.16120
 11008.50000    5.16190   -0.06170    0.05130   44.94240   82.45290   26.59270 4382.71240 3717.31130 2000.00000    0.04140    3.04880    2.82910   25.41500
 11009.00000    5.05880   -0.06810    0.06200   44.76660   82.45920   24.80450 2773.58720 3047.64060 2000.00000    0.04960    3.04820    2.84220   25.48200
 11009.50000    4.94120   -0.07520    0.07390   44.41570   84.81790   19.01170 1934.80360 2268.24050 2000.00000    0.05790    3.04760    2.84740   24.76360
 11010.00000    4.82350   -0.07990    0.08040   44.50450   84.82360   15.88950  775.15430  805.43030 2000.00000    0.06490    3.04700    2.83910   21.04320
 11010.50000    4.76470   -0.07280    0.08470   45.20920   84.82940   14.54760  613.30410  555.36930 2000.00000    0.07200    3.04650    2.82350   17.58290
 11011.00000    4.70590   -0.05740    0.05410   46.17780   84.83530   12.31560  483.57890  465.37160 2000.00000    0.06970    3.04590    2.80110   14.96980
 11011.50000    4.67650   -0.03980    0.04300   46.97040   84.84120   10.52870  466.00990  540.26970 2000.00000    0.06730    3.04530    2.78640   13.90090
 11012.00000    4.64710   -0.03960    0.04060   47.58710   84.84710    8.74180  563.29270  618.75930 2000.00000    0.06500    3.04470    2.78450   13.27340
 11012.50000    4.64820   -0.04280    0.05270   47.05230   84.97580    8.73520  603.00370  644.36940 2000.00000    0.06510    3.04410    2.79210   13.54360
 11013.00000    4.67970   -0.04570    0.07860   46.50430   85.44630    8.72850  672.44570  653.06030 2000.00000    0.06790    3.04350    2.80050   13.83450
 11013.50000    4.71110   -0.04930    0.11100   46.18200   84.86380    8.78800  672.44570  689.38460 2000.00000    0.07280    3.04290    2.81030   14.08010
 11014.00000    4.82350   -0.05410    0.12560   46.18300   84.66120   10.86020  710.11040  758.51310 2000.00000    0.07440    3.04240    2.81540   14.12070
 11014.50000    4.94120   -0.05910    0.12730   46.35980   83.46330   14.51450  751.07990  849.14710 1983.57070    0.07400    3.04180    2.81760   16.45140
 11015.00000    5.04070   -0.06570    0.09910   46.23900   82.52940   19.19730  840.96330  963.45950 1499.93260    0.06990    3.04110    2.81560   20.02760
 11015.50000    5.05880   -0.06040    0.07850   46.06700   82.53530   20.26900  941.42520 1117.03670 1978.70340    0.06380    3.04060    2.81180   23.54520
 11016.00000    5.08930   -0.05670    0.06510   45.83460   82.54120   17.59050 1068.90930 1226.94310 1995.67790    0.05810    3.03990    2.81180   24.05640
 11016.50000    5.17650   -0.05790    0.06080   45.83570   82.54820   17.79750 1327.27920 1344.86670 1995.51550    0.04980    3.03940    2.81410   26.01150
 11017.00000    5.17650   -0.05870    0.06030   45.83650   81.96570   20.78400 1598.56570 1635.35770  852.66360    0.04860    3.03880    2.81660   28.66750
 11017.50000    5.29410   -0.06010    0.05490   45.48550   81.38230   26.47120 2073.95920 1802.54300 1791.06020    0.04630    3.03820    2.82030   32.32150
 11018.00000    5.35290   -0.06080    0.05210   45.31040   80.21250   28.24510 2928.93990 3017.52320 1926.15030    0.04220    3.03760    2.82520   37.40790
 11018.50000    5.41180   -0.06340    0.04300   44.87130   80.21830   29.39800 3846.39310 3856.46970 1938.92710    0.03930    3.03710    2.82940   40.71300
 11019.00000    5.32960   -0.07040    0.03890   44.43230   80.81220   28.23210 4289.34470 4205.49800 1632.77720    0.03520    3.03650    2.79120   38.65550
 11019.50000    5.00000   -0.06810    0.04050   44.08120   82.58270   27.33540 4247.60500 4483.06980  924.43050    0.03220    3.03590    2.74520   33.41910
 11020.00000    4.70590   -0.05160    0.05490   43.81820   82.58840   26.43870 2722.95750 2124.29980 1969.47290    0.03220    3.03530    2.76940   30.47120
 11020.50000    4.70590   -0.01500    0.07230   44.13120   83.18240   25.54200  619.66110  668.33950 1975.00440    0.03250    2.90730    2.81030   29.53230
 11021.00000    4.70590   -0.02270    0.08990   44.43580   83.77650   24.64530  364.23780  373.89890 1980.53590    0.03950    2.85780    2.82270   27.40930
 11021.50000    4.70590   -0.04630    0.09580   44.66090   84.37060   23.29090  309.29940  292.65540 1986.06740    0.04400    2.91590    2.80450   28.06910
 11022.00000    4.71590   -0.08460    0.09280   45.26100   84.96470   22.85160  401.57950  377.88240 1991.59900    0.03960    3.01900    2.67940   28.65920
 11022.50000    4.87140   -0.07040    0.08990   45.75790   84.97060   25.07580  411.75560  421.18070 1993.89840    0.03610    3.14990    2.62550   30.44680
 11023.00000    5.11480   -0.03600    0.08390   45.19350   84.97650   30.31030  411.75560  398.82620 1972.71690    0.03570    3.15950    2.61920   34.96750
 11023.50000    5.37450    0.03970    0.08980   44.84000   85.14240   33.85190  463.75380  388.05960    3.51820    0.04400    3.08990    2.65640   39.96680
 11024.00000    5.76470    0.08040    0.12930   45.14500   86.94120   35.28880  594.71440  432.52390 1603.52700    0.05680    3.03050    2.70100   43.99310
 11024.50000    5.94120    0.05020    0.18460   45.49780   87.34710   32.69060  716.41810  552.22860 2000.00000    0.05820    2.94170    2.74120   42.75600
 11025.00000    5.58820   -0.01130    0.19630   45.85050   87.10820   25.14430  825.61450  744.43430 1993.20940    0.05650    2.88230    2.76910   33.70720
 11025.50000    5.17650   -0.02920    0.20000   46.20330   86.18240   16.40900  956.94510  879.77000 1966.14450    0.05350    2.79350    2.78550   24.24960
 11026.00000    4.94120   -0.03680    0.16560   46.55610   85.29650   13.89610  994.57870  998.20470 1774.95940    0.05060    2.91060    2.79700   16.87360
 11026.50000    4.58820   -0.04090    0.14050   46.38100   85.01760   14.40790  802.74990  712.16970  669.82250    0.04650    2.97210    2.79260   17.17180
 11027.00000    4.58970   -0.05390    0.14240   46.46980   85.02460   15.66320  700.50090  627.89460    1.11200    0.04420    3.02710    2.75740   17.35970
 11027.50000    4.71130   -0.05280    0.17460   45.80590   85.03040   16.54570  636.77870  593.56520    1.68660    0.04010    3.02650    2.74120   18.97390
 11028.00000    4.82350   -0.02710    0.19990   44.94820   85.03610   15.20390  691.02150  805.93490 1994.64580    0.03950    3.01690    2.76150   21.26810
 11028.50000    4.70590   -0.01670    0.20000   44.80080   85.04190   14.75230 1098.18360 1085.06380 2000.00000    0.04210    2.99600    2.79250   19.69840
 11029.00000    4.74410   -0.01730    0.20000   44.82770   85.04760   15.63650 1452.26160 1623.60600 2000.00000    0.04880    3.02470    2.84010   19.44590
 11029.50000    4.82350   -0.03820    0.20000   45.04320   85.05340   17.40990 1461.95950 1525.03100 2000.00000    0.05360    3.02410    2.85940   20.09330
 11030.00000    4.82350   -0.06480    0.20000   45.30870   85.05910   18.29370 1293.24520 1387.74850 2000.00000    0.05360    3.02350    2.87610   20.70470
 11030.50000    4.82350   -0.10000    0.19530   46.03680   85.06480   19.18800 1261.94090 1278.87050 2000.00000    0.05370    3.02280    2.82650   21.25670
 11031.00000    4.81090   -0.08770    0.15410   46.25070   85.07060   20.09480 1191.62390 1116.20430 2000.00000    0.05410    3.02230    2.82060   22.09590
 11031.50000    4.82350   -0.06690    0.11290   45.77410   85.07650   20.49970 1074.36550 1028.63060  830.85580    0.05600    3.02170    2.81760   23.04870
 11032.00000    4.91180   -0.06090    0.08900   45.63500   85.08240   18.82120  959.71310  897.79380 1802.98470    0.05780    3.08000    2.81760   25.70450
 11032.50000    4.94120   -0.06090    0.07680   45.86370   85.00350   17.04840  822.35050  722.26290 1913.62960    0.05980    3.19700    2.81760   27.76830
 11033.00000    4.94580   -0.06030    0.06470   46.21650   83.80520   15.45080  578.85320  493.64840 1938.91360    0.05610    3.25530    2.81760   25.14610
 11033.50000    4.58820   -0.06090    0.05170   46.23300   82.74640   13.79600  459.17340  454.91840 1964.19750    0.05140    3.34290    2.82220   20.93240
