~Version ---------------------------------------------------
VERS.   2.0 : CWLS log ASCII Standard -VERSION 2.0
WRAP.    NO : One line per depth step
DLM . SPACE : Column Data Section Delimiter
~Well ------------------------------------------------------
STRT .FT              10800.0 : START DEPTH
STOP .FT              11348.0 : STOP DEPTH
STEP .FT                  0.5 : STEP
NULL .               -9999.25 : NULL VALUE
COMP .                        : COMPANY
WELL .                        : WELL
FLD  .                        : FIELD
LOC  .                        : LOCATION
PROV .                        : PROVINCE
CNTY .                        : COUNTY
STAT .                        : STATE
CTRY .                        : COUNTRY
SRVC .                        : SERVICE COMPANY
DATE .                        : DATE
UWI  .                        : UNIQUE WELL ID
API  .                        : API NUMBER
SLAT .WGS84 2.390879301679199 : SURFACE LATITUDE
SLON .WGS84    7.525782313053 : SURFACE LONGITUDE
DATUM.F               3216.78 : DEPTH DATUM ELEV
~Curve Information -----------------------------------------
DEPT.FT    : DEPTH
CALD.IN    : CALIPER FROM DENSITY LOG
DPHI.DEC   : DENSITY POROSITY
DRHO.G/C3  : DENSITY CORRECTION
DTCO.US/F  : DELTA TIME COMPRESSIONAL
DTSM.US/F  : DELTA TIME SHEAR
GRS .GAPI  : GAMMA RAY FROM SONIC LOG
LLD .OHMM  : LATEROLOG DEEP RESISTIVITY
LLS .OHMM  : LATEROLOG SHALLOW RESISTIVITY
MSFL.OHMM  : MICROSPHERICALLY FOCUSED LOG RES.
NPHI.DEC   : NEUTRON POROSITY
PEF .B/E   : PHOTOELECTRIC FACTOR
RHOB.G/C3  : BULK DENSITY
SGR .GAPI  : SMOOTHED GAMMA RAY
~Params ----------------------------------------------------
~Other -----------------------------------------------------
~ASCII -----------------------------------------------------
# ...
 11060.00000    4.82350    0.01230    0.02000   46.53350   87.17700    9.88130  128.31160  159.71480   11.27930    0.07080    3.20980    2.75000   17.82250
 11060.50000    4.70590    0.00160    0.03170   46.70490   87.77100    9.87460  116.07620  106.23140    8.92880    0.06970    3.13280    2.76800   16.15420
 11061.00000    4.58820   -0.01730    0.03760   46.26580   87.77680    9.70170  122.97450  115.65700 1430.93510    0.06970    3.10460    2.77600   13.56840
 11061.50000    4.41180   -0.03240    0.04050   45.65080   87.78250    9.41620  194.62370  193.64920 1870.98210    0.07090    3.07460    2.77350   10.74590
 11062.00000    4.48720   -0.04190    0.04050   45.47570   87.78830    9.62580  313.54240  322.43410  629.16450    0.07060    3.10350    2.76620   10.14430
 11062.50000    4.73060   -0.03630    0.04040   45.56460   87.77060    9.84790  739.73700  497.38540   18.40090    0.06720    3.10290    2.76860   11.40120
 11063.00000    4.91470   -0.03200    0.03450   45.91730   86.56940   13.40080 1128.52000  746.47630   12.91790    0.06330    3.10230    2.77570   12.13260
 11063.50000    5.09930   -0.03250    0.02860   46.27330   85.95920   17.84530 2659.23240 1001.58820 1852.39920    0.05850    3.10170    2.78550   16.56560
 11064.00000    5.31850   -0.04030    0.02270   46.62290   85.45830   24.07030 2773.58720 1162.78650 1982.66160    0.05420    3.10120    2.79470   26.67300
 11064.50000    5.46820   -0.04840    0.02610   46.57250   85.46470   32.96580 2461.02730 1227.50720 1955.73580    0.05050    3.10060    2.80000   36.87770
 11065.00000    5.59420   -0.05370    0.02920   46.16590   85.47060   36.52020  672.44570 1299.34840 1955.60500    0.05570    3.10000    2.79410   37.55810
 11065.50000    5.52940   -0.03830    0.03440   46.29850   85.47650   34.73330  512.05190 1042.42460 1426.93050    0.06760    3.09940    2.72820   46.55270
 11066.00000    5.29410    0.01060    0.03380   46.65760   85.70590   29.38550  571.02000  391.90410  333.22940    0.07840    3.08430    2.62210   44.92530
 11066.50000    5.05880    0.07240    0.02600   47.01640   86.07650   24.03780  871.13060  331.88270  637.42630    0.09100    2.94410    2.54150   36.09960
 11067.00000    4.82350    0.09720    0.01230   47.41820   85.49410   20.45430 1245.68530  438.74230 1982.31360    0.10040    2.79960    2.52930   27.36680
 11067.50000    4.70590    0.11130    0.00320   47.73390   85.50000   18.68320 1328.97010  569.30960 1989.12220    0.11220    2.67560    2.58390   20.57430
 11068.00000    4.55880    0.11600   -0.00110   48.21360   85.50590   20.72150 1072.13320  942.37270 1995.93080    0.09920    2.62590    2.62500   19.14010
 11068.50000    4.59160    0.02880    0.00330   47.33470   85.51280   24.10230  793.06050 1022.56730 2000.00000    0.08510    2.65900    2.67010   21.17250
 11069.00000    4.74390   -0.03150    0.01060   46.27990   85.51860   24.00440  567.80270  981.12550 2000.00000    0.06340    2.77170    2.71640   22.73170
 11069.50000    4.85290   -0.04310    0.02830   46.25080   85.52430   21.65960  412.39560  838.79210 2000.00000    0.05690    2.85940    2.75420   22.55180
 11070.00000    4.77350   -0.04890    0.06060   46.98540   87.88300   17.66310  275.96480  495.43230 2000.00000    0.05580    2.97650    2.78180   16.96110
 11070.50000    4.64980   -0.03800    0.08700   48.04200   87.88880   11.02810  159.31650  262.83160 2000.00000    0.05700    3.09350    2.78680   11.99530
 11071.00000    4.52940   -0.03630    0.10460   48.75300   89.65920    8.84420  133.49600  157.27720 1548.15910    0.05790    3.09290    2.79260    7.21640
 11071.50000    4.63970   -0.04710    0.10900   49.12720   90.25320    9.72770  163.03190  145.37650  731.89730    0.05950    3.09230    2.80320    8.89380
 11072.00000    4.85330   -0.05720    0.10320   49.45210   89.08250   12.54840  223.03200  203.66680 1980.51380    0.05570    2.97410    2.80950   11.36580
 11072.50000    5.02150   -0.05880    0.07550   48.68540   87.91170   16.83490  363.58410  297.86940 1980.35910    0.04660    2.93870    2.80910   23.97880
 11073.00000    5.29410   -0.05360    0.03580   48.05240   86.74100   20.38920  479.52040  390.78160 1157.59950    0.03520    2.85530    2.80380   36.41650
 11073.50000    5.47060   -0.04420    0.01440   47.62910   86.09530   25.27890  595.45670  498.93370  878.25290    0.03640    2.84820    2.78090   49.90310
 11074.00000    5.52940   -0.04130    0.00780   47.34430   85.57600   29.27830  681.67030  611.57900 2000.00000    0.04550    2.82480    2.78840   57.27070
 11074.50000    5.29410   -0.04650    0.00440   47.34520   85.58240   35.94840  710.11040  780.83860 2000.00000    0.04690    2.85360    2.79600   55.33610
 11075.00000    5.23530   -0.05360    0.00440   47.34600   85.58820   32.82610  729.72660  791.36190 2000.00000    0.04530    2.91900    2.80390   50.07650
 11075.50000    5.29410   -0.06010    0.00440   47.17110   85.59410   32.80720  749.88470  812.99630 2000.00000    0.04300    3.01250    2.81060   45.88090
 11076.00000    5.29580   -0.06240    0.00430   46.64410   85.39680   36.89410  791.88680  800.55520 2000.00000    0.04180    3.11930    2.81180   47.24970
 11076.50000    5.29410   -0.05800    0.00430   46.11710   84.42830   41.85800  836.24160  790.87830 2000.00000    0.04060    3.20410    2.80440   46.12950
 11077.00000    5.29410   -0.05320    0.00430   45.59010   84.43530   45.50570  836.24160  790.71700 2000.00000    0.03950    3.32110    2.80640   45.31550
 11077.50000    5.31700   -0.05300    0.00430   45.59090   84.15180   48.45750  836.24160  790.55610 2000.00000    0.04300    3.32050    2.80950   48.40820
 11078.00000    5.41180   -0.05760    0.00420   46.20760   83.85880   50.81220  836.24160  790.39480  882.01440    0.04300    3.31990    2.81540   51.62250
 11078.50000    5.00070   -0.06150    0.00420   47.01630   83.86470   50.04760  836.24160  790.23390 1810.66150    0.04300    3.31940    2.82350   49.66900
 11079.00000    4.82350   -0.06700    0.00420   46.87900   85.63630   46.37990  836.24160  764.47830 1978.61980    0.04190    3.31880    2.82350   47.81910
 11079.50000    5.00400   -0.06870    0.00410   46.22730   85.64210   52.01120  815.67380  716.49510 1978.46090    0.04260    3.28870    2.80980   49.31770
 11080.00000    5.29410   -0.05920    0.00410   45.65980   86.23610   80.88090  627.57540  484.26560 2000.00000    0.04640    3.22750    2.80240   63.33540
 11080.50000    5.61760   -0.05120    0.00410   45.50810   85.65290   97.21790  313.54240  281.19630  970.01730    0.05400    3.19940    2.80000   81.69050
 11081.00000    5.88240   -0.05180    0.00410   45.66800   85.65930  106.02220  238.75530  226.21860 2000.00000    0.06290    3.19880    2.79960   99.10160
 11081.50000    5.64710   -0.05360    0.00590   46.11590   86.25330  111.07670  288.93050  281.08500   57.02670    0.07000    3.16110    2.79820  113.48880
 11082.00000    5.41180   -0.05120    0.01750   46.88510   86.84730   95.04650  411.75560  510.90340   61.67320    0.07190    3.08000    2.79410   95.74480
 11082.50000    5.20590   -0.04770    0.02160   47.35940   86.26470   64.77290  603.00370  832.99480  227.74890    0.06500    3.06790    2.78360   80.53600
 11083.00000    4.96880   -0.04180    0.02160   47.00840   85.68230   39.84060 1159.69460 1218.28250 2000.00000    0.05960    3.03600    2.78730   63.81520
 11083.50000    4.70140   -0.04650    0.02160   46.65730   85.68820   27.37120 1745.25310 1643.68030  392.80580    0.05490    3.03470    2.79830   49.84710
 11084.00000    4.64710   -0.05480    0.02150   46.83410   85.69410   21.57830 1600.31370 1687.20970 1768.41310    0.05080    3.07760    2.80590   27.36380
 11084.50000    4.82990   -0.05940    0.02150   46.65900   85.70000   21.50760 1429.78800 1499.17590 1958.44890    0.05020    3.07700    2.80590   26.85030
 11085.00000    4.94120   -0.05830    0.01560   46.65980   85.70590   24.69530 1496.17420 1328.12740 1977.02730    0.05140    3.10580    2.80350   27.24220
 11085.50000    4.92050   -0.05730    0.00970   46.30880   85.71180   27.37710 1823.84360 1285.04190  137.38010    0.05260    3.19350    2.80100   28.79570
