~Version ---------------------------------------------------
VERS.   2.0 : CWLS log ASCII Standard -VERSION 2.0
WRAP.    NO : One line per depth step
DLM . SPACE : Column Data Section Delimiter
~Well ------------------------------------------------------
STRT .FT              10800.0 : START DEPTH
STOP .FT              11348.0 : STOP DEPTH
STEP .FT                  0.5 : STEP
NULL .               -9999.25 : NULL VALUE
COMP .                        : COMPANY
WELL .                        : WELL
FLD  .                        : FIELD
LOC  .                        : LOCATION
PROV .                        : PROVINCE
CNTY .                        : COUNTY
STAT .                        : STATE
CTRY .                        : COUNTRY
SRVC .                        : SERVICE COMPANY
DATE .                        : DATE
UWI  .                        : UNIQUE WELL ID
API  .                        : API NUMBER
SLAT .WGS84 2.390879301679199 : SURFACE LATITUDE
SLON .WGS84    7.525782313053 : SURFACE LONGITUDE
DATUM.F               3216.78 : DEPTH DATUM ELEV
~Curve Information -----------------------------------------
DEPT.FT    : DEPTH
CALD.IN    : CALIPER FROM DENSITY LOG
DPHI.DEC   : DENSITY POROSITY
DRHO.G/C3  : DENSITY CORRECTION
DTCO.US/F  : DELTA TIME COMPRESSIONAL
DTSM.US/F  : DELTA TIME SHEAR
GRS .GAPI  : GAMMA RAY FROM SONIC LOG
LLD .OHMM  : LATEROLOG DEEP RESISTIVITY
LLS .OHMM  : LATEROLOG SHALLOW RESISTIVITY
MSFL.OHMM  : MICROSPHERICALLY FOCUSED LOG RES.
NPHI.DEC   : NEUTRON POROSITY
PEF .B/E   : PHOTOELECTRIC FACTOR
RHOB.G/C3  : BULK DENSITY
SGR .GAPI  : SMOOTHED GAMMA RAY
~Params ----------------------------------------------------
~Other -----------------------------------------------------
~ASCII -----------------------------------------------------
# ...
 11294.00000    4.44990   -0.05880    0.02930   48.60070   80.62300   -9999.25 4061.83520 4189.22560  826.00510    0.03440    2.85740    2.81340   15.18150
 11294.50000    4.44920   -0.06120    0.02520   48.60800   80.62010   -9999.25 4174.04000 4093.51050  534.45760    0.03230    2.82510    2.81390   16.17510
 11295.00000    4.44850   -0.06180    0.02850   48.25220   80.61730   -9999.25 4006.86890 4114.78120  490.43170    0.03180    2.76610    2.81130   19.44150
 11295.50000    4.44930   -0.06350    0.02950   47.89070   80.02620   -9999.25 3449.18410 3546.95970 1192.64180    0.03060    2.82480    2.80750   23.52730
 11296.00000    4.51300   -0.05860    0.02950   47.52850   80.02330   -9999.25 3092.99410 2931.87110  313.26560    0.02940    2.88350    2.80400   27.56160
 11296.50000    4.58040   -0.05370    0.03170   47.20160   80.02050   -9999.25 2626.47460 2629.25020   32.86150    0.02940    2.94220    2.80300   31.57760
 11297.00000    4.69610   -0.05130    0.03330   47.29720   80.01760   -9999.25 3094.42460 2851.77100  221.60680    0.02940    2.94210    2.80490   35.57220
 11297.50000    4.79790   -0.05050    0.03540   47.82110   80.01470   -9999.25 3877.96000 3640.77690  908.53500    0.02940    2.95610    2.80780   36.68700
 11298.00000    4.89680   -0.05300    0.03540   47.41790   80.01180   -9999.25 4847.20510 4523.49170  237.52500    0.02940    3.00060    2.80910   32.43550
 11298.50000    4.94110   -0.05610    0.03390   46.72000   80.00880   -9999.25 5699.64160 5322.98190  197.96970    0.02930    3.00090    2.81180   27.88000
 11299.00000    5.01710   -0.05880    0.02940   46.03430   80.00590   -9999.25 6782.74900 6263.77200 1685.78360    0.02800    3.00060    2.80670   23.16580
 11299.50000    5.00060   -0.06180    0.02800   45.34850   80.00290   -9999.25 8249.25290 7370.84230 2000.00000    0.02710    2.94150    2.79990   22.07470
 11300.00000    4.97050   -0.05530    0.02210   44.66280   80.00000   -9999.25 5965.79540 7368.88230 2000.00000    0.02630    2.85290    2.79460   22.21940
 11300.50000    4.91090   -0.04880    0.01470   -9999.25   -9999.25   -9999.25 4150.47750 6133.43850 2000.00000    0.02510    2.82240    2.79260   22.33790
 11301.00000    4.91020   -0.04590    0.02220   -9999.25   -9999.25   -9999.25 3189.31740 3997.31930 1410.56240    0.02390    2.76410    2.79700   22.40010
 11301.50000    4.90960   -0.05120    0.02970   -9999.25   -9999.25   -9999.25 2614.19020 3043.45210  321.90370    0.02220    2.76630    2.80400   22.52900
 11302.00000    4.90880   -0.06300    0.04160   -9999.25   -9999.25   -9999.25 2369.64700 2398.63230 1504.63220    0.02160    2.82240    2.81030   22.63150
 11302.50000    4.90810   -0.06370    0.05340   -9999.25   -9999.25   -9999.25 2112.02290 1973.62590 1975.66490    0.02080    2.85150    2.81380   23.59630
 11303.00000    4.90740   -0.05890    0.06360   -9999.25   -9999.25   -9999.25 2355.24410 1891.20540 1976.19870    0.02460    2.86050    2.81070   24.85870
 11303.50000    4.90660   -0.04890    0.07050   -9999.25   -9999.25   -9999.25 3952.64650 2183.82060 1610.53140    0.02930    2.90970    2.79790   26.09680
 11304.00000    4.87650   -0.03950    0.06840   -9999.25   -9999.25   -9999.25 6281.61670 3222.14160   51.15900    0.03280    2.85060    2.78960   27.32460
 11304.50000    4.84630   -0.04710    0.06120   -9999.25   -9999.25   -9999.25 8711.30570 6013.33450   36.23230    0.03340    2.77730    2.78240   28.61520
 11305.00000    4.81620   -0.05120    0.05380   -9999.25   -9999.25   -9999.25 10258.62500 9277.08300  264.66010    0.03340    2.65010    2.77620   29.13480
 11305.50000    4.78600   -0.05420    0.04640   -9999.25   -9999.25   -9999.25 9199.23830 10459.58790 1895.98490    0.03400    2.52620    2.76940   29.16800
 11306.00000    4.78530   -0.03890    0.03860   -9999.25   -9999.25   -9999.25 7397.36960 8620.53910 1979.42790    0.03930    2.71180    2.75800   29.06610
 11306.50000    4.81400   -0.02540    0.03040   -9999.25   -9999.25   -9999.25 4748.53710 6341.91750 1022.98250    0.04750    2.82990    2.73800   28.94520
 11307.00000    4.84260   -0.01650    0.02560   -9999.25   -9999.25   -9999.25 3559.09570 4263.24510 1203.04480    0.05290    2.88920    2.73340   28.05290
 11307.50000    4.90060   -0.01600    0.02150   -9999.25   -9999.25   -9999.25 2886.31030 2913.62060 1981.14420    0.05580    2.94850    2.72860   31.09420
 11308.00000    4.89990   -0.01390    0.01700   -9999.25   -9999.25   -9999.25 2355.24410 2408.36250 2000.00000    0.05570    3.00780    2.72370   33.69070
 11308.50000    4.95800   -0.00850    0.01110   -9999.25   -9999.25   -9999.25 2355.24410 2101.88670 1530.68290    0.05510    3.02440    2.72470   34.16880
 11309.00000    4.89850   -0.00360    0.01240   -9999.25   -9999.25   -9999.25 2441.78660 2249.01590  876.50540    0.05430    3.02410    2.73950   33.64550
 11309.50000    4.89780   -0.01480    0.01970   -9999.25   -9999.25   -9999.25 2534.42680 2472.72020 1754.68160    0.05130    3.03870    2.76150   30.60230
 11310.00000    4.83630   -0.03110    0.03350   -9999.25   -9999.25   -9999.25 2606.28640 2505.90820 2000.00000    0.04710    3.05290    2.77380   27.87100
 11310.50000    4.77870   -0.03960    0.05180   -9999.25   -9999.25   -9999.25 2830.56030 2609.41380 2000.00000    0.04220    3.08210    2.78520   25.14680
 11311.00000    4.74350   -0.04240    0.07260   -9999.25   -9999.25   -9999.25 3449.93290 2908.20700  998.50570    0.03680    3.08180    2.79480   22.26550
 11311.50000    4.75480   -0.04590    0.09280   -9999.25   -9999.25   -9999.25 5334.15330 3641.47460  583.54530    0.03350    3.05200    2.80420   20.95070
 11312.00000    4.77660   -0.05380    0.11260   -9999.25   -9999.25   -9999.25 8249.25290 5365.81400 1193.25070    0.03910    2.99290    2.81290   18.89430
 11312.50000    4.85670   -0.06540    0.12900   -9999.25   -9999.25   -9999.25 11440.01070 8009.85300  737.01880    0.04560    2.93380    2.82330   19.28850
 11313.00000    4.89260   -0.07200    0.12350   -9999.25   -9999.25   -9999.25 9847.76560 10703.73630   24.87050    0.05160    2.87470    2.82610   21.26470
 11313.50000    4.96570   -0.07550    0.10810   -9999.25   -9999.25   -9999.25 7397.36960 8734.30660 1987.59850    0.05810    2.84500    2.82100   23.81000
 11314.00000    5.00880   -0.06900    0.07890   -9999.25   -9999.25   -9999.25 4783.30660 5970.03660  316.81560    0.05910    2.93290    2.80850   25.20620
 11314.50000    5.00800   -0.06080    0.05560   -9999.25   -9999.25   -9999.25 3449.18410 4540.94630   23.57290    0.05050    3.05030    2.78830   25.23350
 11315.00000    5.00730   -0.05430    0.04960   -9999.25   -9999.25   -9999.25 3846.39310 3636.98290   12.27220    0.04070    3.16760    2.75400   25.44760
 11315.50000    4.94770   -0.03250    0.05030   -9999.25   -9999.25   -9999.25 4556.06840 3979.82960  703.84230    0.03380    3.31440    2.70960   25.67230
 11316.00000    4.91760    0.12280    0.05180   -9999.25   -9999.25   -9999.25 5867.93950 5098.15430 1936.88460    0.04430    3.40230    2.47780   25.77140
 11316.50000    4.94630    0.29570    0.05330   -9999.25   -9999.25   -9999.25 3918.64840 5921.56200  916.75920    0.07870    3.25500    2.14230   26.05680
 11317.00000    4.94560    0.66570    0.05620   -9999.25   -9999.25   -9999.25  729.00850 4755.09380  119.15350    0.12360    3.10760    1.80690   26.36210
 11317.50000    4.94490    0.70000    0.05830   -9999.25   -9999.25   -9999.25  442.23040 3027.24830    0.90420    0.17160    3.04850    1.92690   29.29950
 11318.00000    4.96070    0.67990    0.06270   -9999.25   -9999.25   -9999.25  400.68690  376.63320    0.24700    0.19270    3.01880    2.17160   32.31710
 11318.50000    4.97290    0.53590    0.06420   -9999.25   -9999.25   -9999.25  490.75710  462.80260    0.20200    0.17980    3.01850    2.41630   32.44090
 11319.00000    4.96430    0.36350    0.06560   -9999.25   -9999.25   -9999.25  897.05940  774.11710   22.61590    0.14520    3.01820    2.66110   30.84720
 11319.50000    4.94190    0.07210    0.06850   -9999.25   -9999.25   -9999.25 1593.80110 1179.09770  116.11320    0.05290    3.04740    2.78650   29.22240
