~Version ---------------------------------------------------
VERS.   2.0 : CWLS log ASCII Standard -VERSION 2.0
WRAP.    NO : One line per depth step
DLM . SPACE : Column Data Section Delimiter
~Well ------------------------------------------------------
STRT .FT              10800.0 : START DEPTH
STOP .FT              11348.0 : STOP DEPTH
STEP .FT                  0.5 : STEP
NULL .               -9999.25 : NULL VALUE
COMP .                        : COMPANY
WELL .                        : WELL
FLD  .                        : FIELD
LOC  .                        : LOCATION
PROV .                        : PROVINCE
CNTY .                        : COUNTY
STAT .                        : STATE
CTRY .                        : COUNTRY
SRVC .                        : SERVICE COMPANY
DATE .                        : DATE
UWI  .                        : UNIQUE WELL ID
API  .                        : API NUMBER
SLAT .WGS84 2.390879301679199 : SURFACE LATITUDE
SLON .WGS84    7.525782313053 : SURFACE LONGITUDE
DATUM.F               3216.78 : DEPTH DATUM ELEV
~Curve Information -----------------------------------------
DEPT.FT    : DEPTH
CALD.IN    : CALIPER FROM DENSITY LOG
DPHI.DEC   : DENSITY POROSITY
DRHO.G/C3  : DENSITY CORRECTION
DTCO.US/F  : DELTA TIME COMPRESSIONAL
DTSM.US/F  : DELTA TIME SHEAR
GRS .GAPI  : GAMMA RAY FROM SONIC LOG
LLD .OHMM  : LATEROLOG DEEP RESISTIVITY
LLS .OHMM  : LATEROLOG SHALLOW RESISTIVITY
MSFL.OHMM  : MICROSPHERICALLY FOCUSED LOG RES.
NPHI.DEC   : NEUTRON POROSITY
PEF .B/E   : PHOTOELECTRIC FACTOR
RHOB.G/C3  : BULK DENSITY
SGR .GAPI  : SMOOTHED GAMMA RAY
~Params ----------------------------------------------------
~Other -----------------------------------------------------
~ASCII -----------------------------------------------------
# ...
 11320.00000    4.94120   -0.05470    0.07000   -9999.25   -9999.25   -9999.25 2500.11820 1843.96500  259.17500    0.04410    3.04710    2.82470   29.35920
 11320.50000    4.94040   -0.06790    0.07290   -9999.25   -9999.25   -9999.25 3301.84450 2453.28980 1499.31800    0.04300    3.04680    2.81970   29.57790
 11321.00000    4.93970   -0.06610    0.07590   -9999.25   -9999.25   -9999.25 3742.99580 3173.30370 1968.68710    0.04360    3.04300    2.80760   29.35310
 11321.50000    4.88000   -0.06480    0.07880   -9999.25   -9999.25   -9999.25 3642.37820 3593.52220  515.53250    0.04530    2.98310    2.79050   28.36860
 11322.00000    4.87930   -0.05500    0.07730   -9999.25   -9999.25   -9999.25 3135.42380 3402.56150  345.60370    0.05470    2.92310    2.77070   27.39890
 11322.50000    4.87860   -0.03470    0.06990   -9999.25   -9999.25   -9999.25 1254.96680 2592.36770  541.19950    0.06000    2.83380    2.74660   26.53320
 11323.00000    4.84850   -0.01690    0.06550   -9999.25   -9999.25   -9999.25 1031.73930 1001.38650  436.63770    0.05940    2.71510    2.73530   25.71060
 11323.50000    4.81830   -0.01350    0.06400   -9999.25   -9999.25   -9999.25  984.77660  948.17310   72.27750    0.05300    2.69210    2.74570   27.08030
 11324.00000    4.81760   -0.02150    0.06400   -9999.25   -9999.25   -9999.25 1291.04390  974.02820  476.89110    0.05010    2.73770    2.76110   28.53750
 11324.50000    4.81690   -0.03260    0.06400   -9999.25   -9999.25   -9999.25 1817.28890 1463.68420  734.85570    0.05180    2.83860    2.77000   29.16720
 11325.00000    4.84810   -0.04210    0.06400   -9999.25   -9999.25   -9999.25 4061.83520 1920.10950  319.18150    0.05360    2.90690    2.77710   29.04710
 11325.50000    4.88750   -0.04910    0.06690   -9999.25   -9999.25   -9999.25 3794.34230 3894.70000  266.90600    0.05360    2.95560    2.78370   29.65540
 11326.00000    5.01730   -0.05440    0.06690   -9999.25   -9999.25   -9999.25 3092.99410 3394.26710  116.52740    0.05240    2.98480    2.79060   30.62120
 11326.50000    5.25990   -0.05680    0.06830   -9999.25   -9999.25   -9999.25 2000.00000 2425.24510   67.64030    0.05120    2.98440    2.79650   31.72190
 11327.00000    5.50220   -0.05860    0.06980   -9999.25   -9999.25   -9999.25 1608.25700 1853.12670   44.37710    0.05010    2.97120    2.80210   32.87630
 11327.50000    5.61910   -0.05910    0.07420   -9999.25   -9999.25   -9999.25 1221.53150 1485.15610  119.83630    0.04950    2.94070    2.80910   38.40970
 11328.00000    5.63530   -0.06270    0.08590   -9999.25   -9999.25   -9999.25  919.58790  977.99880  370.76770    0.04890    2.89560    2.81680   44.38060
 11328.50000    5.63460   -0.06560    0.10210   -9999.25   -9999.25   -9999.25  597.72700  760.16890  375.94550   -9999.25    2.82090    2.82310   46.98920
 11329.00000    5.63370   -0.07030    0.11970   -9999.25   -9999.25   -9999.25  404.61510  466.43930  386.41710   -9999.25    2.74480    2.82770   46.73820
 11329.50000    5.60360   -0.07510    0.13300   -9999.25   -9999.25   -9999.25  305.61020  370.15590  151.20390   -9999.25    2.68850    2.83150   46.75710
 11330.00000    5.63240   -0.07620    0.13290   -9999.25   -9999.25   -9999.25  229.54570  301.83800   13.42470   -9999.25    2.74700    2.83150   46.79890
 11330.50000    5.60210   -0.07560    0.13000   -9999.25   -9999.25   -9999.25  223.03200  256.36680   73.50210   -9999.25    2.83490    2.82110   -9999.25
 11331.00000    5.60150   -0.07190    0.12850   -9999.25   -9999.25   -9999.25  227.36210  214.80800  223.97240   -9999.25    2.89350    2.80910   -9999.25
 11331.50000    5.60070   -0.06540    0.12690   -9999.25   -9999.25   -9999.25  238.75530  213.32040   72.88160   -9999.25    2.95200    2.80070   -9999.25
 11332.00000    5.60000   -0.05830    0.12060   -9999.25   -9999.25   -9999.25  248.86200  226.68270   16.93590   -9999.25    3.01050    2.79610   -9999.25
 11332.50000    5.59930   -0.04740    0.10390   -9999.25   -9999.25   -9999.25  260.26270  242.55010  179.39970   -9999.25    2.97970    2.79610   -9999.25
 11333.00000    5.59850   -0.05390    0.07730   -9999.25   -9999.25   -9999.25  296.91190  242.48570  901.95760   -9999.25    2.95120    2.79810   -9999.25
 11333.50000    5.59780   -0.05760    0.05880   -9999.25   -9999.25   -9999.25  349.65000  242.42080 1802.09050   -9999.25    2.99370    2.80050   -9999.25
 11334.00000    5.56760   -0.05820    0.05050   -9999.25   -9999.25   -9999.25  369.23440  238.89140  240.69340   -9999.25    3.02350    2.80610   -9999.25
 11334.50000    5.56690   -0.05860    0.05280   -9999.25   -9999.25   -9999.25  379.43420  232.28700  169.02850   -9999.25    3.06790    2.81730   -9999.25
 11335.00000    5.56620   -0.06060    0.06470   -9999.25   -9999.25   -9999.25  379.43420  229.41240  185.96590   -9999.25    3.12830    2.83130   -9999.25
 11335.50000    5.56540   -0.07360    0.07830   -9999.25   -9999.25   -9999.25  369.23440  229.35010  257.83980   -9999.25    3.18500    2.83920   -9999.25
 11336.00000    5.56460   -0.08280    0.09250   -9999.25   -9999.25   -9999.25  369.23440  226.19420  329.47020   -9999.25    3.15030    2.84420   -9999.25
 11336.50000    5.56380   -0.07770    0.10250   -9999.25   -9999.25   -9999.25   -9999.25   -9999.25  624.63510   -9999.25    3.06670    2.84240   -9999.25
 11337.00000    5.56310   -0.07000    0.10480   -9999.25   -9999.25   -9999.25   -9999.25   -9999.25 1375.40010   -9999.25    3.03700    2.83450   -9999.25
 11337.50000    5.56240   -0.06660    0.09480   -9999.25   -9999.25   -9999.25   -9999.25   -9999.25  775.19400   -9999.25    3.03670    2.82540   -9999.25
 11338.00000    5.56170   -0.07530    0.08410   -9999.25   -9999.25   -9999.25   -9999.25   -9999.25 1620.16480   -9999.25    3.00700    2.82540   -9999.25
 11338.50000    5.56100   -0.08170    0.07450   -9999.25   -9999.25   -9999.25   -9999.25   -9999.25  835.86370   -9999.25    3.03610    2.82930   -9999.25
 11339.00000    5.56030   -0.07690    0.06750   -9999.25   -9999.25   -9999.25   -9999.25   -9999.25  119.94250   -9999.25    3.03580    2.83850   -9999.25
 11339.50000    5.55960   -0.06810    0.06310   -9999.25   -9999.25   -9999.25   -9999.25   -9999.25   16.54880   -9999.25    3.06500    2.84590   -9999.25
 11340.00000    5.55880   -0.04990    0.05810   -9999.25   -9999.25   -9999.25   -9999.25   -9999.25   17.75710   -9999.25    3.12350    2.84310   -9999.25
 11340.50000    5.55810   -0.05220    0.05370   -9999.25   -9999.25   -9999.25   -9999.25   -9999.25   23.04800   -9999.25    3.12830    2.82530   -9999.25
 11341.00000    5.55740   -0.06110    0.04420   -9999.25   -9999.25   -9999.25   -9999.25   -9999.25   46.06540   -9999.25    2.97590    2.81170   -9999.25
 11341.50000    5.55660   -0.05990    0.03440   -9999.25   -9999.25   -9999.25   -9999.25   -9999.25  232.01410   -9999.25    2.79910    2.80670   -9999.25
 11342.00000    5.55590   -0.05810    0.02670   -9999.25   -9999.25   -9999.25   -9999.25   -9999.25  167.42750   -9999.25    2.76380    2.80670   -9999.25
 11342.50000    5.55510   -0.05760    0.02940   -9999.25   -9999.25   -9999.25   -9999.25   -9999.25  147.95070   -9999.25    2.82790    2.80760   -9999.25
 11343.00000    5.55440   -0.05230    0.03590   -9999.25   -9999.25   -9999.25   -9999.25   -9999.25  189.33540   -9999.25    2.91590    2.80730   -9999.25
 11343.50000    5.55350   -0.02870    0.04560   -9999.25   -9999.25   -9999.25   -9999.25   -9999.25  349.32140   -9999.25    2.97440    2.80170   -9999.25
 11344.00000    5.55280   -0.01170    0.05870   -9999.25   -9999.25   -9999.25   -9999.25   -9999.25 1238.29110   -9999.25    3.03290    2.78960   -9999.25
 11344.50000    5.55210   -0.00170    0.08150   -9999.25   -9999.25   -9999.25   -9999.25   -9999.25   71.14910   -9999.25    3.06210    2.76420   -9999.25
 11345.00000    5.55150    0.00240    0.10820   -9999.25   -9999.25   -9999.25   -9999.25   -9999.25   70.07210   -9999.25    3.12260    2.73630   -9999.25
 11345.50000   -9999.25   -9999.25   -9999.25   -9999.25   -9999.25   -9999.25   -9999.25   -9999.25   54.65640   -9999.25   -9999.25   -9999.25   -9999.25
