~Version ---------------------------------------------------
VERS.   2.0 : CWLS log ASCII Standard -VERSION 2.0
WRAP.    NO : One line per depth step
DLM . SPACE : Column Data Section Delimiter
~Well ------------------------------------------------------
STRT .FT              10800.0 : START DEPTH
STOP .FT              11348.0 : STOP DEPTH
STEP .FT                  0.5 : STEP
NULL .               -9999.25 : NULL VALUE
COMP .                        : COMPANY
WELL .                        : WELL
FLD  .                        : FIELD
LOC  .                        : LOCATION
PROV .                        : PROVINCE
CNTY .                        : COUNTY
STAT .                        : STATE
CTRY .                        : COUNTRY
SRVC .                        : SERVICE COMPANY
DATE .                        : DATE
UWI  .                        : UNIQUE WELL ID
API  .                        : API NUMBER
SLAT .WGS84 2.390879301679199 : SURFACE LATITUDE
SLON .WGS84    7.525782313053 : SURFACE LONGITUDE
DATUM.F               3216.78 : DEPTH DATUM ELEV
~Curve Information -----------------------------------------
DEPT.FT    : DEPTH
CALD.IN    : CALIPER FROM DENSITY LOG
DPHI.DEC   : DENSITY POROSITY
DRHO.G/C3  : DENSITY CORRECTION
DTCO.US/F  : DELTA TIME COMPRESSIONAL
DTSM.US/F  : DELTA TIME SHEAR
GRS .GAPI  : GAMMA RAY FROM SONIC LOG
LLD .OHMM  : LATEROLOG DEEP RESISTIVITY
LLS .OHMM  : LATEROLOG SHALLOW RESISTIVITY
MSFL.OHMM  : MICROSPHERICALLY FOCUSED LOG RES.
NPHI.DEC   : NEUTRON POROSITY
PEF .B/E   : PHOTOELECTRIC FACTOR
RHOB.G/C3  : BULK DENSITY
SGR .GAPI  : SMOOTHED GAMMA RAY
~Params ----------------------------------------------------
~Other -----------------------------------------------------
~ASCII -----------------------------------------------------
# ...
 11138.00000    4.94960   -0.06810    0.02490   44.71840   80.72940   32.21700 6781.53170 6591.17920 2000.00000    0.02600    2.91180    2.82350   37.44570
 11138.50000    4.87320   -0.06880    0.01830   45.08030   80.72240   30.43870 6652.19380 6721.41460 2000.00000    0.02710    2.94120    2.82350   41.24840
 11139.00000    4.87240   -0.06700    0.01830   45.17200   80.71670   30.44090 5303.96040 4850.63280 2000.00000    0.02590    2.94120    2.82160   45.04970
 11139.50000    5.04780   -0.06410    0.01960   45.20910   80.71100   34.00380 4255.59960 4233.92970 2000.00000    0.02510    2.97060    2.81360   48.84600
 11140.00000    5.19400   -0.06410    0.02570   45.56000   80.70530   37.56680 3403.37330 3645.77030 2000.00000    0.02350    2.94120    2.79840   52.64400
 11140.50000    5.34020   -0.06170    0.03580   46.96670   80.69960   42.02000 2395.53860 3139.31450 2000.00000    0.02310    2.88240    2.77430   56.44830
 11141.00000    5.45700   -0.04990    0.04320   48.02160   80.69390   53.29340 1859.26930 2032.29470 2000.00000    0.02160    2.82350    2.72790   60.22410
 11141.50000    5.57380   -0.03100    0.04170   48.37260   80.68820   56.38580 1244.33330  851.82000 2000.00000    0.02070    2.76470    2.70190   64.05220
 11142.00000    5.24940   -0.00510    0.03280   48.72370   80.68240   57.50620  797.89970  631.67940 2000.00000    0.02070    2.58820    2.68280   66.61630
 11142.50000    4.86620    0.01140    0.02990   48.89880   80.67650   56.22920  532.16410  529.35000 2000.00000    0.02080    2.10430    2.69380   61.91470
 11143.00000    4.51000    0.02090    0.02980   48.72200   80.67060   45.31200  420.65310  408.87530 2000.00000    0.02080    2.13030    2.72960   53.20710
 11143.50000    4.26720    0.01730    0.03570   47.65130   81.25370   36.00920  523.08200  695.38030 2000.00000    0.02080    2.30780    2.76190   44.83570
 11144.00000    4.18710   -0.01380    0.04170   46.29100   81.24710   28.58560 1005.92270 1177.73050 2000.00000    0.02370    2.49090    2.81180   36.56770
 11144.50000    4.40910   -0.05310    0.04770   44.84840   80.89720   22.50350 1734.69120 2113.77250 2000.00000    0.02780    2.73280    2.82730   25.60170
 11145.00000    4.50890   -0.07130    0.05320   45.53720   81.23530   26.90700 3035.02050 3161.90500 2000.00000    0.02670    2.89890    2.83150   28.14870
 11145.50000    4.58480   -0.06870    0.05280   46.33030   81.22940   34.03080 3086.10210 3227.64670 2000.00000    0.02370    2.94120    2.82530   34.47360
 11146.00000    4.66770   -0.06100    0.04830   46.67600   81.22250   39.37420 2372.60470 2522.23850 2000.00000    0.02320    2.82350    2.81540   39.17330
 11146.50000    5.03500   -0.05310    0.04670   46.98410   81.80590   49.16860 2094.66990 1870.40250 2000.00000    0.02700    2.94120    2.80440   42.03920
 11147.00000    5.45790   -0.04650    0.04300   47.25140   81.79930   58.51800 1735.33170  961.15140 2000.00000    0.03540    2.94120    2.78520   43.29490
 11147.50000    5.90750   -0.03840    0.03980   47.50420   81.79360   73.20850 1041.85740  639.35640 2000.00000    0.04020    2.92480    2.76960   57.61200
 11148.00000    6.00000   -0.02810    0.03600   47.82220   81.78790   89.23440  435.97450  425.29890 2000.00000    0.04200    2.82350    2.75040  102.26860
 11148.50000    5.88490   -0.01720    0.03540   47.64390   82.37060   98.30210  470.26380  455.12970 2000.00000    0.03890    2.70590    2.73530  100.94520
 11149.00000    5.50160   -0.01560    0.03530   46.10030   82.36470  100.30190  583.12510  550.39350 2000.00000    0.03430    2.70590    2.73590   88.25100
 11149.50000    4.82430   -0.02490    0.03830   44.48750   82.41600   82.11960  765.41030  656.61660 2000.00000    0.02960    2.79410    2.74120   76.08370
 11150.00000    4.38230   -0.03310    0.04120   44.66260   82.94170   73.21970  765.35940  783.34000 2000.00000    0.02380    2.82350    2.74560   61.98710
 11150.50000    4.61670   -0.03490    0.04110   45.18960   82.93530   66.10020  649.87620  698.69590 2000.00000    0.02690    2.91180    2.75720   68.21290
 11151.00000    4.85120   -0.02600    0.04110   46.06850   82.75080   53.63940  567.06150  554.25320   51.48320    0.03270    2.94120    2.77400   75.74500
 11151.50000    4.96790   -0.03310    0.04550   46.08390   82.11620   61.16540  536.94850  506.97540   64.00290    0.03740    2.94120    2.79210   87.33980
 11152.00000    4.96710   -0.04660    0.04690   45.89090   81.74120   66.34910  606.95740  627.75340   71.36200    0.03500    2.87930    2.80590   85.56590
 11152.50000    4.90000   -0.05430    0.05370   45.45010   81.14710   66.99900  951.47120  878.63900  896.25840    0.03150    2.80450    2.80590   71.85800
 11153.00000    4.73000   -0.05720    0.06340   45.00940   80.80060   52.94120 1283.93870 1522.31020 1769.51490    0.02800    2.51970    2.80790   58.29340
 11153.50000    4.61150   -0.05900    0.06930   44.48060   80.54600   39.16320 1841.11270 2320.13670 2000.00000    0.02570    2.47060    2.81030   44.55660
 11154.00000    4.45780   -0.06140    0.07530   44.29780   80.54040   27.64300 2275.16090 2516.83130 2000.00000    0.02330    2.62040    2.81370   30.24130
 11154.50000    4.37460   -0.06400    0.07350   44.12700   80.53470   21.14090 2099.57030 2443.27950 2000.00000    0.02030    2.93080    2.81850   23.91670
 11155.00000    4.51570   -0.06960    0.06960   44.12610   80.52900   18.04900 1983.49660 2113.22750 2000.00000    0.01980    3.18770    2.82340   23.21900
 11155.50000    4.66390   -0.07420    0.06570   44.21330   80.52330   18.05160 1809.14730 1742.29470 2000.00000    0.02480    3.25180    2.82820   22.65820
 11156.00000    4.80110   -0.06220    0.05990   44.21230   80.51760   18.49880 1075.16880 1152.87190 2000.00000    0.02850    3.14740    2.82390   22.94850
 11156.50000    4.95890   -0.05530    0.05840   44.35500   80.51180   24.28730  804.21560  650.19130 2000.00000    0.03280    3.02660    2.81540   31.14790
 11157.00000    5.07570   -0.05650    0.05250   44.38670   80.50590   30.07580  607.71420  554.77740 2000.00000    0.03510    2.94120    2.81120   39.13900
 11157.50000    5.19250   -0.05990    0.05250   44.17290   80.61190   35.41920  491.46610  496.33350 2000.00000    0.03510    2.94120    2.81840   48.72160
 11158.00000    5.30930   -0.06480    0.04660   44.12080   81.08310   41.20770  443.31300  446.46190 2000.00000    0.03570    2.94120    2.82650   56.85480
 11158.50000    5.30850   -0.06960    0.04510   43.85320   81.66560   48.46080  449.60130  440.93540 2000.00000    0.03870    2.94120    2.83290   66.90450
 11159.00000    5.30760   -0.07710    0.04060   43.71720   81.65880   55.87380  492.40880  568.09320 2000.00000    0.04140    2.94120    2.84830   72.47410
 11159.50000    5.04200   -0.09180    0.04060   43.76630   82.24120   63.91290  566.40230  709.92470 2000.00000    0.03990    2.94120    2.86330   65.70130
 11160.00000    4.48240   -0.09430    0.04060   44.29310   82.82350   71.69190  666.96360  859.12600 2000.00000    0.03750    2.94120    2.86710   55.89750
 11160.50000    4.60970   -0.08580    0.03440   44.82010   82.81650   69.25500  807.07420  870.78120 2000.00000    0.03720    2.94120    2.85250   45.13250
 11161.00000    4.97170   -0.07230    0.02840   45.17120   82.81080   57.08690  881.38460  824.59830 2000.00000    0.03700    2.94120    2.83530   47.22670
 11161.50000    5.20600   -0.06580    0.02290   44.81840   82.80510   49.61920  764.16490  739.58330 2000.00000    0.03520    2.94120    2.81570   58.38410
 11162.00000    5.30250   -0.06110    0.02080   44.69480   82.79940   53.45960  713.79330  700.37500 2000.00000    0.03230    2.94120    2.80080   66.71470
 11162.50000    5.01510   -0.05750    0.01690   45.08060   82.20550   57.25150  712.93640  700.28200 2000.00000    0.02820    2.93510    2.79330   64.09910
 11163.00000    4.67120   -0.05380    0.01690   45.16770   81.02340   57.25410  743.47470  739.28880 2000.00000    0.02460    2.91180    2.78800   56.37910
 11163.50000    4.59380   -0.04480    0.01980   45.16690   80.42940   52.80520  807.29270  780.46830 2000.00000    0.02350    2.95050    2.78680   49.45600
