~Version ---------------------------------------------------
VERS.   2.0 : CWLS log ASCII Standard -VERSION 2.0
WRAP.    NO : One line per depth step
DLM . SPACE : Column Data Section Delimiter
~Well ------------------------------------------------------
STRT .FT              10800.0 : START DEPTH
STOP .FT              11348.0 : STOP DEPTH
STEP .FT                  0.5 : STEP
NULL .               -9999.25 : NULL VALUE
COMP .                        : COMPANY
WELL .                        : WELL
FLD  .                        : FIELD
LOC  .                        : LOCATION
PROV .                        : PROVINCE
CNTY .                        : COUNTY
STAT .                        : STATE
CTRY .                        : COUNTRY
SRVC .                        : SERVICE COMPANY
DATE .                        : DATE
UWI  .                        : UNIQUE WELL ID
API  .                        : API NUMBER
SLAT .WGS84 2.390879301679199 : SURFACE LATITUDE
SLON .WGS84    7.525782313053 : SURFACE LONGITUDE
DATUM.F               3216.78 : DEPTH DATUM ELEV
~Curve Information -----------------------------------------
DEPT.FT    : DEPTH
CALD.IN    : CALIPER FROM DENSITY LOG
DPHI.DEC   : DENSITY POROSITY
DRHO.G/C3  : DENSITY CORRECTION
DTCO.US/F  : DELTA TIME COMPRESSIONAL
DTSM.US/F  : DELTA TIME SHEAR
GRS .GAPI  : GAMMA RAY FROM SONIC LOG
LLD .OHMM  : LATEROLOG DEEP RESISTIVITY
LLS .OHMM  : LATEROLOG SHALLOW RESISTIVITY
MSFL.OHMM  : MICROSPHERICALLY FOCUSED LOG RES.
NPHI.DEC   : NEUTRON POROSITY
PEF .B/E   : PHOTOELECTRIC FACTOR
RHOB.G/C3  : BULK DENSITY
SGR .GAPI  : SMOOTHED GAMMA RAY
~Params ----------------------------------------------------
~Other -----------------------------------------------------
~ASCII -----------------------------------------------------
# ...
 11112.00000    5.62610   -0.05190    0.04050   44.46560   83.38820   41.44810 3809.51370 4050.84230 1731.02800    0.04390    3.00000    2.80210   45.52570
 11112.50000    5.62500   -0.05000    0.03160   44.20080   83.38240   41.00490 3510.47000 3526.49000  406.61710    0.04360    3.05880    2.80940   49.40200
 11113.00000    5.62410   -0.05780    0.02270   44.63990   83.37650   42.51140 3216.29640 3526.01120 1491.74550    0.04050    3.05880    2.81760   49.47560
 11113.50000    5.64010   -0.06480    0.01530   44.90290   82.67800   42.98750 3172.56150 3339.13010 1870.50990    0.03670    3.17650    2.82600   49.26070
 11114.00000    5.68120   -0.06950    0.01050   44.53820   82.04300   44.35470 3537.67940 3785.90940 2000.00000    0.03480    3.17650    2.82630   49.35770
 11114.50000    5.62130   -0.06970    0.00770   44.16670   81.40840   45.08820 3998.93190 4230.15820  564.34800    0.03320    3.08820    2.82200   51.37390
 11115.00000    5.47340   -0.06720    0.00500   43.71310   81.00000   44.57750 4645.19480 4913.97750 1208.97830    0.03240    2.97060    2.81780   52.45660
 11115.50000    5.14900   -0.06420    0.00790   43.19070   80.99410   41.01890 5179.79200 5577.86180 2000.00000    0.03060    2.93880    2.81180   50.03830
 11116.00000    4.94230   -0.06010    0.00790   42.97160   80.98820   35.67980 6099.43210 6233.56050 2000.00000    0.02880    2.82350    2.80690   45.24980
 11116.50000    4.90530   -0.05750    0.01150   43.46060   80.98120   30.26870 6108.79490 6265.99660  629.23710    0.02500    2.82350    2.79640   34.65100
 11117.00000    4.91210   -0.05070    0.01370   43.72990   80.97550   32.12320 5168.86520 5522.04640 1894.07130    0.02270    2.78810    2.78360   31.91960
 11117.50000    4.76190   -0.04300    0.01370   44.33850   80.96980   35.68620 4622.86670 4621.00240 2000.00000    0.03210    2.72770    2.77030   37.56860
 11118.00000    4.70350   -0.03540    0.01810   44.97740   80.96410   37.46880 4263.19530 4316.98000 2000.00000    0.04150    2.80330    2.75880   38.95180
 11118.50000    4.73670   -0.02760    0.01950   45.42760   80.95840   27.40960 3942.69630 3978.54370 2000.00000    0.04970    2.92260    2.77500   36.17800
 11119.00000    4.79010   -0.03990    0.01950   45.61190   81.54100   22.92840 4176.49850 4087.57710 2000.00000    0.04620    3.02490    2.80610   32.14140
 11119.50000    4.86420   -0.05780    0.02240   44.71630   82.12350   20.45750 4311.18510 4374.28170  386.24760    0.04210    3.05880    2.83060   24.36780
 11120.00000    4.91570   -0.07330    0.02380   44.18750   83.29430   20.82940 4239.49660 4199.04050 1712.79110    0.03680    2.96870    2.83940   24.04870
 11120.50000    5.00470   -0.07640    0.02380   44.53860   83.28820   22.95490 3842.58910 3922.77880 1626.72380    0.03080    2.94120    2.83510   26.27450
 11121.00000    5.06160   -0.06970    0.01920   44.53770   83.87120   26.56180 3233.38310 3332.26680 2000.00000    0.02800    2.94120    2.82850   28.80310
 11121.50000    5.31570   -0.06230    0.01310   44.71280   83.27650   33.90920 2769.22660 2644.62080 1303.11380    0.03020    2.94120    2.80880   30.68970
 11122.00000    5.55720   -0.05750    0.00700   44.71200   83.07140   41.77970 2640.51220 2538.81080    6.16530    0.03580    2.94120    2.81390   31.71700
 11122.50000    5.57050   -0.05740    0.00160   44.44720   82.67650   52.17770 2982.42970 2845.67770 2000.00000    0.03880    3.00000    2.81840   37.58060
 11123.00000    4.90050   -0.06100    0.00250   44.18240   83.25880   42.83270 3731.23930 3401.89620 2000.00000    0.03760    3.00400    2.82160   46.70620
 11123.50000    4.37020   -0.06340    0.00800   44.18150   83.25290   25.03070 4577.00780 4453.27340 1565.59140    0.03640    2.94120    2.82400   43.71360
 11124.00000    4.19290   -0.06630    0.01330   44.18060   83.24600   16.13070 5463.56150 5247.34280  580.17930    0.03450    2.82350    2.82650   33.00810
 11124.50000    4.25080   -0.06860    0.01770   44.17980   83.24030   11.23680 6092.34180 5890.11620 1972.97500    0.04240    2.88400    2.82410   21.56880
 11125.00000    4.33820   -0.06980    0.02080   44.57420   83.23460    9.01340 5462.83500 4644.85990 1972.97500    0.04840    2.95060    2.82350   14.12280
 11125.50000    4.54320   -0.07040    0.02500   45.31110   83.22890   11.70780 3580.61250 3546.98320 1155.98360    0.04630    3.07120    2.82350   13.82250
 11126.00000    4.78190   -0.06920    0.02050   46.28870   83.22320   14.47750 2999.19950 3008.48510 2000.00000    0.04400    3.18780    2.82350   14.03020
 11126.50000    5.01750   -0.06900    0.01900   45.88020   83.21750   17.23730 3166.97900 3192.47170 2000.00000    0.04160    3.26470    2.82300   16.01260
 11127.00000    5.14630   -0.06730    0.01610   45.45350   83.21180   21.08850 3439.55660 3423.44870 2000.00000    0.03870    3.19690    2.81760   24.29640
 11127.50000    5.38780   -0.06680    0.01600   44.98110   83.20590   25.56300 3321.86400 3448.43260 2000.00000    0.03640    3.17650    2.81330   32.24410
 11128.00000    5.55470   -0.06520    0.01310   44.57250   83.20000   35.30770 2839.35280 2676.13790 2000.00000    0.03460    3.09330    2.80680   37.07460
 11128.50000    5.65570   -0.06420    0.01300   44.52460   83.06080   52.96500 2839.15940 2400.23220 2000.00000    0.03230    3.01750    2.79960   40.99240
 11129.00000    5.51450   -0.06180    0.01300   44.83730   81.83790   61.52840 2966.86060 2675.42750 2000.00000    0.03220    2.91030    2.79230   55.90540
 11129.50000    5.33370   -0.05330    0.01130   45.22650   80.82940   63.49400 3062.74020 3148.70530 2000.00000    0.02970    2.82350    2.78530   53.41330
 11130.00000    5.18240   -0.04450    0.00820   45.13770   80.82350   44.64430 3165.50560 3509.71610 2000.00000    0.02620    2.82350    2.78530   45.21640
 11130.50000    5.03100   -0.04040    0.00700   44.87290   80.81760   33.51890 3198.83030 3509.25070 2000.00000    0.02520    2.82350    2.78530   37.97440
 11131.00000    4.94510   -0.04370    0.00990   44.60810   80.81180   26.84450 3423.51510 3654.73410 2000.00000    0.02760    2.94120    2.78970   30.56740
 11131.50000    4.88540   -0.04900    0.01050   44.51930   80.80490   23.28580 3828.00070 4073.76370 2000.00000    0.02780    2.94120    2.79780   26.55200
 11132.00000    4.79640   -0.05370    0.01210   44.87030   80.80000   21.06240 4438.07030 4602.94140 2000.00000    0.02820    2.94120    2.80730   25.88310
 11132.50000    4.75390   -0.05900    0.01280   45.66130   80.79350   20.17440 5053.79880 5139.84380 2000.00000    0.02910    2.94120    2.81620   25.08080
 11133.00000    4.88290   -0.06070    0.01280   46.45220   80.78780   19.73140 5607.58940 5757.75830 2000.00000    0.03000    2.91180    2.81730   25.52790
 11133.50000    4.79380   -0.06190    0.01270   45.56170   80.78230   19.66520 5681.20260 5370.37210 2000.00000    0.03210    2.94120    2.81940   26.00050
 11134.00000    4.67530   -0.06310    0.02300   44.85560   80.77640   18.33780 4892.68070 4857.39750 2000.00000    0.03320    2.97270    2.82190   26.60660
 11134.50000    4.70520   -0.06540    0.03330   44.59150   80.77060   17.86440 5166.38330 5174.81100 2000.00000    0.02830    3.05880    2.82350   26.03980
 11135.00000    4.82550   -0.06780    0.04060   44.51320   80.76470   16.50210 5381.57320 5453.02100 2000.00000    0.02530    3.05880    2.82370   24.53020
 11135.50000    4.97090   -0.06960    0.04500   44.51230   80.75880   15.88020 5605.72610 5739.41310 2000.00000    0.02360    3.07290    2.82650   22.83070
 11136.00000    5.06590   -0.07130    0.04790   44.51140   80.75290   14.40310 5919.31740 5981.24120 2000.00000    0.02300    3.12630    2.82750   22.79230
 11136.50000    5.11220   -0.07110    0.04790   44.30680   80.74710   18.36490 6082.43260 6183.46970 2000.00000    0.02300    3.09720    2.82710   26.05900
 11137.00000    5.01370   -0.06930    0.04740   44.15780   80.74120   22.96690 6422.68900 6368.52490 2000.00000    0.02360    2.97620    2.82650   29.85940
 11137.50000    4.99260   -0.06770    0.03980   44.30330   80.73530   28.65400 6614.96630 6411.20410 2000.00000    0.02540    2.91420    2.82590   33.67600
