~Version ---------------------------------------------------
VERS.   2.0 : CWLS log ASCII Standard -VERSION 2.0
WRAP.    NO : One line per depth step
DLM . SPACE : Column Data Section Delimiter
~Well ------------------------------------------------------
STRT .FT              10800.0 : START DEPTH
STOP .FT              11348.0 : STOP DEPTH
STEP .FT                  0.5 : STEP
NULL .               -9999.25 : NULL VALUE
COMP .                        : COMPANY
WELL .                        : WELL
FLD  .                        : FIELD
LOC  .                        : LOCATION
PROV .                        : PROVINCE
CNTY .                        : COUNTY
STAT .                        : STATE
CTRY .                        : COUNTRY
SRVC .                        : SERVICE COMPANY
DATE .                        : DATE
UWI  .                        : UNIQUE WELL ID
API  .                        : API NUMBER
SLAT .WGS84 2.390879301679199 : SURFACE LATITUDE
SLON .WGS84    7.525782313053 : SURFACE LONGITUDE
DATUM.F               3216.78 : DEPTH DATUM ELEV
~Curve Information -----------------------------------------
DEPT.FT    : DEPTH
CALD.IN    : CALIPER FROM DENSITY LOG
DPHI.DEC   : DENSITY POROSITY
DRHO.G/C3  : DENSITY CORRECTION
DTCO.US/F  : DELTA TIME COMPRESSIONAL
DTSM.US/F  : DELTA TIME SHEAR
GRS .GAPI  : GAMMA RAY FROM SONIC LOG
LLD .OHMM  : LATEROLOG DEEP RESISTIVITY
LLS .OHMM  : LATEROLOG SHALLOW RESISTIVITY
MSFL.OHMM  : MICROSPHERICALLY FOCUSED LOG RES.
NPHI.DEC   : NEUTRON POROSITY
PEF .B/E   : PHOTOELECTRIC FACTOR
RHOB.G/C3  : BULK DENSITY
SGR .GAPI  : SMOOTHED GAMMA RAY
~Params ----------------------------------------------------
~Other -----------------------------------------------------
~ASCII -----------------------------------------------------
# ...
 11034.00000    4.29410   -0.06800    0.05430   45.51440   82.75290   13.78930  555.67000  586.17160 1989.48140    0.04670    3.25410    2.80080   16.92910
 11034.50000    4.23530   -0.07270    0.05970   45.14620   81.38470   15.32350  663.34590  630.02030 2000.00000    0.04200    3.18570    2.76440   18.44050
 11035.00000    4.36330   -0.06800    0.06480   44.41910   80.41070   17.79800  571.02000  405.21050 2000.00000    0.04730    3.08670    2.72820   20.64710
 11035.50000    4.49250   -0.05090    0.06920   43.75740   80.41760   19.87430  296.91190  132.67020 2000.00000    0.06320    2.96270    2.70590   23.12120
 11036.00000    4.61810   -0.02260    0.06620   44.73040   80.42350   21.77330  125.14180   63.58740 1348.98180    0.08200    2.86850    2.70590   25.43910
 11036.50000    4.72470   -0.00250    0.06400   46.59440   81.32930   21.76680   50.00000   50.00000 1923.90770    0.09160    2.78060    2.71110   27.27320
 11037.00000    4.80560    0.00520    0.06840   48.08560   82.53880   21.76030   58.30260   54.22770 2000.00000    0.09790    2.78000    2.71170   27.31010
 11037.50000    4.82350    0.00290    0.08310   48.49680   82.79520   22.64400   72.07500   63.40550 2000.00000    0.09850    2.77940    2.70660   27.45630
 11038.00000    4.91330   -0.00430    0.09480   48.68860   83.97740   24.86300   91.18000   86.06250  572.20780    0.09100    2.80820    2.70360   27.13740
 11038.50000    5.05880    0.00640    0.10070   48.95350   85.15960   31.53310  125.72760  133.67740    1.62380    0.08610    2.77810    2.72060   28.59410
 11039.00000    5.29410    0.00230    0.10360   49.30630   87.51830   38.64820  178.76230  192.86970 2000.00000    0.08050    2.83640    2.79430   31.62660
 11039.50000    5.58820   -0.02110    0.10060   49.57110   88.11230   45.80630  263.38040  270.81380  910.04040    0.07140    2.89470    2.85150   42.44250
 11040.00000    5.85290   -0.06680    0.08980   49.74790   88.19730   51.09810  331.10440  350.49290  244.95510    0.06280    3.01170    2.84790   52.19270
 11040.50000    5.61150   -0.07970    0.07020   48.69300   87.53530   50.09380  374.29960  390.65290  167.22840    0.05530    3.12880    2.84340   46.64610
 11041.00000    5.31560   -0.05790    0.05230   47.63810   86.36480   48.98950  411.75560  374.97810  943.51170    0.05020    3.15760    2.80910   41.35550
 11041.50000    5.29410   -0.03790    0.03540   46.40520   85.19410   46.31580  349.65000  340.89610 2000.00000    0.04690    3.24530    2.76480   41.15980
 11042.00000    5.29410   -0.02790    0.01810   45.52840   85.20000   43.12370  322.20370  305.73030 2000.00000    0.05160    3.24100    2.75290   41.17550
 11042.50000    5.29410   -0.03020    0.02620   45.93090   85.20590   41.26150  340.25090  338.04470 2000.00000    0.05390    3.12650    2.76470   41.90200
 11043.00000    5.29410   -0.03730    0.03830   46.73410   85.21180   37.17920  385.18820  378.03630 2000.00000    0.05220    3.03010    2.77330   39.06620
 11043.50000    5.17650   -0.04060    0.05340   47.29050   85.80590   31.39360  438.11760  421.44040 2000.00000    0.05040    2.99820    2.78300   35.62260
 11044.00000    5.05880   -0.04220    0.06380   46.70240   86.40000   27.67390  468.14800  470.83690 1988.03700    0.04930    2.90740    2.79160   32.29360
 11044.50000    5.04410   -0.04960    0.06500   46.09050   86.58470   27.11310  441.38290  450.94670 1987.90410    0.04690    2.91530    2.80000   28.79270
 11045.00000    5.26470   -0.05810    0.06500   45.88560   87.00000   31.44530  383.71980  403.06050   54.03060    0.04690    3.05140    2.81180   29.97920
 11045.50000    5.35290   -0.06200    0.07080   46.70600   87.00590   34.99970  395.64400  369.24370  668.26750    0.04840    3.17420    2.79850   31.43530
 11046.00000    5.00000   -0.05220    0.07080   46.59140   87.01180   38.55400  509.40770  418.61330 2000.00000    0.05210    3.29870    2.78770   35.31290
 11046.50000    4.94120   -0.04650    0.07080   46.50420   87.01760   34.98670  633.78550  523.66610 2000.00000    0.05590    3.35710    2.78090   32.90030
 11047.00000    4.90360   -0.04200    0.06490   46.59310   86.70460   31.41930  761.55630  644.05070 2000.00000    0.05790    3.23880    2.77850   30.97710
 11047.50000    4.73070   -0.04200    0.05290   47.47370   86.44120   26.07160  932.54340  717.84700 2000.00000    0.05880    3.23820    2.77480   29.75310
 11048.00000    4.80080   -0.03370    0.03540   48.09040   85.85990   22.50430 1054.20120  994.34920 2000.00000    0.05710    3.17880    2.76470   29.14840
 11048.50000    4.99330   -0.03310    0.04170   48.70710   85.27740   24.27820  984.77660  891.77500 1858.33370    0.05320    3.11940    2.77390   27.16340
 11049.00000    5.31810   -0.04320    0.04710   49.42310   85.28310   28.00750  802.74990  717.42120 1091.86340    0.05020    3.11880    2.80050   34.99260
 11049.50000    5.60560   -0.05380    0.05190   50.55630   85.28880   33.36710  654.36930  609.38490 1860.54150    0.04700    3.11820    2.81620   42.63990
 11050.00000    5.94120   -0.06260    0.05390   50.39620   85.29460   38.50200  729.72660  634.60720 2000.00000    0.04630    3.21080    2.81360   50.74390
 11050.50000    5.78160   -0.06080    0.05060   48.80990   85.30030   35.38440  886.48500  762.26400 1986.30640    0.04820    3.30730    2.80490   51.53640
 11051.00000    4.94120   -0.04670    0.04560   47.38970   85.30610   23.65490  992.56100  946.95920 2000.00000    0.05000    3.35180    2.79260   42.00180
 11051.50000    4.47060   -0.03480    0.03570   45.98790   85.31180   16.53010 1074.87770 1048.42220   63.55560    0.05180    3.23350    2.75680   26.93820
 11052.00000    4.32350   -0.02520    0.01410   44.73710   85.31760   14.09600 1148.38510 1069.57740   55.82720    0.05420    3.11530    2.73550   15.81060
 11052.50000    4.29410   -0.01530    0.00870   43.69410   85.32350   13.54230 1203.23890 1106.53000 1089.67980    0.05650    3.11470    2.73210   16.25570
 11053.00000    4.35290   -0.00900    0.00720   44.19410   85.32940   13.53560 1273.05930 1157.98390 2000.00000    0.05650    3.16320    2.73870   14.25900
 11053.50000    4.35290   -0.01190    0.01010   45.28490   85.23610   13.52890 1763.05930 1213.77640 2000.00000    0.05300    3.23120    2.74710   14.24240
 11054.00000    4.38240   -0.02070    0.01740   45.98960   84.75230   13.07590 2416.71360 1327.70190 1110.15600    0.05560    3.23050    2.74460   13.94090
 11054.50000    4.35290   -0.02550    0.03060   46.60630   84.75880   11.73410 2626.47460 1458.89970   11.91920    0.06000    3.17110    2.73930   13.76420
 11055.00000    4.35830   -0.01540    0.04090   46.78310   84.95220   11.72760 2230.32060 2121.66360 1761.62110    0.06470    3.11170    2.72490   13.56260
 11055.50000    4.44860   -0.00540    0.05280   47.39970   85.35880   12.16620 1442.17570 2009.05460 1984.98000    0.06910    3.05230    2.71700   13.39940
 11056.00000    4.54820   -0.00160    0.06170   48.01640   85.36470   13.49560  984.77660 1231.73280 1040.97450    0.07520    3.11060    2.73370   13.32730
 11056.50000    4.66990   -0.00890    0.06730   48.36920   85.37060   17.93950  774.84150  738.00120  671.07360    0.07570    3.16950    2.76470   13.97530
 11057.00000    4.80760   -0.02430    0.06370   47.62230   85.37650   20.60390  971.45020 1046.03980  685.48580    0.06600    3.23160    2.76920   15.90180
 11057.50000    4.85150   -0.03310    0.05670   47.03430   85.38230   19.70700 1232.04350 1264.90550 1043.94580    0.05770    3.34420    2.76710   18.98770
 11058.00000    4.76470   -0.03720    0.04400   46.54310   85.38940   17.84120 1525.35620 1429.12290 1373.14100    0.05200    3.34350    2.75450   21.34290
 11058.50000    4.79410   -0.02660    0.03150   46.08680   85.39510   14.66340 1608.25700 1614.65930 1614.97440    0.05900    3.34290    2.72910   19.83340
 11059.00000    4.82350   -0.00890    0.02230   46.15600   85.40080   11.67510  769.76280  913.74530 1983.98410    0.06490    3.33240    2.69410   17.49600
 11059.50000    4.82350    0.00110    0.01630   46.26310   86.58310   11.03740  216.73710  261.50410 1392.80490    0.07080    3.24170    2.72940   17.64700
