~Version ---------------------------------------------------
VERS.   2.0 : CWLS log ASCII Standard -VERSION 2.0
WRAP.    NO : One line per depth step
DLM . SPACE : Column Data Section Delimiter
~Well ------------------------------------------------------
STRT .FT              10800.0 : START DEPTH
STOP .FT              11348.0 : STOP DEPTH
STEP .FT                  0.5 : STEP
NULL .               -9999.25 : NULL VALUE
COMP .                        : COMPANY
WELL .                        : WELL
FLD  .                        : FIELD
LOC  .                        : LOCATION
PROV .                        : PROVINCE
CNTY .                        : COUNTY
STAT .                        : STATE
CTRY .                        : COUNTRY
SRVC .                        : SERVICE COMPANY
DATE .                        : DATE
UWI  .                        : UNIQUE WELL ID
API  .                        : API NUMBER
SLAT .WGS84 2.390879301679199 : SURFACE LATITUDE
SLON .WGS84    7.525782313053 : SURFACE LONGITUDE
DATUM.F               3216.78 : DEPTH DATUM ELEV
~Curve Information -----------------------------------------
DEPT.FT    : DEPTH
CALD.IN    : CALIPER FROM DENSITY LOG
DPHI.DEC   : DENSITY POROSITY
DRHO.G/C3  : DENSITY CORRECTION
DTCO.US/F  : DELTA TIME COMPRESSIONAL
DTSM.US/F  : DELTA TIME SHEAR
GRS .GAPI  : GAMMA RAY FROM SONIC LOG
LLD .OHMM  : LATEROLOG DEEP RESISTIVITY
LLS .OHMM  : LATEROLOG SHALLOW RESISTIVITY
MSFL.OHMM  : MICROSPHERICALLY FOCUSED LOG RES.
NPHI.DEC   : NEUTRON POROSITY
PEF .B/E   : PHOTOELECTRIC FACTOR
RHOB.G/C3  : BULK DENSITY
SGR .GAPI  : SMOOTHED GAMMA RAY
~Params ----------------------------------------------------
~Other -----------------------------------------------------
~ASCII -----------------------------------------------------
# ...
 11216.00000    4.68790   -0.06210    0.01600   46.91850   75.10590   11.19920  858.76830  952.04420 2000.00000    0.04290    3.05410    2.81200   13.08450
 11216.50000    4.74790   -0.06150    0.01420   46.56830   75.78470   11.20140  635.19670  607.92690 2000.00000    0.03880    3.08340    2.81130   14.44140
 11217.00000    4.79860   -0.05970    0.01420   46.04260   76.95830   11.20350  525.29810  567.85500 2000.00000    0.03650    3.08320    2.81200   14.54430
 11217.50000    4.79780   -0.05860    0.01420   45.51640   78.13230   11.20570  478.33070  502.37110 2000.00000    0.03410    3.17820    2.81570   14.75480
 11218.00000    4.75420   -0.06090    0.01420   45.16620   79.30550   11.65300  446.83010  444.43880 2000.00000    0.03180    3.20960    2.81560   14.81240
 11218.50000    4.67870   -0.06440    0.01420   44.81580   80.47940   12.10020  411.75560  409.54180 2000.00000    0.03000    3.29990    2.80570   15.94080
 11219.00000    4.67780   -0.06560    0.01410   44.81770   81.65280   12.99260  389.91580  382.31830 2000.00000    0.02880    3.31790    2.79940   15.88900
 11219.50000    4.67710   -0.06310    0.01410   44.81940   82.82650   13.05580  384.63930  367.17220 2000.00000    0.02710    3.24190    2.79940   13.94310
 11220.00000    4.76460   -0.05920    0.01120   44.46920   82.23530   14.39180  423.13000  441.49080  392.28920    0.02710    3.20000    2.79900   14.93260
 11220.50000    4.79340   -0.05430    0.01270   44.11900   80.46770   14.77970  512.05190  581.67320  266.10080    0.02630    3.08220    2.79350   16.00160
 11221.00000    4.79260   -0.05090    0.01410   44.33200   80.46470   15.01880  603.00370  717.54190  346.53620    0.02510    3.08200    2.78940   17.12150
 11221.50000    4.79190   -0.05430    0.02130   44.96760   80.46180   16.11940  711.38820  795.59380 2000.00000    0.02630    3.08190    2.78380   18.22710
 11222.00000    4.79120   -0.05500    0.04510   45.55540   80.45880   16.43220  781.17080  750.87790 2000.00000    0.03010    3.14060    2.77330   19.44370
 11222.50000    4.79040   -0.04550    0.06330   45.88560   80.45590   18.10970  662.44600  665.61130 2000.00000    0.03380    3.08160    2.75660   21.21570
 11223.00000    4.82750   -0.03140    0.07680   46.13360   80.45290   20.60230  565.05980  569.22940 2000.00000    0.03710    2.96140    2.74050   23.00930
 11223.50000    4.91280   -0.02020    0.08910   46.28200   80.45000   25.03090  533.41530  521.57070 2000.00000    0.03760    2.83940    2.74170   28.19160
 11224.00000    5.00230   -0.01860    0.09640   46.55360   80.44710   30.81940  560.35520  535.81270 1903.64180    0.03820    2.72820    2.74460   34.41390
 11224.50000    5.02290   -0.02840    0.10070   46.24490   80.44410   29.48620  612.16110  589.74490  274.41050    0.03880    2.74350    2.75140   42.82370
 11225.00000    5.02210   -0.03140    0.09630   45.89470   80.44120   25.48240  651.61620  633.34060 2000.00000    0.03940    2.86520    2.76210   40.99810
 11225.50000    5.00700   -0.02900    0.09040   45.54450   80.43770   19.25310  695.14790  683.61870 2000.00000    0.04120    2.99900    2.77520   36.51000
 11226.00000    4.62220   -0.02910    0.07860   45.37030   80.43490   14.80420  740.33180  731.47070 2000.00000    0.04240    3.08060    2.78750   27.83490
 11226.50000    4.43150   -0.03400    0.06980   45.19590   80.43200   13.91620  761.94760  761.72280 2000.00000    0.04170    3.08040    2.78850   15.59340
 11227.00000    4.43080   -0.04080    0.08030   44.84580   80.42920   13.02810  791.88680  793.16650 2000.00000    0.04250    3.02140    2.79120   15.07870
 11227.50000    4.43010   -0.04830    0.08630   44.49560   80.42630   13.03040  739.73700  638.04860 2000.00000    0.04490    3.08010    2.79530   14.91450
 11228.00000    4.42940   -0.04380    0.09040   44.12270   80.42340   13.03260  672.44570  534.61620 2000.00000    0.04820    3.13880    2.79920   14.94800
 11228.50000    4.42860   -0.04080    0.08280   43.79520   80.42060   13.03490  540.73270  435.94450 1347.98740    0.04820    3.19750    2.76090   16.01470
 11229.00000    4.66320   -0.04400    0.06960   43.81440   80.41760   13.90760  379.43420  375.33500   38.93450    0.04820    3.31500    2.73040   18.77180
 11229.50000    4.78020   -0.04680    0.05900   44.02230   80.41470   15.77840  340.25090  355.38970   96.62350    0.04820    3.37370    2.71900   21.68170
 11230.00000    4.59440   -0.03370    0.04840   44.18190   80.41180   17.89100  354.44650  350.50130 1166.91820    0.04760    3.43240    2.73210   21.94680
 11230.50000    4.42570   -0.01010    0.03860   44.33020   80.40880   18.38500  390.58280  449.38180 2000.00000    0.04820    3.30210    2.76690   20.19510
 11231.00000    4.42500    0.00350    0.04170   44.20280   80.40590   18.12770  491.46440  583.09230  429.29070    0.04820    3.14870    2.81210   20.05640
 11231.50000    4.42430   -0.01720    0.04610   44.52100   80.40290   16.60940  607.46200  611.26780   14.52720    0.05060    3.03260    2.82850   20.91730
 11232.00000    4.42350   -0.03360    0.05490   45.91940   80.40000   16.16650  650.50950  638.35190  981.20660    0.05000    2.96120    2.83260   21.56540
 11232.50000    4.43580   -0.05130    0.06520   46.62490   80.98530   14.83310  712.40060  712.28070 1533.15380    0.04590    2.96100    2.83360   22.48560
 11233.00000    4.53970   -0.06210    0.06080   47.33040   80.67870   14.83550  909.67130 1124.77870 1972.97500    0.04350    3.00570    2.83130   21.67710
 11233.50000    4.63170   -0.06630    0.05490   46.01250   80.39120   16.17290 1334.32820 1615.77210   20.69190    0.04000    3.07840    2.82840   22.01390
 11234.00000    4.65590   -0.06950    0.05160   44.87050   79.21120   16.62020 1664.15140 2322.78880 1531.00730    0.03700    3.16640    2.82840   23.49880
 11234.50000    4.65500   -0.07600    0.04550   44.16840   78.03190   18.48150 2751.43990 3071.53640 2000.00000    0.03400    3.19570    2.82840   25.06540
 11235.00000    4.65430   -0.07050    0.04050   43.81820   78.02910   21.22100 4331.02290 5654.32130 2000.00000    0.03140    3.25440    2.82480   25.53710
 11235.50000    4.68300   -0.06580    0.03620   43.45600   78.02650   24.87120 8665.42580 8248.88280 2000.00000    0.02940    3.19540    2.81740   26.53920
 11236.00000    4.71170   -0.06770    0.03130   43.11780   78.02330   28.40020 22303.20510 13039.42770 1920.01550    0.02920    3.16590    2.80620   29.01830
 11236.50000    4.74040   -0.06890    0.03060   43.11960   80.37340   32.61910 28897.97070 18196.35940 1930.34110    0.02740    3.07650    2.79300   31.34150
 11237.00000    4.76910   -0.06190    0.02830   43.14480   80.37060   35.09820 30000.00000 18572.77730 1939.05050    0.02500    2.95970    2.79300   31.00160
 11237.50000    4.76470   -0.05360    0.03120   43.56270   80.95590   37.75130 15023.44920 17076.64450 1947.76000    0.02420    2.95470    2.79720   31.83580
 11238.00000    4.70310   -0.04770    0.03560   44.11010   80.36470   38.00300 10119.80180 13252.91020 1956.46950    0.02710    2.89360    2.80350   34.42790
 11238.50000    4.64930   -0.05120    0.03860   44.95600   80.36180   37.05400 8711.30570 10328.68460 1965.17910    0.02940    2.87110    2.81070   32.98270
 11239.00000    4.64850   -0.05710    0.04300   45.80850   79.64300   32.66660 7601.71630 8664.46000 1973.88850    0.03000    2.95910    2.81750   30.43050
 11239.50000    4.64780   -0.06300    0.03710   44.36220   79.17940   23.76660 6904.73140 7756.51120 1982.59800    0.02940    3.03130    2.82240   27.71670
 11240.00000    4.64710   -0.06650    0.03710   43.74810   79.17650   23.32370 5926.98100 7016.80960 1991.30750    0.02710    3.07650    2.82120   26.57340
 11240.50000    4.64630   -0.06830    0.03390   44.18970   79.17350   23.32580 5463.75150 6465.85450 2000.00000    0.02470    3.07630    2.81090   25.66460
 11241.00000    4.64540   -0.06600    0.03110   43.83950   80.02340   23.77310 5334.15330 6122.26120 2000.00000    0.02240    3.07620    2.79830   25.16110
 11241.50000    4.64470   -0.06050    0.03110   43.75320   80.34410   23.33010 5668.69140 5796.92290 2000.00000    0.02240    3.07600    2.78620   25.12130
