~Version ---------------------------------------------------
VERS.   2.0 : CWLS log ASCII Standard -VERSION 2.0
WRAP.    NO : One line per depth step
DLM . SPACE : Column Data Section Delimiter
~Well ------------------------------------------------------
STRT .F                   97.0 : START DEPTH
STOP .F                 6704.0 : STOP DEPTH
STEP .F                    0.5 : STEP
NULL .                -9999.25 : NULL VALUE
COMP .                         : COMPANY
WELL .                         : WELL
FLD  .                         : FIELD
LOC  .                         : LOCATION
PROV .                         : PROVINCE
CNTY .                         : COUNTY
STAT .                         : STATE
CTRY .                         : COUNTRY
SRVC .                         : SERVICE COMPANY
DATE .                         : DATE
UWI  .                         : UNIQUE WELL ID
API  .                         : API NUMBER
SLAT .WGS84 3.4540186030891036 : SURFACE LATITUDE
SLON .WGS84   5.50213787765999 : SURFACE LONGITUDE
DATUM.F                2116.85 : DEPTH DATUM ELEV
~Curve Information -----------------------------------------
DEPT   .F     : 1 MEASURED DEPTH
RHOB   .G/C3  : BULK DENSITY
GRD    .GAPI  : GAMMA RAY FROM DENSITY LOG
NPHI_LS.DEC   : NEUTRON POROSITY LIMESTONE
CALD   .IN    : CALIPER FROM DENSITY LOG
PEF    .B/E   : PHOTOELECTRIC FACTOR
DPHI_LS.DEC   : DENSITY POROSITY LIMESTONE
DRHO   .G/C3  : BULK DENSITY CORRECTION
LLD    .OHMM  : LATEROLOG DEEP RESISTIVITY
LLS    .OHMM  : LATEROLOG SHALLOW RESISTIVITY
MSFL   .OHMM  : MICRO SPHERICALLY FOCUSED RESISTIVITY
SPR    .MV    : SPONTANEOUS POTENTIAL FROM RESISTIVITY LOG
DTCO   .US/F  : DELTA-T COMPRESSIONAL
DTSM   .US/F  : DELTA-T SHEAR
~Params ----------------------------------------------------
~Other -----------------------------------------------------
~ASCII -----------------------------------------------------
# ...
 5791.00000    2.51300   73.95640    0.16970    8.95180    2.79930    0.11840    0.00840   10.00860    9.56060   12.03670   -4.91970   87.75640   89.15440
 5791.50000    2.51900   74.56720    0.16950    8.99810    2.76090    0.11340    0.01450   10.32850    9.84370   12.42110   -4.98560   92.52980   93.88570
 5792.00000    2.53120   80.02630    0.16820    9.03540    2.79490    0.10340    0.02080   10.57780   10.17620   12.61850   -5.05160   90.71490   97.01040
 5792.50000    2.55130   86.37820    0.16810    9.05790    2.87500    0.09500    0.02550   11.09710   10.45300   12.70450   -5.11760   88.69940   91.18590
 5793.00000    2.55280   89.51070    0.16840    9.08030    2.97150    0.09400    0.02980   11.47110   10.62350   12.45100   -5.18360   87.48090   87.85730
 5793.50000    2.55040   90.30470    0.16970    9.10270    3.09650    0.09530    0.03520   11.54190   10.49500   11.29690   -5.21420   85.92160   87.70330
 5794.00000    2.54410   90.65670    0.17820    9.19170    3.22270    0.09840    0.04490   11.13240    9.96260   10.24980   -5.24020   84.36100   88.30920
 5794.50000    2.53630   91.98960    0.21090    9.28580    3.34890    0.10360    0.06510    9.82900    9.19140    7.38970   -5.34360   81.58040   88.24840
 5795.00000    2.52570   96.95390    0.24860    9.43880    3.44280    0.11060    0.08260    8.67910    8.40180    5.62030   -5.24730   79.64620   87.26460
 5795.50000    2.51560  105.81980    0.28420    9.57120    3.45380    0.11810    0.09870    7.89860    7.64630    4.11670   -5.33060   78.71680   85.92540
 5796.00000    2.50280  113.13680    0.30870    9.70690    3.45580    0.12760    0.10910    7.19920    7.03520    3.25220   -5.50020   78.09720   81.98350
 5796.50000    2.49430  113.93620    0.31860    9.82220    3.37140    0.13440    0.11830    6.95710    6.86090    2.94000   -5.68200   76.69560   78.04170
 5797.00000    2.49370  112.85000    0.32350    9.82570    3.26950    0.12990    0.12830    6.96380    6.86150    3.03950   -5.80320   75.43430   76.01310
 5797.50000    2.50080  111.46590    0.33250    9.70720    3.12750    0.12280    0.13650    7.20590    7.08050    3.39650   -5.81970   76.76740   80.27070
 5798.00000    2.50380  111.77220    0.33110    9.60900    2.99620    0.12160    0.13500    7.68300    7.49460    3.97640   -5.83610   80.34290   86.05530
 5798.50000    2.50020  112.60740    0.30890    9.51850    2.96090    0.12850    0.12190    8.04600    7.92680    4.08400   -5.85260   84.20880   87.56770
 5799.00000    2.49550  112.86750    0.29700    9.42810    2.98320    0.12830    0.11590    8.18480    8.06360    4.08430   -5.99450   87.16930   88.72660
 5799.50000    2.49800  110.58830    0.29450    9.32790    3.01720    0.12330    0.11620    8.33950    8.20870    4.11750   -6.14600   89.20860   89.73980
 5800.00000    2.52260  108.02070    0.28150    9.21440    3.15890    0.11750    0.11750    8.53430    8.42440    4.68120   -6.29750   89.04880   89.78530
 5800.50000    2.55350  104.02580    0.26310    9.15380    3.26310    0.10940    0.11780    8.72520    8.57930    5.87670   -6.40310   87.67640   88.41060
 5801.00000    2.55730  103.47960    0.25520    9.11870    3.27980    0.09840    0.11840    8.83590    8.49650    7.04760   -6.41660   86.91350   87.36190
 5801.50000    2.55790  103.13190    0.25650    9.13610    3.24390    0.09140    0.11900    8.68600    8.33850    8.16470   -6.43010   86.61900   87.06740
 5802.00000    2.55400  102.39380    0.26930    9.15960    3.16650    0.09440    0.11900    8.44980    8.07350    8.75980   -6.43600   86.51680   86.94780
 5802.50000    2.52580  101.06580    0.29640    9.23850    3.07560    0.11310    0.11660    8.16720    7.81700    7.64630   -6.44140   86.43990   86.87090
 5803.00000    2.49660  100.04430    0.34160    9.38030    2.96660    0.13180    0.10660    7.91980    7.67320    4.43340   -6.44680   86.07510   86.55440
 5803.50000    2.47190  101.12230    0.38980    9.56020    2.87560    0.14330    0.10020    7.96370    7.65130    2.59040   -6.45230   85.32480   86.00750
 5804.00000    2.46000  103.22400    0.34330    9.69300    2.84470    0.15270    0.10510    8.08630    7.78260    2.70190   -6.45770   83.26370   84.54150
 5804.50000    2.44730  102.82630    0.29680    9.71580    2.83240    0.15940    0.11190    8.42050    8.24060    2.69080   -6.46310   81.36400   82.52210
 5805.00000    2.43490  101.33480    0.25030    9.58990    2.80610    0.16260    0.11120    9.03760    8.73640    2.34080   -6.46850   83.57250   84.70490
 5805.50000    2.42140  100.34880    0.21140    9.33990    2.76690    0.17390    0.10440    9.55200    8.98000    2.57800   -6.47400   85.12240   85.82560
 5806.00000    2.39620  100.57930    0.21570    9.24570    2.76770    0.19150    0.08730    9.65790    9.19450    3.13890   -6.47940   87.09390   88.71250
 5806.50000    2.36970  102.98470    0.23960    9.35080    2.82750    0.21010    0.07020    9.72150    9.27660    4.54880   -6.48480   89.35320   92.76710
 5807.00000    2.34600  106.94820    0.26350    9.43680    2.89590    0.21800    0.05900    9.75840    9.34300    4.11890   -6.49030   88.58160   93.51840
 5807.50000    2.34160  112.93650    0.28740    9.37000    3.00780    0.22250    0.04830    9.78860    9.30710    4.14350   -6.49570   87.44920   91.84790
 5808.00000    2.34440  118.88200    0.29110    9.21950    3.14990    0.21890    0.04000    9.74860    9.27140    7.61560   -6.58550   87.04810   90.36580
 5808.50000    2.35250  117.22390    0.28270    9.02530    3.19750    0.21190    0.03680    9.60240    9.10460   10.80840   -6.71690   88.01000   89.69620
 5809.00000    2.35780  113.26570    0.27770    9.04040    3.23150    0.20710    0.03950    9.22590    8.84350   10.13150   -6.89120   89.67740   90.27730
 5809.50000    2.38680  109.95230    0.27790    9.09820    3.26590    0.18900    0.04890    8.59040    8.22300    7.85410   -6.92280   90.09080   90.94310
 5810.00000    2.42760  111.06060    0.28830    9.24330    3.27910    0.16810    0.07350    7.99870    7.62360    4.59180   -6.97090   90.38940   92.02380
 5810.50000    2.45120  116.09710    0.29530    9.39210    3.28720    0.15940    0.09320    7.54160    7.25580    4.73840   -7.01900   90.67610   93.42720
 5811.00000    2.45580  119.50910    0.29800    9.45060    3.27530    0.15540    0.10380    7.44180    7.17330    5.24860   -7.06700   90.96290   93.90570
 5811.50000    2.45710  122.72210    0.29710    9.50480    3.19300    0.15230    0.11350    7.26840    7.13540    3.48170   -7.11510   91.60910   93.49310
 5812.00000    2.45800  122.95590    0.29440    9.54160    3.09230    0.15170    0.11870    7.16860    7.10880    2.47400   -7.16320   92.32310   93.28320
 5812.50000    2.45670  116.42640    0.29420    9.55960    3.06720    0.15240    0.12070    7.09730    7.08220    2.95180   -7.21130   92.55690   93.18400
 5813.00000    2.44520  109.32000    0.29580    9.53230    3.15110    0.15880    0.12270    7.12640    7.05580    3.85640   -7.25940   91.98510   92.58850
 5813.50000    2.43170  103.73920    0.30000    9.38380    3.18940    0.16910    0.11840    7.16550    7.06550    3.96580   -7.30750   90.02950   91.08500
 5814.00000    2.39250  106.51400    0.30430    9.36610    3.16540    0.19790    0.11300    7.20480    7.10430    3.60330   -7.35560   86.67710   88.56850
 5814.50000    2.34690  111.97100    0.30730    9.39090    3.11870    0.22430    0.10830    7.24430    7.14330    2.43070   -7.40370   85.87320   86.70550
 5815.00000    2.31990  112.76160    0.30170    9.48200    3.07770    0.23680    0.10530    7.28400    7.18250    1.95780   -7.45180   87.51260   88.24960
 5815.50000    2.31930  113.55240    0.29870    9.54550    3.05220    0.23950    0.10100    7.38460    7.27690    2.67940   -7.49990   89.30440   90.94710
 5816.00000    2.34100  115.69590    0.29560    9.35100    3.06370    0.22650    0.09630    7.60610    7.46900    4.41710   -7.54800   92.93410   92.97470
 5816.50000    2.37530  119.01910    0.29440    9.11340    3.07940    0.19810    0.09510    7.92870    7.77120    6.62050   -7.59610   92.46360   94.82170
