~Version ---------------------------------------------------
VERS.   2.0 : CWLS log ASCII Standard -VERSION 2.0
WRAP.    NO : One line per depth step
DLM . SPACE : Column Data Section Delimiter
~Well ------------------------------------------------------
STRT .F                   97.0 : START DEPTH
STOP .F                 6704.0 : STOP DEPTH
STEP .F                    0.5 : STEP
NULL .                -9999.25 : NULL VALUE
COMP .                         : COMPANY
WELL .                         : WELL
FLD  .                         : FIELD
LOC  .                         : LOCATION
PROV .                         : PROVINCE
CNTY .                         : COUNTY
STAT .                         : STATE
CTRY .                         : COUNTRY
SRVC .                         : SERVICE COMPANY
DATE .                         : DATE
UWI  .                         : UNIQUE WELL ID
API  .                         : API NUMBER
SLAT .WGS84 3.4540186030891036 : SURFACE LATITUDE
SLON .WGS84   5.50213787765999 : SURFACE LONGITUDE
DATUM.F                2116.85 : DEPTH DATUM ELEV
~Curve Information -----------------------------------------
DEPT   .F     : 1 MEASURED DEPTH
RHOB   .G/C3  : BULK DENSITY
GRD    .GAPI  : GAMMA RAY FROM DENSITY LOG
NPHI_LS.DEC   : NEUTRON POROSITY LIMESTONE
CALD   .IN    : CALIPER FROM DENSITY LOG
PEF    .B/E   : PHOTOELECTRIC FACTOR
DPHI_LS.DEC   : DENSITY POROSITY LIMESTONE
DRHO   .G/C3  : BULK DENSITY CORRECTION
LLD    .OHMM  : LATEROLOG DEEP RESISTIVITY
LLS    .OHMM  : LATEROLOG SHALLOW RESISTIVITY
MSFL   .OHMM  : MICRO SPHERICALLY FOCUSED RESISTIVITY
SPR    .MV    : SPONTANEOUS POTENTIAL FROM RESISTIVITY LOG
DTCO   .US/F  : DELTA-T COMPRESSIONAL
DTSM   .US/F  : DELTA-T SHEAR
~Params ----------------------------------------------------
~Other -----------------------------------------------------
~ASCII -----------------------------------------------------
# ...
 5479.00000   -9999.25   99.89720    0.22810    9.50820   -9999.25   -9999.25   -9999.25   -9999.25   -9999.25   -9999.25   -9999.25   75.14850   75.92400
 5479.50000   -9999.25   91.76590    0.21540    9.40540   -9999.25   -9999.25   -9999.25   -9999.25   -9999.25   -9999.25   -9999.25   74.63480   75.23470
 5480.00000   -9999.25   80.05980    0.19870    9.31360   -9999.25   -9999.25   -9999.25   -9999.25   -9999.25   -9999.25   -9999.25   73.42480   74.00300
 5480.50000   -9999.25   74.53210    0.19420    9.24980   -9999.25   -9999.25   -9999.25   -9999.25   -9999.25   -9999.25   -9999.25   73.10830   74.45940
 5481.00000   -9999.25   75.74720    0.19810    9.25790   -9999.25   -9999.25   -9999.25   -9999.25   -9999.25   -9999.25   -9999.25   75.36230   75.99200
 5481.50000   -9999.25   77.43140    0.20430    9.26050   -9999.25   -9999.25   -9999.25   -9999.25   -9999.25   -9999.25   -9999.25   75.87010   76.49100
 5482.00000   -9999.25   75.75910    0.20730    9.16350    2.49310   -9999.25   -9999.25   -9999.25   -9999.25   -9999.25   -9999.25   73.92010   74.96630
 5482.50000   -9999.25   66.77580    0.20050    9.05610    2.54680   -9999.25   -9999.25   -9999.25   -9999.25   -9999.25   -9999.25   72.56400   73.16660
 5483.00000   -9999.25   59.00310    0.19070    8.98030    2.61150   -9999.25   -9999.25   -9999.25   -9999.25   -9999.25   -9999.25   72.88080   73.56590
 5483.50000   -9999.25   49.62290    0.18310    8.96920    2.70200   -9999.25   -9999.25   -9999.25   -9999.25   -9999.25   -9999.25   74.25820   74.83040
 5484.00000   -9999.25   43.36620    0.18150    8.97390    2.79380   -9999.25   -9999.25   -9999.25   -9999.25   -9999.25   -9999.25   75.27170   75.98870
 5484.50000   -9999.25   43.72510    0.18100    8.98400    2.78710   -9999.25   -9999.25   -9999.25   -9999.25   -9999.25   -9999.25   75.82240   76.25890
 5485.00000   -9999.25   45.17540    0.18060    8.99400    2.75610   -9999.25   -9999.25   -9999.25   -9999.25   -9999.25   -9999.25   75.87670   76.32000
 5485.50000   -9999.25   43.96760    0.17680    9.00400    2.72800   -9999.25   -9999.25   -9999.25   -9999.25   -9999.25   -9999.25   77.11910   77.69330
 5486.00000   -9999.25   40.02480    0.16640    9.01400    2.69980   -9999.25   -9999.25   -9999.25   -9999.25   -9999.25   -9999.25   77.03060   77.51460
 5486.50000   -9999.25   37.03410    0.15830    9.03810    2.69460   -9999.25   -9999.25   -9999.25   -9999.25   -9999.25   -9999.25   76.73800   77.17830
 5487.00000   -9999.25   37.58520    0.15260    9.06880    2.73010   -9999.25   -9999.25   -9999.25   -9999.25   -9999.25   -9999.25   76.66110   77.14180
 5487.50000   -9999.25   42.69170    0.15120    9.09950    2.68260   -9999.25   -9999.25   -9999.25   -9999.25   -9999.25   -9999.25   76.45600   76.88960
 5488.00000   -9999.25   46.77880    0.15510    9.13030    2.62290   -9999.25   -9999.25   -9999.25   -9999.25   -9999.25   -9999.25   76.45040   76.88030
 5488.50000   -9999.25   49.63780    0.16110    9.16100    2.56920   -9999.25   -9999.25   -9999.25   -9999.25   -9999.25   -9999.25   76.53830   76.97400
 5489.00000   -9999.25   51.87790    0.16710    9.19170    2.53360   -9999.25   -9999.25   -9999.25   -9999.25   -9999.25   -9999.25   76.98910   77.64340
 5489.50000   -9999.25   52.53240    0.17340    9.22240    2.49510   -9999.25   -9999.25   -9999.25   -9999.25   -9999.25   -9999.25   78.19370   78.92850
 5490.00000    2.44440   55.61830    0.18220    9.31380    2.47010    0.15990   -9999.25   -9999.25   -9999.25   -9999.25   -9999.25   79.52810   80.26370
 5490.50000    2.44610   61.83780    0.19100    9.37460    2.49740    0.15340   -9999.25   -9999.25   -9999.25   -9999.25   -9999.25   80.17650   80.60840
 5491.00000    2.46030   72.88160    0.20380    9.45790    2.54590    0.14180   -9999.25   -9999.25   -9999.25   -9999.25   -9999.25   80.27040   80.70080
 5491.50000    2.49810   81.65290    0.21640    9.55420    2.62650    0.12840   -9999.25   -9999.25   -9999.25   -9999.25   -9999.25   80.33760   80.76800
 5492.00000    2.51680   92.36620    0.22710    9.63820    2.78140    0.11170   -9999.25   -9999.25   -9999.25   -9999.25   -9999.25   81.26350   82.37560
 5492.50000    2.53290   98.12080    0.23260    9.69250    2.92620    0.09830   -9999.25   -9999.25   -9999.25   -9999.25   -9999.25   82.88740   84.55640
 5493.00000    2.54890   98.20520    0.23370    9.74880    3.05510    0.09260   -9999.25   -9999.25   -9999.25   -9999.25   -9999.25   83.69970   85.30310
 5493.50000    2.55350   95.83210    0.23590    9.78300    3.18400    0.09220   -9999.25   -9999.25   -9999.25   -9999.25   -9999.25   84.51200   86.04970
 5494.00000    2.55500   96.96520    0.24410    9.80790    3.26060    0.09290   -9999.25   -9999.25   -9999.25   -9999.25   -9999.25   85.72090   86.79640
 5494.50000    2.55600  104.02890    0.25610    9.83200    3.31290    0.09330   -9999.25   -9999.25   -9999.25   -9999.25   -9999.25   86.18290   87.15780
 5495.00000    2.55690  107.90250    0.26070    9.83100    3.35570    0.09170   -9999.25   -9999.25   -9999.25   -9999.25   -9999.25   84.64750   87.29470
 5495.50000    2.55870  108.68270    0.26400    9.83650    3.39850    0.08980   -9999.25   -9999.25   -9999.25   -9999.25   -9999.25   83.68680   85.99090
 5496.00000    2.56230  110.25260    0.26200    9.84340    3.45620    0.08680   -9999.25   -9999.25   -9999.25   -9999.25   -9999.25   83.08990   84.45510
 5496.50000    2.56670  112.42700    0.25840    9.85030    3.52200    0.08480   -9999.25   -9999.25   -9999.25   -9999.25   -9999.25   81.38780   82.78850
 5497.00000    2.57010  114.96790    0.26390    9.85720    3.57230    0.08310   -9999.25   -9999.25   -9999.25   -9999.25   -9999.25   80.01610   81.12190
 5497.50000    2.57380  115.06500    0.27560    9.86410    3.60510    0.08080   -9999.25   -9999.25   -9999.25   -9999.25   -9999.25   79.14490   79.57590
 5498.00000    2.57850  112.12300    0.27920    9.87100    3.57710    0.07780   -9999.25   -9999.25   -9999.25   -9999.25   -9999.25   79.04720   79.49210
 5498.50000    2.58260  105.74850    0.27320    9.85730    3.53820    0.07520   -9999.25   -9999.25   -9999.25   -9999.25   -9999.25   79.30780   79.75280
 5499.00000    2.58250  102.12410    0.26980    9.84010    3.51600    0.07580   -9999.25   -9999.25   -9999.25   -9999.25   -9999.25   79.53750   79.97140
 5499.50000    2.58040   98.68980    0.26700    9.82280    3.46000    0.07930   -9999.25   -9999.25   -9999.25   -9999.25   -9999.25   79.61180   80.10670
 5500.00000    2.57010   96.27920    0.25750    9.80130    3.34970    0.08500   -9999.25   -9999.25   -9999.25   -9999.25   -9999.25   78.70470   79.28820
 5500.50000    2.55760   93.87680    0.24380    9.77200    3.23760    0.09300   -9999.25   -9999.25   -9999.25   -9999.25   -9999.25   78.04720   78.48250
 5501.00000    2.54530   91.53700    0.23460    9.74270    3.12960    0.09980   -9999.25   -9999.25   -9999.25   -9999.25   -9999.25   77.58680   78.23120
 5501.50000    2.53470   89.20850    0.22570    9.71340    3.09190    0.10630   -9999.25   -9999.25   -9999.25   -9999.25   -9999.25   76.45020   77.04610
 5502.00000    2.52690   88.89700    0.22150    9.68910    3.09190    0.11140   -9999.25   -9999.25   -9999.25   -9999.25   -9999.25   76.16130   76.59580
 5502.50000    2.51940   91.69420    0.21940    9.67880    3.14250    0.11600   -9999.25   -9999.25   -9999.25   -9999.25   -9999.25   76.15350   76.61560
 5503.00000    2.51590   95.58140    0.22180    9.66930    3.17820    0.11740   -9999.25   -9999.25   -9999.25   -9999.25   -9999.25   76.93330   77.53420
 5503.50000    2.51840   98.49800    0.23010    9.66020    3.19120    0.11610   -9999.25   -9999.25   -9999.25   -9999.25   -9999.25   77.57050   78.24260
 5504.00000    2.52450  100.82440    0.24220    9.65110    3.15480    0.11220   -9999.25   -9999.25   -9999.25   -9999.25   -9999.25   77.19860   78.29390
 5504.50000    2.52970   99.10250    0.24240    9.64200    3.08840    0.10800   -9999.25   -9999.25   -9999.25   -9999.25   -9999.25   77.26330   78.22620
