~Version ---------------------------------------------------
VERS.   2.0 : CWLS log ASCII Standard -VERSION 2.0
WRAP.    NO : One line per depth step
DLM . SPACE : Column Data Section Delimiter
~Well ------------------------------------------------------
STRT .F                   97.0 : START DEPTH
STOP .F                 6704.0 : STOP DEPTH
STEP .F                    0.5 : STEP
NULL .                -9999.25 : NULL VALUE
COMP .                         : COMPANY
WELL .                         : WELL
FLD  .                         : FIELD
LOC  .                         : LOCATION
PROV .                         : PROVINCE
CNTY .                         : COUNTY
STAT .                         : STATE
CTRY .                         : COUNTRY
SRVC .                         : SERVICE COMPANY
DATE .                         : DATE
UWI  .                         : UNIQUE WELL ID
API  .                         : API NUMBER
SLAT .WGS84 3.4540186030891036 : SURFACE LATITUDE
SLON .WGS84   5.50213787765999 : SURFACE LONGITUDE
DATUM.F                2116.85 : DEPTH DATUM ELEV
~Curve Information -----------------------------------------
DEPT   .F     : 1 MEASURED DEPTH
RHOB   .G/C3  : BULK DENSITY
GRD    .GAPI  : GAMMA RAY FROM DENSITY LOG
NPHI_LS.DEC   : NEUTRON POROSITY LIMESTONE
CALD   .IN    : CALIPER FROM DENSITY LOG
PEF    .B/E   : PHOTOELECTRIC FACTOR
DPHI_LS.DEC   : DENSITY POROSITY LIMESTONE
DRHO   .G/C3  : BULK DENSITY CORRECTION
LLD    .OHMM  : LATEROLOG DEEP RESISTIVITY
LLS    .OHMM  : LATEROLOG SHALLOW RESISTIVITY
MSFL   .OHMM  : MICRO SPHERICALLY FOCUSED RESISTIVITY
SPR    .MV    : SPONTANEOUS POTENTIAL FROM RESISTIVITY LOG
DTCO   .US/F  : DELTA-T COMPRESSIONAL
DTSM   .US/F  : DELTA-T SHEAR
~Params ----------------------------------------------------
~Other -----------------------------------------------------
~ASCII -----------------------------------------------------
# ...
 5869.00000    2.34690  101.44500    0.25290    9.49650    2.56690    0.21820    0.05010    9.13080    9.00460    2.20430   -8.21900   77.72910   80.56360
 5869.50000    2.35340  102.48550    0.25560    9.54010    2.60960    0.21870    0.04530    9.14510    9.00540    1.42230   -8.18220   71.78370   73.94790
 5870.00000    2.39200  101.15660    0.23750    9.28130    2.70260    0.20300    0.03370    9.54530    9.35050    6.72130   -8.17390   69.26120   69.74490
 5870.50000    2.42400   99.55220    0.21410    9.05840    3.00850    0.16820    0.02500   10.08490    9.86640    9.31810   -8.23600   68.93810   69.39170
 5871.00000    2.48680   98.01820    0.19460    8.99010    3.04440    0.13660    0.02350   10.47100   10.31600   10.55690   -8.29810   69.56100   70.29960
 5871.50000    2.51810   97.14030    0.19460    8.96120    3.01160    0.11460    0.02570   10.57180   10.42550   10.06860   -8.36020   72.36360   75.74350
 5872.00000    2.50630   97.09070    0.21910    8.96840    2.94250    0.12360    0.02930   10.54740   10.40140    6.73870   -8.34710   82.42700   87.27310
 5872.50000    2.48370   98.14740    0.23650    8.98570    2.89730    0.14060    0.03280   10.52300   10.37870    4.57890   -8.31660   87.86940   88.29830
 5873.00000    2.45700   99.36630    0.23200    8.99050    2.87140    0.14820    0.03800   10.49870   10.36760    3.48080   -8.28610   85.76490   87.26070
 5873.50000    2.45230   99.56090    0.22380    8.99280    2.84340    0.15500    0.04130   10.50790   10.35650    4.31430   -8.25560   82.63920   83.98110
 5874.00000    2.45360   95.82520    0.19080    8.97940    2.89970    0.15360    0.04060   10.56550   10.34540    6.86280   -8.22510   79.93000   81.51130
 5874.50000    2.47130   89.31340    0.16520    8.94420    2.97590    0.13780    0.04220   10.81550   10.41010   10.71200   -8.19450   78.51430   79.09900
 5875.00000    2.49980   82.56950    0.15060    8.90900    2.97930    0.12070    0.04460   11.14680   10.53470   11.30020   -8.16400   80.24430   82.03830
 5875.50000    2.53010   78.01550    0.16540    8.89650    2.90960    0.10920    0.04960   11.28620   11.06210    9.96660   -8.15160   85.43670   87.64980
 5876.00000    2.53150   77.19100    0.17920    8.93340    2.80740    0.11040    0.05880   11.57540   11.39120    7.53840   -8.14810   89.08200   90.03760
 5876.50000    2.50800   77.80740    0.18850    8.97030    2.70600    0.12580    0.06870   11.53350   11.37210    6.04970   -8.13420   90.56030   91.59210
 5877.00000    2.46650   78.26710    0.19170    9.03010    2.61720    0.15050    0.07770   11.31030   11.13030    6.35430   -8.09920   93.30940   94.02720
 5877.50000    2.40450   78.77060    0.19400    9.18300    2.54150    0.20170    0.08670   11.02110   10.84560    7.24610   -8.06160   94.00440   94.57490
 5878.00000    2.31720   81.92550    0.22170    9.85020    2.49340    0.23770    0.08620   10.79250   10.64340    3.32960   -7.78160   92.46600   93.69880
 5878.50000    2.28610   84.59410    0.24680   10.63660    2.45880    0.25770    0.08110   10.88530   10.72080    1.28370   -7.83950   91.24670   91.84850
 5879.00000    2.25610   84.26290    0.25050   10.88020    2.46880    0.26930    0.06070   11.02190   10.86420    2.33450   -7.85700   91.82720   92.73470
 5879.50000    2.26040   81.57090    0.25480   10.51500    2.50460    0.27400    0.04370   10.93420   10.74230    5.12490   -7.87440   93.19640   93.70630
 5880.00000    2.29870   78.91180    0.26330    9.65740    2.59250    0.25220    0.05330   10.39090   10.02130    4.46930   -7.89190   93.85310   94.38650
 5880.50000    2.29960   79.15100    0.27130    9.50290    2.74470    0.24580    0.06750    9.08890    8.78010    2.28860   -7.92920   94.57940   95.15030
 5881.00000    2.29700   81.29180    0.30700   10.23650    2.78030    0.24870    0.07460    7.86640    7.72900    1.08710   -8.07830   95.46330   95.98830
 5881.50000    2.29560   85.02730    0.34770   10.82290    2.77360    0.25120    0.08020    7.56390    7.28960    1.05410   -8.10310   96.01160   96.47030
 5882.00000    2.29750   89.92570    0.39350   11.45110    2.75190    0.24800    0.09050    7.73090    7.49120    1.17540   -8.13270   96.78860   98.31130
 5882.50000    2.31270   91.29070    0.40070   11.74860    2.72320    0.23830    0.10720    7.99930    7.75730    1.30560   -8.16670  101.29500  103.61000
 5883.00000    2.32910   89.41830    0.34390   11.49430    2.69450    0.23060    0.12460    8.33910    8.09980    1.32730   -8.20070  108.93180  111.46920
 5883.50000    2.32230   86.43080    0.30980   10.84460    2.69230    0.23530    0.13220    8.97000    8.61450    1.72940   -8.23480  112.58920  112.89150
 5884.00000    2.30340   84.30910    0.28490    9.96820    2.76100    0.24330    0.12010    9.98580    9.12310    2.48380   -8.18360  108.71790  111.42550
 5884.50000    2.31540   84.76250    0.26850    9.71880    2.88090    0.23860    0.12130   10.06340    9.41640    1.92820   -8.11510  100.31490  104.95110
 5885.00000    2.33610   88.06430    0.28840    9.75700    2.90450    0.22570    0.13660    9.97870    9.53230    1.56950   -8.11490   90.26130   94.27580
 5885.50000    2.36000   92.94740    0.30840    9.83440    2.87270    0.20500    0.14890   10.02320    9.61060    1.63190   -8.11460   83.98030   85.96750
 5886.00000    2.38250   95.35530    0.35330    9.98690    2.85120    0.19740    0.14870   10.28220   10.19420    1.74820   -8.11440   86.51110   88.24310
 5886.50000    2.38110   93.39730    0.35920    9.98730    2.88540    0.20910    0.14600   10.91450   10.81320    1.48390   -8.11410   90.59660   92.48220
 5887.00000    2.36370   82.80460    0.27910    9.61700    2.94930    0.20790    0.12510   12.16880   11.71150    1.76640   -8.11380   93.88550   94.89480
 5887.50000    2.38500   70.36600    0.22920    9.26540    3.19160    0.18370    0.10070   14.71920   13.10110    4.75140   -8.11360   95.96390   96.97320
 5888.00000    2.44680   59.71860    0.15920    9.01180    4.02450    0.14280    0.07690   21.36520   19.71130   21.73140   -8.18940   98.16560   99.34560
 5888.50000    2.49090   53.90850    0.11700    8.97650    4.14350    0.09120    0.05430   22.76440   23.72990   59.33410   -8.32000   97.82070  100.60720
 5889.00000    2.58330   56.95890    0.11830    8.99780    4.08250    0.03230    0.05230   19.66130   21.84580   48.52950   -8.41660   93.92930   96.89660
 5889.50000    2.67820   61.21670    0.14370    9.17220    3.87580    0.02320    0.05240   16.11610   15.36850   26.83870   -8.51330   91.89820   93.05680
 5890.00000    2.67820   76.64130    0.21350    9.42730    3.61720    0.06690    0.05810   12.51710   10.56960    5.03330   -8.61000   89.78640   90.59370
 5890.50000    2.58590   86.46310    0.30550    9.76650    3.43220    0.12580    0.07330    8.58320    8.34580    2.12490   -8.69840   89.61330   90.45160
 5891.00000    2.45360   91.92890    0.31830   10.07790    3.26810    0.16040    0.09660    7.99830    7.81610    3.24150   -8.67460   90.90440   91.78610
 5891.50000    2.40680   92.94160    0.34210   10.33330    3.15810    0.20380    0.12000    7.60210    7.35810    4.04550   -8.67370   92.74670   93.26090
 5892.00000    2.34750   90.65890    0.36080   10.70920    3.06240    0.24110    0.14550    7.30410    6.92610    2.97240   -8.69790   93.20330   93.63210
 5892.50000    2.29850   88.89820    0.38240   11.08640    2.97950    0.26010    0.14850    7.14380    6.65430    2.25570   -8.78950   93.10040   93.57050
 5893.00000    2.26500   92.75720    0.39930   11.39780    2.96340    0.26580    0.14800    7.02320    6.55190    2.88430   -8.98730   92.34290   92.97160
 5893.50000    2.27100   96.11500    0.40290   11.18790    2.96800    0.26770    0.14590    7.07270    6.58220    3.38030   -9.24880   90.46110   91.36120
 5894.00000    2.29820   97.97780    0.38430   10.70590    3.06730    0.23960    0.14350    7.45650    6.98310    3.24100   -9.30000   89.38120   90.41720
 5894.50000    2.33990   99.33820    0.35740   10.16890    3.18310    0.20600    0.13190    8.58190    7.96390    2.60920   -9.30000   88.30140   89.51300
