~Version ---------------------------------------------------
VERS.   2.0 : CWLS log ASCII Standard -VERSION 2.0
WRAP.    NO : One line per depth step
DLM . SPACE : Column Data Section Delimiter
~Well ------------------------------------------------------
STRT .F                   97.0 : START DEPTH
STOP .F                 6704.0 : STOP DEPTH
STEP .F                    0.5 : STEP
NULL .                -9999.25 : NULL VALUE
COMP .                         : COMPANY
WELL .                         : WELL
FLD  .                         : FIELD
LOC  .                         : LOCATION
PROV .                         : PROVINCE
CNTY .                         : COUNTY
STAT .                         : STATE
CTRY .                         : COUNTRY
SRVC .                         : SERVICE COMPANY
DATE .                         : DATE
UWI  .                         : UNIQUE WELL ID
API  .                         : API NUMBER
SLAT .WGS84 3.4540186030891036 : SURFACE LATITUDE
SLON .WGS84   5.50213787765999 : SURFACE LONGITUDE
DATUM.F                2116.85 : DEPTH DATUM ELEV
~Curve Information -----------------------------------------
DEPT   .F     : 1 MEASURED DEPTH
RHOB   .G/C3  : BULK DENSITY
GRD    .GAPI  : GAMMA RAY FROM DENSITY LOG
NPHI_LS.DEC   : NEUTRON POROSITY LIMESTONE
CALD   .IN    : CALIPER FROM DENSITY LOG
PEF    .B/E   : PHOTOELECTRIC FACTOR
DPHI_LS.DEC   : DENSITY POROSITY LIMESTONE
DRHO   .G/C3  : BULK DENSITY CORRECTION
LLD    .OHMM  : LATEROLOG DEEP RESISTIVITY
LLS    .OHMM  : LATEROLOG SHALLOW RESISTIVITY
MSFL   .OHMM  : MICRO SPHERICALLY FOCUSED RESISTIVITY
SPR    .MV    : SPONTANEOUS POTENTIAL FROM RESISTIVITY LOG
DTCO   .US/F  : DELTA-T COMPRESSIONAL
DTSM   .US/F  : DELTA-T SHEAR
~Params ----------------------------------------------------
~Other -----------------------------------------------------
~ASCII -----------------------------------------------------
# ...
 5713.00000    2.49890  112.13290    0.31900    9.68280    3.02130    0.12490    0.14760    6.38160    6.05590    3.71820    5.54120   96.23580   96.89840
 5713.50000    2.49870  115.80550    0.31550    9.73040    3.02140    0.12330    0.14400    6.51160    6.15270    4.00530    5.46610   96.83080   97.26630
 5714.00000    2.49780  120.41740    0.31990    9.63240    3.05710    0.12660    0.13750    6.76660    6.48070    4.38190    5.43550   95.59890   96.61540
 5714.50000    2.49770  123.96770    0.31810    9.48030    3.21230    0.12650    0.13070    7.13400    6.96270    4.57620    5.43010   95.42560   95.96330
 5715.00000    2.49800  127.29550    0.31110    9.39750    3.35530    0.12450    0.11490    7.76240    7.51670    6.91080    5.36600   96.52220   97.22930
 5715.50000    2.50050  129.53470    0.31150    9.38060    3.45430    0.12450    0.09900    8.48620    8.04180    9.53610    5.28960   97.83640   98.48800
 5716.00000    2.51490  128.44380    0.31320    9.38230    3.51580    0.12040    0.09020    8.53730    7.99100   11.29590    5.21330   98.46090   99.70840
 5716.50000    2.51490  125.10620    0.31350    9.43110    3.47780    0.11650    0.08260    8.14990    7.75430    9.23680    5.13690   97.34150  100.19810
 5717.00000    2.50980  123.00930    0.31760    9.52040    3.39930    0.12010    0.07500    7.61130    7.35510    7.18980    5.06050   97.36670   99.95240
 5717.50000    2.50530  124.22590    0.32470    9.59370    3.31590    0.12410    0.06730    7.02050    6.66120    5.70040    4.98410   98.93480  100.61710
 5718.00000    2.50360  131.13620    0.33170    9.69440    3.23080    0.12600    0.06900    6.77700    6.51370    5.39870    4.90770   99.90890  102.05090
 5718.50000    2.50440  132.68880    0.33640    9.76800    3.14580    0.12170    0.07660    6.69290    6.43000    5.31290    4.83140   98.66140  101.02110
 5719.00000    2.50780  130.79350    0.33140    9.84560    3.10320    0.12050    0.08380    6.60980    6.42650    5.40720    4.75500   97.29850   98.78520
 5719.50000    2.51550  126.98170    0.32380    9.92320    3.13090    0.11960    0.08920    6.54410    6.42300    5.50890    4.67860   96.47850   98.31740
 5720.00000    2.52550  124.29830    0.32880    9.92730    3.15860    0.11470    0.08920    6.51680    6.41960    5.38560    4.60220   96.37900   99.10370
 5720.50000    2.53390  124.89860    0.33810    9.80820    3.18620    0.10950    0.08920    6.51180    6.41670    5.38430    4.52580   96.47370   99.66930
 5721.00000    2.52880  127.73280    0.34470    9.73440    3.21390    0.10890    0.09390    6.66760    6.55660    5.50040    4.44940   96.61280   99.49390
 5721.50000    2.50270  131.03550    0.34910    9.66370    3.24160    0.11550    0.09210    6.97960    6.79200    5.66000    4.37310   96.85840   99.27750
 5722.00000    2.47430  135.65250    0.35310    9.58100    3.26150    0.13490    0.08300    7.75860    7.46450    6.91980    4.29670   96.77170   99.46560
 5722.50000    2.43650  140.32890    0.35370    9.48740    3.28300    0.15340    0.07220    8.72020    8.35900    9.03490    4.22030   97.12800  100.26730
 5723.00000    2.41900  143.21910    0.35010    9.39440    3.30450    0.17040    0.06040    9.44790    8.86180   11.52430    4.14390   97.55280  101.26360
 5723.50000    2.40730  143.91370    0.34540    9.36920    3.32600    0.18070    0.04860    9.64610    9.16310   12.05150    4.06750   98.04180  102.33480
 5724.00000    2.40160  141.39010    0.34250    9.36470    3.31120    0.18480    0.04530    9.72890    9.22090   12.22180    3.99120   97.82740  102.31140
 5724.50000    2.39910  138.93660    0.34560    9.36720    3.28040    0.18720    0.04060    9.51730    9.13300   12.27490    3.91480   97.03350  101.20620
 5725.00000    2.39900  135.58960    0.34600    9.39220    3.21690    0.18770    0.03910    8.96550    8.50390   12.01050    3.83840   95.92460  100.58580
 5725.50000    2.40230  130.22730    0.34070    9.43230    3.18960    0.18760    0.03840    8.44580    7.87320    9.14760    3.76200   95.57650  101.91430
 5726.00000    2.40840  124.57850    0.33690    9.49330    3.14910    0.18350    0.04770    7.72730    7.25980    7.62820    3.68560   97.64700  103.55170
 5726.50000    2.43090  119.83100    0.34160    9.56300    3.10860    0.17240    0.06150    7.01180    6.65240    6.76190    3.60930   98.45020  105.18790
 5727.00000    2.44700  117.42770    0.34800    9.64760    3.07540    0.15830    0.07170    6.36250    6.14380    6.11840    3.53290   97.12850  105.43650
 5727.50000    2.45350  114.65250    0.35450    9.73470    3.05600    0.15400    0.07710    6.04110    5.91030    4.68010    3.45650   93.82080  101.26780
 5728.00000    2.45910  110.38380    0.35880    9.82180    3.03700    0.15250    0.07870    6.04160    5.83790    4.04120    3.38010   89.23680   93.47980
 5728.50000    2.46440  108.65080    0.35650    9.90020    3.02750    0.15110    0.07970    6.15960    5.96210    4.34830    3.30370   83.04580   89.25770
 5729.00000    2.46610  108.71880    0.34050    9.87030    3.06390    0.14770    0.07990    6.58210    6.23110    4.31640    3.22730   78.39420   85.95490
 5729.50000    2.46680  111.14230    0.32370    9.79000    3.11850    0.14650    0.07960    7.48400    7.01900    4.15950    3.15100   75.62830   82.65220
 5730.00000    2.46610  120.99620    0.31920    9.65340    3.17310    0.14720    0.07870    8.08900    8.30820    4.39600    3.07460   76.40160   80.14740
 5730.50000    2.46140  128.95670    0.32860    9.49830    3.22770    0.14980    0.07770    8.07330    9.06100    6.90900    2.99820   78.42360   79.81630
 5731.00000    2.45060  132.90870    0.34810    9.41710    3.29310    0.15530    0.07510    8.02180    8.80460    7.48520    2.92180   79.74810   80.12250
 5731.50000    2.43200  131.05150    0.36790    9.45090    3.33450    0.16170    0.07440    7.94940    7.85110    6.55450    2.84730   79.86300   80.32830
 5732.00000    2.40840  126.53930    0.39040    9.49730    3.29990    0.17800    0.07350    7.91750    7.42380    4.26560    2.80820   79.58170   80.45420
 5732.50000    2.39880  120.80020    0.37660    9.54100    3.33610    0.18990    0.06980    8.04970    7.56850    3.75030    2.76920   78.80800   79.87580
 5733.00000    2.39860  114.81110    0.31740    9.49370    3.35940    0.18490    0.06600    8.64450    8.40880    4.98540    2.73020   77.41000   78.92630
 5733.50000    2.44030  105.04920    0.25810    9.33000    3.37090    0.16810    0.06470   10.08630    9.68400   10.44540    2.69120   75.83910   78.67890
 5734.00000    2.46900   95.41940    0.21810    9.26980    3.37930    0.14390    0.07030   11.64910   11.24380   23.38800    2.65210   76.44950   79.31040
 5734.50000    2.54980   90.17280    0.21120    9.23620    3.35930    0.10520    0.07930   12.26010   12.03540   18.73820    2.61310   79.95940   83.20960
 5735.00000    2.58380   88.10960    0.21430    9.22780    3.30930    0.07880    0.08430   11.78360   11.42550   11.65000    2.57410   83.49120   87.74560
 5735.50000    2.57770   86.43910    0.22830    9.25350    3.26330    0.07120    0.07900   10.59490   10.25350    7.48030    2.53510   85.18420   89.87710
 5736.00000    2.55470   87.83540    0.24680    9.29430    3.22480    0.08810    0.07110   10.18960    9.45280    4.81060    2.49600   86.95590   90.49840
 5736.50000    2.55380  103.37960    0.26130    9.33510    3.21890    0.09400    0.06370   10.10090    9.39120    3.90320    2.45700   88.60530   91.07190
 5737.00000    2.56710  111.44330    0.23980    9.36530    3.24350    0.08730    0.06090   10.30920    9.66230    5.92140    2.41240   89.35320   91.38330
 5737.50000    2.59040  119.47460    0.22980    9.40520    3.27570    0.07380    0.05870   10.53720   10.00400    8.23380    2.31900   88.55550   91.16780
 5738.00000    2.60760  117.66020    0.22870    9.42700    3.31280    0.06060    0.05590   10.75810   10.05960   10.72960    2.30170   86.48920   90.21910
 5738.50000    2.61320  112.05720    0.23420    9.43660    3.32950    0.05900    0.04160   10.57460   10.00480   11.72810    2.31130   84.01000   88.94910
