~Version ---------------------------------------------------
VERS.   2.0 : CWLS log ASCII Standard -VERSION 2.0
WRAP.    NO : One line per depth step
DLM . SPACE : Column Data Section Delimiter
~Well ------------------------------------------------------
STRT .F                   97.0 : START DEPTH
STOP .F                 6704.0 : STOP DEPTH
STEP .F                    0.5 : STEP
NULL .                -9999.25 : NULL VALUE
COMP .                         : COMPANY
WELL .                         : WELL
FLD  .                         : FIELD
LOC  .                         : LOCATION
PROV .                         : PROVINCE
CNTY .                         : COUNTY
STAT .                         : STATE
CTRY .                         : COUNTRY
SRVC .                         : SERVICE COMPANY
DATE .                         : DATE
UWI  .                         : UNIQUE WELL ID
API  .                         : API NUMBER
SLAT .WGS84 3.4540186030891036 : SURFACE LATITUDE
SLON .WGS84   5.50213787765999 : SURFACE LONGITUDE
DATUM.F                2116.85 : DEPTH DATUM ELEV
~Curve Information -----------------------------------------
DEPT   .F     : 1 MEASURED DEPTH
RHOB   .G/C3  : BULK DENSITY
GRD    .GAPI  : GAMMA RAY FROM DENSITY LOG
NPHI_LS.DEC   : NEUTRON POROSITY LIMESTONE
CALD   .IN    : CALIPER FROM DENSITY LOG
PEF    .B/E   : PHOTOELECTRIC FACTOR
DPHI_LS.DEC   : DENSITY POROSITY LIMESTONE
DRHO   .G/C3  : BULK DENSITY CORRECTION
LLD    .OHMM  : LATEROLOG DEEP RESISTIVITY
LLS    .OHMM  : LATEROLOG SHALLOW RESISTIVITY
MSFL   .OHMM  : MICRO SPHERICALLY FOCUSED RESISTIVITY
SPR    .MV    : SPONTANEOUS POTENTIAL FROM RESISTIVITY LOG
DTCO   .US/F  : DELTA-T COMPRESSIONAL
DTSM   .US/F  : DELTA-T SHEAR
~Params ----------------------------------------------------
~Other -----------------------------------------------------
~ASCII -----------------------------------------------------
# ...
 6129.00000    2.59010  112.24270    0.25960    9.61900    3.55760    0.07170    0.08080    9.28230    9.15390    6.12670   -1.70850   82.62170   82.27010
 6129.50000    2.58220  111.82330    0.26230    9.60070    3.56800    0.07710    0.07690    9.29670    9.12780    5.87620   -1.70850   82.75130   82.11170
 6130.00000    2.58030  111.25300    0.25840    9.60600    3.59290    0.07960    0.06390    9.31120    9.07180    6.23580   -1.70850   82.21320   81.84120
 6130.50000    2.58220  109.98940    0.25380    9.61140    3.62210    0.07850    0.04850    9.23850    9.01600    8.19930   -1.70850   81.94210   81.45630
 6131.00000    2.58750  106.82800    0.25620    9.61670    3.64200    0.07500    0.03980    9.16400    8.96070   10.08630   -1.70850   82.49140   81.80540
 6131.50000    2.59490  105.99840    0.26180    9.59660    3.64310    0.07010    0.03560    9.05270    8.90560    8.77620   -1.70850   83.20100   82.60030
 6132.00000    2.59990  108.24600    0.26910    9.61680    3.63290    0.06740    0.03250    8.92690    8.72880    6.11320   -1.67710   83.04840   82.60030
 6132.50000    2.58960  115.67020    0.27880    9.63700    3.62170    0.07340    0.03110    8.62620    8.51940    5.69610   -1.55670   82.79610   82.36340
 6133.00000    2.57860  118.71870    0.28140    9.67230    3.61550    0.07970    0.03760    8.37690    8.31500    6.49500   -1.15640   82.82280   82.11810
 6133.50000    2.57740  121.86030    0.29250    9.73460    3.58280    0.08060    0.05440    8.21980    8.11550    6.09970   -1.01580   82.66860   82.49990
 6134.00000    2.58240  123.03020    0.30360    9.74340    3.48840    0.07550    0.07440    8.06580    7.94560    5.87520   -1.03970   81.80480   81.42430
 6134.50000    2.58650  120.95940    0.31430    9.74550    3.43120    0.07280    0.09280    8.01550    7.89440    5.24140   -1.06980   80.86150   79.94420
 6135.00000    2.58960  113.73150    0.31710    9.74760    3.38790    0.07230    0.10190    8.32550    8.17230    4.53080   -1.09990   81.09960   81.14740
 6135.50000    2.59250  108.08520    0.31330    9.75070    3.36560    0.07120    0.10870    8.64980    8.49460    3.95640   -1.10610   82.65690   83.34170
 6136.00000    2.59540  108.65490    0.30030    9.75170    3.39650    0.06930    0.10720    8.98540    8.82440    4.23420   -1.15660   84.02870   84.71100
 6136.50000    2.59870  113.61160    0.28730    9.75220    3.45850    0.06640    0.10120    9.14170    9.01540    6.78010   -1.21990   85.13490   85.11000
 6137.00000    2.60280  116.87040    0.27930    9.75370    3.51730    0.06160    0.09420    9.13440    8.99210    8.08390   -1.28310   85.47790   85.23310
 6137.50000    2.61380  117.87860    0.27780    9.75580    3.56160    0.05580    0.08720    8.91540    8.77660    9.01710   -1.34640   85.71030   85.35620
 6138.00000    2.62840  115.47260    0.27720    9.75760    3.65290    0.04850    0.08050    8.55600    8.28870    8.79960   -1.40960   85.83170   85.38330
 6138.50000    2.63580  110.69140    0.27700    9.75920    3.79000    0.04480    0.07400    8.08250    7.72390    7.99870   -1.47290   85.66590   85.21190
 6139.00000    2.63670  108.07950    0.27660    9.76600    3.91590    0.04540    0.07020    7.63510    7.19760    7.15080   -1.45550   85.34930   85.04050
 6139.50000    2.63540  106.25320    0.27250    9.78310    3.96140    0.04690    0.06710    7.19660    6.94930    6.15570   -1.42680   85.56900   84.82680
 6140.00000    2.63090  112.01400    0.26550    9.79770    3.91810    0.04960    0.06670    7.24150    7.09970    6.04660   -1.39820   85.63810   84.39570
 6140.50000    2.62530  116.70540    0.26250    9.81120    3.83680    0.05320    0.06670    7.54590    7.41300    6.91530   -1.36950   85.48650   83.96450
 6141.00000    2.61970  117.29050    0.26180    9.82480    3.80320    0.05700    0.06770    7.95950    7.78880    7.25750   -1.34080   84.90350   83.84900
 6141.50000    2.61230  116.40290    0.26380    9.85070    3.79380    0.06080    0.06290    8.26430    8.13940    6.88190   -1.31210   82.15860   80.75020
 6142.00000    2.60250  116.43310    0.26920    9.89510    3.82840    0.06470    0.05590    8.41820    8.30190    6.57660   -1.28350   77.66190   76.64870
 6142.50000    2.59500  116.91970    0.27630    9.94440    3.84680    0.06870    0.05230    8.41900    8.30270    6.39800   -1.25480   76.90350   75.77520
 6143.00000    2.59560  116.80480    0.28070    9.94780    3.82620    0.06850    0.05400    8.41980    8.30340    6.35850   -1.22610   78.41090   78.24900
 6143.50000    2.60210  114.80640    0.28130    9.95110    3.80440    0.06630    0.05720    8.42060    8.30420    6.19820   -1.19740   80.43130   81.56190
 6144.00000    2.60760  113.23740    0.28510    9.95440    3.77540    0.06240    0.05880    8.42090    8.30460    6.10940   -1.16870   83.33210   83.05470
 6144.50000    2.60790  114.08310    0.28950    9.95780    3.76000    0.06130    0.05910    8.42120    8.30480    7.00310   -1.14010   84.98850   83.58170
 6145.00000    2.60610  118.60430    0.29380    9.96500    3.78040    0.06220    0.05730    8.42120    8.30440    8.07050   -1.12950   84.98320   84.10880
 6145.50000    2.60460  121.78430    0.29490    9.97880    3.79370    0.06270    0.05480    8.38770    8.27140    8.78400   -1.12200   84.55270   84.59150
 6146.00000    2.60410  121.08580    0.28520    9.99260    3.76390    0.06170    0.05220    8.35440    8.23850    8.75090   -1.11450   84.23100   84.27720
 6146.50000    2.61240  116.92960    0.27120   10.00640    3.70200    0.05830    0.04970    8.28130    8.06250    8.37730   -1.10700   84.35730   83.77680
 6147.00000    2.62090  113.11120    0.25890   10.02870    3.62330    0.05140    0.04840    8.19060    7.78930    9.07370   -1.09950   84.61420   82.99170
 6147.50000    2.63130  110.88480    0.25180   10.06170    3.49310    0.04650    0.04830    7.76330    7.46190    9.07560   -1.09200   84.98190   82.61480
 6148.00000    2.63490  111.58260    0.25580   10.09470    3.43320    0.04530    0.05020    7.21750    7.14820    6.65600   -1.08450   84.81230   83.35580
 6148.50000    2.63560  114.93830    0.26640   10.12780    3.37280    0.04570    0.05210    7.07600    6.96170    5.98810   -1.07700   84.46590   84.00550
 6149.00000    2.63040  116.72850    0.27630   10.16080    3.30560    0.04970    0.05560    7.20630    7.05880    6.89870   -1.06950   85.36400   84.65510
 6149.50000    2.61840  117.41910    0.28660   10.19310    3.26130    0.05500    0.06110    7.69370    7.26400    7.46440   -1.06210   85.92760   85.24920
 6150.00000    2.61470  116.70030    0.28850   10.21000    3.21840    0.05760    0.06660    8.04160    7.67540    6.86810   -1.05460   85.26980   82.52940
 6150.50000    2.61470  115.72650    0.28660   10.22950    3.17280    0.05740    0.06980    8.20060    8.07630    6.71330   -1.04710   85.37970   81.73610
 6151.00000    2.61930  114.85430    0.28410   10.24580    3.12140    0.05440    0.07080    8.36270    8.23710    6.88020   -1.03960   85.56150   80.85380
 6151.50000    2.62550  113.63320    0.28310   10.22660    3.14800    0.04950    0.06950    8.43070    8.31420    7.08460   -1.03210   83.15030   79.23280
 6152.00000    2.63160  112.44180    0.28420   10.20860    3.25540    0.04600    0.06510    8.43380    8.31730    7.93420   -1.02460   82.69260   79.77490
 6152.50000    2.63690  113.43170    0.28820   10.19290    3.42610    0.04240    0.05960    8.38840    8.24130    8.39630   -1.01710   83.23590   80.72650
 6153.00000    2.64140  115.13610    0.29900   10.18370    3.53600    0.03960    0.05750    8.33070    8.16310    6.74160   -1.00960   83.97110   81.90290
 6153.50000    2.64520  115.53480    0.30120   10.20540    3.56840    0.03840    0.05710    8.26120    8.08560    5.87070   -1.00210   84.74830   83.07920
 6154.00000    2.64680  114.78960    0.30350   10.22300    3.57460    0.03870    0.05840    8.22720    8.06500    6.29300   -0.99460   85.53600   84.25550
 6154.50000    2.64620  112.47090    0.29920   10.24060    3.57840    0.03990    0.06070    8.26330    8.06610    6.94980   -0.98710   85.44650   84.64280
