~Version ---------------------------------------------------
VERS.   2.0 : CWLS log ASCII Standard -VERSION 2.0
WRAP.    NO : One line per depth step
DLM . SPACE : Column Data Section Delimiter
~Well ------------------------------------------------------
STRT .F                   97.0 : START DEPTH
STOP .F                 6704.0 : STOP DEPTH
STEP .F                    0.5 : STEP
NULL .                -9999.25 : NULL VALUE
COMP .                         : COMPANY
WELL .                         : WELL
FLD  .                         : FIELD
LOC  .                         : LOCATION
PROV .                         : PROVINCE
CNTY .                         : COUNTY
STAT .                         : STATE
CTRY .                         : COUNTRY
SRVC .                         : SERVICE COMPANY
DATE .                         : DATE
UWI  .                         : UNIQUE WELL ID
API  .                         : API NUMBER
SLAT .WGS84 3.4540186030891036 : SURFACE LATITUDE
SLON .WGS84   5.50213787765999 : SURFACE LONGITUDE
DATUM.F                2116.85 : DEPTH DATUM ELEV
~Curve Information -----------------------------------------
DEPT   .F     : 1 MEASURED DEPTH
RHOB   .G/C3  : BULK DENSITY
GRD    .GAPI  : GAMMA RAY FROM DENSITY LOG
NPHI_LS.DEC   : NEUTRON POROSITY LIMESTONE
CALD   .IN    : CALIPER FROM DENSITY LOG
PEF    .B/E   : PHOTOELECTRIC FACTOR
DPHI_LS.DEC   : DENSITY POROSITY LIMESTONE
DRHO   .G/C3  : BULK DENSITY CORRECTION
LLD    .OHMM  : LATEROLOG DEEP RESISTIVITY
LLS    .OHMM  : LATEROLOG SHALLOW RESISTIVITY
MSFL   .OHMM  : MICRO SPHERICALLY FOCUSED RESISTIVITY
SPR    .MV    : SPONTANEOUS POTENTIAL FROM RESISTIVITY LOG
DTCO   .US/F  : DELTA-T COMPRESSIONAL
DTSM   .US/F  : DELTA-T SHEAR
~Params ----------------------------------------------------
~Other -----------------------------------------------------
~ASCII -----------------------------------------------------
# ...
 6207.00000    2.51770   78.23660    0.20950    9.39250    3.68610    0.11390    0.06780   15.64180   14.55800    6.47580   -1.58860   -9999.25   -9999.25
 6207.50000    2.53970   68.07630    0.17980    9.32800    4.09350    0.09820    0.06780   19.49480   17.43270   15.53580   -1.59160   -9999.25   -9999.25
 6208.00000    2.58380   56.38290    0.14270    9.22500    4.46130    0.07030    0.04080   27.67420   23.81030   38.80750   -1.59900   -9999.25   -9999.25
 6208.50000    2.62780   47.73540    0.09470    9.16670    4.55520    0.03830    0.02880   28.70120   27.07650   51.85810   -1.77700   -9999.25   -9999.25
 6209.00000    2.66280   49.42920    0.08980    9.20900    4.12650    0.02540    0.01740   27.84190   26.08700   34.89020   -2.02290   -9999.25   -9999.25
 6209.50000    2.66090   54.73890    0.11540    9.25120    3.50300    0.05340    0.01150   22.81600   21.02690   19.90370   -2.07270   -9999.25   -9999.25
 6210.00000    2.54850   64.03800    0.14370    9.27400    3.31650    0.11270    0.01450   17.76290   16.48300    8.76970   -2.13150   -9999.25   -9999.25
 6210.50000    2.49430   71.94820    0.17310    9.25960    3.48280    0.13000    0.02890   16.50460   16.27130    6.90890   -2.16430   -9999.25   -9999.25
 6211.00000    2.49440   75.26920    0.19040    9.16870    3.68210    0.10460    0.04380   16.68140   16.30020   10.30880   -2.16430   -9999.25   -9999.25
 6211.50000    2.53120   74.13120    0.17990    9.09370    3.94280    0.07640    0.06230   18.13810   17.35720   12.62680   -2.16430   -9999.25   -9999.25
 6212.00000    2.64110   70.49910    0.15990    9.06290    4.13750    0.03610    0.05290   20.81760   19.11660   16.29000   -2.04610   -9999.25   -9999.25
 6212.50000    2.66330   62.84120    0.13160    9.06320    4.31680    0.02480    0.03870   23.89280   21.97400   19.66360   -1.78970   -9999.25   -9999.25
 6213.00000    2.66380   58.63460    0.11110    9.06340    4.40310    0.02980    0.02150   25.96260   25.07970   19.73070   -1.53320   -9999.25   -9999.25
 6213.50000    2.64730   55.99770    0.10250    9.06340    4.47170    0.03830    0.01390   26.33930   26.30490   19.27520   -1.52060   -9999.25   -9999.25
 6214.00000    2.63350   55.48810    0.09940    9.06340    4.22160    0.05170    0.01600   24.34480   23.22990   17.89890   -1.51840   -9999.25   -9999.25
 6214.50000    2.62100   55.34930    0.09990    9.06340    3.94710    0.06030    0.02150   22.88380   22.26780   13.30330   -1.55410   -9999.25   -9999.25
 6215.00000    2.60840   54.59740    0.09690    9.06340    3.75690    0.06340    0.02370   23.45940   22.32520   11.09050   -1.84080   -9999.25   -9999.25
 6215.50000    2.59840   49.15040    0.07540    9.04340    3.83430    0.06310    0.02000   40.33300   24.96290   33.63240   -2.10960   -9999.25   -9999.25
 6216.00000    2.62050   38.09550    0.04920    9.01690    4.43260    0.04370    0.01350   83.85110   64.32050  142.64090   -2.14980   -9999.25   -9999.25
 6216.50000    2.66740   26.84220    0.02680    8.99050    4.88210    0.02070    0.00500   98.14570  141.13400  241.41920   -2.18430   -9999.25   -9999.25
 6217.00000    2.70850   23.58290    0.01600    8.95010    4.87490    0.01150    0.00080  106.01370  153.95220  176.13770   -2.25050   -9999.25   -9999.25
 6217.50000    2.70720   27.74070    0.02780    8.90440    4.73990    0.01010   -0.00160  106.24580   97.13610  105.51410   -2.43500   -9999.25   -9999.25
 6218.00000    2.66780   38.28950    0.06420    8.85360    4.24940    0.03420   -0.00060   96.31270   40.90600   24.09760   -2.57650   -9999.25   -9999.25
 6218.50000    2.62550   50.96040    0.10630    8.79820    3.77090    0.06520    0.00370   25.70360   24.36000    4.28410   -2.75690   -9999.25   -9999.25
 6219.00000    2.58330   55.70320    0.17010    8.74290    3.61200    0.09630    0.00850   21.65360   20.98400    3.09530   -2.73260   -9999.25   -9999.25
 6219.50000    2.51480   56.92980    0.19780    8.69150    3.62900    0.12710    0.01450   20.59180   19.81220    2.81850   -2.73940   -9999.25   -9999.25
 6220.00000    2.45820   49.54760    0.18710    8.64020    3.84810    0.15010    0.02270   24.11410   22.48590    3.16850   -2.76420   -9999.25   -9999.25
 6220.50000    2.43610   40.37330    0.16460    8.58890    4.11730    0.15610    0.02950   34.79280   31.10810    4.60650   -2.77870   -9999.25   -9999.25
 6221.00000    2.44480   32.47750    0.13250    8.55290    4.35240    0.14900    0.02990   51.33700   41.49910   11.44600   -2.77870   -9999.25   -9999.25
 6221.50000    2.48340   24.61320    0.10050    8.51840    4.59600    0.12150    0.02950  115.82070   94.22540   35.61280   -2.77870   -9999.25   -9999.25
 6222.00000    2.52200   17.86910    0.07640    8.48400    4.80890    0.09470    0.02550  228.35130  183.17670   66.60520   -2.77790   -9999.25   -9999.25
 6222.50000    2.55160   16.12080    0.05870    8.45940    5.07360    0.08070    0.01790  397.14030  258.78770  127.57220   -2.75830   -9999.25   -9999.25
 6223.00000    2.57560   17.75930    0.04280    8.46200    5.12320    0.07610    0.01110  414.85130  258.31990  134.21540   -2.73270   -9999.25   -9999.25
 6223.50000    2.59040   19.01680    0.03250    8.46450    5.14250    0.07360    0.00440  399.99960  228.72860  131.21850   -2.73500   -9999.25   -9999.25
 6224.00000    2.59500   20.92220    0.02420    8.46710    5.29530    0.06570    0.00080  355.85170  175.77910  123.22740   -2.73730   -9999.25   -9999.25
 6224.50000    2.60290   22.92870    0.02240    8.46960    5.51500    0.05500   -0.00030  337.58400  165.20650   98.16190   -2.73960   -9999.25   -9999.25
 6225.00000    2.61500   24.73590    0.02320    8.47220    5.56010    0.04960    0.00140  330.75340  166.61410   85.69880   -2.74190   -9999.25   -9999.25
 6225.50000    2.62700   24.46180    0.02740    8.46220    5.50450    0.05070    0.00260  328.26340  170.34630  107.63770   -2.74420   -9999.25   -9999.25
 6226.00000    2.63380   22.91090    0.04950    8.41960    5.39690    0.05430    0.00380  310.73430  170.55060  137.19670   -2.74650   -9999.25   -9999.25
 6226.50000    2.63370   21.36000    0.07590    8.37690    5.26660    0.06780    0.00550  276.12370  160.53990  107.03620   -2.74870   -9999.25   -9999.25
 6227.00000    2.57740   19.99820    0.10230    8.33630    5.17440    0.08590    0.00870  244.40770  141.85570   70.13940   -2.75100   -9999.25   -9999.25
 6227.50000    2.52750   17.42360    0.12360    8.32940    4.95990    0.13020    0.01000  211.75630  128.76960   39.44280   -2.75330   -9999.25   -9999.25
 6228.00000    2.46760   16.12080    0.13650    8.32250    4.76400    0.18260    0.01120  209.15760  129.27950   27.42570   -2.75560   -9999.25   -9999.25
 6228.50000    2.40060   15.65290    0.14930    8.32140    4.57500    0.20380    0.01180  217.24760  144.65740   35.24650   -2.77550   -9999.25   -9999.25
 6229.00000    2.36820   15.36670    0.16930    8.32570    4.53790    0.21710    0.01160  236.03550  157.21180   51.77970   -2.97170   -9999.25   -9999.25
 6229.50000    2.34650   15.07940    0.18170    8.33000    4.54750    0.22000    0.01180  237.21040  163.75480   60.79210   -3.16800   -9999.25   -9999.25
 6230.00000    2.35020   14.79210    0.19130    8.33430    4.59110    0.21470    0.01190  220.92870  143.01720   46.80350   -3.36420   -9999.25   -9999.25
 6230.50000    2.36250   14.50430    0.19220    8.33860    4.63920    0.20710    0.01210  181.65030  120.52510   38.23840   -3.47130   -9999.25   -9999.25
 6231.00000    2.36680   14.21390    0.19060    8.34290    4.72260    0.20430    0.01270  149.55540  101.57030   34.94860   -3.44160   -9999.25   -9999.25
 6231.50000    2.36740   14.11890    0.17790    8.34310    4.80610    0.20410    0.01320  127.80820   88.69410   30.31140   -3.41190   -9999.25   -9999.25
 6232.00000    2.36740   14.12490    0.16670    8.33750    4.89030    0.20450    0.01360  127.61280   90.00790   33.85300   -3.38220   -9999.25   -9999.25
 6232.50000    2.36740   14.13100    0.16180    8.33190    4.97830    0.20370    0.01390  144.06290  101.21170   46.55240   -3.40400   -9999.25   -9999.25
