~Version ---------------------------------------------------
VERS.   2.0 : CWLS log ASCII Standard -VERSION 2.0
WRAP.    NO : One line per depth step
DLM . SPACE : Column Data Section Delimiter
~Well ------------------------------------------------------
STRT .F                   97.0 : START DEPTH
STOP .F                 6704.0 : STOP DEPTH
STEP .F                    0.5 : STEP
NULL .                -9999.25 : NULL VALUE
COMP .                         : COMPANY
WELL .                         : WELL
FLD  .                         : FIELD
LOC  .                         : LOCATION
PROV .                         : PROVINCE
CNTY .                         : COUNTY
STAT .                         : STATE
CTRY .                         : COUNTRY
SRVC .                         : SERVICE COMPANY
DATE .                         : DATE
UWI  .                         : UNIQUE WELL ID
API  .                         : API NUMBER
SLAT .WGS84 3.4540186030891036 : SURFACE LATITUDE
SLON .WGS84   5.50213787765999 : SURFACE LONGITUDE
DATUM.F                2116.85 : DEPTH DATUM ELEV
~Curve Information -----------------------------------------
DEPT   .F     : 1 MEASURED DEPTH
RHOB   .G/C3  : BULK DENSITY
GRD    .GAPI  : GAMMA RAY FROM DENSITY LOG
NPHI_LS.DEC   : NEUTRON POROSITY LIMESTONE
CALD   .IN    : CALIPER FROM DENSITY LOG
PEF    .B/E   : PHOTOELECTRIC FACTOR
DPHI_LS.DEC   : DENSITY POROSITY LIMESTONE
DRHO   .G/C3  : BULK DENSITY CORRECTION
LLD    .OHMM  : LATEROLOG DEEP RESISTIVITY
LLS    .OHMM  : LATEROLOG SHALLOW RESISTIVITY
MSFL   .OHMM  : MICRO SPHERICALLY FOCUSED RESISTIVITY
SPR    .MV    : SPONTANEOUS POTENTIAL FROM RESISTIVITY LOG
DTCO   .US/F  : DELTA-T COMPRESSIONAL
DTSM   .US/F  : DELTA-T SHEAR
~Params ----------------------------------------------------
~Other -----------------------------------------------------
~ASCII -----------------------------------------------------
# ...
 6597.00000    2.68540   41.64140    0.01720    8.57070    5.05110    0.01210    0.00850   90.33270   86.60440  205.39750  -49.91540   -9999.25   -9999.25
 6597.50000    2.68140   41.83740    0.01620    8.59070    5.04500    0.01770    0.00740   82.01200   74.59210  151.52770  -49.96420   -9999.25   -9999.25
 6598.00000    2.67750   40.21200    0.01480    8.58440    5.04490    0.02110    0.00650   79.35330   73.32010  109.93550  -49.98800   -9999.25   -9999.25
 6598.50000    2.67780   39.11630    0.01310    8.57360    5.05100    0.02070    0.00520   83.01340   96.88640  104.55900  -49.99170   -9999.25   -9999.25
 6599.00000    2.68000   39.74060    0.01000    8.56870    5.06390    0.01500    0.00390  112.99630  140.09120  139.90720  -50.20130   -9999.25   -9999.25
 6599.50000    2.68660   41.87590    0.00680    8.57160    4.98610    0.01030    0.00770  162.23940  202.56220  215.78850  -50.41090   -9999.25   -9999.25
 6600.00000    2.69420   45.23680    0.00360    8.57460    4.84220    0.00560    0.00510  232.74690  292.89120  363.95330  -50.51580   -9999.25   -9999.25
 6600.50000    2.70190   48.69060    0.00090    8.57640    4.77650    0.00090    0.00250  317.70860  390.30270  487.89580  -50.58630   -9999.25   -9999.25
 6601.00000    2.70960   49.14020   -0.00060    8.57300    4.88160   -0.00340    0.00000  399.30170  392.15750  545.23500  -50.65680   -9999.25   -9999.25
 6601.50000    2.71710   48.65300   -0.00050    8.56960    5.02490   -0.00610    0.00330  413.19620  374.76360  441.79540  -50.79310   -9999.25   -9999.25
 6602.00000    2.71990   45.58120    0.00070    8.56400    5.17920   -0.00600    0.00370  379.10810  328.39410  395.64030  -50.94550   -9999.25   -9999.25
 6602.50000    2.71850   41.36170    0.00280    8.55840    5.35340   -0.00250    0.00240  317.91100  284.53510  334.53920  -51.09110   -9999.25   -9999.25
 6603.00000    2.71030   37.03600    0.00530    8.55390    5.35720    0.00270    0.00420  266.59240  242.29770  273.84300  -51.26370   -9999.25   -9999.25
 6603.50000    2.69800   31.75800    0.00850    8.55370    5.32490    0.00830    0.00080  207.81040  185.89380  225.77080  -51.28290   -9999.25   -9999.25
 6604.00000    2.68660   28.75100    0.01020    8.54420    5.31660    0.01400    0.00330  154.81410  152.28610  163.27810  -51.30210   -9999.25   -9999.25
 6604.50000    2.67950   26.30980    0.01010    8.54450    5.36700    0.01920    0.00580  118.31800  127.48240  148.01220  -51.38300   -9999.25   -9999.25
 6605.00000    2.67460   27.09470    0.00870    8.55250    5.41290    0.02190    0.00220   99.22820  106.71860  123.05230  -51.51080   -9999.25   -9999.25
 6605.50000    2.67130   28.36400    0.00700    8.55490    5.36420    0.02320    0.00070   81.06700   89.33680  101.69590  -51.63860   -9999.25   -9999.25
 6606.00000    2.67160   29.73920    0.00530    8.55730    5.16260    0.02210   -0.00340   77.54510   86.42450  109.54410  -51.76650   -9999.25   -9999.25
 6606.50000    2.67380   30.62820    0.00330    8.56480    4.84840    0.02020   -0.00610   93.20330  116.59900  152.19850  -51.89430   -9999.25   -9999.25
 6607.00000    2.68510   30.32130    0.00220    8.57690    4.89120    0.01270   -0.00640  118.01110  162.32290  186.84880  -52.02210   -9999.25   -9999.25
 6607.50000    2.69490   30.19630    0.00240    8.58910    5.14410    0.00800   -0.00500  178.79730  205.68980  229.38790  -52.14990   -9999.25   -9999.25
 6608.00000    2.69530   30.10360    0.00360    8.59270    5.42730    0.00720   -0.00620  238.83630  253.78430  287.15340  -52.19390   -9999.25   -9999.25
 6608.50000    2.69150   30.04610    0.00550    8.59460    5.42850    0.01090   -0.00680  243.83710  269.13920  316.24630  -52.30390   -9999.25   -9999.25
 6609.00000    2.68740   30.59510    0.00570    8.59680    5.24200    0.01440   -0.00660  215.64260  240.36040  219.47600  -52.37290   -9999.25   -9999.25
 6609.50000    2.68580   31.92430    0.00540    8.59980    5.06670    0.01440   -0.00660  190.71860  215.96450  237.63620  -52.23530   -9999.25   -9999.25
 6610.00000    2.68410   34.80310    0.00490    8.59980    4.90370    0.01370   -0.00660  184.49940  193.01510  292.28020  -52.34460   -9999.25   -9999.25
 6610.50000    2.68190   35.91790    0.00500    8.60010    4.79510    0.01410   -0.00660  177.04050  181.17620  296.12310  -52.50000   -9999.25   -9999.25
 6611.00000    2.67940   34.95340    0.00730    8.60050    4.91330    0.01830   -0.00660  161.38480  169.48870  255.31980  -52.50000   -9999.25   -9999.25
 6611.50000    2.67500   32.15290    0.01620    8.58120    5.27790    0.02560   -0.00610  126.89230  137.67020  205.27740  -52.50000   -9999.25   -9999.25
 6612.00000    2.65960   28.86410    0.02890    8.56180    5.58700    0.04090   -0.00390   86.38000   91.53710  157.54080  -52.47440   -9999.25   -9999.25
 6612.50000    2.63590   28.78900    0.04520    8.52980    5.51730    0.06340   -0.00020   58.29520   60.86320   84.44840  -52.48840   -9999.25   -9999.25
 6613.00000    2.58610   29.77060    0.07270    8.47890    5.26820    0.09560    0.00060   36.22200   40.46800   54.04580  -52.54910   -9999.25   -9999.25
 6613.50000    2.53620   31.05500    0.08140    8.47550    5.03860    0.11220    0.00320   32.79600   30.39300   34.58860  -52.60990   -9999.25   -9999.25
 6614.00000    2.52660   32.14590    0.06860    8.49670    5.03770    0.10670    0.00810   34.44100   26.56160   19.79830  -52.55250   -9999.25   -9999.25
 6614.50000    2.55710   33.64770    0.05000    8.54480    5.35210    0.07930    0.01400   37.45710   27.88190   22.58920  -52.70880   -9999.25   -9999.25
 6615.00000    2.59990   35.11760    0.03340    8.57450    5.44070    0.05900    0.01510   41.99730   31.59470   29.20560  -52.89500   -9999.25   -9999.25
 6615.50000    2.63360   37.80240    0.02370    8.60420    5.32400    0.04400    0.01240   47.15840   35.80190   29.84610  -53.08120   -9999.25   -9999.25
 6616.00000    2.65480   40.13040    0.02330    8.59590    4.90450    0.03380    0.00860   50.00480   39.07260   29.61250  -53.26440   -9999.25   -9999.25
 6616.50000    2.66050   40.74020    0.02330    8.58500    4.59550    0.02960    0.00470   52.96980   42.03760   30.35350  -53.43740   -9999.25   -9999.25
 6617.00000    2.66440   39.55030    0.02160    8.57450    4.64970    0.02470    0.00080   58.41720   47.42610   36.16970  -53.52850   -9999.25   -9999.25
 6617.50000    2.67400   38.82130    0.01660    8.56640    4.84230    0.01850    0.00470   68.41090   59.30670   45.34350  -53.66080   -9999.25   -9999.25
 6618.00000    2.68120   39.87060    0.01070    8.55870    4.97860    0.01380    0.00520   80.11430   75.31320   70.76600  -53.60280   -9999.25   -9999.25
 6618.50000    2.69090   42.57300    0.00840    8.55110    5.14200    0.01090    0.00460  106.45660  103.48700  129.36670  -53.58600   -9999.25   -9999.25
 6619.00000    2.69570   45.52770    0.00670    8.54340    5.33220    0.00890    0.00330  136.56510  142.24420  239.39230  -53.65740   -9999.25   -9999.25
 6619.50000    2.69720   47.36980    0.00640    8.53570    5.47540    0.00980    0.00120  158.28850  188.93270  272.50980  -53.72890   -9999.25   -9999.25
 6620.00000    2.69680   47.36930    0.00650    8.52800    5.26890    0.01330   -0.00070  172.45760  209.24930  246.07540  -53.58190   -9999.25   -9999.25
 6620.50000    2.69250   42.09230    0.00780    8.52570    4.93270    0.01710   -0.00250  161.70810  184.80970  204.26160  -53.49130   -9999.25   -9999.25
 6621.00000    2.68310   36.55390    0.00880    8.53110    4.80920    0.01990   -0.00430  121.96990  142.46420  194.56440  -53.57070   -9999.25   -9999.25
 6621.50000    2.67930   31.75200    0.00860    8.53630    4.87150    0.02030   -0.00360   92.48170  113.60060  193.97620  -53.58480   -9999.25   -9999.25
 6622.00000    2.67830   30.30050    0.00690    8.53670    4.93700    0.01950   -0.00370   94.28950  110.10330  232.19290  -53.43650   -9999.25   -9999.25
 6622.50000    2.67910   31.67440    0.00500    8.53720    4.93590    0.01720   -0.00330  125.80740  178.23530  481.53060  -53.43700   -9999.25   -9999.25
