~Version ---------------------------------------------------
VERS.   2.0 : CWLS log ASCII Standard -VERSION 2.0
WRAP.    NO : One line per depth step
DLM . SPACE : Column Data Section Delimiter
~Well ------------------------------------------------------
STRT .F                   97.0 : START DEPTH
STOP .F                 6704.0 : STOP DEPTH
STEP .F                    0.5 : STEP
NULL .                -9999.25 : NULL VALUE
COMP .                         : COMPANY
WELL .                         : WELL
FLD  .                         : FIELD
LOC  .                         : LOCATION
PROV .                         : PROVINCE
CNTY .                         : COUNTY
STAT .                         : STATE
CTRY .                         : COUNTRY
SRVC .                         : SERVICE COMPANY
DATE .                         : DATE
UWI  .                         : UNIQUE WELL ID
API  .                         : API NUMBER
SLAT .WGS84 3.4540186030891036 : SURFACE LATITUDE
SLON .WGS84   5.50213787765999 : SURFACE LONGITUDE
DATUM.F                2116.85 : DEPTH DATUM ELEV
~Curve Information -----------------------------------------
DEPT   .F     : 1 MEASURED DEPTH
RHOB   .G/C3  : BULK DENSITY
GRD    .GAPI  : GAMMA RAY FROM DENSITY LOG
NPHI_LS.DEC   : NEUTRON POROSITY LIMESTONE
CALD   .IN    : CALIPER FROM DENSITY LOG
PEF    .B/E   : PHOTOELECTRIC FACTOR
DPHI_LS.DEC   : DENSITY POROSITY LIMESTONE
DRHO   .G/C3  : BULK DENSITY CORRECTION
LLD    .OHMM  : LATEROLOG DEEP RESISTIVITY
LLS    .OHMM  : LATEROLOG SHALLOW RESISTIVITY
MSFL   .OHMM  : MICRO SPHERICALLY FOCUSED RESISTIVITY
SPR    .MV    : SPONTANEOUS POTENTIAL FROM RESISTIVITY LOG
DTCO   .US/F  : DELTA-T COMPRESSIONAL
DTSM   .US/F  : DELTA-T SHEAR
~Params ----------------------------------------------------
~Other -----------------------------------------------------
~ASCII -----------------------------------------------------
# ...
 5557.00000    2.52000  114.70380    0.26400    9.01290    2.66720    0.11710    0.06350   -9999.25   -9999.25   -9999.25   -9999.25   78.41300   79.86710
 5557.50000    2.52280  118.81380    0.24200    9.00360    2.66520    0.11050    0.06290   -9999.25   -9999.25   -9999.25   -9999.25   78.30130   79.19170
 5558.00000    2.53880  119.15640    0.21550    9.00360    2.66330    0.09870    0.06110   -9999.25   -9999.25   -9999.25   -9999.25   78.41330   78.97170
 5558.50000    2.55700  113.76950    0.21380    8.99000    2.65440    0.09160    0.05210   -9999.25   -9999.25   -9999.25   -9999.25   78.60980   79.33380
 5559.00000    2.55770  108.30550    0.22180    8.96570    2.60900    0.09580    0.04090   -9999.25   -9999.25   -9999.25   -9999.25   79.09430   79.69270
 5559.50000    2.53540   97.60210    0.22520    8.92670    2.53480    0.10690    0.02940   -9999.25   -9999.25   -9999.25   -9999.25   79.21600   79.88590
 5560.00000    2.48880   84.68100    0.21500    8.86490    2.43700    0.13610    0.01850   -9999.25   -9999.25   -9999.25   -9999.25   78.38940   79.45790
 5560.50000    2.44270   67.97950    0.19840    8.57350    2.31360    0.17080    0.01640   -9999.25   -9999.25   -9999.25   -9999.25   77.46670   78.83720
 5561.00000    2.40650   50.78430    0.18170    8.40260    2.27350    0.18380    0.01660   -9999.25   -9999.25   -9999.25   -9999.25   76.99190   78.28560
 5561.50000    2.38650   42.58650    0.17200    8.37190    2.26790    0.19670    0.01710   -9999.25   -9999.25   -9999.25   -9999.25   76.56540   77.64710
 5562.00000    2.36720   36.78780    0.16410    8.34130    2.25370    0.21570    0.01760   -9999.25   -9999.25   -9999.25   -9999.25   76.13880   76.97160
 5562.50000    2.35220   35.05530    0.16200    8.32450    2.24710    0.21720    0.01810   -9999.25   -9999.25   -9999.25   -9999.25   75.48030   76.29610
 5563.00000    2.34960   36.52290    0.16460    8.32310    2.24810    0.21490    0.01890   -9999.25   -9999.25   -9999.25   -9999.25   74.02920   75.65280
 5563.50000    2.35250   39.58910    0.16880    8.32170    2.24900    0.21150    0.02100   -9999.25   -9999.25   -9999.25   -9999.25   73.77540   75.24250
 5564.00000    2.36020   42.35260    0.17570    8.33610    2.25000    0.20650    0.02120   -9999.25   -9999.25   -9999.25   -9999.25   75.63060   77.16920
 5564.50000    2.36800   45.23440    0.18410    8.35860    2.25210    0.20140    0.01990   -9999.25   -9999.25   -9999.25   -9999.25   77.19180   79.69100
 5565.00000    2.37380   46.98550    0.19120    8.37080    2.25570    0.20110    0.01810   -9999.25   -9999.25   -9999.25   -9999.25   75.80230   79.68910
 5565.50000    2.37470   47.48540    0.19180    8.37470    2.27890    0.20210    0.01410   -9999.25   -9999.25   -9999.25   -9999.25   73.37260   75.64670
 5566.00000    2.37550   44.69140    0.18760    8.37710    2.29180    0.20150    0.01350   -9999.25   -9999.25   -9999.25   -9999.25   68.70900   71.18660
 5566.50000    2.37650   40.32370    0.18280    8.36280    2.27000    0.20030    0.01300   -9999.25   -9999.25   -9999.25   -9999.25   63.49690   65.79930
 5567.00000    2.37760   37.95530    0.17830    8.36320    2.21000    0.19940    0.01270   -9999.25   -9999.25   -9999.25   -9999.25   60.30500   60.76160
 5567.50000    2.38130   37.97900    0.17600    8.36900    2.17360    0.19750    0.01250   -9999.25   -9999.25   -9999.25   -9999.25   60.68450   61.67460
 5568.00000    2.38530   39.41140    0.17880    8.37540    2.16060    0.19350    0.01290   -9999.25   -9999.25   -9999.25   -9999.25   62.70720   63.69700
 5568.50000    2.39150   40.18840    0.18360    8.37980    2.15680    0.18970    0.01340   -9999.25   -9999.25   -9999.25   -9999.25   65.09250   66.53190
 5569.00000    2.39540   39.21820    0.18420    8.38120    2.18280    0.18770    0.01340   -9999.25   -9999.25   -9999.25   -9999.25   68.21070   69.65040
 5569.50000    2.39930   36.15310    0.18300    8.38260    2.22440    0.18370    0.01350   -9999.25   -9999.25   -9999.25   -9999.25   71.38260   72.11350
 5570.00000    2.40300   33.20130    0.17040    8.39270    2.39690    0.17880    0.01370   -9999.25   -9999.25   -9999.25   -9999.25   75.33420   73.89230
 5570.50000    2.42030   30.89660    0.15630    8.40410    2.60800    0.16630    0.01510   -9999.25   -9999.25   -9999.25   -9999.25   77.30260   75.67120
 5571.00000    2.45700   30.10930    0.13730    8.41550    2.82320    0.15080    0.01850   -9999.25   -9999.25   -9999.25   -9999.25   77.60340   76.45390
 5571.50000    2.49370   28.60400    0.11800    8.43540    3.06090    0.12800    0.02050   -9999.25   -9999.25   -9999.25   -9999.25   77.96100   77.09720
 5572.00000    2.51280   26.62780    0.10380    8.46130    3.34460    0.11140    0.02240   -9999.25   -9999.25   -9999.25   -9999.25   78.76640   78.07550
 5572.50000    2.54430   25.69160    0.10050    8.48720    3.40570    0.08680    0.02430   -9999.25   -9999.25   -9999.25   -9999.25   81.51130   80.04960
 5573.00000    2.57840   26.95200    0.10240    8.49670    3.35690    0.07050    0.02620   -9999.25   -9999.25   -9999.25   -9999.25   82.44890   81.42830
 5573.50000    2.59200   29.92690    0.11000    8.50430    3.11520    0.07420    0.02640   -9999.25   -9999.25   -9999.25   -9999.25   82.42740   82.80690
 5574.00000    2.57090   32.16140    0.12650    8.48080    2.79910    0.10310    0.01780   -9999.25   -9999.25   -9999.25   -9999.25   82.00890   83.31450
 5574.50000    2.51300   33.13940    0.14640    8.46510    2.51670    0.13210    0.00900   -9999.25   -9999.25   -9999.25   -9999.25   81.52140   83.43330
 5575.00000    2.47000   33.44840    0.16220    8.47420    2.33540    0.16120    0.00460   -9999.25   -9999.25   -9999.25   -9999.25   80.93320   82.76580
 5575.50000    2.44110   34.12690    0.16890    8.48400    2.22970    0.17840    0.00270   -9999.25   -9999.25   -9999.25   -9999.25   79.35660   81.33620
 5576.00000    2.39860   35.02880    0.17430    8.49380    2.19620    0.19460    0.00070   -9999.25   -9999.25   -9999.25   -9999.25   78.47190   80.65850
 5576.50000    2.36840   36.79320    0.18140    8.49560    2.15150    0.20760   -0.00120   -9999.25   -9999.25   -9999.25   -9999.25   78.63060   80.31880
 5577.00000    2.34740   38.82860    0.18770    8.48250    2.13870    0.21450   -0.00320   -9999.25   -9999.25   -9999.25   -9999.25   78.34400   80.20000
 5577.50000    2.34400   44.09520    0.19060    8.48370    2.15080    0.21960   -0.00250   -9999.25   -9999.25   -9999.25   -9999.25   78.05080   79.93780
 5578.00000    2.34530   62.05530    0.19300    8.53090    2.25150    0.21540   -0.00160   -9999.25   -9999.25   -9999.25   -9999.25   77.44560   79.38040
 5578.50000    2.36090   86.19380    0.20520    8.57820    2.39310    0.19740   -0.00070   -9999.25   -9999.25   -9999.25   -9999.25   76.01910   78.19650
 5579.00000    2.39320  103.46240    0.21750    8.65020    2.53950    0.17790    0.00020   -9999.25   -9999.25   -9999.25   -9999.25   75.71650   76.17320
 5579.50000    2.42540  111.98530    0.23390    8.72420    2.79320    0.15570    0.00080   -9999.25   -9999.25   -9999.25   -9999.25   76.92830   77.27270
 5580.00000    2.48110  111.51200    0.25300    8.76790    3.04880    0.12430    0.00520   -9999.25   -9999.25   -9999.25   -9999.25   76.05660   76.73450
 5580.50000    2.53320  106.86700    0.26600    8.80180    3.09150    0.09720    0.00960   -9999.25   -9999.25   -9999.25   -9999.25   74.94560   75.53820
 5581.00000    2.56290  104.18620    0.25370    8.78770    3.03650    0.08820    0.01330   -9999.25   -9999.25   -9999.25   -9999.25   74.96810   75.39960
 5581.50000    2.56270   98.83450    0.23730    8.76890    2.92820    0.08820    0.01550   -9999.25   -9999.25   -9999.25   -9999.25   75.07390   75.50550
 5582.00000    2.54900   83.74560    0.21590    8.73620    2.77790    0.09780    0.01750   -9999.25   -9999.25   -9999.25   -9999.25   75.71490   76.30310
 5582.50000    2.53360   72.16060    0.19920    8.71700    2.64100    0.11070    0.01950   -9999.25   -9999.25   -9999.25   -9999.25   76.62540   77.19700
