~Version ---------------------------------------------------
VERS.   2.0 : CWLS log ASCII Standard -VERSION 2.0
WRAP.    NO : One line per depth step
DLM . SPACE : Column Data Section Delimiter
~Well ------------------------------------------------------
STRT .F                   97.0 : START DEPTH
STOP .F                 6704.0 : STOP DEPTH
STEP .F                    0.5 : STEP
NULL .                -9999.25 : NULL VALUE
COMP .                         : COMPANY
WELL .                         : WELL
FLD  .                         : FIELD
LOC  .                         : LOCATION
PROV .                         : PROVINCE
CNTY .                         : COUNTY
STAT .                         : STATE
CTRY .                         : COUNTRY
SRVC .                         : SERVICE COMPANY
DATE .                         : DATE
UWI  .                         : UNIQUE WELL ID
API  .                         : API NUMBER
SLAT .WGS84 3.4540186030891036 : SURFACE LATITUDE
SLON .WGS84   5.50213787765999 : SURFACE LONGITUDE
DATUM.F                2116.85 : DEPTH DATUM ELEV
~Curve Information -----------------------------------------
DEPT   .F     : 1 MEASURED DEPTH
RHOB   .G/C3  : BULK DENSITY
GRD    .GAPI  : GAMMA RAY FROM DENSITY LOG
NPHI_LS.DEC   : NEUTRON POROSITY LIMESTONE
CALD   .IN    : CALIPER FROM DENSITY LOG
PEF    .B/E   : PHOTOELECTRIC FACTOR
DPHI_LS.DEC   : DENSITY POROSITY LIMESTONE
DRHO   .G/C3  : BULK DENSITY CORRECTION
LLD    .OHMM  : LATEROLOG DEEP RESISTIVITY
LLS    .OHMM  : LATEROLOG SHALLOW RESISTIVITY
MSFL   .OHMM  : MICRO SPHERICALLY FOCUSED RESISTIVITY
SPR    .MV    : SPONTANEOUS POTENTIAL FROM RESISTIVITY LOG
DTCO   .US/F  : DELTA-T COMPRESSIONAL
DTSM   .US/F  : DELTA-T SHEAR
~Params ----------------------------------------------------
~Other -----------------------------------------------------
~ASCII -----------------------------------------------------
# ...
 6025.00000    2.61920  102.82720    0.18510    9.40570    3.50990    0.05580    0.00180   12.95240   12.71130   13.07840   -5.21840   76.35150   76.86920
 6025.50000    2.61390  104.70160    0.19190    9.41240    3.51780    0.05930    0.00310   12.42580   12.19440   11.44350   -5.17960   76.84140   77.27580
 6026.00000    2.60120  106.31340    0.21860    9.43360    3.53660    0.07330    0.01340   11.84540   11.55570   10.30250   -5.14070   77.19810   77.70580
 6026.50000    2.56610  108.62360    0.23110    9.45010    3.55550    0.09370    0.02740   11.23950   10.88240    8.80440   -5.10190   77.58740   78.01980
 6027.00000    2.54340  111.85950    0.23930    9.46100    3.57440    0.11370    0.03630   10.74250   10.25680    4.72960   -5.06300   77.16090   77.66220
 6027.50000    2.50930  114.24560    0.24210    9.49180    3.62660    0.12700    0.04040   10.74650   10.12190    3.12490   -5.02420   76.78140   77.23390
 6028.00000    2.48620  112.00280    0.24230    9.49710    3.59310    0.13340    0.04590   10.75040   10.11200    5.95150   -4.98530   77.27510   78.07370
 6028.50000    2.50220  108.47030    0.23850    9.49330    3.55020    0.12730    0.05160   10.83900   10.13810   10.48590   -4.94640   78.63970   79.19190
 6029.00000    2.53620  106.07890    0.23570    9.50140    3.54550    0.10700    0.05460   10.95830   10.16440   12.09610   -4.90760   79.44300   79.99520
 6029.50000    2.56920  105.71030    0.23700    9.51560    3.54440    0.09000    0.05530   10.96210   10.19070   11.73810   -4.86870   80.19300   80.65140
 6030.00000    2.57170  106.34060    0.24660    9.53450    3.54450    0.08270    0.04800   10.96600   10.19360    9.37770   -4.82990   80.56720   81.02340
 6030.50000    2.56010  106.52490    0.25710    9.54740    3.54440    0.09040    0.02710   10.83000   10.19160    7.32410   -4.79100   80.92520   81.38380
 6031.00000    2.54990  106.09970    0.25380    9.54310    3.56350    0.09650    0.01810   10.68330   10.18950    6.59350   -4.75210   81.25720   81.74060
 6031.50000    2.54930  106.79770    0.24820    9.51760    3.58010    0.09900    0.01740   10.54430   10.17630    9.79780   -4.71330   80.67300   81.16740
 6032.00000    2.55290  109.08010    0.24340    9.47870    3.54370    0.09150    0.02200   10.42740   10.09670   11.90090   -4.67440   80.27580   80.73540
 6032.50000    2.56290  111.08870    0.24160    9.51630    3.49330    0.08130    0.03500   10.30970   10.01770   10.52100   -4.63560   80.75060   81.23590
 6033.00000    2.58140  110.95200    0.24280    9.52180    3.44950    0.07450    0.04900   10.19180    9.93940    7.88290   -4.59690   81.06460   81.49720
 6033.50000    2.58930  109.36180    0.24940    9.51200    3.37350    0.07010    0.05200   10.07870    9.86160    6.63470   -4.59690   81.16430   81.60950
 6034.00000    2.58990  107.05220    0.26220    9.51030    3.33160    0.07390    0.05510    9.98450    9.78450    8.46410   -4.59670   80.69510   81.32780
 6034.50000    2.59030  105.80960    0.26920    9.51060    3.31750    0.07520    0.05810    9.88920    9.70800    8.65500   -4.59260   81.75030   82.20200
 6035.00000    2.59180  107.85150    0.27440    9.51090    3.30600    0.07260    0.05870    9.78780    9.63210    7.89200   -4.58210   82.22600   82.68860
 6035.50000    2.59350  111.90570    0.27880    9.53010    3.32070    0.07030    0.05880    9.68750    9.55030    8.31870   -4.48450   82.51570   83.25250
 6036.00000    2.59210  116.24270    0.27760    9.53360    3.37780    0.07140    0.05570    9.58820    9.45240    7.94090   -4.35190   81.95220   83.41480
 6036.50000    2.58510  116.65420    0.27310    9.51060    3.49390    0.07770    0.04680    9.49000    9.35560    6.02750   -4.21930   81.13250   82.97250
 6037.00000    2.58450  116.18650    0.26820    9.52210    3.59200    0.07590    0.03970    9.47420    9.34330    7.18980   -4.08670   80.44710   82.26460
 6037.50000    2.58740  116.17880    0.26500    9.50650    3.69000    0.07290    0.03890    9.45020    9.31740    8.71250   -3.97440   79.32870   81.88800
 6038.00000    2.59210  116.51840    0.26420    9.48590    3.81980    0.06840    0.04060    9.37020    9.23850    9.08540   -3.98310   78.21040   80.70220
 6038.50000    2.60190  116.15290    0.26370    9.46380    3.90840    0.06290    0.04590    9.30350    9.17500    9.25440   -3.98580   77.50530   79.55590
 6039.00000    2.61100  112.90300    0.26460    9.43670    3.93660    0.06030    0.05100    9.28930    9.16160    9.50960   -3.98760   76.84110   78.82680
 6039.50000    2.61290  107.93190    0.26390    9.41420    3.90050    0.06000    0.05630    9.27510    9.14820    9.88450   -3.98460   76.37010   78.12850
 6040.00000    2.60800  105.77940    0.26250    9.38840    3.75720    0.06070    0.06520    9.26100    9.14090    9.69050   -3.98590   76.48000   77.48090
 6040.50000    2.59990  107.70570    0.26320    9.36460    3.56980    0.06440    0.07490    9.24690    9.15810    8.32350   -3.97210   76.57900   77.13580
 6041.00000    2.59190  109.06450    0.27090    9.36120    3.47290    0.06890    0.07680    9.23280    9.17530    6.94160   -3.92340   76.24720   76.89780
 6041.50000    2.58970  109.56040    0.27750    9.35160    3.36180    0.07320    0.07220    9.27300    9.19260    6.15300   -3.80420   76.19890   76.65990
 6042.00000    2.58970  109.69920    0.28060    9.33960    3.28140    0.07160    0.06770    9.35830    9.20990    7.91540   -3.75400   76.59360   77.25730
 6042.50000    2.59610  110.12150    0.27750    9.32880    3.19540    0.06530    0.06220    9.46800    9.23050    9.49140   -3.73780   78.02610   78.85420
 6043.00000    2.60870  112.95510    0.27970    9.32450    3.17800    0.05660    0.05460    9.59910    9.31370    9.02880   -3.72170   79.99870   80.48810
 6043.50000    2.62120  117.09350    0.27900    9.32030    3.18890    0.05150    0.04440    9.80190    9.39760    9.21930   -3.70550   80.18150   80.61120
 6044.00000    2.61900  120.23430    0.27310    9.31770    3.24400    0.05560    0.03090   10.07160    9.48240   10.05500   -3.68930   79.10820   79.90780
 6044.50000    2.60480  117.97010    0.26520    9.31610    3.29910    0.06140    0.02250   10.18860    9.74300   10.41110   -3.67310   77.25280   78.24130
 6045.00000    2.60370  113.15130    0.25850    9.31440    3.34240    0.06310    0.02550   10.27620   10.01590    9.90300   -3.65700   76.54420   77.98010
 6045.50000    2.60350  109.87270    0.24660    9.31650    3.37960    0.06350    0.02390   10.48300   10.29640    9.90350   -3.64080   77.07880   77.90920
 6046.00000    2.60590  108.78280    0.23630    9.31990    3.36350    0.06390    0.01550   10.74870   10.57900   12.43750   -3.62460   77.45140   78.08900
 6046.50000    2.61190  107.25850    0.22850    9.31150    3.33010    0.06280    0.01190   10.78870   10.63960   13.25640   -3.60840   78.74860   81.31910
 6047.00000    2.61810  106.03510    0.23010    9.30680    3.25950    0.05460    0.01430   10.78870   10.63960   13.11340   -3.59230   80.35910   84.24090
 6047.50000    2.62940  107.14250    0.24230    9.30950    3.22360    0.04510    0.01930   10.68260   10.51460   12.91930   -3.57610   82.18310   84.42510
 6048.00000    2.64300  110.75580    0.26330    9.31380    3.25860    0.03890    0.02080   10.41940   10.20300   11.12450   -3.54140   82.34260   84.10960
 6048.50000    2.64320  114.55830    0.28370    9.31800    3.32820    0.04200    0.02120   10.06380    9.87100    8.75670   -3.40780   81.69460   83.53340
 6049.00000    2.64000  114.60130    0.28260    9.32320    3.44140    0.04660    0.02220    9.76080    9.54990    7.66630   -3.27410   81.74080   82.98490
 6049.50000    2.63440  112.88060    0.27370    9.32890    3.57480    0.04750    0.02450    9.73840    9.35170    9.57870   -3.14040   82.10970   83.50930
 6050.00000    2.63140  106.23710    0.25730    9.33450    3.68580    0.04790    0.03160    9.93570    9.26290   12.07720   -3.00670   81.94330   83.52540
 6050.50000    2.62860  102.68430    0.24930    9.33910    3.69590    0.04840    0.03990   10.07200    9.22640   11.74020   -2.87300   81.09780   83.24930
