~Version ---------------------------------------------------
VERS.   2.0 : CWLS log ASCII Standard -VERSION 2.0
WRAP.    NO : One line per depth step
DLM . SPACE : Column Data Section Delimiter
~Well ------------------------------------------------------
STRT .F                   97.0 : START DEPTH
STOP .F                 6704.0 : STOP DEPTH
STEP .F                    0.5 : STEP
NULL .                -9999.25 : NULL VALUE
COMP .                         : COMPANY
WELL .                         : WELL
FLD  .                         : FIELD
LOC  .                         : LOCATION
PROV .                         : PROVINCE
CNTY .                         : COUNTY
STAT .                         : STATE
CTRY .                         : COUNTRY
SRVC .                         : SERVICE COMPANY
DATE .                         : DATE
UWI  .                         : UNIQUE WELL ID
API  .                         : API NUMBER
SLAT .WGS84 3.4540186030891036 : SURFACE LATITUDE
SLON .WGS84   5.50213787765999 : SURFACE LONGITUDE
DATUM.F                2116.85 : DEPTH DATUM ELEV
~Curve Information -----------------------------------------
DEPT   .F     : 1 MEASURED DEPTH
RHOB   .G/C3  : BULK DENSITY
GRD    .GAPI  : GAMMA RAY FROM DENSITY LOG
NPHI_LS.DEC   : NEUTRON POROSITY LIMESTONE
CALD   .IN    : CALIPER FROM DENSITY LOG
PEF    .B/E   : PHOTOELECTRIC FACTOR
DPHI_LS.DEC   : DENSITY POROSITY LIMESTONE
DRHO   .G/C3  : BULK DENSITY CORRECTION
LLD    .OHMM  : LATEROLOG DEEP RESISTIVITY
LLS    .OHMM  : LATEROLOG SHALLOW RESISTIVITY
MSFL   .OHMM  : MICRO SPHERICALLY FOCUSED RESISTIVITY
SPR    .MV    : SPONTANEOUS POTENTIAL FROM RESISTIVITY LOG
DTCO   .US/F  : DELTA-T COMPRESSIONAL
DTSM   .US/F  : DELTA-T SHEAR
~Params ----------------------------------------------------
~Other -----------------------------------------------------
~ASCII -----------------------------------------------------
# ...
 6675.00000    2.62690   19.86230    0.03550    8.50020    5.04390    0.05010    0.00660   34.15930   34.59190   34.97370  -51.81160   -9999.25   -9999.25
 6675.50000    2.63650   19.25730    0.03560    8.49970    5.22560    0.04500    0.00660   35.76580   36.76380   38.19960  -51.81890   -9999.25   -9999.25
 6676.00000    2.63870   19.25780    0.03550    8.48510    5.39310    0.04450    0.00590   35.74970   37.21160   40.80870  -51.82610   -9999.25   -9999.25
 6676.50000    2.63290   19.59040    0.03510    8.46550    5.49040    0.04790    0.00490   35.05940   36.14190   39.44370  -51.83330   -9999.25   -9999.25
 6677.00000    2.62670   19.59900    0.03320    8.44580    5.51480    0.05220    0.00390   34.12130   35.66220   38.31820  -52.24140   -9999.25   -9999.25
 6677.50000    2.62250   19.05910    0.02990    8.48600    5.50150    0.05490    0.00290   34.66150   38.59090   40.28610  -51.97300   -9999.25   -9999.25
 6678.00000    2.62370   18.09060    0.02600    8.49320    5.38660    0.05020    0.00180   41.39100   45.05030   46.60630  -52.11290   -9999.25   -9999.25
 6678.50000    2.63620   17.67450    0.02060    8.49810    5.19790    0.04140    0.00150   49.47490   52.32420   53.91800  -52.15500   -9999.25   -9999.25
 6679.00000    2.64920   18.39010    0.01620    8.49690    5.01860    0.03260    0.00170   56.58040   59.46550   62.55620  -52.12510   -9999.25   -9999.25
 6679.50000    2.66480   19.11580    0.01420    8.49570    4.90920    0.02520    0.00240   63.68020   68.03170   74.05330  -52.11580   -9999.25   -9999.25
 6680.00000    2.67150   19.89450    0.01380    8.49460    5.04180    0.02180    0.00330   75.42700   79.43160   88.30420  -52.15040   -9999.25   -9999.25
 6680.50000    2.67060   19.58520    0.01400    8.49340    5.40740    0.02200    0.00430   88.11480   92.74160  106.90870  -52.24360   -9999.25   -9999.25
 6681.00000    2.66590   19.27590    0.01460    8.49220    5.45430    0.02540    0.00520   89.87580   96.38530  117.10090  -52.33680   -9999.25   -9999.25
 6681.50000    2.66190   18.96660    0.01540    8.49110    5.16700    0.02950    0.00600   88.68890   93.45720  119.92960  -52.43000   -9999.25   -9999.25
 6682.00000    2.66020   18.77720    0.01600    8.48970    4.77410    0.02990    0.00620   84.19830   83.17740   87.46080  -52.39900   -9999.25   -9999.25
 6682.50000    2.66260   -9999.25    0.01650    8.48800    4.55830    0.02860    0.00680   76.32130   74.02830   58.50930  -52.34440   -9999.25   -9999.25
 6683.00000    2.66520   -9999.25    0.01710    8.48630    4.61320    0.02520    0.00760   69.18110   66.91580   33.18100  -52.30770   -9999.25   -9999.25
 6683.50000    2.66590   -9999.25    0.01770    8.48460    4.74870    0.02450    0.01060   65.41560   64.43450   14.75370  -52.27100   -9999.25   -9999.25
 6684.00000    2.66650   -9999.25    0.01820    8.48300    4.88180    0.02540    0.01070   66.40170   65.18750   16.06400  -52.23440   -9999.25   -9999.25
 6684.50000    2.66560   -9999.25    0.01880    8.48130    4.91770    0.02670    0.01010   68.79810   67.61370   19.88060  -52.19770   -9999.25   -9999.25
 6685.00000    2.66420   -9999.25    0.01930    8.48100    4.98460    0.02750    0.00840   71.14000   69.91470   23.36920  -52.16110   -9999.25   -9999.25
 6685.50000    2.66160   -9999.25    0.01970    8.48220    5.09570    0.02900    0.00700   73.90620   72.48060   25.49110  -52.12440   -9999.25   -9999.25
 6686.00000    2.65710   -9999.25    0.01980    8.48430    5.21250    0.03220    0.00610   75.82240   74.71650   26.25310  -52.12270   -9999.25   -9999.25
 6686.50000    2.65150   -9999.25    0.01970    8.48670    5.18140    0.03660    0.00520   76.97460   75.85250   26.36280  -52.13140   -9999.25   -9999.25
 6687.00000    2.64800   -9999.25    0.01950    8.48910    5.14330    0.03790    0.00670   78.14440   77.00570   26.44880  -52.14010   -9999.25   -9999.25
 6687.50000    2.64900   -9999.25    0.01890    8.49150    5.21250    0.03760    0.00610   79.33200   78.17660   26.76400  -52.14880   -9999.25   -9999.25
 6688.00000    2.65740   -9999.25    0.01920    8.49400    5.64350    0.03030    0.00460   82.79600   81.17180   27.25500  -52.15750   -9999.25   -9999.25
 6688.50000    2.66070   -9999.25    0.01960    8.49640    5.66480    0.02960    0.00300   86.12440   84.65670   27.97010  -52.16610   -9999.25   -9999.25
 6689.00000    2.65940   -9999.25    0.02040    8.49880    5.43610    0.03060    0.00140   88.73220   87.47520   29.21690  -52.17480   -9999.25   -9999.25
 6689.50000    2.65520   -9999.25   -9999.25    8.50120    5.16200    0.03260   -0.00000   88.73220   87.50600   29.45440  -52.18350   -9999.25   -9999.25
 6690.00000    2.65340   -9999.25   -9999.25    8.50110    5.07520    0.03190   -0.00110   88.72510   87.49850   29.50790  -52.19220   -9999.25   -9999.25
 6690.50000    2.65580   -9999.25   -9999.25    8.49110    5.19280    0.02940   -0.00170   -9999.25   -9999.25   29.56150  -52.20090   -9999.25   -9999.25
 6691.00000    2.66470   -9999.25   -9999.25    8.48690    5.18760    0.02470   -0.00110   -9999.25   -9999.25   29.61520  -52.20960   -9999.25   -9999.25
 6691.50000    2.67180   -9999.25   -9999.25    8.48990    5.11920    0.02220   -0.00040   -9999.25   -9999.25   27.69320  -52.21830   -9999.25   -9999.25
 6692.00000    2.67330   -9999.25   -9999.25    8.49290    5.12060    0.02070   -0.00090   -9999.25   -9999.25   25.25000  -52.22700   -9999.25   -9999.25
 6692.50000    2.67500   -9999.25   -9999.25    8.49420    5.05310    0.01920   -0.00030   -9999.25   -9999.25   24.07630  -52.23570   -9999.25   -9999.25
 6693.00000    2.67720   -9999.25   -9999.25    8.49530    4.93740    0.01910    0.00190   -9999.25   -9999.25   24.14270  -52.24430   -9999.25   -9999.25
 6693.50000    2.68280   -9999.25   -9999.25    8.49630    4.83040    0.01920    0.00260   -9999.25   -9999.25   24.40620  -52.25300   -9999.25   -9999.25
 6694.00000    2.69130   -9999.25   -9999.25    8.48100    5.01390    0.01930    0.00240   -9999.25   -9999.25   25.76740  -52.24600   -9999.25   -9999.25
 6694.50000    2.69630   -9999.25   -9999.25    8.46290    5.30390    0.01930    0.00230   -9999.25   -9999.25   28.34060  -52.04490   -9999.25   -9999.25
 6695.00000    2.69640   -9999.25   -9999.25    8.44490    5.46770    0.01930    0.00210   -9999.25   -9999.25   30.51480  -52.28300   -9999.25   -9999.25
 6695.50000    2.69070   -9999.25   -9999.25    8.42690    5.47810    0.01930    0.00060   -9999.25   -9999.25   30.36910  -52.29830   -9999.25   -9999.25
 6696.00000    2.68220   -9999.25   -9999.25    8.40880    5.36160    0.01860   -0.00060   -9999.25   -9999.25   29.70290  -52.30290   -9999.25   -9999.25
 6696.50000    2.68020   -9999.25   -9999.25    8.39080    5.16900    0.01760   -0.00100   -9999.25   -9999.25   29.79130  -52.27650   -9999.25   -9999.25
 6697.00000    2.68080   -9999.25   -9999.25    8.37280    4.97640    0.01660   -0.00130   -9999.25   -9999.25   30.57200  -52.21320   -9999.25   -9999.25
 6697.50000    2.68310   -9999.25   -9999.25    8.35370    4.85160    0.01500    0.00130   -9999.25   -9999.25   30.98200  -52.14990   -9999.25   -9999.25
 6698.00000    2.68450   -9999.25   -9999.25    8.33130    4.82770    0.01300    0.00380   -9999.25   -9999.25   31.05280  -52.10060   -9999.25   -9999.25
 6698.50000    2.68450   -9999.25   -9999.25    8.27940    4.80430    0.01410    0.00850   -9999.25   -9999.25   33.59670  -52.13830   -9999.25   -9999.25
 6699.00000    2.68450   -9999.25   -9999.25    8.16040    4.80640    0.01720    0.01600   -9999.25   -9999.25   41.68460  -52.36530   -9999.25   -9999.25
 6699.50000    2.68450   -9999.25   -9999.25    7.94370    4.78400    0.02150    0.03150   -9999.25   -9999.25   53.38710  -52.16880   -9999.25   -9999.25
 6700.00000    2.68450   -9999.25   -9999.25    7.72940    4.68690    0.02210    0.06540   -9999.25   -9999.25   50.73830  -52.09200   -9999.25   -9999.25
 6700.50000   -9999.25   -9999.25   -9999.25   -9999.25   -9999.25   -9999.25   -9999.25   -9999.25   -9999.25   23.13600  -52.14590   -9999.25   -9999.25
