~Version ---------------------------------------------------
VERS.   2.0 : CWLS log ASCII Standard -VERSION 2.0
WRAP.    NO : One line per depth step
DLM . SPACE : Column Data Section Delimiter
~Well ------------------------------------------------------
STRT .F                   97.0 : START DEPTH
STOP .F                 6704.0 : STOP DEPTH
STEP .F                    0.5 : STEP
NULL .                -9999.25 : NULL VALUE
COMP .                         : COMPANY
WELL .                         : WELL
FLD  .                         : FIELD
LOC  .                         : LOCATION
PROV .                         : PROVINCE
CNTY .                         : COUNTY
STAT .                         : STATE
CTRY .                         : COUNTRY
SRVC .                         : SERVICE COMPANY
DATE .                         : DATE
UWI  .                         : UNIQUE WELL ID
API  .                         : API NUMBER
SLAT .WGS84 3.4540186030891036 : SURFACE LATITUDE
SLON .WGS84   5.50213787765999 : SURFACE LONGITUDE
DATUM.F                2116.85 : DEPTH DATUM ELEV
~Curve Information -----------------------------------------
DEPT   .F     : 1 MEASURED DEPTH
RHOB   .G/C3  : BULK DENSITY
GRD    .GAPI  : GAMMA RAY FROM DENSITY LOG
NPHI_LS.DEC   : NEUTRON POROSITY LIMESTONE
CALD   .IN    : CALIPER FROM DENSITY LOG
PEF    .B/E   : PHOTOELECTRIC FACTOR
DPHI_LS.DEC   : DENSITY POROSITY LIMESTONE
DRHO   .G/C3  : BULK DENSITY CORRECTION
LLD    .OHMM  : LATEROLOG DEEP RESISTIVITY
LLS    .OHMM  : LATEROLOG SHALLOW RESISTIVITY
MSFL   .OHMM  : MICRO SPHERICALLY FOCUSED RESISTIVITY
SPR    .MV    : SPONTANEOUS POTENTIAL FROM RESISTIVITY LOG
DTCO   .US/F  : DELTA-T COMPRESSIONAL
DTSM   .US/F  : DELTA-T SHEAR
~Params ----------------------------------------------------
~Other -----------------------------------------------------
~ASCII -----------------------------------------------------
# ...
 6519.00000    2.67750   45.92660    0.00930    8.61900    4.70450    0.02560    0.00380  521.56570  589.89130  591.46010  -42.65870   -9999.25   -9999.25
 6519.50000    2.67020   47.62370    0.00990    8.62560    4.50910    0.02960    0.00170  510.62010  590.05420  645.81760  -42.70320   -9999.25   -9999.25
 6520.00000    2.65790   50.93340    0.01030    8.62830    4.33020    0.03170    0.00490  533.24620  571.07620  730.90640  -42.74770   -9999.25   -9999.25
 6520.50000    2.64510   61.82200    0.01150    8.62990    4.18170    0.03580    0.00800  540.00440  552.23430  756.33520  -42.79220   -9999.25   -9999.25
 6521.00000    2.62920   72.28390    0.01330    8.63150    4.21080    0.04310    0.00900  497.95570  519.08880  757.50580  -42.83670   -9999.25   -9999.25
 6521.50000    2.62020   83.81790    0.01410    8.62880    4.23810    0.05260    0.00960  428.11110  462.07780  703.27210  -42.88120   -9999.25   -9999.25
 6522.00000    2.61930   86.97770    0.01430    8.62050    4.47510    0.05680    0.00960  347.89460  395.21870  402.03540  -42.93440   -9999.25   -9999.25
 6522.50000    2.62910   75.99590    0.01390    8.61860    4.70190    0.04390    0.00880  267.61860  299.96050  305.99360  -42.99550   -9999.25   -9999.25
 6523.00000    2.65260   68.14210    0.01280    8.62010    4.86040    0.02920    0.00800  205.86600  227.66210  232.89510  -43.05650   -9999.25   -9999.25
 6523.50000    2.66810   61.66100    0.01300    8.63380    4.88850    0.01890    0.00600  149.99260  172.39210  175.52290  -43.11760   -9999.25   -9999.25
 6524.00000    2.67850   62.46930    0.01440    8.64740    4.88280    0.01850    0.00380  103.99200  128.81420  131.95160  -43.17870   -9999.25   -9999.25
 6524.50000    2.67860   62.68260    0.01750    8.66600    4.91320    0.02030    0.00170   81.82680   96.25210  103.10920  -43.23970   -9999.25   -9999.25
 6525.00000    2.67770   57.26260    0.02180    8.70420    4.96840    0.02250    0.00100   65.52910   71.92110   77.04160  -43.30080   -9999.25   -9999.25
 6525.50000    2.67510   50.92110    0.02620    8.73370    5.06480    0.02570    0.00220   52.47750   56.51720   63.54320  -43.36190   -9999.25   -9999.25
 6526.00000    2.66560   39.02290    0.03760    8.70300    5.25920    0.03500    0.00330   42.02530   45.09890   55.12510  -43.42290   -9999.25   -9999.25
 6526.50000    2.64610   33.34550    0.04720    8.67230    5.35860    0.04530    0.00380   34.02000   35.98740   47.82230  -43.48400   -9999.25   -9999.25
 6527.00000    2.62600   31.40150    0.05870    8.65740    5.42180    0.05750    0.00330   31.71550   34.11710   43.25300  -43.54510   -9999.25   -9999.25
 6527.50000    2.60600   30.72930    0.09450    8.65520    5.47040    0.07170    0.00260   30.85400   33.07690   43.68620  -43.60610   -9999.25   -9999.25
 6528.00000    2.55330   29.83630    0.12400    8.65290    5.42000    0.10260    0.00010   30.32800   32.32410   43.99370  -43.66720   -9999.25   -9999.25
 6528.50000    2.50080   28.73880    0.15350    8.61850    5.31720    0.13150   -0.00250   29.16010   30.67940   37.85500  -43.65430   -9999.25   -9999.25
 6529.00000    2.44820   26.86940    0.17720    8.56480    5.11940    0.15930   -0.00370   27.11820   28.15430   35.00970  -43.57630   -9999.25   -9999.25
 6529.50000    2.42780   26.25200    0.17030    8.57150    5.04020    0.16760   -0.00350   24.26320   25.90790   41.34340  -43.49820   -9999.25   -9999.25
 6530.00000    2.47710   27.56160    0.14970    8.56460    4.93470    0.15480   -0.00260   19.24720   23.02020   37.41540  -43.42010   -9999.25   -9999.25
 6530.50000    2.47710   29.15080    0.14250    8.55620    4.87070    0.13980   -0.00170   17.27000   18.93080   25.65770  -43.34210   -9999.25   -9999.25
 6531.00000    2.46650   30.71590    0.13640    8.50210    4.81010    0.14250   -0.00080   15.55020   15.90580   19.75690  -43.33910   -9999.25   -9999.25
 6531.50000    2.46620   31.96300    0.12950    8.43520    4.75040    0.14540    0.00010   15.03450   15.62380   18.53230  -43.33910   -9999.25   -9999.25
 6532.00000    2.47600   29.79610    0.11860    8.44280    4.77440    0.14000    0.00100   15.69850   17.25140   24.23410  -43.33910   -9999.25   -9999.25
 6532.50000    2.48760   26.76660    0.12450    8.45280    4.81880    0.13030    0.00320   16.47280   17.69280   35.49510  -43.38630   -9999.25   -9999.25
 6533.00000    2.49130   25.93340    0.14180    8.45950    4.81660    0.13690    0.00440   16.05570   16.22130   35.15820  -43.43730   -9999.25   -9999.25
 6533.50000    2.47150   27.18880    0.15920    8.43910    4.81290    0.15160    0.00350   13.44110   14.13810   28.23450  -43.48840   -9999.25   -9999.25
 6534.00000    2.43690   29.60460    0.16110    8.41880    4.87300    0.16710    0.00380   10.65390   11.42860   20.42790  -43.53940   -9999.25   -9999.25
 6534.50000    2.43320   34.05660    0.15600    8.40920    4.93320    0.16270    0.00410   10.39800   10.68910   13.94390  -43.59050   -9999.25   -9999.25
 6535.00000    2.45710   37.54220    0.15000    8.45620    4.95130    0.15380    0.00600   10.78280   11.06770   14.23490  -43.64160   -9999.25   -9999.25
 6535.50000    2.46500   40.25130    0.14640    8.48020    4.91970    0.15330    0.00810   11.47040   12.62520   17.02710  -43.69260   -9999.25   -9999.25
 6536.00000    2.45720   42.32370    0.15780    8.47070    4.82960    0.16160    0.00940   13.13730   14.40180   20.88100  -43.74360   -9999.25   -9999.25
 6536.50000    2.43430   43.54910    0.17230    8.45960    4.72890    0.17380    0.00960   15.51160   17.35340   24.28250  -43.79450   -9999.25   -9999.25
 6537.00000    2.40340   43.67160    0.17360    8.42340    4.65480    0.18490    0.00980   17.74780   17.92240   24.59330  -43.84530   -9999.25   -9999.25
 6537.50000    2.40270   42.78420    0.17120    8.38720    4.57800    0.18350    0.01470   19.74160   18.46130   23.08800  -43.89620   -9999.25   -9999.25
 6538.00000    2.41700   41.25630    0.16420    8.40200    4.57330    0.17300    0.01760   21.08110   19.01630   28.67890  -43.94710   -9999.25   -9999.25
 6538.50000    2.42730   39.83300    0.15720    8.44720    4.80850    0.16250    0.01810   21.53450   19.44710   36.77290  -43.99800   -9999.25   -9999.25
 6539.00000    2.44180   38.51880    0.15230    8.50190    4.98270    0.16200    0.01640   22.04960   19.77810   29.97650  -44.04890   -9999.25   -9999.25
 6539.50000    2.43540   37.90570    0.14620    8.57460    5.08850    0.16290    0.01280   22.86800   20.74810   24.21560  -44.09980   -9999.25   -9999.25
 6540.00000    2.43130   37.94220    0.13860    8.62420    5.11580    0.16550    0.00690   24.00240   22.17170   25.20800  -44.15070   -9999.25   -9999.25
 6540.50000    2.43210   39.25830    0.13000    8.65650    5.10840    0.16320    0.00500   27.36680   24.48100   28.51680  -44.20150   -9999.25   -9999.25
 6541.00000    2.44250   40.98630    0.12420    8.67660    5.10110    0.15450    0.00600   31.87200   28.57560   36.59770  -44.25240   -9999.25   -9999.25
 6541.50000    2.45980   42.82880    0.12070    8.67510    5.06000    0.14200    0.00850   38.43100   32.32630   48.42170  -44.30330   -9999.25   -9999.25
 6542.00000    2.48430   43.60190    0.11990    8.66900    5.01410    0.13350    0.01090   40.96390   34.71100   58.67990  -44.35420   -9999.25   -9999.25
 6542.50000    2.49820   41.09560    0.12000    8.65730    4.97220    0.12350    0.01210   40.25340   33.87280   59.26190  -44.40510   -9999.25   -9999.25
 6543.00000    2.51070   39.90740    0.11730    8.61860    4.94350    0.12000    0.01140   36.75090   30.50030   57.27150  -44.45600   -9999.25   -9999.25
 6543.50000    2.51460   40.24760    0.11630    8.57860    4.89140    0.11710    0.00610   33.48610   27.15930   47.26610  -44.50690   -9999.25   -9999.25
 6544.00000    2.51790   40.88990    0.11360    8.56510    4.75510    0.11640    0.00160   33.22300   27.51560   35.90560  -44.55770   -9999.25   -9999.25
 6544.50000    2.51970   41.25870    0.10410    8.56000    4.66240    0.10820    0.00100   36.27280   30.19110   43.02620  -44.60860   -9999.25   -9999.25
