~Version ---------------------------------------------------
VERS.   2.0 : CWLS log ASCII Standard -VERSION 2.0
WRAP.    NO : One line per depth step
DLM . SPACE : Column Data Section Delimiter
~Well ------------------------------------------------------
STRT .F                   97.0 : START DEPTH
STOP .F                 6704.0 : STOP DEPTH
STEP .F                    0.5 : STEP
NULL .                -9999.25 : NULL VALUE
COMP .                         : COMPANY
WELL .                         : WELL
FLD  .                         : FIELD
LOC  .                         : LOCATION
PROV .                         : PROVINCE
CNTY .                         : COUNTY
STAT .                         : STATE
CTRY .                         : COUNTRY
SRVC .                         : SERVICE COMPANY
DATE .                         : DATE
UWI  .                         : UNIQUE WELL ID
API  .                         : API NUMBER
SLAT .WGS84 3.4540186030891036 : SURFACE LATITUDE
SLON .WGS84   5.50213787765999 : SURFACE LONGITUDE
DATUM.F                2116.85 : DEPTH DATUM ELEV
~Curve Information -----------------------------------------
DEPT   .F     : 1 MEASURED DEPTH
RHOB   .G/C3  : BULK DENSITY
GRD    .GAPI  : GAMMA RAY FROM DENSITY LOG
NPHI_LS.DEC   : NEUTRON POROSITY LIMESTONE
CALD   .IN    : CALIPER FROM DENSITY LOG
PEF    .B/E   : PHOTOELECTRIC FACTOR
DPHI_LS.DEC   : DENSITY POROSITY LIMESTONE
DRHO   .G/C3  : BULK DENSITY CORRECTION
LLD    .OHMM  : LATEROLOG DEEP RESISTIVITY
LLS    .OHMM  : LATEROLOG SHALLOW RESISTIVITY
MSFL   .OHMM  : MICRO SPHERICALLY FOCUSED RESISTIVITY
SPR    .MV    : SPONTANEOUS POTENTIAL FROM RESISTIVITY LOG
DTCO   .US/F  : DELTA-T COMPRESSIONAL
DTSM   .US/F  : DELTA-T SHEAR
~Params ----------------------------------------------------
~Other -----------------------------------------------------
~ASCII -----------------------------------------------------
# ...
 6441.00000    2.68430   32.18980    0.01180    8.64270    5.38760    0.01330    0.00320  444.83860  475.05220  562.79380  -22.87900   -9999.25   -9999.25
 6441.50000    2.70090   31.20010    0.01060    8.66660    5.33790    0.00950    0.00180  512.49500  517.38640  642.54500  -23.04870   -9999.25   -9999.25
 6442.00000    2.70210   31.00940    0.01140    8.62850    5.29600    0.00820    0.00040  535.13590  507.41190  670.72280  -23.20040   -9999.25   -9999.25
 6442.50000    2.70210   31.95250    0.02040    8.59040    5.31940    0.01220   -0.00080  487.35020  353.27420  277.60910  -23.27670   -9999.25   -9999.25
 6443.00000    2.68530   32.77050    0.03460    8.54170    5.42890    0.02460   -0.00070  352.97890  249.40880  188.08810  -23.38760   -9999.25   -9999.25
 6443.50000    2.65590   33.12650    0.05260    8.49220    5.57250    0.03620   -0.00070  214.01530  176.08070  127.43500  -23.34520   -9999.25   -9999.25
 6444.00000    2.62220   32.46980    0.07810    8.44760    5.61400    0.05450   -0.00060  138.85690  124.31160   88.46260  -23.02050   -9999.25   -9999.25
 6444.50000    2.58850   31.78380    0.09220    8.41150    5.37680    0.08310   -0.00110   97.16770   87.07810   68.16190  -23.09630   -9999.25   -9999.25
 6445.00000    2.55470   30.23190    0.10800    8.42620    5.33600    0.09990   -0.00160   67.99480   60.93570   52.23640  -23.04130   -9999.25   -9999.25
 6445.50000    2.52510   28.83530    0.12420    8.40010    5.33600    0.11680   -0.00110   50.82510   44.64620   34.76090  -22.90200   -9999.25   -9999.25
 6446.00000    2.50830   28.49570    0.13080    8.37400    5.28390    0.13370    0.00220   40.74330   33.12250   21.74410  -22.76270   -9999.25   -9999.25
 6446.50000    2.49140   30.01010    0.13280    8.36060    5.01490    0.14590    0.01070   38.76430   29.99660   15.44300  -22.73230   -9999.25   -9999.25
 6447.00000    2.48710   33.11230    0.11890    8.35950    4.89530    0.14230    0.01930   40.06180   33.41950   16.66450  -22.72880   -9999.25   -9999.25
 6447.50000    2.48900   35.82410    0.10370    8.35460    4.84640    0.12130    0.02960   48.61340   40.25670   23.85410  -22.79450   -9999.25   -9999.25
 6448.00000    2.51610   35.67430    0.09100    8.34640    4.96290    0.09460    0.04220   60.84860   47.01300   39.50520  -22.86140   -9999.25   -9999.25
 6448.50000    2.56370   33.50980    0.09110    8.33920    5.11010    0.08980    0.05540   60.37470   48.79100   46.68830  -23.08060   -9999.25   -9999.25
 6449.00000    2.56500   31.49900    0.10180    8.33200    5.21920    0.08960    0.05630   54.48830   45.49370   43.44220  -23.25640   -9999.25   -9999.25
 6449.50000    2.54720   30.41920    0.11440    8.34750    5.21390    0.09560    0.05230   43.64520   36.52040   28.82600  -23.48570   -9999.25   -9999.25
 6450.00000    2.52840   30.37720    0.11800    8.37500    5.15700    0.10260    0.04560   32.53080   26.75400   16.85420  -23.80510   -9999.25   -9999.25
 6450.50000    2.52860   30.88500    0.09250    8.40230    5.07990    0.10760    0.03950   32.30310   26.50110   13.68620  -24.12800   -9999.25   -9999.25
 6451.00000    2.56400   32.28570    0.06570    8.42640    5.01420    0.09950    0.03670   37.29400   30.80610   21.09790  -24.27710   -9999.25   -9999.25
 6451.50000    2.60000   33.67190    0.04190    8.47270    5.02040    0.08210    0.03430   47.69370   42.31810   34.81160  -24.38930   -9999.25   -9999.25
 6452.00000    2.62150   35.14680    0.02930    8.50810    5.15440    0.06470    0.03280   60.99350   56.14070   44.68160  -24.57180   -9999.25   -9999.25
 6452.50000    2.63760   38.19080    0.02050    8.50140    5.28550    0.05050    0.03050   78.00200   62.09480   57.35010  -25.05320   -9999.25   -9999.25
 6453.00000    2.64840   40.93690    0.01990    8.50400    5.27540    0.04230    0.02530   84.95270   67.91210   73.40440  -25.04420   -9999.25   -9999.25
 6453.50000    2.65140   44.68510    0.02180    8.51330    5.28890    0.03510    0.02060   89.55250   69.45390   92.62170  -25.03510   -9999.25   -9999.25
 6454.00000    2.65140   47.97340    0.03210    8.48400    5.26700    0.03700    0.01800   90.21700   69.54270  100.95220  -25.09920   -9999.25   -9999.25
 6454.50000    2.64450   52.23350    0.04030    8.45460    5.11290    0.04520    0.01560   82.86580   65.69690   85.31470  -25.39690   -9999.25   -9999.25
 6455.00000    2.63860   56.05820    0.04330    8.44210    5.01730    0.05430    0.01760   79.91290   59.82730   68.06130  -25.67370   -9999.25   -9999.25
 6455.50000    2.63260   63.15860    0.04470    8.43000    4.95320    0.06030    0.02440   79.53130   54.81870   54.29720  -25.95810   -9999.25   -9999.25
 6456.00000    2.62650   83.17410    0.05940    8.44180    4.81760    0.05930    0.03620   75.68720   50.94720   66.10860  -26.22140   -9999.25   -9999.25
 6456.50000    2.62040   89.10230    0.08880    8.45820    4.57700    0.05550    0.04610   67.59090   48.23420  107.45780  -26.27450   -9999.25   -9999.25
 6457.00000    2.61070   80.64770    0.12010    8.47270    4.58340    0.05260    0.05080   68.30190   48.69120   95.62470  -26.71150   -9999.25   -9999.25
 6457.50000    2.58120   61.18460    0.14660    8.48020    4.75060    0.07040    0.04500   70.05940   54.78590   68.56010  -27.14840   -9999.25   -9999.25
 6458.00000    2.52110   44.66720    0.15620    8.50460    4.96000    0.13910    0.02550   81.88720   70.82490   72.16780  -27.28160   -9999.25   -9999.25
 6458.50000    2.46060   32.60410    0.16060    8.51850    5.02600    0.17800    0.01170  111.32280   79.46040   77.21420  -27.27620   -9999.25   -9999.25
 6459.00000    2.40010   30.63540    0.17200    8.51570    5.00600    0.20650    0.00290  115.21500   80.56420   60.97330  -27.26430   -9999.25   -9999.25
 6459.50000    2.35740   29.98110    0.18750    8.46470    4.85700    0.22690    0.00340  115.21500   79.55070   53.77480  -27.29160   -9999.25   -9999.25
 6460.00000    2.32770   30.38450    0.20970    8.40400    4.53250    0.24260    0.01190  116.41350   79.69630   69.26910  -27.34780   -9999.25   -9999.25
 6460.50000    2.29800   30.78800    0.21950    8.35590    4.38890    0.25180    0.02190  118.35270   81.56790   80.14190  -27.36960   -9999.25   -9999.25
 6461.00000    2.28060   30.30900    0.19610    8.34740    4.49780    0.23850    0.02740  120.88910   81.91250   65.03850  -27.21340   -9999.25   -9999.25
 6461.50000    2.31560   30.23120    0.16970    8.37400    4.71130    0.20840    0.03110  120.96690   79.86490   54.60030  -27.18240   -9999.25   -9999.25
 6462.00000    2.40870   31.77530    0.15800    8.40070    4.84580    0.17380    0.03130   99.62260   73.68530   47.89720  -27.24360   -9999.25   -9999.25
 6462.50000    2.44720   33.23760    0.16410    8.41840    4.87030    0.15810    0.02470   76.88650   60.01920   40.07410  -27.38630   -9999.25   -9999.25
 6463.00000    2.44570   33.53690    0.18560    8.42740    4.77430    0.16560    0.01440   59.33930   48.33390   30.85440  -27.52900   -9999.25   -9999.25
 6463.50000    2.42550   32.20200    0.20360    8.43050    4.70820    0.17900    0.00710   45.79670   38.92360   23.12690  -27.67180   -9999.25   -9999.25
 6464.00000    2.40290   30.68280    0.20270    8.42710    4.70260    0.18850    0.00480   40.41300   34.63390   15.22730  -28.06800   -9999.25   -9999.25
 6464.50000    2.39640   30.38280    0.19580    8.42310    4.70340    0.19700    0.00400   36.69610   33.04650   13.82480  -28.36110   -9999.25   -9999.25
 6465.00000    2.39320   30.65520    0.19200    8.42160    4.68470    0.19900    0.00310   35.00860   32.98300   15.97880  -28.49420   -9999.25   -9999.25
 6465.50000    2.39060   31.14060    0.19070    8.42690    4.69560    0.19730    0.00400   34.11470   33.33180   16.78120  -28.44840   -9999.25   -9999.25
 6466.00000    2.38940   32.11650    0.18790    8.43760    4.67790    0.19580    0.00530   35.30760   34.76380   17.67950  -28.47970   -9999.25   -9999.25
 6466.50000    2.39050   33.03450    0.17300    8.44930    4.63590    0.19250    0.00660   38.73570   37.24610   19.87830  -28.51100   -9999.25   -9999.25
