~Version ---------------------------------------------------
VERS.   2.0 : CWLS log ASCII Standard -VERSION 2.0
WRAP.    NO : One line per depth step
DLM . SPACE : Column Data Section Delimiter
~Well ------------------------------------------------------
STRT .F                   97.0 : START DEPTH
STOP .F                 6704.0 : STOP DEPTH
STEP .F                    0.5 : STEP
NULL .                -9999.25 : NULL VALUE
COMP .                         : COMPANY
WELL .                         : WELL
FLD  .                         : FIELD
LOC  .                         : LOCATION
PROV .                         : PROVINCE
CNTY .                         : COUNTY
STAT .                         : STATE
CTRY .                         : COUNTRY
SRVC .                         : SERVICE COMPANY
DATE .                         : DATE
UWI  .                         : UNIQUE WELL ID
API  .                         : API NUMBER
SLAT .WGS84 3.4540186030891036 : SURFACE LATITUDE
SLON .WGS84   5.50213787765999 : SURFACE LONGITUDE
DATUM.F                2116.85 : DEPTH DATUM ELEV
~Curve Information -----------------------------------------
DEPT   .F     : 1 MEASURED DEPTH
RHOB   .G/C3  : BULK DENSITY
GRD    .GAPI  : GAMMA RAY FROM DENSITY LOG
NPHI_LS.DEC   : NEUTRON POROSITY LIMESTONE
CALD   .IN    : CALIPER FROM DENSITY LOG
PEF    .B/E   : PHOTOELECTRIC FACTOR
DPHI_LS.DEC   : DENSITY POROSITY LIMESTONE
DRHO   .G/C3  : BULK DENSITY CORRECTION
LLD    .OHMM  : LATEROLOG DEEP RESISTIVITY
LLS    .OHMM  : LATEROLOG SHALLOW RESISTIVITY
MSFL   .OHMM  : MICRO SPHERICALLY FOCUSED RESISTIVITY
SPR    .MV    : SPONTANEOUS POTENTIAL FROM RESISTIVITY LOG
DTCO   .US/F  : DELTA-T COMPRESSIONAL
DTSM   .US/F  : DELTA-T SHEAR
~Params ----------------------------------------------------
~Other -----------------------------------------------------
~ASCII -----------------------------------------------------
# ...
 6363.00000    2.51020   43.42010    0.06060    8.33320    5.08960    0.11010    0.01070  188.91340  134.14530   95.11970  -21.76470   -9999.25   -9999.25
 6363.50000    2.53010   40.76050    0.04900    8.35750    4.96600    0.09570    0.01220  224.73250  169.94510  138.72500  -21.54460   -9999.25   -9999.25
 6364.00000    2.55610   38.96290    0.04060    8.38460    4.82020    0.08120    0.01650  265.45760  197.36550  177.31940  -21.38180   -9999.25   -9999.25
 6364.50000    2.58220   37.61490    0.03900    8.39860    4.67010    0.07090    0.02230  294.85600  210.55690  203.31440  -21.40230   -9999.25   -9999.25
 6365.00000    2.59980   36.90930    0.04960    8.39530    4.63680    0.06400    0.02500  298.55290  205.95220  205.28970  -21.42270   -9999.25   -9999.25
 6365.50000    2.60190   36.24770    0.06620    8.36300    4.66090    0.06230    0.02510  267.48740  186.43580  184.01640  -21.42340   -9999.25   -9999.25
 6366.00000    2.59930   35.61630    0.08890    8.32800    4.81190    0.07870    0.02480  199.58480  146.94420  132.57040  -21.42440   -9999.25   -9999.25
 6366.50000    2.58870   35.12500    0.10730    8.31030    4.91120    0.09830    0.02460  153.53830  116.34700   78.24020  -21.42650   -9999.25   -9999.25
 6367.00000    2.55790   35.15720    0.10790    8.32330    4.86610    0.11210    0.02380  125.65420   92.63320   47.73770  -21.42850   -9999.25   -9999.25
 6367.50000    2.52720   36.25250    0.10150    8.34490    4.77470    0.13140    0.02110  113.35480   86.24700   37.35170  -21.43050   -9999.25   -9999.25
 6368.00000    2.49640   43.46200    0.09250    8.37340    4.71780    0.13470    0.01850  121.38290   91.25610   40.44530  -21.43250   -9999.25   -9999.25
 6368.50000    2.48900   44.99800    0.08460    8.40340    4.67110    0.12000    0.01590  143.80780  106.74870   74.30400  -21.43170   -9999.25   -9999.25
 6369.00000    2.49770   45.44590    0.08480    8.42910    4.64480    0.10570    0.01330  166.66480  130.57180  120.72130  -21.47130   -9999.25   -9999.25
 6369.50000    2.50860   45.21150    0.08890    8.42540    4.67520    0.09770    0.01090  170.24350  135.23320  129.39000  -21.73030   -9999.25   -9999.25
 6370.00000    2.51410   44.93470    0.09050    8.42170    4.74930    0.09870    0.00850  157.45880  126.14440   88.93220  -21.83930   -9999.25   -9999.25
 6370.50000    2.51850   44.65780    0.07860    8.42960    4.81240    0.10840    0.00750  149.62280  121.22710   62.86890  -21.80470   -9999.25   -9999.25
 6371.00000    2.52680   46.16000    0.06070    8.45460    4.78630    0.11370    0.00840  152.66680  123.91900   48.77270  -21.64930   -9999.25   -9999.25
 6371.50000    2.53840   48.25060    0.03980    8.48150    4.76690    0.10120    0.01000  179.42650  139.25560   64.25920  -21.49400   -9999.25   -9999.25
 6372.00000    2.55860   52.68420    0.02520    8.51980    4.93630    0.08170    0.01790  234.06010  177.36450   95.85090  -21.44400   -9999.25   -9999.25
 6372.50000    2.58130   53.48470    0.02160    8.55610    5.16070    0.05430    0.02550  301.88050  213.67400  116.33540  -21.45900   -9999.25   -9999.25
 6373.00000    2.62090   50.57630    0.02110    8.56770    5.51600    0.03630    0.02730  344.52040  257.41650   93.69530  -21.48080   -9999.25   -9999.25
 6373.50000    2.65820   43.89440    0.02110    8.57650    5.69610    0.02950    0.02680  380.83110  275.37160   87.00380  -21.46650   -9999.25   -9999.25
 6374.00000    2.66250   37.68610    0.01990    8.58380    5.72660    0.03260    0.02160  402.22990  283.40690  117.24560  -21.45220   -9999.25   -9999.25
 6374.50000    2.65670   35.37810    0.01710    8.58750    5.60610    0.03430    0.01370  429.66650  296.37730  166.97950  -21.44400   -9999.25   -9999.25
 6375.00000    2.65430   37.56830    0.01420    8.58850    5.38610    0.03280    0.00790  466.92400  319.07050  235.17040  -21.44400   -9999.25   -9999.25
 6375.50000    2.65760   41.91310    0.01200    8.58780    5.16160    0.02670    0.00510  496.13790  349.85460  309.44770  -21.44400   -9999.25   -9999.25
 6376.00000    2.66900   47.29870    0.01140    8.58310    5.01920    0.02110    0.00370  489.37280  356.71700  407.15060  -21.32380   -9999.25   -9999.25
 6376.50000    2.68110   49.22620    0.01240    8.57850    4.96560    0.01570    0.00500  431.74420  320.45860  466.96680  -21.03420   -9999.25   -9999.25
 6377.00000    2.68740   48.17390    0.01570    8.57350    4.93800    0.01550    0.00810  366.82650  279.12920  331.68400  -20.88010   -9999.25   -9999.25
 6377.50000    2.68240   47.04430    0.01860    8.56040    4.93410    0.02180    0.00840  323.59010  263.27850  202.89470  -20.86970   -9999.25   -9999.25
 6378.00000    2.67010   47.64740    0.01790    8.54740    4.97910    0.02900    0.00820  325.21040  260.01410  115.08680  -20.84250   -9999.25   -9999.25
 6378.50000    2.65630   50.53070    0.01630    8.53830    5.12400    0.03770    0.00770  357.74110  276.05160  137.85110  -20.80690   -9999.25   -9999.25
 6379.00000    2.64350   54.04750    0.01470    8.54620    5.26050    0.04150    0.00460  413.34230  311.83930  214.66190  -20.80920   -9999.25   -9999.25
 6379.50000    2.64110   56.27490    0.01240    8.55410    5.48940    0.03920    0.00080  488.59460  352.26560  200.74570  -20.81820   -9999.25   -9999.25
 6380.00000    2.64710   56.80150    0.01070    8.55450    5.65770    0.02990    0.00030  509.38790  376.95840  157.84560  -20.80800   -9999.25   -9999.25
 6380.50000    2.66650   57.10720    0.00950    8.54870    5.56280    0.02110   -0.00000  496.65540  377.44740  132.96890  -20.80160   -9999.25   -9999.25
 6381.00000    2.67390   56.83010    0.00940    8.54280    5.36820    0.02180   -0.00020  460.85740  360.80350  142.78780  -20.80160   -9999.25   -9999.25
 6381.50000    2.67030   56.86590    0.01010    8.56330    5.30290    0.02530    0.00160  407.60770  326.09240  157.56650  -20.81860   -9999.25   -9999.25
 6382.00000    2.66600   57.65090    0.01080    8.56900    5.36660    0.02690    0.00380  360.51070  294.72060  165.42820  -20.83680   -9999.25   -9999.25
 6382.50000    2.66450   58.99480    0.01190    8.54340    5.55160    0.02860    0.00520  318.85530  266.36680  113.70310  -20.83680   -9999.25   -9999.25
 6383.00000    2.66200   59.83660    0.01230    8.59370    5.81980    0.03340    0.00670  282.01320  240.74100   72.67930  -20.83680   -9999.25   -9999.25
 6383.50000    2.64920   60.04230    0.01220    8.67400    5.95030    0.03750    0.00820  271.05610  235.76010   71.06490  -20.81530   -9999.25   -9999.25
 6384.00000    2.64850   57.55350    0.01110    8.73830    5.88940    0.03570    0.00820  272.21140  238.62070  121.35540  -20.74130   -9999.25   -9999.25
 6384.50000    2.65120   53.41310    0.00950    8.79140    5.66870    0.03380    0.00820  287.41260  247.76750  209.22380  -20.58550   -9999.25   -9999.25
 6385.00000    2.65370   49.23830    0.00870    8.76820    5.53430    0.03320    0.00930  300.35210  273.73740  204.77720  -20.42970   -9999.25   -9999.25
 6385.50000    2.65300   46.01950    0.00780    8.72220    5.51470    0.03400    0.00820  326.40120  310.04280  195.74710  -20.19640   -9999.25   -9999.25
 6386.00000    2.65300   44.67090    0.00690    8.70030    5.56450    0.03230    0.00590  373.69740  347.40980  262.22130  -19.88350   -9999.25   -9999.25
 6386.50000    2.65450   43.68840    0.00660    8.68690    5.58900    0.02800    0.00660  415.70100  382.60770  346.81390  -19.74490   -9999.25   -9999.25
 6387.00000    2.66630   43.08780    0.00660    8.67350    5.50730    0.02020    0.00450  443.59990  398.83550  456.77770  -19.66330   -9999.25   -9999.25
 6387.50000    2.67250   41.74460    0.00750    8.66170    5.34400    0.02180    0.00210  449.38750  399.25310  529.26430  -19.59920   -9999.25   -9999.25
 6388.00000    2.67130   41.75960    0.00760    8.65340    5.03100    0.02890    0.00080  439.87610  390.12170  516.88470  -19.61310   -9999.25   -9999.25
 6388.50000    2.66120   42.50310    0.00760    8.64510    4.89860    0.02870    0.00060  412.20570  384.26760  444.96970  -19.62190   -9999.25   -9999.25
