~Version ---------------------------------------------------
VERS.   2.0 : CWLS log ASCII Standard -VERSION 2.0
WRAP.    NO : One line per depth step
DLM . SPACE : Column Data Section Delimiter
~Well ------------------------------------------------------
STRT .F                   97.0 : START DEPTH
STOP .F                 6704.0 : STOP DEPTH
STEP .F                    0.5 : STEP
NULL .                -9999.25 : NULL VALUE
COMP .                         : COMPANY
WELL .                         : WELL
FLD  .                         : FIELD
LOC  .                         : LOCATION
PROV .                         : PROVINCE
CNTY .                         : COUNTY
STAT .                         : STATE
CTRY .                         : COUNTRY
SRVC .                         : SERVICE COMPANY
DATE .                         : DATE
UWI  .                         : UNIQUE WELL ID
API  .                         : API NUMBER
SLAT .WGS84 3.4540186030891036 : SURFACE LATITUDE
SLON .WGS84   5.50213787765999 : SURFACE LONGITUDE
DATUM.F                2116.85 : DEPTH DATUM ELEV
~Curve Information -----------------------------------------
DEPT   .F     : 1 MEASURED DEPTH
RHOB   .G/C3  : BULK DENSITY
GRD    .GAPI  : GAMMA RAY FROM DENSITY LOG
NPHI_LS.DEC   : NEUTRON POROSITY LIMESTONE
CALD   .IN    : CALIPER FROM DENSITY LOG
PEF    .B/E   : PHOTOELECTRIC FACTOR
DPHI_LS.DEC   : DENSITY POROSITY LIMESTONE
DRHO   .G/C3  : BULK DENSITY CORRECTION
LLD    .OHMM  : LATEROLOG DEEP RESISTIVITY
LLS    .OHMM  : LATEROLOG SHALLOW RESISTIVITY
MSFL   .OHMM  : MICRO SPHERICALLY FOCUSED RESISTIVITY
SPR    .MV    : SPONTANEOUS POTENTIAL FROM RESISTIVITY LOG
DTCO   .US/F  : DELTA-T COMPRESSIONAL
DTSM   .US/F  : DELTA-T SHEAR
~Params ----------------------------------------------------
~Other -----------------------------------------------------
~ASCII -----------------------------------------------------
# ...
 5947.00000    2.62440  117.52320    0.26060    9.24890    3.39480    0.05300    0.06620   10.17390    9.72750    8.61510   -9.75830   77.65820   78.55730
 5947.50000    2.62880  116.63610    0.24360    9.24800    3.39410    0.05130    0.05580   10.64610   10.09750   10.83790   -9.75420   77.22160   79.19320
 5948.00000    2.63720  116.75730    0.23380    9.24780    3.35990    0.04380    0.04530   10.73430   10.25530   11.87930   -9.75010   76.60460   79.92890
 5948.50000    2.63830  116.90030    0.23370    9.26080    3.31150    0.04420    0.03450   10.60850   10.24120    9.25750   -9.74600   76.29220   80.31860
 5949.00000    2.63640  116.05010    0.23800    9.27640    3.28790    0.04830    0.02110   10.54200   10.20600    7.68020   -9.74190   76.56670   80.30690
 5949.50000    2.62480  113.00450    0.24340    9.27750    3.27350    0.05300    0.01730   10.63290   10.17090    8.54110   -9.73780   77.37320   80.23050
 5950.00000    2.62520  107.95440    0.24840    9.27670    3.30740    0.05350    0.01650   10.85340   10.23550   10.53270   -9.73370   78.17960   79.98460
 5950.50000    2.62780  104.35790    0.24430    9.27600    3.34820    0.05020    0.01510   11.09180   10.33730   11.06570   -9.72960   79.07150   79.86550
 5951.00000    2.63610  104.03460    0.23790    9.27600    3.40250    0.04410    0.01380   11.34350   10.77080   12.08800   -9.72550   80.17860   80.75000
 5951.50000    2.64610  105.28260    0.23270    9.27640    3.45680    0.03920    0.01180   11.62600   11.28740   13.45240   -9.72130   80.98650   81.43710
 5952.00000    2.65090  105.76730    0.22770    9.27480    3.51010    0.03650    0.00990   11.91650   11.72980   15.11190   -9.71720   81.31000   81.76070
 5952.50000    2.65340  106.55320    0.23080    9.27890    3.53730    0.03330    0.00700   12.00620   11.84040   16.11330   -9.69480   81.06150   81.50700
 5953.00000    2.65410  107.88620    0.23290    9.29340    3.59410    0.03360    0.00400   12.00950   11.84370   15.18570   -9.66820   80.59520   81.15690
 5953.50000    2.65110  108.86870    0.23310    9.31530    3.65400    0.03670    0.00100   11.83430   11.64820   14.09680   -9.64160   78.25010   80.43450
 5954.00000    2.64660  109.44550    0.23330    9.32000    3.76810    0.04010   -0.00260   11.53980   11.35870   14.06310   -9.61510   76.95270   80.01850
 5954.50000    2.64210  109.43950    0.23970    9.31240    3.88220    0.04230   -0.00470   11.25270   11.07640   14.02380   -9.58850   76.95270   79.09230
 5955.00000    2.63880  109.05520    0.24890    9.33200    3.94610    0.04370   -0.00330   10.97280   10.77720   13.12200   -9.56190   77.07330   78.17220
 5955.50000    2.63280  109.21670    0.25800    9.34800    3.96210    0.04600   -0.00230   10.58130   10.33200   11.74910   -9.53530   77.43750   78.55920
 5956.00000    2.62570  110.59140    0.26720    9.35800    3.95650    0.05050   -0.00170   10.24460    9.21190   10.95180   -9.52040   77.66920   78.72110
 5956.50000    2.61760  113.44170    0.27640    9.36790    3.89700    0.05670   -0.00110    9.95730    8.03860    9.32210   -9.50610   77.28020   78.57950
 5957.00000    2.60760  115.88050    0.28660    9.38580    3.81650    0.06190    0.00220    9.58330    7.96830    7.71800   -9.49180   77.45600   78.70800
 5957.50000    2.60230  118.54050    0.29130    9.40530    3.73410    0.06650    0.00670    9.41800    8.06050    7.64020   -9.47740   78.41040   79.39860
 5958.00000    2.60180  121.42060    0.28860    9.39230    3.71670    0.06580    0.01050    9.45110    8.53100    9.00090   -9.46310   78.91750   79.76620
 5958.50000    2.60260  122.48480    0.27930    9.37150    3.64140    0.06110    0.01310    9.58000    9.35260   10.57890   -9.44880   78.56610   79.65750
 5959.00000    2.60940  119.39060    0.27330    9.36890    3.56190    0.05440    0.01500   10.05080    9.85140   11.90100   -9.43440   77.91530   79.38180
 5959.50000    2.62650  116.01180    0.26810    9.37690    3.54050    0.04800    0.01610   10.18550   10.04480   12.28600   -9.42010   77.24590   78.81820
 5960.00000    2.64360  115.45370    0.26110    9.39120    3.51450    0.04190    0.01540   10.18560   10.04500   12.27540   -9.40580   77.00110   77.98620
 5960.50000    2.65030  115.28100    0.25840    9.40230    3.48330    0.03790    0.01490   10.18820   10.04750   12.07400   -9.39140   76.71620   77.68870
 5961.00000    2.64400  114.99400    0.25830    9.40640    3.47780    0.03900    0.01830   10.17180   10.03050   11.66770   -9.37710   76.79390   77.90150
 5961.50000    2.62920  112.42830    0.25970    9.43260    3.46620    0.04940    0.02300   10.12420    9.69610   10.13810   -9.36280   75.95950   78.58650
 5962.00000    2.61050  106.25270    0.26230    9.43130    3.45310    0.06480    0.02460   10.10330    8.47670    6.18320   -9.37310   75.53280   78.79410
 5962.50000    2.59060   99.68780    0.26510    9.39910    3.44120    0.07500    0.02540   10.20190    8.30050    6.05140   -9.38760   77.22720   78.42070
 5963.00000    2.57750   98.83840    0.26690    9.36910    3.42230    0.07860    0.02730   10.53850    8.08050    8.56200   -9.40210   77.46240   78.16730
 5963.50000    2.57940  100.18490    0.26550    9.35710    3.39600    0.07580    0.03160   10.84710    7.96130   10.84800   -9.41650   77.47080   78.15960
 5964.00000    2.60170  103.49060    0.26030    9.34920    3.39320    0.06140    0.03840   10.93380    7.96450   11.36170   -9.43100   77.46270   78.65900
 5964.50000    2.63030  106.07910    0.25530    9.34120    3.44070    0.04670    0.04700   10.70760    8.00590   10.29780   -9.44550   78.09260   79.34370
 5965.00000    2.63300  108.66770    0.25120    9.33240    3.48590    0.04700    0.03910   10.38870    8.30770    7.72760   -9.45760   78.72990   79.82490
 5965.50000    2.62640  110.60160    0.24640    9.32360    3.52230    0.05090    0.02860   10.11590    8.67360    9.10990   -9.45760   79.48240   80.27410
 5966.00000    2.61500  111.56710    0.24450    9.31480    3.62060    0.05930    0.01900   10.11590    9.19310   10.37630   -9.45760   80.25090   80.73110
 5966.50000    2.61760  112.68240    0.24480    9.30660    3.73050    0.05440    0.01090   10.18590    9.74370   11.65770   -9.45760   80.76680   81.28090
 5967.00000    2.62550  114.58710    0.24800    9.31090    3.77430    0.04920    0.00510   10.35320    9.99690   12.61130   -9.45760   81.42080   81.93470
 5967.50000    2.63470  118.28420    0.25310    9.31530    3.80550    0.04670   -0.00080   10.49470   10.18860   13.67360   -9.45770   81.56520   82.80340
 5968.00000    2.63740  120.69620    0.25100    9.31390    3.84860    0.04440   -0.00490   10.62740   10.30380   13.86260   -9.45770   81.18610   83.27520
 5968.50000    2.63810  120.54360    0.24620    9.31150    3.88980    0.04230   -0.00550   10.62680   10.30380   13.77200   -9.45770   80.93060   81.98030
 5969.00000    2.63830  116.10740    0.24350    9.30920    3.91790    0.04280   -0.00520   10.58960   10.28390   12.98390   -9.45770   80.93060   81.76940
 5969.50000    2.63810  111.92120    0.24700    9.32430    3.90750    0.04470   -0.00470   10.55250   10.21890   11.83060   -9.45770   79.87630   79.84860
 5970.00000    2.63490  110.53920    0.25210    9.32920    3.81740    0.04760   -0.00110   10.51560   10.15430   12.38920   -9.45770   78.40960   79.39020
 5970.50000    2.62950  109.77910    0.25710    9.33000    3.67410    0.05070    0.00310   10.46130   10.10400   12.90320   -9.45780   76.76540   80.53110
 5971.00000    2.62260  110.35400    0.26250    9.32810    3.55160    0.05430    0.00830   10.30730   10.07440   12.69940   -9.45780   77.76860   84.04280
 5971.50000    2.61590  109.64590    0.26670    9.32570    3.51900    0.05890    0.01270   10.18800   10.02280   10.34720   -9.45780   78.64100   83.92380
 5972.00000    2.60910  108.97510    0.26130    9.32760    3.50490    0.06130    0.01440   10.11540    9.85200    8.00260   -9.45780   79.16540   80.35640
 5972.50000    2.60240  109.01220    0.25400    9.32950    3.49080    0.06290    0.01530   10.11010    9.68420    8.55220   -9.43620   79.20430   79.88570
