~Version ---------------------------------------------------
VERS.   2.0 : CWLS log ASCII Standard -VERSION 2.0
WRAP.    NO : One line per depth step
DLM . SPACE : Column Data Section Delimiter
~Well ------------------------------------------------------
STRT .F                   97.0 : START DEPTH
STOP .F                 6704.0 : STOP DEPTH
STEP .F                    0.5 : STEP
NULL .                -9999.25 : NULL VALUE
COMP .                         : COMPANY
WELL .                         : WELL
FLD  .                         : FIELD
LOC  .                         : LOCATION
PROV .                         : PROVINCE
CNTY .                         : COUNTY
STAT .                         : STATE
CTRY .                         : COUNTRY
SRVC .                         : SERVICE COMPANY
DATE .                         : DATE
UWI  .                         : UNIQUE WELL ID
API  .                         : API NUMBER
SLAT .WGS84 3.4540186030891036 : SURFACE LATITUDE
SLON .WGS84   5.50213787765999 : SURFACE LONGITUDE
DATUM.F                2116.85 : DEPTH DATUM ELEV
~Curve Information -----------------------------------------
DEPT   .F     : 1 MEASURED DEPTH
RHOB   .G/C3  : BULK DENSITY
GRD    .GAPI  : GAMMA RAY FROM DENSITY LOG
NPHI_LS.DEC   : NEUTRON POROSITY LIMESTONE
CALD   .IN    : CALIPER FROM DENSITY LOG
PEF    .B/E   : PHOTOELECTRIC FACTOR
DPHI_LS.DEC   : DENSITY POROSITY LIMESTONE
DRHO   .G/C3  : BULK DENSITY CORRECTION
LLD    .OHMM  : LATEROLOG DEEP RESISTIVITY
LLS    .OHMM  : LATEROLOG SHALLOW RESISTIVITY
MSFL   .OHMM  : MICRO SPHERICALLY FOCUSED RESISTIVITY
SPR    .MV    : SPONTANEOUS POTENTIAL FROM RESISTIVITY LOG
DTCO   .US/F  : DELTA-T COMPRESSIONAL
DTSM   .US/F  : DELTA-T SHEAR
~Params ----------------------------------------------------
~Other -----------------------------------------------------
~ASCII -----------------------------------------------------
# ...
 5635.00000    2.56360  108.26540    0.24890    9.31700    3.21040    0.08810    0.07080   -9999.25   -9999.25   -9999.25   -9999.25   84.64570   85.57740
 5635.50000    2.56260  107.85080    0.25420    9.32620    3.22190    0.08890    0.07450   -9999.25   -9999.25   -9999.25   -9999.25   86.52710   87.02430
 5636.00000    2.56120  111.55330    0.25980    9.31150    3.24890    0.08900    0.07690   -9999.25   -9999.25   -9999.25   -9999.25   86.96460   87.40720
 5636.50000    2.55980  118.25230    0.25950    9.29670    3.27240    0.09060    0.07940   -9999.25   -9999.25   -9999.25   -9999.25   84.81890   86.59530
 5637.00000    2.55730  119.11710    0.25470    9.28200    3.28580    0.09260    0.07920   -9999.25   -9999.25   -9999.25   -9999.25   81.87580   82.97790
 5637.50000    2.55220  117.05250    0.24850    9.27110    3.27170    0.09360    0.07900   -9999.25   -9999.25   -9999.25   -9999.25   79.51150   80.81110
 5638.00000    2.55140  111.63360    0.24470    9.26080    3.19540    0.09360    0.07790   -9999.25   -9999.25   -9999.25   -9999.25   77.84770   78.50660
 5638.50000    2.55330  109.26360    0.24480    9.25040    3.11600    0.09100    0.07740   -9999.25   -9999.25   -9999.25   -9999.25   76.57850   77.33790
 5639.00000    2.56270  109.49330    0.24920    9.23130    3.05200    0.08640    0.07840   -9999.25   -9999.25   -9999.25   -9999.25   75.16020   75.90790
 5639.50000    2.57620  112.00060    0.25740    9.21330    2.98950    0.07990    0.08180   -9999.25   -9999.25   -9999.25   -9999.25   74.57590   75.02310
 5640.00000    2.58160  116.61950    0.27110    9.20450    2.93210    0.07470    0.08360   -9999.25   -9999.25   -9999.25   -9999.25   74.28780   74.73530
 5640.50000    2.58340  118.30790    0.28150    9.19580    2.97890    0.07520    0.07990   -9999.25   -9999.25   -9999.25   -9999.25   73.99970   74.44750
 5641.00000    2.57400  115.05200    0.28060    9.18700    2.98030    0.08200    0.06710   -9999.25   -9999.25   -9999.25   -9999.25   73.71160   74.15970
 5641.50000    2.55980  112.15630    0.27400    9.18710    2.98170    0.09220    0.05440   -9999.25   -9999.25   -9999.25   -9999.25   73.42350   73.87190
 5642.00000    2.54700  107.89560    0.25320    9.22130    3.09120    0.09920    0.03540   -9999.25   -9999.25   -9999.25   -9999.25   72.98550   73.55340
 5642.50000    2.54720  103.16920    0.21920    9.24220    3.07520    0.09740    0.02240   -9999.25   -9999.25   -9999.25   -9999.25   72.15490   72.72250
 5643.00000    2.55200   93.82680    0.20030    9.24690    3.04570    0.09500    0.01750   -9999.25   -9999.25   -9999.25   -9999.25   71.32430   71.89160
 5643.50000    2.55210   83.63120    0.17560    9.24130    3.01300    0.09530    0.01260   -9999.25   -9999.25   -9999.25   -9999.25   70.98980   71.58040
 5644.00000    2.55010   72.50500    0.15990    9.23000    2.95340    0.09830    0.00770   -9999.25   -9999.25   -9999.25   -9999.25   71.64680   72.07590
 5644.50000    2.54060   66.93360    0.15200    9.16850    2.88420    0.10170    0.00420   -9999.25   -9999.25   -9999.25   -9999.25   71.64880   72.07790
 5645.00000    2.53450   67.12110    0.15800    9.10520    2.82990    0.10540    0.00260   -9999.25   -9999.25   -9999.25   -9999.25   71.98720   72.44880
 5645.50000    2.52880   69.17680    0.16490    9.04200    2.81320    0.10990    0.00260   -9999.25   -9999.25   -9999.25   -9999.25   72.28300   72.73200
 5646.00000    2.52320   69.50080    0.16810    9.01190    2.83490    0.11470    0.00320   -9999.25   -9999.25   -9999.25   -9999.25   73.20510   73.85980
 5646.50000    2.51780   65.08840    0.16470    8.98490    2.90220    0.11770    0.00470   -9999.25   -9999.25   -9999.25   -9999.25   74.32150   74.97670
 5647.00000    2.51330   56.92180    0.15460    8.95790    2.89020    0.11820    0.00620   -9999.25   -9999.25   -9999.25   -9999.25   75.45580   76.16850
 5647.50000    2.51270   49.65400    0.13720    8.93870    2.86420    0.11860    0.00770   -9999.25   -9999.25   -9999.25   -9999.25   76.32660   76.81550
 5648.00000    2.51560   52.73280    0.13260    8.94640    2.82090    0.11830    0.00930   -9999.25   -9999.25   -9999.25   -9999.25   76.45940   76.88840
 5648.50000    2.52140   61.24630    0.13990    8.95410    2.77760    0.11390    0.01090   -9999.25   -9999.25   -9999.25   -9999.25   76.35870   76.79930
 5649.00000    2.52350   70.21710    0.14970    8.96180    2.74930    0.11280    0.01200   -9999.25   -9999.25   -9999.25   -9999.25   76.13050   76.57110
 5649.50000    2.52400   77.28900    0.16710    8.96950    2.73900    0.11200    0.01200   -9999.25   -9999.25   -9999.25   -9999.25   75.90220   76.34290
 5650.00000    2.52300   84.38960    0.18440    8.97720    2.73070    0.11120    0.01200   -9999.25   -9999.25   -9999.25   -9999.25   75.46770   76.02370
 5650.50000    2.51210   85.53820    0.20330    8.98880    2.71710    0.11100    0.01200   -9999.25   -9999.25   -9999.25   -9999.25   74.66400   75.21950
 5651.00000    2.50080   81.81370    0.21390    9.00220    2.63610    0.11780    0.00920   -9999.25   -9999.25   -9999.25   -9999.25   73.78910   74.36740
 5651.50000    2.49750   76.09260    0.21180    9.01570    2.55110    0.12650    0.00330   -9999.25   -9999.25   -9999.25   -9999.25   73.09900   73.59750
 5652.00000    2.48990   69.40030    0.20610    9.01960    2.47590    0.13540    0.00140   -9999.25   -9999.25   -9999.25   -9999.25   73.22170   73.67270
 5652.50000    2.47970   62.05480    0.20230    9.01960    2.46190    0.14010    0.00000   -9999.25   -9999.25   -9999.25   -9999.25   75.65870   77.42500
 5653.00000    2.47910   62.51230    0.19910    9.01960    2.47780    0.13880   -0.00140   -9999.25   -9999.25   -9999.25   -9999.25   77.64660   78.25980
 5653.50000    2.48740   65.63230    0.19640    9.00590    2.52380    0.13490   -0.00270   -9999.25   -9999.25   -9999.25   -9999.25   75.99330   76.81760
 5654.00000    2.49800   66.50740    0.19590    8.98760    2.52840    0.12800   -0.00210   -9999.25   -9999.25   -9999.25   -9999.25   76.61220   77.77200
 5654.50000    2.50840   66.83190    0.19650    8.96840    2.50240    0.12160   -0.00150   -9999.25   -9999.25   -9999.25   -9999.25   78.73210   79.63000
 5655.00000    2.51220   68.40970    0.19380    8.94570    2.44760    0.11890   -0.00100   -9999.25   -9999.25   -9999.25   -9999.25   80.28970   80.88950
 5655.50000    2.51170   69.18630    0.18330    8.92300    2.39460    0.11880   -0.00040   -9999.25   -9999.25   -9999.25   -9999.25   78.11680   79.55490
 5656.00000    2.50930   67.13040    0.16590    8.90030    2.39160    0.12130    0.00020   -9999.25   -9999.25   -9999.25   -9999.25   77.39310   77.84850
 5656.50000    2.50740   63.57760    0.15300    8.90830    2.41360    0.12300    0.00060   -9999.25   -9999.25   -9999.25   -9999.25   77.25810   77.69990
 5657.00000    2.50580   62.55540    0.15060    8.95180    2.47580    0.12400    0.00150   -9999.25   -9999.25   -9999.25   -9999.25   77.02760   77.46480
 5657.50000    2.50590   64.65400    0.15190    8.97680    2.55660    0.12390    0.00690   -9999.25   -9999.25   -9999.25   -9999.25   76.99620   77.44170
 5658.00000    2.50670   71.64580    0.16440    8.96180    2.64640    0.11970    0.01120   -9999.25   -9999.25   -9999.25   -9999.25   77.38570   78.02550
 5658.50000    2.51610   84.34000    0.19120    8.92860    2.75420    0.11270    0.01540   -9999.25   -9999.25   -9999.25   -9999.25   78.46040   79.24220
 5659.00000    2.53080   91.73140    0.20550    8.86420    2.84860    0.10590    0.01930   -9999.25   -9999.25   -9999.25   -9999.25   80.03160   80.86860
 5659.50000    2.54650   97.76740    0.22240    8.77530    2.89960    0.09580    0.02070   -9999.25   -9999.25   -9999.25   -9999.25   81.51850   82.07920
 5660.00000    2.55660  102.87470    0.23200    8.72500    2.92570    0.09190    0.02000   -9999.25   -9999.25   -9999.25   -9999.25   80.61310   82.01450
 5660.50000    2.55810  103.29180    0.23060    8.69920    2.93070    0.09350    0.01850   -9999.25   -9999.25   -9999.25   -9999.25   77.95440   79.00360
