~Version ---------------------------------------------------
VERS.   2.0 : CWLS log ASCII Standard -VERSION 2.0
WRAP.    NO : One line per depth step
DLM . SPACE : Column Data Section Delimiter
~Well ------------------------------------------------------
STRT .F                   97.0 : START DEPTH
STOP .F                 6704.0 : STOP DEPTH
STEP .F                    0.5 : STEP
NULL .                -9999.25 : NULL VALUE
COMP .                         : COMPANY
WELL .                         : WELL
FLD  .                         : FIELD
LOC  .                         : LOCATION
PROV .                         : PROVINCE
CNTY .                         : COUNTY
STAT .                         : STATE
CTRY .                         : COUNTRY
SRVC .                         : SERVICE COMPANY
DATE .                         : DATE
UWI  .                         : UNIQUE WELL ID
API  .                         : API NUMBER
SLAT .WGS84 3.4540186030891036 : SURFACE LATITUDE
SLON .WGS84   5.50213787765999 : SURFACE LONGITUDE
DATUM.F                2116.85 : DEPTH DATUM ELEV
~Curve Information -----------------------------------------
DEPT   .F     : 1 MEASURED DEPTH
RHOB   .G/C3  : BULK DENSITY
GRD    .GAPI  : GAMMA RAY FROM DENSITY LOG
NPHI_LS.DEC   : NEUTRON POROSITY LIMESTONE
CALD   .IN    : CALIPER FROM DENSITY LOG
PEF    .B/E   : PHOTOELECTRIC FACTOR
DPHI_LS.DEC   : DENSITY POROSITY LIMESTONE
DRHO   .G/C3  : BULK DENSITY CORRECTION
LLD    .OHMM  : LATEROLOG DEEP RESISTIVITY
LLS    .OHMM  : LATEROLOG SHALLOW RESISTIVITY
MSFL   .OHMM  : MICRO SPHERICALLY FOCUSED RESISTIVITY
SPR    .MV    : SPONTANEOUS POTENTIAL FROM RESISTIVITY LOG
DTCO   .US/F  : DELTA-T COMPRESSIONAL
DTSM   .US/F  : DELTA-T SHEAR
~Params ----------------------------------------------------
~Other -----------------------------------------------------
~ASCII -----------------------------------------------------
# ...
 6285.00000    2.50100   33.13580    0.14620    8.41320    4.70670    0.13190    0.01300  187.06110  147.40470   59.31440  -22.45280   -9999.25   -9999.25
 6285.50000    2.50000   34.65770    0.11220    8.39120    4.66990    0.13070    0.00940  199.52940  154.79290   68.52250  -22.62010   -9999.25   -9999.25
 6286.00000    2.53920   37.39760    0.06840    8.38620    4.74380    0.11650    0.01000  210.04530  167.08560  102.80510  -22.61120   -9999.25   -9999.25
 6286.50000    2.57340   39.08090    0.06300    8.39120    4.93170    0.09860    0.01660  222.29960  180.35460  125.82350  -22.62270   -9999.25   -9999.25
 6287.00000    2.57640   37.35530    0.07340    8.35930    4.97780    0.09170    0.02010  235.00020  195.06680   98.12910  -22.73030   -9999.25   -9999.25
 6287.50000    2.55130   35.48240    0.09300    8.33220    4.77280    0.10340    0.02270  243.25810  194.98060   84.42370  -22.85820   -9999.25   -9999.25
 6288.00000    2.50550   34.86360    0.13840    8.31530    4.52610    0.13230    0.03120  230.51450  181.29400   67.40430  -22.93500   -9999.25   -9999.25
 6288.50000    2.45960   35.92460    0.16870    8.25610    4.49000    0.16230    0.04840  198.21860  155.87470   51.62640  -23.12020   -9999.25   -9999.25
 6289.00000    2.44210   37.23400    0.18190    8.28730    4.57700    0.17570    0.05960  170.44740  132.23420   42.95410  -23.45590   -9999.25   -9999.25
 6289.50000    2.43660   36.25550    0.20030    8.33540    4.72020    0.17400    0.06830  153.59300  112.17910   41.49630  -23.79160   -9999.25   -9999.25
 6290.00000    2.42330   33.91470    0.22210    8.35160    4.79520    0.16370    0.06660  143.47090  102.94790   54.63630  -24.12730   -9999.25   -9999.25
 6290.50000    2.38350   31.56530    0.25060    8.35940    4.75830    0.18090    0.05190  134.01590   98.41290   66.94830  -23.90650   -9999.25   -9999.25
 6291.00000    2.34380   30.97970    0.25830    8.35620    4.54740    0.21290    0.02770  131.05930   96.26280   56.31130  -23.92790   -9999.25   -9999.25
 6291.50000    2.31890   30.54550    0.24960    8.36460    4.40410    0.23600    0.01350  132.90490   96.54780   38.32760  -24.06940   -9999.25   -9999.25
 6292.00000    2.30320   30.49080    0.22800    8.37410    4.39180    0.24870    0.00710  136.17140  102.44410   29.64760  -24.14510   -9999.25   -9999.25
 6292.50000    2.30190   30.46110    0.20430    8.39290    4.45700    0.24020    0.00510  144.96560  120.41340   55.30280  -24.22750   -9999.25   -9999.25
 6293.00000    2.31980   30.39630    0.19230    8.44140    4.50750    0.20980    0.00330  157.41720  133.27200   83.06400  -24.31750   -9999.25   -9999.25
 6293.50000    2.35340   30.74810    0.18040    8.46230    4.53430    0.18950    0.00150  171.55300  144.51280  112.08330  -24.40530   -9999.25   -9999.25
 6294.00000    2.38690   31.40600    0.16330    8.46250    4.56980    0.17120    0.00110  156.57100  139.71570  113.88560  -24.49270   -9999.25   -9999.25
 6294.50000    2.42040   33.11480    0.14610    8.44770    4.60860    0.15520    0.00270  136.99420  123.91730   98.75990  -24.58000   -9999.25   -9999.25
 6295.00000    2.45400   36.50760    0.13350    8.44320    4.64740    0.15360    0.00440  119.27090  108.89070   74.57640  -24.66740   -9999.25   -9999.25
 6295.50000    2.45900   40.67420    0.09930    8.44260    4.68620    0.15450    0.00610  118.01770  100.96790   56.59940  -24.75480   -9999.25   -9999.25
 6296.00000    2.46430   44.82910    0.07940    8.43490    4.72500    0.15220    0.00750  128.34320  101.50970   62.70800  -24.81010   -9999.25   -9999.25
 6296.50000    2.47690   47.50260    0.06540    8.42760    4.76760    0.13790    0.00730  143.38840  110.71130   79.32640  -24.85920   -9999.25   -9999.25
 6297.00000    2.50050   48.00410    0.06540    8.42690    4.83200    0.11710    0.00710  163.60760  125.51020   72.24060  -25.02030   -9999.25   -9999.25
 6297.50000    2.53010   45.06480    0.07730    8.42620    4.91340    0.10540    0.00690  192.17720  137.23900   66.18680  -25.36440   -9999.25   -9999.25
 6298.00000    2.54130   38.77090    0.09800    8.42320    5.15600    0.10060    0.00670  235.52300  162.67480   94.70070  -25.41640   -9999.25   -9999.25
 6298.50000    2.53870   32.53730    0.12870    8.41990    5.27900    0.10560    0.00660  308.16080  214.13410  160.82340  -25.42170   -9999.25   -9999.25
 6299.00000    2.53030   27.73860    0.15740    8.41650    5.25990    0.11980    0.00640  373.20140  245.25410  191.83810  -25.42170   -9999.25   -9999.25
 6299.50000    2.48860   25.96210    0.17530    8.38160    5.11170    0.13600    0.00670  388.51450  247.10910  181.30980  -25.42170   -9999.25   -9999.25
 6300.00000    2.44680   25.97070    0.18320    8.32610    4.93830    0.15730    0.00750  287.11100  192.66070  147.11090  -25.45350   -9999.25   -9999.25
 6300.50000    2.43430   25.97930    0.18580    8.28830    4.84340    0.16680    0.00840  221.75120  142.32910  108.32420  -25.49890   -9999.25   -9999.25
 6301.00000    2.43070   27.24770    0.18810    8.28910    4.80220    0.16830    0.00890  178.63030  105.14650   82.12420  -25.56170   -9999.25   -9999.25
 6301.50000    2.42310   30.39280    0.19160    8.32190    4.76400    0.17080    0.00720  161.75530   87.86750   62.26110  -25.66300   -9999.25   -9999.25
 6302.00000    2.40940   34.32830    0.19480    8.35480    4.73250    0.18890    0.00080  142.55150   77.09260   50.60640  -25.76430   -9999.25   -9999.25
 6302.50000    2.39090   36.62250    0.19330    8.37980    4.71840    0.20340   -0.00680  112.24950   61.35040   38.05760  -25.83820   -9999.25   -9999.25
 6303.00000    2.37250   36.68890    0.18400    8.39140    4.70430    0.21040   -0.00900   94.61120   48.61430   28.62050  -25.86540   -9999.25   -9999.25
 6303.50000    2.36280   36.02190    0.16460    8.39700    4.69020    0.20420   -0.00940   83.62280   40.86890   19.57780  -25.89270   -9999.25   -9999.25
 6304.00000    2.38830   34.96560    0.14430    8.40240    4.67610    0.19290   -0.00230   73.91060   36.19230   13.08990  -25.92000   -9999.25   -9999.25
 6304.50000    2.40630   33.63810    0.13550    8.40780    4.64800    0.18500    0.00410   65.32640   32.53900   15.63090  -25.94720   -9999.25   -9999.25
 6305.00000    2.39960   32.69150    0.14160    8.37820    4.58070    0.18440    0.01070   55.32800   28.10890   19.62120  -25.97450   -9999.25   -9999.25
 6305.50000    2.37520   31.93490    0.15440    8.34740    4.54670    0.20280    0.01680   47.36820   23.28750   15.91660  -26.04970   -9999.25   -9999.25
 6306.00000    2.35050   31.84100    0.16730    8.33640    4.54670    0.22340    0.02300   40.99710   20.07890   12.50070  -26.16040   -9999.25   -9999.25
 6306.50000    2.34620   31.46760    0.17970    8.34220    4.53830    0.21680    0.03170   39.27180   20.37870   18.42660  -26.07640   -9999.25   -9999.25
 6307.00000    2.36370   31.30640    0.19330    8.35230    4.52700    0.19380    0.03720   39.96060   20.89290   20.57000  -26.04180   -9999.25   -9999.25
 6307.50000    2.38660   30.97230    0.20760    8.37860    4.49370    0.18790    0.03350   40.26410   21.12200   16.52860  -26.04450   -9999.25   -9999.25
 6308.00000    2.40450   30.81360    0.21920    8.40630    4.45200    0.18300    0.02890   36.91280   20.62830   17.86370  -26.04570   -9999.25   -9999.25
 6308.50000    2.40710   30.85990    0.21060    8.48010    4.37170    0.18130    0.02560   32.09000   17.39440   22.41450  -26.03920   -9999.25   -9999.25
 6309.00000    2.40670   32.19200    0.21260    8.59070    4.18660    0.18430    0.02690   24.44770   14.15640   22.82120  -26.03280   -9999.25   -9999.25
 6309.50000    2.37510   33.10220    0.22080    8.58600    4.00140    0.20460    0.02870   18.67570   11.51410   10.54250  -26.02630   -9999.25   -9999.25
 6310.00000    2.25660   34.24980    0.22760    8.42670    3.81630    0.28080    0.04240   14.44860    9.36500    3.91390  -26.06720   -9999.25   -9999.25
 6310.50000    2.14730   35.80880    0.23320    8.24880    3.71930    0.32730    0.05680   13.59890    8.41640    2.17970  -25.95960   -9999.25   -9999.25
