~Version ---------------------------------------------------
VERS.   2.0 : CWLS log ASCII Standard -VERSION 2.0
WRAP.    NO : One line per depth step
DLM . SPACE : Column Data Section Delimiter
~Well ------------------------------------------------------
STRT .F                 180.0 : START DEPTH
STOP .F                4426.0 : STOP DEPTH
STEP .F                   0.5 : STEP
NULL .               -9999.25 : NULL VALUE
COMP .                        : COMPANY
WELL .                        : WELL
FLD  .                        : FIELD
LOC  .                        : LOCATION
PROV .                        : PROVINCE
CNTY .                        : COUNTY
STAT .                        : STATE
CTRY .                        : COUNTRY
SRVC .                        : SERVICE COMPANY
DATE .                        : DATE
UWI  .                        : UNIQUE WELL ID
API  .                        : API NUMBER
SLAT .WGS84 3.042603956394501 : SURFACE LATITUDE
SLON .WGS84 8.405141355995013 : SURFACE LONGITUDE
DATUM.F               3973.98 : DEPTH DATUM ELEV
~Curve Information -----------------------------------------
DEPT   .F     : 1 MEASURED DEPTH
HSGRD  .GAPI  : HNGS STANDARD GAMMA RAY FROM DENSITY LOG
TNPH_LS.DEC   : THERMAL NEUTRON POROSITY [LIMESTONE]
HCALD  .IN    : HRCC CALIPER CALIBRATED FROM DENSITY LOG
PEFZ   .B/E   : HRDD STANDARD RESOLUTION FORMATION PHOTOELECTRIC FACTOR
HDRA   .G/C3  : HRDD SPINE AND RIBS DENSITY CORRECTION
DPHZ_LS.DEC   : HGRD STANDARD RESOLUTION DENSITY POROSITY
RHOZ   .G/C3  : HRDD STANDARD RESOLUTION FORMATION DENSITY
DTCO   .US/F  : DELTA-T COMPRESSIONAL
DTSM   .US/F  : DELTA-T SHEAR
RXOZ   .OHMM  : INVADED FORMATION RESISTIVITY FILTERED AT 18 INCHES
RLA4   .OHMM  : APPARENT RESISTIVITY FROM COMPUTED FOCUSING MODE 4
RLA5   .OHMM  : APPARENT RESISTIVITY FROM COMPUTED FOCUSING MODE 5
~Params ----------------------------------------------------
~Other -----------------------------------------------------
~ASCII -----------------------------------------------------
# ...
 1832.00000   31.21110    0.12140   18.44740    4.05050    0.12890    0.49990    1.88800   73.10890  124.96280    0.26960  975.29660 103088.74220
 1832.50000   32.40390    0.13930   18.39650    4.04260    0.12820    0.51240    1.88470   72.89310  124.72170    0.25820 1321.31540 103014.75000
 1833.00000   35.30050    0.14080   18.17590    4.02930    0.12980    0.50480    1.89540   72.10720  124.75530    0.22420  638.02710 102940.80470
 1833.50000   38.53350    0.13190   18.01610    3.97340    0.13080    0.48450    1.95160   70.07160  124.43780    0.23890  387.92030 102866.91410
 1834.00000   40.99240    0.12340   17.94710    3.95360    0.13310    0.46670    1.95540   67.78150  122.77360    0.27490  209.75230 9206.11230
 1834.50000   41.27450    0.10370   17.98000    4.06630    0.13490    0.46860    1.95720   66.07950  120.66150    0.30320  215.78650 4240.33740
 1835.00000   36.56970    0.08570   18.96700    4.18220    0.12610    0.46820    1.96940   66.29210  119.89550    0.42560  223.07720 7760.61960
 1835.50000   31.29880    0.09600   19.09150    4.23700    0.11040    0.45960    1.98010   67.77370  121.17120    0.70460  227.21270 4067.70310
 1836.00000   26.05570    0.12500   19.12540    4.28330    0.09470    0.45280    1.98020   69.13370  123.48980    1.10470  255.52840 4373.19730
 1836.50000   23.62880    0.14780   19.16630    4.31640    0.08800    0.45080    1.96950   69.91910  124.67920    1.30100  268.47720 7903.09330
 1837.00000   21.91890    0.13570   19.23480    4.34220    0.08130    0.45730    1.95810   70.65910  125.09750    1.10930  255.16610 14282.21780
 1837.50000   21.22320    0.12400   19.27620    4.38900    0.07490    0.46810    1.95280   70.50490  125.21400    0.91110  228.47720 36376.55080
 1838.00000   21.00440    0.12520   19.35660    4.45340    0.06850    0.47070    1.96970   70.21580  124.46240    0.85790  264.23750 54714.32030
 1838.50000   20.51380    0.16020   19.53420    4.54280    0.05690    0.45800    1.99300   69.75680  121.99680    0.99380  312.06430 18478.83200
 1839.00000   20.27340    0.17790   19.74420    4.61090    0.04220    0.43780    2.01620   69.52940  118.33410    2.50500  414.87460 56769.00780
 1839.50000   20.46340    0.17620   19.95410    4.69100    0.02690    0.42710    2.02100   69.18110  117.90210    6.29010  396.71490 102240.29690
 1840.00000   21.40570    0.17290   20.10670    4.76940    0.01530    0.42720    2.02070   68.93500  118.46130   72.08700  349.38400 102238.83590
 1840.50000   22.07150    0.17190   20.20340    4.84790    0.00630    0.43240    2.01960   68.91760  120.50810  143.59960  301.17500 102237.37500
 1841.00000   21.75570    0.16780   20.24630    4.90490   -0.00460    0.43610    2.00910   69.02120  122.47350  104.44360  327.72410 102235.91410
 1841.50000   21.13780    0.15700   20.07570    4.87020   -0.00820    0.44350    1.99220   68.95750  123.41620   29.08420  382.75960 102234.34380
 1842.00000   21.17220    0.14820   19.93420    4.78340   -0.00870    0.45090    1.98870   68.51070  123.23640    9.81650  340.65090 102232.89060
 1842.50000   21.64040    0.14880   19.92310    4.67560    0.00210    0.44870    1.98520   67.73270  122.75660    9.33890  281.40050 102231.42970
 1843.00000   22.62660    0.15220   19.91200    4.69500    0.01290    0.44350    1.98170   67.57880  122.32710   16.87110  235.88240 102229.96880
 1843.50000   23.26230    0.15590   19.89470    4.72300    0.01900    0.44830    1.97050   68.00150  122.22510   18.66890  222.28240 102228.39840
 1844.00000   23.06590    0.16340   19.60150    4.73100    0.02200    0.46050    1.96520   68.82670  123.00880    3.04550  258.33460 102226.93750
 1844.50000   22.15110    0.18500   19.09730    4.72420    0.02650    0.46130    1.98680   69.60830  124.80500    2.43070  269.85990 102225.47660
 1845.00000   21.50570    0.20620   18.96590    4.72120    0.03190    0.44500    2.00840   69.40850  125.90290    3.09870  270.62760 102223.90620
 1845.50000   21.47610    0.21100   19.25220    4.71830    0.03030    0.43390    2.00980   68.17020  126.39070   10.76800  300.48570 102222.44530
 1846.00000   21.65120    0.18350   19.53150    4.71550    0.01670    0.43750    2.00600   67.36680  126.17670   16.38220  298.25740 102220.99220
 1846.50000   21.57180    0.15840   19.49460    4.72760    0.00500    0.44400    1.99980   68.11360  125.23430   18.90300  281.74320 102219.53120
 1847.00000   21.22690    0.15000   19.47980    4.76190    0.00480    0.44450    2.00220   69.71000  123.90220   22.23510  274.52040 102217.96090
 1847.50000   20.88380    0.15030   19.56520    4.79620    0.01410    0.43920    2.00810   69.82990  122.93720   39.77850  270.15510 102216.50000
 1848.00000   20.54190    0.14740   19.64590    4.82740    0.02150    0.43390    2.01400   69.31970  122.11260   35.54910  296.83400 102215.03910
 1848.50000   19.70500    0.13180   19.59240    4.83780    0.02320    0.42960    2.01990   68.58980  121.68310   36.86920  334.89510 102213.46880
 1849.00000   19.04560    0.11280   19.52740    4.79710    0.01730    0.42810    2.01880   68.05020  121.69150   42.26880  353.70090 102212.00780
 1849.50000   19.20900    0.08950   19.46320    4.76810    0.01040    0.42800    2.01460   67.66060  121.80920   79.40730  360.30670 100106.00780
 1850.00000   20.01910    0.06410   19.49960    4.74070    0.00430    0.43050    2.01240   67.70970  122.32240   85.86400  387.73440 23711.55080
 1850.50000   21.14410    0.04100   19.57200    4.72550    0.00150    0.43310    2.01190   67.86320  122.98110   78.49260  497.18550 50000.91410
 1851.00000   21.97840    0.03950   19.55370    4.70390    0.01120    0.43360    2.01190   68.70250  125.44330   54.71590  824.71590 6332.99710
 1851.50000   23.31080    0.04260   19.22800    4.59740    0.03120    0.43280    2.01190   71.23510  131.42050   18.33360 1057.75010 2930.93820
 1852.00000   25.44410    0.07770   19.09260    4.46060    0.05610    0.43460    1.99740   73.70830  138.36240    5.06250 1004.52280 1658.42490
 1852.50000   27.26190    0.10980   18.94990    4.32880    0.08330    0.44360    1.98280   75.24300  144.83780    1.51260  474.10910  940.31630
 1853.00000   29.07970    0.11760   18.69560    4.17950    0.11310    0.45370    1.97130   76.11090  145.81030    0.93780  329.06830  395.33070
 1853.50000   30.89760    0.11310   18.41540    4.09970    0.14350    0.45790    1.97550   76.53550  142.49480    0.61520  271.82340  185.59010
 1854.00000   31.44010    0.10630   18.26810    4.10750    0.15720    0.45000    1.98750   76.20160  140.61800    0.57440  208.31560  140.58510
 1854.50000   30.85900    0.10940   18.29350    4.15590    0.15580    0.43970    1.99570   74.73180  140.05070    0.70670  191.42910  147.62880
 1855.00000   29.11680    0.11500   18.39150    4.20440    0.13320    0.43980    1.99750   73.31080  140.12870    1.12550  207.06140  177.21630
 1855.50000   27.78190    0.11330   18.48950    4.26000    0.10930    0.44510    1.99570   72.45780  140.13060    1.35510  228.53790  228.51230
 1856.00000   27.34030    0.09970   18.58700    4.32420    0.09070    0.44580    1.99000   72.45860  139.53980    1.59030  195.01380  267.50350
 1856.50000   27.22880    0.07300   18.64700    4.34730    0.08160    0.45150    1.95690   73.25820  136.19600    1.74090  197.07790  291.82370
 1857.00000   27.23180    0.05810   18.64890    4.26870    0.07560    0.46540    1.93310   73.21300  134.56690    0.87980  309.11950  415.74410
 1857.50000   27.30170    0.06890   18.49940    4.13640    0.07370    0.47610    1.94000   72.29190  132.83430    0.44080  444.71570  546.17390
 1858.00000   27.38560    0.09700   18.24370    4.08670    0.07790    0.47800    1.94790   72.80430  131.20650    0.41410  480.77460  367.46570
 1858.50000   27.99740    0.11810   17.99810    4.06850    0.08970    0.47380    1.95140   73.69560  130.12890    0.50960  334.66390  253.68330
 1859.00000   28.62090    0.10560   17.86900    4.05430    0.10740    0.47400    1.93660   74.04830  130.57090    0.50150  211.78320  483.05620
 1859.50000   28.33050    0.06900   17.85610    4.04590    0.10930    0.48720    1.90820   73.62570  130.66040    0.36600  236.99660 1031.90270
