~Version ---------------------------------------------------
VERS.   2.0 : CWLS log ASCII Standard -VERSION 2.0
WRAP.    NO : One line per depth step
DLM . SPACE : Column Data Section Delimiter
~Well ------------------------------------------------------
STRT .F                 180.0 : START DEPTH
STOP .F                4426.0 : STOP DEPTH
STEP .F                   0.5 : STEP
NULL .               -9999.25 : NULL VALUE
COMP .                        : COMPANY
WELL .                        : WELL
FLD  .                        : FIELD
LOC  .                        : LOCATION
PROV .                        : PROVINCE
CNTY .                        : COUNTY
STAT .                        : STATE
CTRY .                        : COUNTRY
SRVC .                        : SERVICE COMPANY
DATE .                        : DATE
UWI  .                        : UNIQUE WELL ID
API  .                        : API NUMBER
SLAT .WGS84 3.042603956394501 : SURFACE LATITUDE
SLON .WGS84 8.405141355995013 : SURFACE LONGITUDE
DATUM.F               3973.98 : DEPTH DATUM ELEV
~Curve Information -----------------------------------------
DEPT   .F     : 1 MEASURED DEPTH
HSGRD  .GAPI  : HNGS STANDARD GAMMA RAY FROM DENSITY LOG
TNPH_LS.DEC   : THERMAL NEUTRON POROSITY [LIMESTONE]
HCALD  .IN    : HRCC CALIPER CALIBRATED FROM DENSITY LOG
PEFZ   .B/E   : HRDD STANDARD RESOLUTION FORMATION PHOTOELECTRIC FACTOR
HDRA   .G/C3  : HRDD SPINE AND RIBS DENSITY CORRECTION
DPHZ_LS.DEC   : HGRD STANDARD RESOLUTION DENSITY POROSITY
RHOZ   .G/C3  : HRDD STANDARD RESOLUTION FORMATION DENSITY
DTCO   .US/F  : DELTA-T COMPRESSIONAL
DTSM   .US/F  : DELTA-T SHEAR
RXOZ   .OHMM  : INVADED FORMATION RESISTIVITY FILTERED AT 18 INCHES
RLA4   .OHMM  : APPARENT RESISTIVITY FROM COMPUTED FOCUSING MODE 4
RLA5   .OHMM  : APPARENT RESISTIVITY FROM COMPUTED FOCUSING MODE 5
~Params ----------------------------------------------------
~Other -----------------------------------------------------
~ASCII -----------------------------------------------------
# ...
 3708.00000   27.14710    0.02540    8.20000    3.33070    0.00450   -0.06180    2.84380   46.75470   98.97780  299.29400  392.47180  655.92690
 3708.50000   23.44050    0.02410    8.21200    3.58390    0.00530   -0.08340    2.87140   46.78560   96.08880  457.35310 1333.52950 3116.85600
 3709.00000   19.69550    0.02340    8.22420    3.64450    0.00570   -0.09830    2.86710   46.28290   95.31170  698.88410 2433.82100 3168.49000
 3709.50000   16.25810    0.02460    8.23650    3.55310    0.00490   -0.09830    2.84450   45.66830   95.83120  827.13170 1509.97690 1097.49950
 3710.00000   15.97480    0.02820    8.24790    3.36170    0.00380   -0.08880    2.83730   45.66910   98.90650  599.80440  586.13290  239.81000
 3710.50000   16.29750    0.03250    8.24770    3.23410    0.00250   -0.07880    2.82960   46.37960  102.75400  512.85580  385.93340  280.85800
 3711.00000   16.08400    0.03540    8.25690    3.19290    0.00130   -0.07460    2.82520   46.61650  107.87470  661.24890  443.65130  392.96960
 3711.50000   16.55570    0.03600    8.25820    3.20630    0.00000   -0.07230    2.82210   46.52660  121.36020  218.79810  283.07030  511.55190
 3712.00000   18.04060    0.03670    8.27190    3.25710   -0.00120   -0.06970    2.82250   46.67150  136.00580  127.79550  149.46490  245.19740
 3712.50000   18.68090    0.03690    8.28830    3.40900   -0.00190   -0.06850    2.82890   47.11990  142.03330  103.23080  176.80110  270.68840
 3713.00000   17.12570    0.03670    8.30490    3.60880   -0.00060   -0.07450    2.85060   47.11860  128.78200  146.80030  415.02200 1060.15800
 3713.50000   13.39820    0.03000    8.32050    3.78260   -0.00040   -0.08980    2.87230   46.23890   98.40280  257.85960 1364.32170 4825.86470
 3714.00000    9.83170    0.02560    8.33330    3.89890   -0.00010   -0.10750    2.89400   44.69700   83.34710  523.70350 4416.27390 7199.17330
 3714.50000    6.59340    0.02560    8.34970    3.98090    0.00010   -0.12170    2.91160   44.37720   82.93370  766.84350 3552.45650 4594.04200
 3715.00000    4.81320    0.02730    8.36250    4.01520    0.00030   -0.12770    2.91740   45.21270   80.52960 1642.20690 2926.52490 4132.14600
 3715.50000    4.42340    0.02890    8.38850    4.04950    0.00060   -0.12280    2.90300   45.43450   78.43850 1964.11050 4870.92920 9100.22360
 3716.00000    4.45070    0.02870    8.38320    3.99500    0.00080   -0.11040    2.88230   45.10330   91.88560 1964.07920 9270.40530 13132.52150
 3716.50000    4.85290    0.02830    8.37840    3.82560    0.00100   -0.10090    2.86150   45.06350  120.99570 1642.69840 4147.94430 9197.12600
 3717.00000    5.99580    0.02810    8.38000    3.65500    0.00080   -0.09450    2.84150   45.62920  134.38810 1185.22630 1878.80800 3297.59500
 3717.50000    8.59640    0.02800    8.38390    3.49950    0.00010   -0.08050    2.82620   45.53800  124.72700  861.01490 1770.75880 1803.31880
 3718.00000   11.54970    0.02750    8.37870    3.36230   -0.00050   -0.06670    2.82060   45.32680  104.77890  672.09180 1675.41740 1485.28780
 3718.50000   13.77870    0.02610    8.37930    3.30130    0.00070   -0.06180    2.81820   46.74010   84.72610  712.67840 1445.19170 1343.95020
 3719.00000   14.61100    0.02520    8.37260    3.30400    0.00300   -0.07310    2.80810   47.40660   88.47340  781.83280 1686.37710 1493.72410
 3719.50000   15.45430    0.02580    8.35800    3.32010    0.00500   -0.06730    2.79800   47.04670   89.37950  737.57950 1746.29800 1438.30330
 3720.00000   16.49460    0.02620    8.34900    3.44020    0.00010   -0.04930    2.78780   46.94920   92.07730  538.14390 1222.54410  876.64760
 3720.50000   16.16310    0.02660    8.37140    3.56030   -0.00360   -0.04080    2.77970   46.95690   94.42460  503.32800  877.53700  898.29200
 3721.00000   13.38450    0.02720    8.37790    3.66490   -0.00670   -0.05460    2.79360   46.52360   92.46510  665.13580 1214.33010 1744.45350
 3721.50000    9.70650    0.02790    8.37430    3.73620   -0.00490   -0.07190    2.83880   46.08280   89.31640 1187.07570 3678.87130 6201.70650
 3722.00000    6.02840    0.02960    8.36080    3.74560   -0.00300   -0.08320    2.84100   46.09330   85.35770 1589.15470 6396.56150 8087.25540
 3722.50000    4.15050    0.03150    8.36630    3.71920   -0.00100   -0.08230    2.84330   45.98390   86.77550 1489.43580 5935.71830 7200.90870
 3723.00000    2.89920    0.03250    8.37610    3.68340   -0.00000   -0.07980    2.84550   45.39620   90.26230 1564.57020 6821.18260 9768.48930
 3723.50000    2.59020    0.03270    8.38380    3.64720   -0.00000   -0.08290    2.84760   44.53960   86.74400 1811.21530 9716.20900 13057.87110
 3724.00000    2.94790    0.03160    8.38080    3.62840   -0.00020   -0.08790    2.84920   43.99100   83.74130 1599.30330 2993.23950 10120.07420
 3724.50000    3.74820    0.03060    8.38210    3.63170   -0.00090   -0.08690    2.85200   43.93170   83.25700  904.86090 1397.04540 5638.33740
 3725.00000    4.91810    0.02980    8.38250    3.64560   -0.00170   -0.08790    2.85780   44.42290   82.52630  697.79030  994.22770 1156.60030
 3725.50000    5.93730    0.02880    8.38330    3.67670   -0.00140   -0.09150    2.86600   44.62550   80.80450  562.61240  798.96820  984.78720
 3726.00000    6.06640    0.02810    8.38330    3.71650   -0.00110   -0.09480    2.87220   44.69270   80.13460  595.72830  895.41520 1096.15970
 3726.50000    5.78970    0.02790    8.38340    3.75250   -0.00110   -0.09850    2.87170   45.28430   80.82340  641.08700 1001.64500 1385.80520
 3727.00000    5.54340    0.02910    8.38520    3.77880   -0.00130   -0.09690    2.86460   45.78680   81.84820  639.03700  852.97270 1120.33440
 3727.50000    5.10550    0.03040    8.38510    3.75380   -0.00180   -0.09130    2.85640   45.16310   94.15520  613.75840  741.38940  997.40890
 3728.00000    4.48250    0.03080    8.38140    3.81820   -0.00580   -0.08370    2.84850   45.04010  120.36900  678.42960 1119.65490 1722.61290
 3728.50000    3.90090    0.02920    8.36610    3.88200   -0.00700   -0.08280    2.85190   45.73580  139.92170  901.43980 2360.23680 3329.50290
 3729.00000    3.77710    0.02810    8.38270    3.90850   -0.00220   -0.10420    2.86990   45.85180  138.74750 1009.83470 4341.08250 5002.44730
 3729.50000    4.06270    0.02720    8.37370    3.78470    0.00140   -0.11110    2.88780   45.69650  137.60740  890.20610 2868.16990 5161.67290
 3730.00000    5.17410    0.02630    8.36200    3.68750    0.00350   -0.11290    2.89740   45.46570  137.24790  785.30370 1235.35520 1745.26970
 3730.50000    7.03170    0.02480    8.35620    3.62060    0.00470   -0.11240    2.90180   45.40820  139.23610  733.51440 1118.96000 1449.45520
 3731.00000    8.88920    0.02290    8.35620    3.63560    0.00600   -0.11690    2.90500   45.48470  140.85830  835.12640 1496.70370 2402.18600
 3731.50000   10.74680    0.02120    8.35620    3.67460    0.00610   -0.11920    2.89710   45.36290  140.72110 1452.20860 2168.75610 3354.91670
 3732.00000   12.68240    0.02240    8.35090    3.61770    0.00360   -0.10550    2.87630   45.03350  128.50290 1100.52820 1523.66040 2621.06910
 3732.50000   14.58420    0.02610    8.33630    3.54560    0.00120   -0.09560    2.85500   44.43090  105.59300  526.69510  878.56470 1513.80490
 3733.00000   15.56020    0.03100    8.32720    3.47360    0.00100   -0.08570    2.83840   43.83420   86.84000  318.95460  421.61970  636.84850
 3733.50000   14.55180    0.03570    8.31810    3.44420    0.00080   -0.07920    2.84330   44.00420   88.43830  274.18220  333.93570  400.20520
 3734.00000   12.77520    0.03660    8.30820    3.42950    0.00060   -0.08530    2.85460   44.97150   89.92910  291.78240  349.45320  393.78520
 3734.50000   11.80690    0.03470    8.30390    3.42820    0.00040   -0.09260    2.86420   45.48120   90.09350  344.40190  419.51450  409.98830
 3735.00000   12.76210    0.03240    8.30330    3.42680    0.00040   -0.09300    2.86280   44.99720   88.78390  406.51090  503.62190  428.77490
 3735.50000   15.48150    0.03040    8.30280    3.42550    0.00040   -0.08510    2.83980   44.07500   86.23850  593.53330  460.77850  294.28020
