~Version ---------------------------------------------------
VERS.   2.0 : CWLS log ASCII Standard -VERSION 2.0
WRAP.    NO : One line per depth step
DLM . SPACE : Column Data Section Delimiter
~Well ------------------------------------------------------
STRT .F                 180.0 : START DEPTH
STOP .F                4426.0 : STOP DEPTH
STEP .F                   0.5 : STEP
NULL .               -9999.25 : NULL VALUE
COMP .                        : COMPANY
WELL .                        : WELL
FLD  .                        : FIELD
LOC  .                        : LOCATION
PROV .                        : PROVINCE
CNTY .                        : COUNTY
STAT .                        : STATE
CTRY .                        : COUNTRY
SRVC .                        : SERVICE COMPANY
DATE .                        : DATE
UWI  .                        : UNIQUE WELL ID
API  .                        : API NUMBER
SLAT .WGS84 3.042603956394501 : SURFACE LATITUDE
SLON .WGS84 8.405141355995013 : SURFACE LONGITUDE
DATUM.F               3973.98 : DEPTH DATUM ELEV
~Curve Information -----------------------------------------
DEPT   .F     : 1 MEASURED DEPTH
HSGRD  .GAPI  : HNGS STANDARD GAMMA RAY FROM DENSITY LOG
TNPH_LS.DEC   : THERMAL NEUTRON POROSITY [LIMESTONE]
HCALD  .IN    : HRCC CALIPER CALIBRATED FROM DENSITY LOG
PEFZ   .B/E   : HRDD STANDARD RESOLUTION FORMATION PHOTOELECTRIC FACTOR
HDRA   .G/C3  : HRDD SPINE AND RIBS DENSITY CORRECTION
DPHZ_LS.DEC   : HGRD STANDARD RESOLUTION DENSITY POROSITY
RHOZ   .G/C3  : HRDD STANDARD RESOLUTION FORMATION DENSITY
DTCO   .US/F  : DELTA-T COMPRESSIONAL
DTSM   .US/F  : DELTA-T SHEAR
RXOZ   .OHMM  : INVADED FORMATION RESISTIVITY FILTERED AT 18 INCHES
RLA4   .OHMM  : APPARENT RESISTIVITY FROM COMPUTED FOCUSING MODE 4
RLA5   .OHMM  : APPARENT RESISTIVITY FROM COMPUTED FOCUSING MODE 5
~Params ----------------------------------------------------
~Other -----------------------------------------------------
~ASCII -----------------------------------------------------
# ...
 2280.00000   38.49700    0.27020   12.41860    4.58110    0.02560    0.06350    2.47940   48.15900  139.82600    1.60830    8.82740   13.56970
 2280.50000   32.80280    0.22120   12.29390    4.81690    0.03360   -0.03190    2.60140   48.36120  114.06850    5.80580   15.35680   23.01490
 2281.00000   24.22890    0.14660   12.16190    5.05280    0.03420   -0.10690    2.81750   49.38330  110.79880    9.86540   29.00460   68.47650
 2281.50000   19.51030    0.07320   12.02810    5.24810    0.02300   -0.14100    2.91010   50.65790  110.05940   22.50850  118.32900  347.77900
 2282.00000   16.70060    0.03860   11.95930    5.26510    0.01080   -0.16800    2.97560   54.70680  111.34560  126.79320  337.46220  427.27780
 2282.50000   16.23500    0.03550   11.94750    5.22420    0.00250   -0.16030    2.98170   58.61910  113.73310  214.52220  308.75650  381.16450
 2283.00000   19.13400    0.04870   11.94740    5.07960   -0.00450   -0.11870    2.92090   61.34940  120.36040  193.36230  247.35020  327.10260
 2283.50000   28.09800    0.07150   11.99200    4.82180   -0.00420   -0.05230    2.83220   63.75480  128.19490    5.01650  109.20330  238.72770
 2284.00000   37.68090    0.11610   12.08730    4.58900   -0.00200   -0.02770    2.75790   66.36350  133.90500    3.34190   13.19900   32.94320
 2284.50000   46.07290    0.13930   12.19400    4.42910    0.00550   -0.03770    2.75640   70.34540  137.64120    3.26690   21.69930   40.94660
 2285.00000   50.20790    0.15080   12.30000    4.26930    0.01290   -0.04850    2.76550   73.63860  140.02620   20.02440   37.61020   44.01240
 2285.50000   53.08610    0.16040   12.37300    4.10240    0.02360   -0.02280    2.77650   75.69510  143.12350   14.51540   28.32540   39.67040
 2286.00000   57.28910    0.17880   12.38850    3.87210    0.02500    0.04050    2.77820   78.24520  146.90410    4.57270    8.87660   21.26690
 2286.50000   61.87580    0.22450   12.37840    3.60330    0.02500    0.10040    2.62560   80.62470  148.77290    2.45510    6.84310    9.10000
 2287.00000   66.23150    0.26830   12.36830    3.37050    0.02070    0.11010    2.55240   82.06140  149.92800    2.64390    7.82210    9.77780
 2287.50000   68.13610    0.27300   12.34870    3.34980    0.01210    0.10080    2.54240   81.03850  150.02870    3.90940    9.23460   10.53070
 2288.00000   68.02550    0.25850   12.31180    3.33240    0.00360    0.10670    2.53840   78.91860  148.26290    5.68820   10.17560   10.43880
 2288.50000   66.59580    0.23930   12.27500    3.32170    0.00010    0.12470    2.51690   76.68240  145.98340    4.55650    9.40330   10.14730
 2289.00000   62.13320    0.22190   12.23810    3.31810   -0.00190    0.12010    2.50390   74.37740  144.74490    4.19170    8.66940    9.94250
 2289.50000   55.22060    0.19060   12.15660    3.47460   -0.00120    0.08630    2.50610   71.51940  143.10960    4.82320    8.25970   11.67260
 2290.00000   48.30800    0.15970   12.05250    3.94580    0.00250    0.03150    2.59590   68.36610  138.68230    8.03700    9.04090   22.53620
 2290.50000   41.22440    0.12990   11.94830    4.53370    0.02690   -0.01900    2.69160   65.21280  132.56430    3.94770   20.40600   24.13020
 2291.00000   35.02780    0.11490   11.84410    5.05500    0.04180   -0.07320    2.78730   62.51970  128.18440    4.12990   12.10350   21.85720
 2291.50000   29.05630    0.10570   11.74030    5.26950    0.04390   -0.10880    2.85850   61.43050  124.95100    5.18060   26.11710   47.22570
 2292.00000   23.31900    0.06860   11.64320    5.28510    0.02810   -0.13220    2.88830   61.57720  121.31760   33.17400   77.98970  117.42030
 2292.50000   20.24660    0.04330   11.54710    5.30480    0.01350   -0.14090    2.91710   61.86830  120.76900  110.42500  167.50300  230.21030
 2293.00000   18.05460    0.03440   11.47550    5.32700    0.01220   -0.13200    2.92490   61.54320  123.73880  107.60640  202.58790  260.89130
 2293.50000   17.47320    0.03170   11.43290    5.35580    0.02070   -0.13000    2.92670   60.69790  123.45560   16.81400   58.11000  140.24970
 2294.00000   17.09150    0.03060   11.40900    5.38460    0.03050   -0.13410    2.92890   58.98730  121.89240    8.92400   15.45060   40.03900
 2294.50000   16.13250    0.02620   11.38180    5.40130    0.03460   -0.14570    2.93930   56.12810  119.21570    9.17030   41.06820   60.72150
 2295.00000   14.57250    0.02040   11.29680    5.37560    0.02200   -0.15630    2.95310   53.10400  112.99630   42.66690  148.50370  147.27420
 2295.50000   12.85560    0.01590   11.20050    5.33960    0.00570   -0.15650    2.96120   52.11980  105.58750 1945.00890  506.64760  246.68500
 2296.00000   12.37770    0.01960   11.13540    5.30950    0.00380   -0.14720    2.96280   52.46610   98.38670  658.15890  742.58650  843.17660
 2296.50000   13.03450    0.03050   11.07800    5.27630    0.00380   -0.13590    2.95560   52.99740   96.50210  128.56860  220.66230  456.20830
 2297.00000   13.87120    0.03910   11.02070    5.24040    0.00480   -0.12150    2.92930   54.38970  100.02740   72.52390  110.75250  139.93090
 2297.50000   15.13960    0.04220   10.96330    5.21470    0.00890   -0.12560    2.91820   57.71260  109.24930   81.32110  104.19190  155.23260
 2298.00000   18.19140    0.04480   10.91250    5.17340    0.01400   -0.13140    2.91530   59.28020  114.80570   99.25360  153.26170  258.47930
 2298.50000   22.92800    0.05020   10.87410    5.05200    0.02100   -0.12120    2.91390   59.65920  116.72020   69.77910  166.35450  243.47500
 2299.00000   30.16050    0.05760   10.85290    4.81190    0.05020   -0.10370    2.87980   60.90770  115.82720   25.12710   42.08770   92.84710
 2299.50000   38.97110    0.06490   10.84610    4.64340    0.08490   -0.09070    2.85570   61.81400  114.60710   13.24590   21.36620   30.80450
 2300.00000   43.13230    0.06540   10.81060    4.62840    0.10050   -0.10470    2.86670   62.29110  114.30330   12.85880   17.38850   32.82090
 2300.50000   41.50410    0.06200   10.75380    4.61370    0.07450   -0.11870    2.88420   65.03860  115.84190   18.45480   40.11560   88.65230
 2301.00000   32.80430    0.05920   10.70730    4.63760    0.04120   -0.12670    2.90170   69.27720  130.05390   42.46870  103.85100  190.97990
 2301.50000   27.88920    0.06260   10.68100    4.63850    0.02490   -0.09190    2.90790   71.70550  143.42360   19.49900   75.56480  173.97930
 2302.00000   28.66220    0.10150   10.67450    4.62370    0.01450   -0.00260    2.90580   72.20640  145.48970    3.39120   20.37370   56.24890
 2302.50000   31.67780    0.14060   10.78410    4.62440    0.00660    0.05670    2.66730   71.03920  140.10080    0.68940    5.25890   13.53480
 2303.00000   29.30220    0.14320   10.90700    4.66850    0.00150    0.05500    2.61320   68.13350  130.07230    0.65480    6.78330   16.89800
 2303.50000   25.15360    0.12480   10.91630    4.74360    0.00840   -0.02250    2.65430   64.92150  121.29890    0.82840   21.05880   57.90740
 2304.00000   20.91820    0.10720   10.65440    4.64530    0.01500   -0.06690    2.74990   63.96730  123.01170    2.35760   46.50360   69.58190
 2304.50000   19.17270    0.09630   10.50280    4.53580    0.01490   -0.07340    2.82670   63.63740  125.23290   30.82620   52.38900   56.86340
 2305.00000   18.95640    0.09650   10.41510    4.48210    0.00780   -0.06140    2.82410   64.18080  132.02860   28.94320   49.27500   63.01310
 2305.50000   20.90480    0.10190   10.35690    4.60340    0.00370   -0.05520    2.81000   66.97900  144.86850    7.89750   34.33340   66.69030
 2306.00000   22.52200    0.10750   10.34340    4.81310   -0.00040   -0.05250    2.79920   69.34690  147.63350    5.81200    7.66940   28.00030
 2306.50000   22.85680    0.11200   10.33580    5.01140   -0.00170   -0.05760    2.79490   69.80410  147.94900    4.44480    9.77510   13.35940
 2307.00000   21.13230    0.10640   10.33590    5.12030   -0.00160   -0.07300    2.79590   69.76640  148.72010    6.25340   12.86230   14.77940
 2307.50000   19.30240    0.08870   10.33600    5.14280   -0.00170   -0.09170    2.82240   69.83240  150.29880    9.64480   15.39570   21.23430
