~Version ---------------------------------------------------
VERS.   2.0 : CWLS log ASCII Standard -VERSION 2.0
WRAP.    NO : One line per depth step
DLM . SPACE : Column Data Section Delimiter
~Well ------------------------------------------------------
STRT .F                 180.0 : START DEPTH
STOP .F                4426.0 : STOP DEPTH
STEP .F                   0.5 : STEP
NULL .               -9999.25 : NULL VALUE
COMP .                        : COMPANY
WELL .                        : WELL
FLD  .                        : FIELD
LOC  .                        : LOCATION
PROV .                        : PROVINCE
CNTY .                        : COUNTY
STAT .                        : STATE
CTRY .                        : COUNTRY
SRVC .                        : SERVICE COMPANY
DATE .                        : DATE
UWI  .                        : UNIQUE WELL ID
API  .                        : API NUMBER
SLAT .WGS84 3.042603956394501 : SURFACE LATITUDE
SLON .WGS84 8.405141355995013 : SURFACE LONGITUDE
DATUM.F               3973.98 : DEPTH DATUM ELEV
~Curve Information -----------------------------------------
DEPT   .F     : 1 MEASURED DEPTH
HSGRD  .GAPI  : HNGS STANDARD GAMMA RAY FROM DENSITY LOG
TNPH_LS.DEC   : THERMAL NEUTRON POROSITY [LIMESTONE]
HCALD  .IN    : HRCC CALIPER CALIBRATED FROM DENSITY LOG
PEFZ   .B/E   : HRDD STANDARD RESOLUTION FORMATION PHOTOELECTRIC FACTOR
HDRA   .G/C3  : HRDD SPINE AND RIBS DENSITY CORRECTION
DPHZ_LS.DEC   : HGRD STANDARD RESOLUTION DENSITY POROSITY
RHOZ   .G/C3  : HRDD STANDARD RESOLUTION FORMATION DENSITY
DTCO   .US/F  : DELTA-T COMPRESSIONAL
DTSM   .US/F  : DELTA-T SHEAR
RXOZ   .OHMM  : INVADED FORMATION RESISTIVITY FILTERED AT 18 INCHES
RLA4   .OHMM  : APPARENT RESISTIVITY FROM COMPUTED FOCUSING MODE 4
RLA5   .OHMM  : APPARENT RESISTIVITY FROM COMPUTED FOCUSING MODE 5
~Params ----------------------------------------------------
~Other -----------------------------------------------------
~ASCII -----------------------------------------------------
# ...
 2056.00000   21.73120    0.06770    9.83780    4.53700    0.01610   -0.08150    2.88560   52.50370  109.68690   16.09400  125.15790  410.44840
 2056.50000   18.40500    0.02970    9.79000    4.78620    0.01790   -0.12430    2.92460   55.49250  112.89300  123.76060  559.22610  683.51790
 2057.00000   17.89810    0.02580    9.75620    4.82210    0.01970   -0.13300    2.92460   59.18450  118.54880  189.86460  313.53440  509.51130
 2057.50000   23.33930    0.04710    9.76380    4.82400    0.02080   -0.05420    2.58010   59.56470  123.47690   31.62620   86.45080  171.43400
 2058.00000   30.48140    0.09130    9.87020    4.82590    0.01360    0.09170    2.35030   58.09070  126.46370    3.14870   24.36960   32.70890
 2058.50000   35.10540    0.13110    9.97320    4.82780   -0.00100    0.29120    2.19690   56.85350  126.30060    0.29410   23.69140   14.53450
 2059.00000   34.73040    0.15430    9.97320    4.79590   -0.01560    0.32420    2.19430   56.88880  124.74960    0.20150   25.99660   54.15010
 2059.50000   29.24580    0.12990    9.96090    4.74360   -0.01770    0.22620    2.46420   57.37270  119.96840    0.27230   34.38860  174.01340
 2060.00000   25.39710    0.09990    9.94500    4.67130   -0.00510    0.03180    2.79800   57.29610  109.91760    0.75550   43.12070  148.95890
 2060.50000   23.77650    0.06990    9.92920    4.59890    0.00750   -0.04020    2.80560   56.96160  107.78100    2.43130   52.24910   71.59590
 2061.00000   22.86020    0.05710    9.90900    4.67560    0.01430   -0.05720    2.80230   56.81750  108.05320    2.45460   59.70730  188.63760
 2061.50000   21.80910    0.04820    9.88820    4.93260   -0.00080   -0.03810    2.71500   57.01610  117.14330    2.81530   50.45660  348.49090
 2062.00000   21.50120    0.04530    9.86750    5.07560   -0.01590   -0.00630    2.60190   58.73000  128.10920    1.33670   37.87610  123.83240
 2062.50000   22.60550    0.04930    9.86730    4.65300   -0.02180    0.05760    2.42290   61.64110  139.07500    1.28140   72.22280  122.34520
 2063.00000   25.75730    0.06460    9.92820    4.17870    0.01070    0.17970    2.23880   59.99120  139.59430    1.29600   69.54360  172.41290
 2063.50000   28.90980    0.07790   10.31390    3.74630    0.06540    0.39200    1.84110   54.37130  125.99450    0.35620   34.98020   64.70590
 2064.00000   30.35810    0.08870   11.92070    3.40980    0.08410    0.54250    1.72710   58.89140  124.92280    0.20250   25.36710   46.74860
 2064.50000   27.47700    0.09750   13.38460    3.37140    0.06770    0.60750    2.04880   70.39870  150.50030    0.20250   40.78770   78.42320
 2065.00000   23.29850    0.09790   12.83010    3.61350    0.05530    0.41460    2.42100   71.80370  151.48130    0.20450   75.64700  111.96710
 2065.50000   20.21430    0.07880   10.99280    3.90470    0.05050    0.15580    2.49070   63.51440  144.10140    0.88890  156.22850  913.80760
 2066.00000   19.24060    0.05170   10.00590    3.98120    0.05050    0.11240    2.20640   56.22200  131.60800    5.94130 1016.30110 1687.23100
 2066.50000   19.90280    0.02450   10.50270    3.70220    0.05340    0.41410    1.84170   61.54690  123.65180    0.20480  529.06160 3476.70040
 2067.00000   22.33180    0.02000   11.49240    3.21550    0.08050    0.54260    1.72840   66.10750  131.54100    0.20460  506.91240 28032.87300
 2067.50000   23.36110    0.03910   12.60890    2.72880    0.11970    0.63660    1.65950   69.53360  147.44450    0.20440 2054.84670 76071.21090
 2068.00000   23.26010    0.07960   13.96320    2.44880    0.15810    0.65320    1.59060   78.61680  149.85140    0.20420 2179.72660 2879.04880
 2068.50000   22.18470    0.16370   15.31760    2.41540    0.16220    0.68750    1.55240   81.97800  151.98400    0.20410 4259.56690  833.87340
 2069.00000   22.00750    0.21180   15.86060    2.54460    0.11520    0.69980    1.55570   82.60700  156.65160    0.20390 1153.94040  323.49690
 2069.50000   22.71600    0.21110   15.19210    3.03410    0.08060    0.69550    2.08930   83.16690  181.14440    0.20400  331.10000   93.95770
 2070.00000   23.86980    0.17660   14.09670    3.62290    0.07480    0.51210    2.32970   84.41930  199.48510    0.21440   97.81120   59.01730
 2070.50000   24.57100    0.14050   12.42260    4.21170    0.08530    0.35730    2.46890   81.79480  165.06710    0.44650   59.28600   46.08890
 2071.00000   23.81770    0.11090   11.15400    4.50960    0.08330    0.34720    2.54590   71.24450  131.17370    0.36110   47.17010   66.05280
 2071.50000   21.59290    0.09470   10.82630    4.63170    0.04890    0.26990    2.62280   62.08080  109.78410    0.38380   73.37260  218.14860
 2072.00000   19.19790    0.07960   10.53970    4.75380    0.02700    0.17460    2.91460   60.11330  103.93580    0.72850  162.49190  240.72980
 2072.50000   16.81980    0.06370   10.32900    4.87600    0.02950   -0.02260    2.91250   58.60170  100.96300   57.19010  187.55960  221.52210
 2073.00000   16.17520    0.04670   10.20320    4.97730    0.03590   -0.12370    2.88220   57.20730   99.96180   25.11400   80.88630  134.75060
 2073.50000   16.11310    0.02970   10.11610    4.99310    0.01190   -0.11140    2.85020   55.89990   99.81010   18.72580   68.54130  106.34790
 2074.00000   16.08280    0.02120   10.10130    5.00890    0.00010   -0.09880    2.82390   54.79390   99.02600   20.44190  122.99850  284.44390
 2074.50000   15.74170    0.01360   10.08660    5.27670   -0.00120   -0.06980    2.82330   53.71220   97.97670  120.73600  212.95910  390.37580
 2075.00000   15.56490    0.00950   10.08050    5.46170   -0.00110   -0.08230    2.89660   52.44220   96.92740  121.66880  176.81860  195.25520
 2075.50000   15.09560    0.00430   10.07660    5.47810    0.00310   -0.11120    2.96350   51.32880   95.87810   74.62460  146.14850  308.71520
 2076.00000   14.26680   -0.00400   10.07260    5.37920    0.00770   -0.16360    2.98660   50.27460   94.76560   97.28920  486.29540 1224.24130
 2076.50000   13.21980   -0.01210   10.06870    5.37000    0.01170   -0.17730    2.98970   49.24690   93.91560  401.99810 2853.81760 8996.23050
 2077.00000   12.45610   -0.01660   10.06480    5.37030    0.00360   -0.18100    2.98930   48.23810   94.36820 1968.79140 9646.96000 10757.29300
 2077.50000   12.28730   -0.01650   10.06080    5.35900   -0.00760   -0.17390    2.98140   48.12840   94.82080 1968.73190 5812.84570 8993.44530
 2078.00000   12.48800   -0.01300   10.05690    5.33210   -0.01860   -0.16270    2.97170   48.83260   96.29440 1968.67140 4339.62890 7470.29100
 2078.50000   13.28400   -0.00720   10.05300    5.16350   -0.01970   -0.14910    2.95950   49.99440  104.19200 1843.45530 2603.44170 5469.17970
 2079.00000   14.92670    0.01430   10.04900    4.79160   -0.01520   -0.12130    2.93540   52.01450  113.64140  206.96700  748.50520 1476.16320
 2079.50000   19.32680    0.05600   10.04510    4.36830   -0.00070   -0.06950    2.67080   54.55000  122.22100   59.30770  153.99300  350.55850
 2080.00000   24.74920    0.10330   10.04440    3.87880    0.01380    0.00030    2.37480   56.13200  127.29870   14.30380   38.85560  100.81610
 2080.50000   29.73200    0.12790   10.06630    3.65630    0.02980    0.05480    2.07690   56.79360  130.07150    5.64380   11.57530   28.99340
 2081.00000   31.70000    0.12700   10.12610    3.48200    0.03870    0.26790    2.02280   59.57930  132.93700    0.90580   25.50470   11.36480
 2081.50000   32.97360    0.08230   10.55500    3.46690    0.02990    0.36350    1.96870   64.18940  136.85100    0.30200   75.81920   29.30200
 2082.00000   34.87190    0.05750   11.08930    3.54810    0.01620    0.45010    1.91460   66.30560  135.70180    0.21190  150.11460   78.85320
 2082.50000   37.25650    0.05550   11.45400    3.66940    0.00260    0.51300    1.88700   66.60760  130.50740    0.30230 1910.87540  430.77470
 2083.00000   38.98800    0.06270   11.65200    3.85700   -0.00390    0.53490    1.84170   64.24900  124.87010    0.20300 1599.49830  836.55940
 2083.50000   38.65290    0.07590   11.65630    3.89010    0.00630    0.57970    1.77160   63.42380  125.54070    0.20330  636.11510  379.43540
