~Version ---------------------------------------------------
VERS.   2.0 : CWLS log ASCII Standard -VERSION 2.0
WRAP.    NO : One line per depth step
DLM . SPACE : Column Data Section Delimiter
~Well ------------------------------------------------------
STRT .F                 180.0 : START DEPTH
STOP .F                4426.0 : STOP DEPTH
STEP .F                   0.5 : STEP
NULL .               -9999.25 : NULL VALUE
COMP .                        : COMPANY
WELL .                        : WELL
FLD  .                        : FIELD
LOC  .                        : LOCATION
PROV .                        : PROVINCE
CNTY .                        : COUNTY
STAT .                        : STATE
CTRY .                        : COUNTRY
SRVC .                        : SERVICE COMPANY
DATE .                        : DATE
UWI  .                        : UNIQUE WELL ID
API  .                        : API NUMBER
SLAT .WGS84 3.042603956394501 : SURFACE LATITUDE
SLON .WGS84 8.405141355995013 : SURFACE LONGITUDE
DATUM.F               3973.98 : DEPTH DATUM ELEV
~Curve Information -----------------------------------------
DEPT   .F     : 1 MEASURED DEPTH
HSGRD  .GAPI  : HNGS STANDARD GAMMA RAY FROM DENSITY LOG
TNPH_LS.DEC   : THERMAL NEUTRON POROSITY [LIMESTONE]
HCALD  .IN    : HRCC CALIPER CALIBRATED FROM DENSITY LOG
PEFZ   .B/E   : HRDD STANDARD RESOLUTION FORMATION PHOTOELECTRIC FACTOR
HDRA   .G/C3  : HRDD SPINE AND RIBS DENSITY CORRECTION
DPHZ_LS.DEC   : HGRD STANDARD RESOLUTION DENSITY POROSITY
RHOZ   .G/C3  : HRDD STANDARD RESOLUTION FORMATION DENSITY
DTCO   .US/F  : DELTA-T COMPRESSIONAL
DTSM   .US/F  : DELTA-T SHEAR
RXOZ   .OHMM  : INVADED FORMATION RESISTIVITY FILTERED AT 18 INCHES
RLA4   .OHMM  : APPARENT RESISTIVITY FROM COMPUTED FOCUSING MODE 4
RLA5   .OHMM  : APPARENT RESISTIVITY FROM COMPUTED FOCUSING MODE 5
~Params ----------------------------------------------------
~Other -----------------------------------------------------
~ASCII -----------------------------------------------------
# ...
  880.00000   17.84080    0.05470    8.98810    5.30410   -0.44050    0.62040    1.01760   47.91460   99.03310    0.20290 7041.91550    5.04710
  880.50000   19.61920    0.06150    9.10800    5.06700   -0.33380    0.80050    0.65720   48.64400   97.85430    0.20300 66932.98440   28.46690
  881.00000   20.75420    0.06830    9.14590    4.99640   -0.28510    0.83390    0.65630   50.58310   96.81030    0.36190 98368.39060 2348.72410
  881.50000   20.98730    0.07480    9.14540    4.98520   -0.23530    0.73190    0.88070   52.08080   96.43920    2.38540 1597.92200 4668.98100
  882.00000   20.88120    0.07710    9.10240    4.97940   -0.12940    0.60460    1.10500   52.29600   97.66770    2.25900 1141.58240 4864.05910
  882.50000   20.64570    0.07710    9.08390    4.99860   -0.04920    0.42620    1.32940   52.95560   97.78130    2.21580 1247.80940 3051.97020
  883.00000   20.90100    0.07400    9.08860    5.01770   -0.05840    0.41440    1.32780   53.37200   96.69320    2.55840 1512.93020 4353.44240
  883.50000   20.75490    0.06750    9.09760    5.03690   -0.09130    0.47280    1.19150   52.57560   96.28840    3.12390 1539.71180 13539.81640
  884.00000   20.58000    0.06170    9.10670    5.03310   -0.10480    0.54500    1.10290   52.95730   96.63290    3.91160 1373.47720 4738.66850
  884.50000   20.39000    0.06050    9.11370    4.96550   -0.04150    0.52930    1.15710   53.09340   96.55340    3.72300 1275.54140 2593.50170
  885.00000   20.85310    0.06210    9.06590    4.88070    0.06390    0.46880    1.26870   52.85460   96.55340    3.42280 1140.32970  446.59250
  885.50000   22.17620    0.06430    9.01050    4.79060    0.13660    0.40820    1.35710   54.07610   97.07150    2.74620  240.60360  185.33310
  886.00000   23.23360    0.06510    8.94630    4.76740    0.14770    0.39470    1.36300   54.89560   97.63320    2.74360  435.18100  176.70700
  886.50000   22.85750    0.05770    8.89510    4.86850    0.09580    0.41860    1.34640   54.77840   98.67490    3.13710 1339.57470  391.93370
  887.00000   21.95410    0.04540    8.89190    5.01810    0.03480    0.45310    1.26360   53.29210   99.20470    3.93640 1380.87950 1592.02310
  887.50000   21.35670    0.03730    8.96720    5.16780   -0.04190    0.48860    1.17890   51.01590   99.21060    3.95530 1300.98380 1307.93370
  888.00000   21.15170    0.03810    9.05740    5.23420   -0.24060    0.52910    0.91710   48.02780   99.41690    3.83110 1229.25380 1035.27260
  888.50000   21.03840    0.04540    9.14850    5.22280   -0.37740    0.68150    0.81080   46.27990   99.63770    4.56880 1162.72970 1118.13160
  889.00000   20.84420    0.05100    9.28600    5.20610   -0.48030    0.75880    0.79090   47.20330  100.08380    7.40700 1102.20480 1403.02810
  889.50000   20.74350    0.05230    9.45260    5.18930   -0.53890    0.74740    0.77050   50.08070  100.52990   16.59730 1033.97190  937.54790
  890.00000   20.91100    0.05480    9.61200    5.21700   -0.53730    0.75830    0.71750   52.41970  100.13070   33.44040  963.91090  819.57960
  890.50000   21.41480    0.06690    9.68900    5.27210   -0.51870    0.81260    0.69840   52.26910  100.03530   15.78700  909.40310  844.22900
  891.00000   21.63710    0.08120    9.70170    5.34980   -0.48600    0.81620    0.69540   49.82390   99.71040   10.13120  849.21940  729.09630
  891.50000   21.64620    0.09350    9.60970    5.40550   -0.46640    0.81120    0.69080   48.15650   98.14320    7.53320  686.29390  482.33440
  892.00000   21.36640    0.09400    9.50130    5.42390   -0.46590    0.80880    0.67660   46.63510   96.77820   10.88810  477.78330  375.25980
  892.50000   21.08160    0.08350    9.40580    5.42390   -0.48230    0.83020    0.66690   45.97080   96.83110   14.78360  405.84620  328.69640
  893.00000   20.79680    0.07260    9.40840    5.52140   -0.47520    0.82050    0.69190   46.63090  100.44580   31.41170  369.76070  440.03480
  893.50000   20.69870    0.06240    9.42690    5.55230   -0.45820    0.80070    0.71860   47.45340  101.51230   29.94890  331.43480  436.84390
  894.00000   20.41090    0.06350    9.45020    5.55230   -0.47660    0.79030    0.72500   48.31550  101.89750   49.90270  248.87210  196.51770
  894.50000   20.11660    0.07690    9.46430    5.59350   -0.48350    0.78260    0.73410   48.85120   99.74420   58.83210  184.90010  137.59090
  895.00000   20.21650    0.08850    9.46940    5.64830   -0.44130    0.74550    0.93150   49.91750   97.31330   51.86420  145.27690  121.40220
  895.50000   21.15880    0.10010    9.49740    5.70310   -0.33520    0.68160    0.97880   52.35130   95.42810    5.71450  118.93980  107.21670
  896.00000   21.88760    0.10910    9.51300    5.71590   -0.23570    0.63410    0.91890   54.75230   95.03990    1.64060  110.41340  101.54420
  896.50000   20.83560    0.11330    9.50530    5.70120   -0.23270    0.63320    0.89710   56.87720   97.25720    1.49040  118.48460  101.82690
  897.00000   18.13210    0.10370    9.54010    5.64010   -0.30620    0.67440    0.89710   61.26260  105.14460    1.91470  153.96720  119.63650
  897.50000   15.65010    0.07780   10.15160    5.57650   -0.34650    0.68570    0.92210   64.71500  114.28810   11.55280  202.20790  159.43020
  898.00000   13.87540    0.05080   12.05310    5.42090   -0.36740    0.65430    0.97160   66.77230  123.43170    3.94990  305.11880  221.71150
  898.50000   12.54230    0.04220   13.61280    5.23970   -0.38370    0.65950    1.02640   68.27850  132.08360    3.68280  512.16900  362.71520
  899.00000   11.93470    0.04210   14.22230    5.09490   -0.39860    0.62360    1.08130   69.92590  136.64260    3.13400  719.67550  381.37670
  899.50000   11.26470    0.04790   14.31840    5.07110   -0.40870    0.51980    1.24250   71.06510  139.92620    2.02380  331.45300  182.88180
  900.00000   10.56450    0.04120   13.06330    5.16730   -0.42070    0.44450    1.30670   73.26210  144.63990    1.40350  259.31400  174.83590
  900.50000    9.35470    0.02870   11.29090    5.38180   -0.44310    0.50380    1.19150   79.00900  155.75160    1.98230  588.19780  327.35230
  901.00000    8.07880    0.01610    9.49560    5.60290   -0.44310    0.67800    1.03090   84.71070  166.19470   21.15990 2325.94820 1247.07390
  901.50000    7.07290    0.00510    8.40770    5.82390   -0.39070    0.76230    0.79240   86.61180  159.37240  210.59540 1361.52320 3984.87770
  902.00000    6.67500    0.01200    8.25920    5.87680   -0.35060    0.73960    0.81030   86.68330  152.17360  186.00560  397.09800 2187.37940
  902.50000    6.97920    0.03310    8.17760    5.65840   -0.37750    0.73270    0.81340   86.67140  152.35150  153.11040  238.86980  389.88100
  903.00000    7.44590    0.06570    8.17970    5.40850   -0.42470    0.75520    0.76330   89.03970  158.96860  165.37340  219.16680  316.63300
  903.50000    7.62750    0.11770    8.19480    5.22070   -0.47530    0.78120    0.71760   81.02020  179.26280  176.70680  290.96690  409.12520
  904.00000    7.64600    0.15120    8.21640    5.12230   -0.48070    0.79740    0.72060   76.73130  236.79940  226.50500  262.84470  860.72520
  904.50000    7.65690    0.13330    8.23000    5.31960   -0.46390    0.79040    0.74370   89.91760  261.97440  169.23540  331.21890  440.63860
  905.00000    7.91590    0.10240    8.23960    5.52680   -0.44410    0.77250    0.77140  103.29330  257.82100  156.64280  275.76640  369.27580
  905.50000    8.54510    0.08780    8.23500    5.72520   -0.44180    0.76190    0.76450  103.01800  256.09940  118.85990  293.30650  398.92970
  906.00000    9.27620    0.09660    8.22560    5.71350   -0.44530    0.76330    0.74720  102.24220  254.96990  130.83540  350.65970  421.86950
  906.50000   10.30840    0.12830    8.21010    5.37060   -0.46640    0.77400    0.75110   87.08800  266.68330  127.42050  427.38010  582.73740
  907.00000   10.30200    0.18110    8.20170    5.01980   -0.47920    0.77930    0.75930   78.52110  272.07860  182.77150  913.86030 2916.98930
  907.50000   10.29550    0.26310    8.20040    4.64610   -0.48360    0.77120    0.76220   89.55240  210.57400  661.62180 3271.02760 4438.04790
