~Version ---------------------------------------------------
VERS.   2.0 : CWLS log ASCII Standard -VERSION 2.0
WRAP.    NO : One line per depth step
DLM . SPACE : Column Data Section Delimiter
~Well ------------------------------------------------------
STRT .F                 180.0 : START DEPTH
STOP .F                4426.0 : STOP DEPTH
STEP .F                   0.5 : STEP
NULL .               -9999.25 : NULL VALUE
COMP .                        : COMPANY
WELL .                        : WELL
FLD  .                        : FIELD
LOC  .                        : LOCATION
PROV .                        : PROVINCE
CNTY .                        : COUNTY
STAT .                        : STATE
CTRY .                        : COUNTRY
SRVC .                        : SERVICE COMPANY
DATE .                        : DATE
UWI  .                        : UNIQUE WELL ID
API  .                        : API NUMBER
SLAT .WGS84 3.042603956394501 : SURFACE LATITUDE
SLON .WGS84 8.405141355995013 : SURFACE LONGITUDE
DATUM.F               3973.98 : DEPTH DATUM ELEV
~Curve Information -----------------------------------------
DEPT   .F     : 1 MEASURED DEPTH
HSGRD  .GAPI  : HNGS STANDARD GAMMA RAY FROM DENSITY LOG
TNPH_LS.DEC   : THERMAL NEUTRON POROSITY [LIMESTONE]
HCALD  .IN    : HRCC CALIPER CALIBRATED FROM DENSITY LOG
PEFZ   .B/E   : HRDD STANDARD RESOLUTION FORMATION PHOTOELECTRIC FACTOR
HDRA   .G/C3  : HRDD SPINE AND RIBS DENSITY CORRECTION
DPHZ_LS.DEC   : HGRD STANDARD RESOLUTION DENSITY POROSITY
RHOZ   .G/C3  : HRDD STANDARD RESOLUTION FORMATION DENSITY
DTCO   .US/F  : DELTA-T COMPRESSIONAL
DTSM   .US/F  : DELTA-T SHEAR
RXOZ   .OHMM  : INVADED FORMATION RESISTIVITY FILTERED AT 18 INCHES
RLA4   .OHMM  : APPARENT RESISTIVITY FROM COMPUTED FOCUSING MODE 4
RLA5   .OHMM  : APPARENT RESISTIVITY FROM COMPUTED FOCUSING MODE 5
~Params ----------------------------------------------------
~Other -----------------------------------------------------
~ASCII -----------------------------------------------------
# ...
 1356.00000   77.45340    0.14530   13.77660    3.22240    0.30610    0.30450    1.50150   71.02120  128.77030    0.23440  143.59780  374.37080
 1356.50000   67.66900    0.11480   14.78580    3.09400    0.31110    0.30090    1.51400   70.61440  127.29630    0.20870  226.80070  625.51530
 1357.00000   57.94980    0.08040   15.78350    3.26400    0.29340    0.31250    1.51040   71.25360  124.03640    0.25770  344.96480 1733.76720
 1357.50000   52.33250    0.04740   15.88720    3.47310    0.27110    0.32700    1.46550   72.48190  123.64450    0.36750  623.81850 2745.92550
 1358.00000   50.04700    0.03700   15.78870    3.58390    0.25730    0.33750    1.45190   75.07460  129.36940    0.45440  998.39720 3663.08150
 1358.50000   49.08470    0.03190   15.42890    3.62910    0.24760    0.34030    1.45070   77.22050  132.33240    0.27420 1796.55410 4305.43950
 1359.00000   49.16670    0.03620   15.06910    3.65020    0.24650    0.34020    1.44950   78.13050  133.86250    0.20520 18241.72660 1087.40540
 1359.50000   49.45310    0.04970   14.63680    3.67130    0.24370    0.34080    1.44520   77.43660  143.22790    0.20630 98234.44530  373.16620
 1360.00000   50.15810    0.06790   14.47500    3.72090    0.23970    0.34710    1.43370   76.85080  149.30150    0.20780 1951.81070  214.82170
 1360.50000   50.58150    0.09170   14.49530    3.75190    0.23660    0.35250    1.42910   76.55260  149.13880    1.46900  245.40630  161.35200
 1361.00000   51.38260    0.11650   14.53380    3.71930    0.24590    0.34610    1.45530   76.42130  146.43850    2.35440  156.08680  196.15510
 1361.50000   52.07760    0.11580   14.62430    3.62740    0.25780    0.32170    1.49370   75.24100  142.64990    3.13990  192.05310  273.75550
 1362.00000   52.44450    0.08710   14.90270    3.47200    0.24960    0.30910    1.53220   72.32040  138.00630    1.29340  286.13160  382.05520
 1362.50000   52.31200    0.04600   15.22410    3.29910    0.24360    0.30100    1.53340   70.69870  131.94230    0.67150  379.84470  620.77530
 1363.00000   51.83380    0.01860   15.51200    3.15050    0.24580    0.30080    1.53180   70.86000  128.21100    0.54480  493.49370 1400.98230
 1363.50000   51.95130    0.00910   15.58600    3.04440    0.26140    0.30060    1.52990   70.99740  126.00460    0.60210  987.38670 4187.96530
 1364.00000   54.00670    0.00900   15.58740    3.04570    0.27790    0.30050    1.52600   70.13640  123.58010    0.61230 4073.23730 10032.15620
 1364.50000   57.17610    0.01410   15.48290    3.04700    0.29500    0.30030    1.52270   68.77340  121.82880    0.53580 7159.08790 94480.82810
 1365.00000   61.00140    0.02090   15.11820    3.06770    0.32250    0.30010    1.52150   67.45450  120.09280    0.47600 11950.82320 95823.28910
 1365.50000   64.86530    0.02620   14.63200    3.09870    0.32570    0.30000    1.52600   65.73530  119.49150    0.46680  708.70590 8731.32810
 1366.00000   65.93510    0.02280   14.09470    3.15070    0.32590    0.29980    1.53150   65.85330  119.49830    0.47410 2387.38010 99352.33590
 1366.50000   62.73460    0.01380   14.05730    3.19740    0.32440    0.29960    1.53300   68.85470  120.34210    0.49760  378.46550 5345.13820
 1367.00000   57.11100    0.00450   14.73620    3.19930    0.31600    0.29960    1.52400   72.84220  122.22050    0.52540  431.50440 6257.75290
 1367.50000   52.49450    0.00600   15.84490    3.19960    0.30410    0.29960    1.51590   75.98590  124.45130    0.53440  543.39250 7983.90720
 1368.00000   51.73690    0.02930   15.89620    3.16710    0.30330    0.29960    1.51180   75.25980  126.22350    0.44800  680.79320 7391.92380
 1368.50000   51.74800    0.05330   15.47560    3.10350    0.31130    0.29960    1.52250   73.93580  126.54060    0.30410 1021.69210 3676.45460
 1369.00000   52.45920    0.06580   15.20150    3.04000    0.31340    0.29960    1.54250   73.45290  127.99680    0.29580  745.31880 1292.82460
 1369.50000   53.38120    0.06780   15.18180    2.97960    0.30120    0.29960    1.56250   74.34980  129.55310    0.30050  829.92940 1259.53280
 1370.00000   54.74160    0.05890   15.21460    2.96970    0.29310    0.29960    1.54740   75.30250  130.41640    0.39830 1785.70540 1432.25920
 1370.50000   56.58220    0.05100   15.26890    2.96210    0.28770    0.29960    1.53810   74.57510  130.01320    0.33790 2605.29470 1736.83190
 1371.00000   59.00960    0.04310   15.32320    2.96200    0.28460    0.29970    1.53520   72.98260  129.61000    0.46490 99741.10940 3177.04570
 1371.50000   62.71340    0.03790   15.40880    3.05510    0.29170    0.29990    1.52670   72.03940  128.40640    0.32340 100201.57030 6851.72510
 1372.00000   67.83790    0.03760   15.21580    3.15290    0.29800    0.30110    1.50860   71.29740  126.04600    0.24910 22692.58980 46359.48830
 1372.50000   74.93880    0.05360   14.74360    3.26950    0.30370    0.30730    1.49050   69.30000  124.59910    0.20210 2395.35820 19516.62890
 1373.00000   80.16140    0.07100   13.94790    3.38040    0.28560    0.31890    1.48670   67.27650  123.91220    0.31410  726.35490 1736.54970
 1373.50000   81.50020    0.07520   13.32460    3.42490    0.28290    0.31660    1.51230   66.50460  124.50410    0.53040  194.61570  934.93940
 1374.00000   75.62030    0.07000   13.41990    3.30300    0.31440    0.30150    1.52840   65.06990  126.25830    0.57080  110.10010  351.35940
 1374.50000   66.47850    0.04370   14.23100    3.20650    0.32730    0.30100    1.52730   63.63350  126.49460    0.39690  119.61420  206.14290
 1375.00000   57.25130    0.01400   15.04200    3.32020    0.31180    0.30180    1.50220   64.60670  126.05900    0.46310  156.54420  524.70380
 1375.50000   49.99280   -0.00100   15.50640    3.57750    0.27440    0.32750    1.46560   66.29360  124.76260    0.62310  345.75310 1335.54930
 1376.00000   46.91620   -0.01010   15.84880    3.83480    0.23120    0.35020    1.43060   66.97380  123.46630    0.92490  413.39590 2946.23320
 1376.50000   46.01980   -0.01740   15.97550    4.09700    0.19200    0.36960    1.40020   66.98290  121.84640    1.76300  482.99490 5623.90090
 1377.00000   46.28680   -0.01840   16.10230    4.31910    0.16750    0.38640    1.36980   66.66680  120.59200    4.29300  568.90680 9994.23730
 1377.50000   47.31110   -0.01670   16.31760    4.42640    0.14910    0.39800    1.34690   65.24440  121.10170   12.24340  680.54360 16254.18360
 1378.00000   48.07600   -0.01330   16.57360    4.47960    0.13740    0.40590    1.34220   64.00180  122.06030   14.04950  698.48560 34711.42970
 1378.50000   48.64880   -0.00990   16.54470    4.52060    0.11960    0.41100    1.34050   63.99840  122.62390   12.22270  610.77000 91498.17190
 1379.00000   49.22160   -0.00650   16.38500    4.52630    0.11180    0.41080    1.33510   64.76500  122.76440   11.31050  510.74400 23895.72460
 1379.50000   49.61830   -0.00330   16.28050    4.53210    0.08800    0.41240    1.32010   68.76340  122.90490   15.32610  443.93300 66649.25780
 1380.00000   50.14820    0.00440   16.37290    4.33640    0.04260    0.42800    1.30310   70.67160  123.42550   13.40860  431.35590 57988.50390
 1380.50000   50.78250    0.01400   16.54460    4.05670    0.05180    0.41500    1.32900   70.15320  125.38810    4.87850  588.99240 11741.61620
 1381.00000   51.06930    0.02380   16.53350    3.81480    0.10240    0.37980    1.43380   69.73700  128.83110    1.77520  804.37130 6332.27440
 1381.50000   51.84510    0.04870   16.27470    3.57450    0.18210    0.32910    1.51090   71.76370  132.67470    0.81950  968.87080  922.93290
 1382.00000   52.83390    0.07920   15.52490    3.35930    0.22720    0.30220    1.51220   74.18550  137.85800    0.85970  427.02690  272.97770
 1382.50000   54.34740    0.09540   15.45360    3.18020    0.22880    0.29970    1.50280   74.99200  148.47990    0.61980  349.16060  267.33340
 1383.00000   55.97200    0.11150   15.50580    3.03700    0.21230    0.30170    1.50160   75.35450  155.01750    0.34900  359.74460  201.00030
 1383.50000   57.45990    0.12970   15.58060    2.94860    0.22940    0.30720    1.50440   76.30000  156.48660    0.23040  189.43140   75.39650
