~Version ---------------------------------------------------
VERS.   2.0 : CWLS log ASCII Standard -VERSION 2.0
WRAP.    NO : One line per depth step
DLM . SPACE : Column Data Section Delimiter
~Well ------------------------------------------------------
STRT .F                 180.0 : START DEPTH
STOP .F                4426.0 : STOP DEPTH
STEP .F                   0.5 : STEP
NULL .               -9999.25 : NULL VALUE
COMP .                        : COMPANY
WELL .                        : WELL
FLD  .                        : FIELD
LOC  .                        : LOCATION
PROV .                        : PROVINCE
CNTY .                        : COUNTY
STAT .                        : STATE
CTRY .                        : COUNTRY
SRVC .                        : SERVICE COMPANY
DATE .                        : DATE
UWI  .                        : UNIQUE WELL ID
API  .                        : API NUMBER
SLAT .WGS84 3.042603956394501 : SURFACE LATITUDE
SLON .WGS84 8.405141355995013 : SURFACE LONGITUDE
DATUM.F               3973.98 : DEPTH DATUM ELEV
~Curve Information -----------------------------------------
DEPT   .F     : 1 MEASURED DEPTH
HSGRD  .GAPI  : HNGS STANDARD GAMMA RAY FROM DENSITY LOG
TNPH_LS.DEC   : THERMAL NEUTRON POROSITY [LIMESTONE]
HCALD  .IN    : HRCC CALIPER CALIBRATED FROM DENSITY LOG
PEFZ   .B/E   : HRDD STANDARD RESOLUTION FORMATION PHOTOELECTRIC FACTOR
HDRA   .G/C3  : HRDD SPINE AND RIBS DENSITY CORRECTION
DPHZ_LS.DEC   : HGRD STANDARD RESOLUTION DENSITY POROSITY
RHOZ   .G/C3  : HRDD STANDARD RESOLUTION FORMATION DENSITY
DTCO   .US/F  : DELTA-T COMPRESSIONAL
DTSM   .US/F  : DELTA-T SHEAR
RXOZ   .OHMM  : INVADED FORMATION RESISTIVITY FILTERED AT 18 INCHES
RLA4   .OHMM  : APPARENT RESISTIVITY FROM COMPUTED FOCUSING MODE 4
RLA5   .OHMM  : APPARENT RESISTIVITY FROM COMPUTED FOCUSING MODE 5
~Params ----------------------------------------------------
~Other -----------------------------------------------------
~ASCII -----------------------------------------------------
# ...
 3932.00000    6.37260    0.08640    8.24720    3.70060    0.00270   -0.05220    2.79180   48.67130   94.31790  241.04750 1144.44570 1335.93210
 3932.50000    5.95230    0.09150    8.24740    3.61520    0.00560   -0.04110    2.77870   48.08660   92.26340  162.95800  650.00370 1139.90220
 3933.00000    5.47570    0.10140    8.24610    3.52420    0.01260   -0.03000    2.76070   47.42590   88.35080   91.04150  385.31580  630.32750
 3933.50000    5.11100    0.11350    8.24740    3.39380    0.01570   -0.01800    2.74270   47.41350   89.59600   60.72950  354.01930  402.22590
 3934.00000    4.73130    0.12140    8.24820    3.32500    0.01180   -0.01170    2.72700   47.68480   90.54190   59.95780  354.89980  479.85430
 3934.50000    4.51260    0.12020    8.24810    3.27940    0.00610   -0.01080    2.72660   47.55640   89.32240   82.86040  493.68420  628.76780
 3935.00000    4.66460    0.11310    8.25240    3.33380    0.00500   -0.02640    2.75150   46.74020   84.71690  132.07770  517.61190  635.28240
 3935.50000    5.14730    0.10260    8.26120    3.40280    0.01120   -0.04780    2.78330   45.46190   83.51160  167.72060  558.44780  850.71030
 3936.00000    5.75920    0.09000    8.27060    3.45930    0.01000   -0.06400    2.81500   44.94510   87.86820  200.33420  795.67610 1230.58000
 3936.50000    6.37110    0.07560    8.27750    3.50100    0.00760   -0.06960    2.82550   44.82310  100.26560  250.81130  974.72380 1270.91890
 3937.00000    6.98300    0.06030    8.27320    3.51630    0.00680   -0.07150    2.82910   44.30810  128.47790  230.26900  881.58720 1146.66250
 3937.50000    7.66370    0.04490    8.26880    3.53400    0.00590   -0.07480    2.83620   43.71490  137.54360  212.39710  887.72400 1147.46290
 3938.00000    7.70560    0.03780    8.26670    3.55410    0.00510   -0.08100    2.84680   43.34470  153.81590  209.19980 1083.85280 1492.00150
 3938.50000    7.49710    0.03530    8.27120    3.57720    0.00510   -0.08940    2.85740   43.32810  172.87430  209.25520  733.23140 2118.83200
 3939.00000    6.88990    0.03710    8.28540    3.60030    0.00580   -0.09350    2.86360   43.82370  185.06790  221.21210  817.19260 1027.65880
 3939.50000    6.46250    0.04500    8.29550    3.61700    0.00560   -0.09210    2.86260   44.98880  187.90330  231.53130  782.92800 1018.14780
 3940.00000    6.51760    0.05400    8.30580    3.58120    0.00420   -0.08400    2.84660   46.19740  173.39240  239.31510  550.78770  802.34250
 3940.50000    6.70510    0.06290    8.32450    3.54830    0.00210   -0.07730    2.82780   47.25910  133.22200  230.61440  590.97490  691.01930
 3941.00000    6.93790    0.07850    8.34310    3.53620   -0.00150   -0.06450    2.78980   48.70500  100.07700  230.62160  570.35750  682.11000
 3941.50000    7.17070    0.09430    8.34760    3.59170   -0.00450   -0.03880    2.74970   49.70430   88.06790  226.31890  373.31310  542.60910
 3942.00000    7.28980    0.11000    8.34960    3.67170   -0.00590   -0.00810    2.70970   50.12430   90.17330  161.98710  209.18680  294.22130
 3942.50000    7.29250    0.12910    8.35700    3.71510   -0.00510    0.01050    2.69380   50.46850   90.16550  127.62310  188.75610  226.39180
 3943.00000    7.23560    0.13890    8.35790    3.66210   -0.00130    0.01090    2.69420   50.60860   89.29830  110.16780  225.88420  385.84800
 3943.50000    7.13570    0.13890    8.36010    3.56260    0.00270   -0.00040    2.70570   50.14410   90.62780  112.01720  325.75100  394.54710
 3944.00000    7.03590    0.13060    8.36590    3.48470    0.00620   -0.01880    2.74940   49.14840   93.54070  117.09350  413.70850  257.18740
 3944.50000    6.93600    0.11440    8.36950    3.37860    0.00990   -0.03690    2.79310   48.17220  102.35600  125.82390  496.31420  301.29920
 3945.00000    6.86220    0.09860    8.37760    3.27360    0.01030   -0.05600    2.80870   47.46700  118.45500  138.31120  572.68080  457.94950
 3945.50000    6.93140    0.08460    8.38890    3.20090    0.00730   -0.06220    2.81670   46.68740  131.29840  162.96500  635.52000  696.04460
 3946.00000    7.00070    0.06960    8.38790    3.18370    0.00550   -0.06790    2.81870   46.23600  135.40530  178.52770  738.59770 1057.92900
 3946.50000    6.98180    0.06670    8.39250    3.19760    0.00580   -0.06750    2.81460   47.10930  135.96400  196.64160 1031.79900 1263.44760
 3947.00000    6.95120    0.06750    8.39630    3.21770    0.00580   -0.06160    2.77690   48.38170  136.32900  194.98750 1128.08650 1285.30700
 3947.50000    6.92050    0.07320    8.40010    3.25280    0.00410   -0.05030    2.76570   48.19530  130.07010  154.57880  667.68350 1015.83920
 3948.00000    6.88980    0.08140    8.40260    3.30210    0.00350   -0.03900    2.75880   47.87100  119.37520  134.74900  477.94800  679.30690
 3948.50000    6.79810    0.08960    8.40290    3.35150    0.00290   -0.02890    2.75570   47.64340  118.82030  108.80370  396.61000  579.15110
 3949.00000    6.61240    0.09690    8.40690    3.35550    0.00440   -0.02700    2.75460   47.61510  130.52780  118.08390  370.48200  588.18650
 3949.50000    6.42660    0.09920    8.42230    3.32500    0.00610   -0.02760    2.75360   47.69470  139.22850  126.13690  499.85350  632.62180
 3950.00000    6.11800    0.09970    8.43760    3.32280    0.00570   -0.02510    2.74870   47.53270  140.67630  131.39750  506.83620  761.01920
 3950.50000    6.53390    0.09850    8.44590    3.34160    0.00350   -0.02080    2.74120   47.33770  122.07080   89.78350  679.12840 1023.06880
 3951.00000    7.41580    0.09630    8.45410    3.36040   -0.00030   -0.01500    2.73330   47.38590  102.87340   82.97090  987.52870 1313.14760
 3951.50000    8.48150    0.09550    8.46240    3.44010   -0.00420   -0.01230    2.73180   47.39850   88.63420   97.80650 1018.96360 1354.73030
 3952.00000    9.54730    0.09260    8.46980    3.54190   -0.00320   -0.01720    2.73410   47.28480  103.15350  119.47050  554.97860 1005.49330
 3952.50000   10.19320    0.08960    8.47740    3.62000   -0.00010   -0.02740    2.75440   47.09660  125.19270   80.40230  428.21850  592.16410
 3953.00000   10.60370    0.08660    8.49880    3.74640    0.00320   -0.03870    2.78830   47.03330  136.32760   77.37480  423.74660  653.12310
 3953.50000   10.86180    0.08360    8.51100    3.90510    0.01000   -0.06010    2.82210   47.57320  137.71430   87.80430  628.57790  965.91750
 3954.00000   11.47940    0.07940    8.50190    3.99180    0.00930   -0.07400    2.85600   48.63480  136.80650  186.47470  504.28500  867.20840
 3954.50000   12.22920    0.07640    8.48660    4.01890    0.00740   -0.09170    2.85950   49.56240  130.10690  263.95810  375.99780  605.83560
 3955.00000   12.68200    0.07430    8.47130    3.92050    0.00630   -0.09030    2.85450   50.48850  112.08720  271.88170  337.54750  508.49000
 3955.50000   12.98530    0.08310    8.48060    3.83550    0.01300   -0.08280    2.80840   51.07630   93.55610  250.69480  441.20740  486.63430
 3956.00000   13.03550    0.09710    8.48110    3.80510    0.01400   -0.05700    2.76240   51.34460   89.51860  104.71650  323.57340  477.63720
 3956.50000   12.72560    0.11160    8.48190    3.78960    0.01130   -0.03520    2.72070   50.98140   89.63000   70.74760  229.85090  474.95680
 3957.00000   12.26860    0.12820    8.48210    3.80310    0.00290   -0.00510    2.71830   49.49310   92.26860   52.97220  296.49670  486.80260
 3957.50000   11.79240    0.12590    8.48190    3.78240    0.00730   -0.02120    2.76120   47.31940   95.61900   65.42510  409.68260  589.60640
 3958.00000   10.88850    0.11120    8.48200    3.70920    0.01360   -0.05380    2.83770   45.25560   96.16230   83.03380  618.72200 1404.06520
 3958.50000    9.80510    0.09320    8.48170    3.59470    0.01560   -0.07750    2.83970   44.60790   97.27860  119.91460 2107.72710 2896.67800
 3959.00000    9.15280    0.08320    8.48070    3.44990    0.01190   -0.07960    2.82220   44.36880  100.30420  143.51720 2600.65190 3176.53470
 3959.50000    9.10110    0.08370    8.47890    3.37350    0.00490   -0.05290    2.78690   44.76120  100.83780  109.30480  959.46090 2801.86110
