~Version ---------------------------------------------------
VERS.   2.0 : CWLS log ASCII Standard -VERSION 2.0
WRAP.    NO : One line per depth step
DLM . SPACE : Column Data Section Delimiter
~Well ------------------------------------------------------
STRT .F                 180.0 : START DEPTH
STOP .F                4426.0 : STOP DEPTH
STEP .F                   0.5 : STEP
NULL .               -9999.25 : NULL VALUE
COMP .                        : COMPANY
WELL .                        : WELL
FLD  .                        : FIELD
LOC  .                        : LOCATION
PROV .                        : PROVINCE
CNTY .                        : COUNTY
STAT .                        : STATE
CTRY .                        : COUNTRY
SRVC .                        : SERVICE COMPANY
DATE .                        : DATE
UWI  .                        : UNIQUE WELL ID
API  .                        : API NUMBER
SLAT .WGS84 3.042603956394501 : SURFACE LATITUDE
SLON .WGS84 8.405141355995013 : SURFACE LONGITUDE
DATUM.F               3973.98 : DEPTH DATUM ELEV
~Curve Information -----------------------------------------
DEPT   .F     : 1 MEASURED DEPTH
HSGRD  .GAPI  : HNGS STANDARD GAMMA RAY FROM DENSITY LOG
TNPH_LS.DEC   : THERMAL NEUTRON POROSITY [LIMESTONE]
HCALD  .IN    : HRCC CALIPER CALIBRATED FROM DENSITY LOG
PEFZ   .B/E   : HRDD STANDARD RESOLUTION FORMATION PHOTOELECTRIC FACTOR
HDRA   .G/C3  : HRDD SPINE AND RIBS DENSITY CORRECTION
DPHZ_LS.DEC   : HGRD STANDARD RESOLUTION DENSITY POROSITY
RHOZ   .G/C3  : HRDD STANDARD RESOLUTION FORMATION DENSITY
DTCO   .US/F  : DELTA-T COMPRESSIONAL
DTSM   .US/F  : DELTA-T SHEAR
RXOZ   .OHMM  : INVADED FORMATION RESISTIVITY FILTERED AT 18 INCHES
RLA4   .OHMM  : APPARENT RESISTIVITY FROM COMPUTED FOCUSING MODE 4
RLA5   .OHMM  : APPARENT RESISTIVITY FROM COMPUTED FOCUSING MODE 5
~Params ----------------------------------------------------
~Other -----------------------------------------------------
~ASCII -----------------------------------------------------
# ...
 1580.00000   53.08170    0.06880   16.81820    4.42960    0.11790    0.44500    1.98470   72.67540  127.90400    1.11710  954.05830 1935.47790
 1580.50000   52.38140    0.07190   16.84600    4.46050    0.10480    0.46290    1.95060   72.87500  128.44670    0.75550 1072.17880 1827.06520
 1581.00000   51.85470    0.07650   16.59010    4.45320    0.10420    0.48130    1.93410   74.04830  128.98930    0.59070  974.88490 1494.48450
 1581.50000   51.07790    0.08100   16.42410    4.38370    0.11950    0.48860    1.92930   75.04370  129.53190    0.45750  841.97030 1188.33140
 1582.00000   50.63460    0.08530   16.30040    4.31420    0.12020    0.48790    1.92630   74.64310  130.66830    0.44820  792.21720 1141.83940
 1582.50000   50.19130    0.08900   16.17040    4.20070    0.11310    0.48170    1.92340   73.63090  130.50160    0.44840  750.78930 1256.32170
 1583.00000   49.72930    0.09350   16.09980    4.16210    0.09620    0.48910    1.92120   74.19030  129.54850    0.42160  784.83650 1629.94070
 1583.50000   49.29980    0.10100   16.06460    4.19890    0.09640    0.49130    1.92000   73.81350  127.63430    0.38750  784.69180 2250.26120
 1584.00000   48.69420    0.10580   16.12980    4.31650    0.10050    0.49140    1.91880   72.43030  126.09330    0.41610  793.05570 2870.58150
 1584.50000   48.21110    0.10330   16.31710    4.43320    0.10370    0.48990    1.95400   71.52750  125.23000    0.46120  872.46200 4085.49950
 1585.00000   47.82820    0.10040   16.55150    4.52850    0.09390    0.48150    1.95720   71.13890  124.01010    0.52370 1098.99410 4055.16820
 1585.50000   46.93950    0.11470   16.78600    4.55720    0.07800    0.46720    1.96010   70.90190  123.78060    0.73280 1365.59180 3460.89650
 1586.00000   46.32950    0.13100   17.02040    4.58780    0.06730    0.45970    1.96280   71.28460  123.92870    1.25810 1641.87790 4601.19480
 1586.50000   46.33040    0.12770   17.16720    4.64350    0.05260    0.46810    1.96790   71.92590  124.29880    1.26790 1943.53270 12593.39840
 1587.00000   47.29340    0.11760   17.24810    4.72070    0.05040    0.46760    1.99530   71.72360  124.71920    1.23750 1482.69230 22445.66020
 1587.50000   48.46540    0.11390   17.32900    4.79810    0.04810    0.43680    2.03280   70.55690  124.57330    4.17180 1214.90090 23026.14450
 1588.00000   49.77630    0.14250   17.40840    4.86830    0.03870    0.41790    2.03510   70.09250  124.03400   14.49550 1073.18880 27291.11720
 1588.50000   50.02840    0.16440   17.47260    4.91530    0.02760    0.41850    2.02990   69.75850  123.71420   66.83770 1004.89900 96544.89060
 1589.00000   48.33650    0.17190   17.51690    4.94180    0.02170    0.42570    2.02340   69.05340  123.78480   72.48770  932.06750 46538.03520
 1589.50000   46.26960    0.16430   17.55810    4.90160    0.01810    0.42830    2.02100   68.58780  123.19330   88.65440  896.66910 11650.90140
 1590.00000   44.78720    0.15340   17.59820    4.86130    0.01460    0.43080    2.01740   68.91310  122.51640   56.40310  951.57260 71351.50000
 1590.50000   44.46840    0.14370   17.63820    4.82110    0.01100    0.43150    2.01480   69.40590  122.39590   45.33020 1080.67940 38460.57420
 1591.00000   44.34770    0.13860   17.67830    4.81220    0.01290    0.43140    2.01660   69.79130  123.25580   35.32490 1215.19240 15953.41600
 1591.50000   44.16600    0.14710   17.71830    4.83330    0.02250    0.42820    2.01830   70.04200  124.45160   20.77940 1356.75620 12224.50200
 1592.00000   44.57100    0.16490   17.75840    4.87730    0.02760    0.42820    2.01820   70.39690  126.08420    1.61850 1927.74440 10197.97460
 1592.50000   46.02690    0.18800   17.79410    4.91950    0.03040    0.42920    2.01720   70.99190  126.40000    2.54300 2364.12450 8563.06250
 1593.00000   47.82180    0.21050   17.81910    4.92580    0.02590    0.43160    2.01280   71.30540  125.45990    5.09530 3687.54570 7997.78270
 1593.50000   48.30340    0.21120   17.81510    4.83350    0.01890    0.43400    2.00830   71.18680  125.11400   12.34220 3844.61790 18316.56640
 1594.00000   48.35780    0.19550   17.77940    4.67150    0.02160    0.43520    2.00370   70.99100  125.13180   19.21890 3973.59890 45839.92580
 1594.50000   48.99970    0.17290   17.69230    4.55510    0.02970    0.44590    1.98470   71.05450  124.21490   11.74770 19616.41800 32153.82620
 1595.00000   50.18010    0.15960   17.51890    4.52720    0.05460    0.46670    1.95110   70.83550  122.49560    1.57970 3306.86570 5534.71970
 1595.50000   50.87870    0.15230   17.28670    4.50840    0.06800    0.48800    1.92530   70.15450  120.18220    0.37260 1762.46190 4087.33670
 1596.00000   49.91160    0.14680   17.02730    4.50150    0.08670    0.49250    1.92420   69.44440  118.06650    0.33440 1467.67380 6337.13570
 1596.50000   47.92450    0.13100   16.76790    4.55680    0.10030    0.48530    1.93620   68.79870  118.16040    0.43580 1280.43700 29591.73440
 1597.00000   45.89160    0.11130   16.68070    4.61450    0.11650    0.46290    1.99780   67.74060  118.93910    0.50820 1340.83360 102026.56250
 1597.50000   45.26400    0.09250   16.74040    4.68110    0.11620    0.44270    2.02440   67.22700  120.02570    0.78600 1369.16650 102048.51560
 1598.00000   45.72520    0.08950   16.87230    4.72920    0.10260    0.42670    2.02850   67.00030  119.98410    1.80370 1662.36900 102070.14840
 1598.50000   47.44130    0.09060   17.00410    4.77900    0.08330    0.42320    2.02590   67.34590  119.72520    3.39440 3954.33150 102091.43750
 1599.00000   48.16050    0.10940   17.08350    4.78860    0.06690    0.43020    2.01740   68.43210  119.26200    2.86590 33093.01170 102112.74220
 1599.50000   47.90090    0.13370   17.03660    4.73150    0.06790    0.43210    2.00120   69.68860  120.35340    3.14360 98279.53910 102134.15620
 1600.00000   47.37130    0.15680   16.98460    4.59820    0.07530    0.44340    1.98500   70.41620  123.82760    1.43180 98066.54690 102155.57810
 1600.50000   48.30050    0.17760   16.91080    4.46490    0.08340    0.46270    1.95820   70.23330  125.65290    0.49940 97854.12500 102176.89060
 1601.00000   58.59880    0.19240   16.69800    4.29150    0.08860    0.47940    1.92820   69.75280  122.28920    0.31580 97642.15620 47769.48830
 1601.50000   69.10360    0.19780   15.30840    4.11700    0.09830    0.48690    1.90080   69.74370  120.81580    0.27230 92995.20310 2708.01930
 1602.00000   72.20670    0.20480   15.15040    4.03080    0.11190    0.50340    1.87330   70.33270  124.34980    0.23240 1569.68050  962.85480
 1602.50000   67.83410    0.22720   15.20840    3.99750    0.12550    0.52980    1.84580   71.68730  133.52470    0.20290  766.99300  362.95720
 1603.00000   63.19060    0.25390   15.41790    3.98520    0.13200    0.54550    1.84190   73.01270  142.51920    0.20200  400.37310  116.62500
 1603.50000   58.54710    0.26890   15.61820    4.03250    0.13590    0.52610    1.86400   73.28960  144.49940    0.22620  250.20080  106.52180
 1604.00000   54.89360    0.26590   15.66670    4.09910    0.13860    0.51620    1.88680   73.75550  142.26420    0.25290  247.91330  161.90650
 1604.50000   51.28320    0.24800   15.80700    4.16970    0.14080    0.50870    1.90960   74.71740  137.68580    0.23720  336.72260  232.28440
 1605.00000   47.95640    0.22800   15.95180    4.24030    0.13970    0.49270    1.92230   74.09000  133.59830    0.34610  517.20630  309.42310
 1605.50000   46.90840    0.21180   16.09660    4.30780    0.12650    0.48720    1.92180   73.09210  132.23510    0.40070  783.00320  339.82870
 1606.00000   47.85560    0.20450   16.25810    4.27100    0.10800    0.49020    1.92110   73.14910  131.84100    0.41080 1734.00230  270.96420
 1606.50000   48.95630    0.19260   15.73650    4.28770    0.09730    0.49710    1.92420   73.09830  131.84310    0.38010 4194.04640  454.15550
 1607.00000   49.53170    0.18060   15.41490    4.35000    0.11170    0.46980    1.94540   72.10470  133.71780    0.41930  414.28440  191.16550
 1607.50000   47.62750    0.16820   15.46460    4.41600    0.12180    0.46050    1.97060   70.93610  134.68840    0.53410  350.25450  199.46850
