~Version ---------------------------------------------------
VERS.   2.0 : CWLS log ASCII Standard -VERSION 2.0
WRAP.    NO : One line per depth step
DLM . SPACE : Column Data Section Delimiter
~Well ------------------------------------------------------
STRT .F                 180.0 : START DEPTH
STOP .F                4426.0 : STOP DEPTH
STEP .F                   0.5 : STEP
NULL .               -9999.25 : NULL VALUE
COMP .                        : COMPANY
WELL .                        : WELL
FLD  .                        : FIELD
LOC  .                        : LOCATION
PROV .                        : PROVINCE
CNTY .                        : COUNTY
STAT .                        : STATE
CTRY .                        : COUNTRY
SRVC .                        : SERVICE COMPANY
DATE .                        : DATE
UWI  .                        : UNIQUE WELL ID
API  .                        : API NUMBER
SLAT .WGS84 3.042603956394501 : SURFACE LATITUDE
SLON .WGS84 8.405141355995013 : SURFACE LONGITUDE
DATUM.F               3973.98 : DEPTH DATUM ELEV
~Curve Information -----------------------------------------
DEPT   .F     : 1 MEASURED DEPTH
HSGRD  .GAPI  : HNGS STANDARD GAMMA RAY FROM DENSITY LOG
TNPH_LS.DEC   : THERMAL NEUTRON POROSITY [LIMESTONE]
HCALD  .IN    : HRCC CALIPER CALIBRATED FROM DENSITY LOG
PEFZ   .B/E   : HRDD STANDARD RESOLUTION FORMATION PHOTOELECTRIC FACTOR
HDRA   .G/C3  : HRDD SPINE AND RIBS DENSITY CORRECTION
DPHZ_LS.DEC   : HGRD STANDARD RESOLUTION DENSITY POROSITY
RHOZ   .G/C3  : HRDD STANDARD RESOLUTION FORMATION DENSITY
DTCO   .US/F  : DELTA-T COMPRESSIONAL
DTSM   .US/F  : DELTA-T SHEAR
RXOZ   .OHMM  : INVADED FORMATION RESISTIVITY FILTERED AT 18 INCHES
RLA4   .OHMM  : APPARENT RESISTIVITY FROM COMPUTED FOCUSING MODE 4
RLA5   .OHMM  : APPARENT RESISTIVITY FROM COMPUTED FOCUSING MODE 5
~Params ----------------------------------------------------
~Other -----------------------------------------------------
~ASCII -----------------------------------------------------
# ...
 2756.00000   32.46420    0.06350    9.28970    4.61010    0.00550   -0.06520    2.80580   54.69180  101.09500   37.46310   64.69300  115.63150
 2756.50000   28.26920    0.04790    9.32500    4.91950    0.00040   -0.08140    2.81560   55.36110  102.54460   40.36090   46.29650   73.16340
 2757.00000   23.54350    0.03220    9.36030    5.22890    0.00290   -0.12120    2.82660   55.34070  105.52730   51.24360   51.47020   72.12300
 2757.50000   18.98190    0.02180    9.39550    5.43860    0.01590   -0.14500    2.88080   55.27320  107.73850   96.12260   57.67030  308.11970
 2758.00000   16.65720    0.02140    9.43100    5.41940    0.02240   -0.15980    2.93780   55.95650  108.82670   73.79760   52.00330  231.50980
 2758.50000   15.40800    0.02500    9.46980    5.39900    0.01590   -0.14720    2.96710   57.07890  108.34170   66.75350   91.91430  223.10670
 2759.00000   15.39240    0.02870    9.50870    5.31220    0.00800   -0.12720    2.96650   57.97720  110.14570   61.96150  108.19060  257.26230
 2759.50000   15.96360    0.03380    9.53160    5.22930    0.00440   -0.11610    2.94320   58.34790  111.96450   37.70450   67.78730  103.13090
 2760.00000   17.12360    0.03730    9.55880    5.23700    0.00530   -0.11820    2.92890   58.66740  112.18550   22.09130   54.87180  111.42700
 2760.50000   17.99770    0.03560    9.59120    5.25570    0.00650   -0.13190    2.91460   58.95030  111.73120   28.14660  100.29340  159.00620
 2761.00000   18.44350    0.03260    9.63420    5.27440    0.00760   -0.13620    2.90030   58.58240  110.37600   61.23350  118.64700  259.57290
 2761.50000   18.88190    0.02920    9.67740    5.27980    0.00700   -0.11200    2.88830   57.24480  108.70390   51.92330   83.70750  197.54360
 2762.00000   19.58750    0.02670    9.70170    5.28440    0.00460   -0.10980    2.88760   55.80560  104.63060   41.41110   75.90750  123.54990
 2762.50000   20.15260    0.02090    9.72600    5.33960    0.00040   -0.12040    2.89420   54.77670  103.58140   54.09580  128.67520  217.80990
 2763.00000   17.29610    0.01030    9.76380    5.48660   -0.00390   -0.14090    2.90670   53.53590  102.89810  136.48840  306.56360  667.43210
 2763.50000   13.90190   -0.00040    9.80880    5.46950   -0.00810   -0.15990    2.91910   52.25350  101.25660  464.02900 1144.85350 3018.25950
 2764.00000   12.35920   -0.00580    9.83890    5.37040   -0.01140   -0.16770    2.93920   51.31820   97.74570 1350.74020 3807.56840 7509.45560
 2764.50000   12.09170   -0.00460    9.86880    5.20770   -0.00760   -0.16960    2.96510   51.32360   96.48470 1968.06310 4722.73050 10013.38180
 2765.00000   14.22490    0.00420    9.89870    4.92060    0.00090   -0.16500    2.98320   51.94100   97.06350 1946.73100 2809.83010 3354.21140
 2765.50000   20.15170    0.01430    9.92860    4.62820    0.00200   -0.13540    2.98420   52.59330   97.85820  751.34720  896.93000 1965.31970
 2766.00000   28.65260    0.04690    9.95850    4.33790    0.00130   -0.08620    2.93200   53.73630   99.38180  128.31620  235.97820  576.42800
 2766.50000   37.41630    0.08350    9.98840    4.08470   -0.00020   -0.04640    2.87740   56.06300  102.62070   21.83650   51.70590  141.90530
 2767.00000   42.00680    0.11510   10.01830    3.86570   -0.00180   -0.02080    2.77720   58.49350  106.63500   18.46060   22.76250   28.72780
 2767.50000   42.69120    0.12580   10.04820    3.83840    0.00200   -0.01830    2.74430   60.37320  110.64940   26.97470   31.67710   57.79110
 2768.00000   41.73540    0.11760   10.08420    4.02070    0.00990   -0.01630    2.73660   61.96140  113.79000   14.94860   60.67750   75.98720
 2768.50000   41.62700    0.11770   10.12750    4.32530    0.01420   -0.01270    2.73130   62.04590  115.69060    9.84350   26.74940   44.92660
 2769.00000   41.20000    0.12250   10.19930    4.53020    0.00980   -0.01730    2.72990   61.41250  115.00210    8.62640   21.17230   28.23670
 2769.50000   37.80930    0.10680   10.28240    4.65850    0.00070   -0.04060    2.73270   60.05280  113.16290   17.76830   35.47220   56.35500
 2770.00000   33.32460    0.08040   10.35340    4.77340    0.00150   -0.07860    2.77380   58.07960  110.34150   30.49520   68.49180   89.91250
 2770.50000   29.10090    0.05170   10.38670    4.96660    0.01110   -0.11650    2.84140   56.36610  108.17500   73.45080   93.83090  121.38930
 2771.00000   24.56240    0.03960   10.40800    5.14150    0.01420   -0.13890    2.90890   55.23460  105.60060  101.27170  128.54450  178.52380
 2771.50000   20.12110    0.02880   10.42810    5.24630    0.01370   -0.14400    2.93500   54.67050  103.72850  123.31120  134.56510  156.21170
 2772.00000   16.56930    0.02250   10.45450    5.33110    0.01250   -0.14510    2.94090   54.03050  101.90860  175.85170  121.59310  137.00360
 2772.50000   15.52500    0.01970   10.48250    5.36290    0.01140   -0.14990    2.94440   52.66280  100.48980  207.93200  109.87170  139.31810
 2773.00000   14.72390    0.01920   10.52160    5.36470    0.01000   -0.14560    2.94760   51.49750  100.15530  116.34010  102.44080  146.30170
 2773.50000   14.01930    0.01760   10.54590    5.34600    0.00820   -0.13940    2.94720   51.33210  100.71610   88.48190  106.04470  172.94240
 2774.00000   13.58960    0.01600   10.56270    5.28980    0.00640   -0.13890    2.94280   51.66150  104.08980   94.50010  130.46010  261.18330
 2774.50000   13.65670    0.01480   10.58270    5.22460    0.00470   -0.14270    2.93850   52.95100  107.11830  119.94540  178.58530  272.20000
 2775.00000   15.20250    0.01730   10.61140    5.12030    0.00290   -0.14260    2.93420   56.77920  113.05830  170.42120  181.74600  206.19820
 2775.50000   21.10900    0.03390   10.64540    5.00610    0.00230   -0.11720    2.92940   62.27340  119.83710  228.89490  100.28370  170.28680
 2776.00000   28.69070    0.07280   10.67990    4.89190    0.00480   -0.06880    2.91940   67.43230  124.82090   14.14050   42.99670   67.26690
 2776.50000   36.27230    0.11640   10.74900    4.75380    0.02490   -0.01150    2.78600   68.25100  125.08870    2.77600   13.07160   25.76740
 2777.00000   41.26350    0.14710   10.84130    4.59330    0.02080    0.01650    2.69320   67.88440  122.46300    2.51080   13.86560   18.97670
 2777.50000   38.90200    0.13310   10.85320    4.62350    0.02890   -0.00690    2.68950   66.15900  117.56410    2.85760   20.78400   35.40850
 2778.00000   30.30680    0.09680   10.81760    5.08280    0.03900   -0.07330    2.74760   63.76790  112.40870    3.56770   40.68800   73.88820
 2778.50000   22.82330    0.06050   10.77500    5.37930    0.04050   -0.12610    2.83660   60.91540  109.87160    3.95660   93.70980  172.33490
 2779.00000   18.01500    0.03170   10.73570    5.50660    0.02460   -0.13720    2.90440   58.36550  108.58000    4.32250  207.06100  361.62940
 2779.50000   16.08050    0.02470   10.69650    5.51030    0.01480   -0.14000    2.93420   57.87840  107.43180   96.73090  125.62190  315.51320
 2780.00000   16.06150    0.02670   10.67810    5.43550    0.00930   -0.13500    2.93480   58.06810  106.40790   59.06320   85.28440  122.75240
 2780.50000   16.22540    0.03090   10.66630    5.37230    0.00820   -0.12950    2.93230   58.08450  105.36120   53.55030   70.50200  105.03310
 2781.00000   16.46300    0.03110   10.65680    5.30850    0.01040   -0.13040    2.92980   56.91210  104.00290   66.67590   81.25200  115.82170
 2781.50000   16.80170    0.02950   10.63130    5.31120    0.01450   -0.13810    2.92740   55.75170  102.14680   39.54590   85.72160  120.21840
 2782.00000   17.12690    0.02680   10.59870    5.27420    0.01390   -0.13910    2.92490   53.97500   99.61030   45.23700   67.62130   95.62920
 2782.50000   16.41740    0.01920   10.56030    5.23320    0.01030   -0.13390    2.92250   52.29300   97.80890   45.96580   92.39170  215.43780
 2783.00000   14.75600    0.00890   10.52650    5.21430    0.00320   -0.13010    2.92250   51.41440   97.09740   88.96410  279.34950  790.35930
 2783.50000   13.45970    0.00070   10.51370    5.22090   -0.00040   -0.13410    2.92830   51.19030   96.38580  547.81340  904.69500 1722.62430
