~Version ---------------------------------------------------
VERS.   2.0 : CWLS log ASCII Standard -VERSION 2.0
WRAP.    NO : One line per depth step
DLM . SPACE : Column Data Section Delimiter
~Well ------------------------------------------------------
STRT .F                 180.0 : START DEPTH
STOP .F                4426.0 : STOP DEPTH
STEP .F                   0.5 : STEP
NULL .               -9999.25 : NULL VALUE
COMP .                        : COMPANY
WELL .                        : WELL
FLD  .                        : FIELD
LOC  .                        : LOCATION
PROV .                        : PROVINCE
CNTY .                        : COUNTY
STAT .                        : STATE
CTRY .                        : COUNTRY
SRVC .                        : SERVICE COMPANY
DATE .                        : DATE
UWI  .                        : UNIQUE WELL ID
API  .                        : API NUMBER
SLAT .WGS84 3.042603956394501 : SURFACE LATITUDE
SLON .WGS84 8.405141355995013 : SURFACE LONGITUDE
DATUM.F               3973.98 : DEPTH DATUM ELEV
~Curve Information -----------------------------------------
DEPT   .F     : 1 MEASURED DEPTH
HSGRD  .GAPI  : HNGS STANDARD GAMMA RAY FROM DENSITY LOG
TNPH_LS.DEC   : THERMAL NEUTRON POROSITY [LIMESTONE]
HCALD  .IN    : HRCC CALIPER CALIBRATED FROM DENSITY LOG
PEFZ   .B/E   : HRDD STANDARD RESOLUTION FORMATION PHOTOELECTRIC FACTOR
HDRA   .G/C3  : HRDD SPINE AND RIBS DENSITY CORRECTION
DPHZ_LS.DEC   : HGRD STANDARD RESOLUTION DENSITY POROSITY
RHOZ   .G/C3  : HRDD STANDARD RESOLUTION FORMATION DENSITY
DTCO   .US/F  : DELTA-T COMPRESSIONAL
DTSM   .US/F  : DELTA-T SHEAR
RXOZ   .OHMM  : INVADED FORMATION RESISTIVITY FILTERED AT 18 INCHES
RLA4   .OHMM  : APPARENT RESISTIVITY FROM COMPUTED FOCUSING MODE 4
RLA5   .OHMM  : APPARENT RESISTIVITY FROM COMPUTED FOCUSING MODE 5
~Params ----------------------------------------------------
~Other -----------------------------------------------------
~ASCII -----------------------------------------------------
# ...
 3456.00000   33.27530    0.05720   11.36270    4.11140    0.00590   -0.05800    2.79210   60.24840  105.97570   33.95890   44.14350   63.10450
 3456.50000   34.49620    0.06270   11.37710    4.07260    0.00520   -0.04230    2.77840   59.01090  105.02760   23.76490   30.79700   36.54260
 3457.00000   27.37920    0.05980   11.40750    4.24020    0.00410   -0.05750    2.78600   57.61450  104.36060   24.22620   31.06300   42.73300
 3457.50000   21.74770    0.04050   11.40680    4.47220    0.00310   -0.11140    2.89740   57.77380  103.69360   31.63450   45.18820  129.10490
 3458.00000   16.40030    0.02130   11.41280    4.72270    0.00210   -0.14230    2.94870   57.73970  103.02650   64.95890  122.52790  255.22850
 3458.50000   15.50180    0.01910   11.42510    4.86720    0.00150   -0.14850    2.94940   55.81900  102.17770  105.88730  139.40930  346.10620
 3459.00000   17.46830    0.02290   11.42500    4.89920    0.00090   -0.12730    2.90640   54.80550  102.15250   48.86070   76.94000  150.97860
 3459.50000   19.51890    0.03020   11.41460    4.92400    0.00000   -0.10680    2.88250   55.46920  102.26620   43.74850   71.82680   90.98300
 3460.00000   20.25760    0.03570   11.40150    4.92360   -0.00130   -0.10300    2.87910   56.13890  101.86510   48.58370  105.00150  157.85840
 3460.50000   20.98440    0.03730   11.38390    4.88810   -0.00260   -0.10730    2.87520   55.87020  101.35690   72.48150   93.07590  123.19080
 3461.00000   24.59930    0.03740   11.35010    4.69940   -0.00370   -0.10130    2.84730   55.66450  101.83460   66.02140  104.95000  138.01130
 3461.50000   28.38670    0.03920   11.31520    4.38990   -0.00460   -0.07400    2.82470   56.91200  103.22520   62.82910  106.38810  168.52900
 3462.00000   32.17400    0.04170   11.28330    4.06870   -0.00560   -0.04220    2.78240   58.33310  104.57770   52.60700   87.71340  113.68090
 3462.50000   35.21980    0.04420   11.26720    3.99260   -0.00650   -0.02460    2.74750   59.80490  105.48370   50.20200  101.99300  106.32130
 3463.00000   35.71670    0.04730   11.23810    3.98720   -0.00610   -0.02350    2.74730   61.16920  106.38970   41.84710   58.01740   95.67850
 3463.50000   34.62220    0.05100   11.20010    4.08230   -0.00320   -0.03120    2.77300   61.40690  106.39860   29.67250   42.04640   51.22250
 3464.00000   33.51340    0.05080   11.15790    4.14120    0.00060   -0.05120    2.80030   60.93340  106.42080   25.11710   46.97780   55.17790
 3464.50000   33.13720    0.04940   11.08760    4.14820    0.00120   -0.06920    2.82300   60.37610  106.34760   23.50090   57.19850   68.66070
 3465.00000   33.84440    0.04590   11.03050    4.14130    0.00120   -0.06890    2.81930   60.00520  106.13970   31.67870   69.64280   84.39480
 3465.50000   34.47100    0.04520   10.97350    4.22120   -0.00270   -0.05700    2.80050   60.41460  106.69940   42.33790   82.70970  100.59920
 3466.00000   34.51940    0.04740   10.91650    4.33610   -0.00680   -0.04720    2.79160   61.61420  108.01990   66.56250   72.93360   85.25370
 3466.50000   33.93590    0.05070   10.85940    4.48350   -0.00830   -0.04840    2.78750   62.59070  109.61690   58.69620   59.15190   68.64010
 3467.00000   33.45160    0.05410   10.79840    4.53640   -0.00680   -0.04840    2.78750   62.23060  109.91470   51.59430   47.97440   53.01030
 3467.50000   30.76990    0.05750   10.71440    4.51020   -0.00040   -0.04770    2.79020   61.20750  110.03780   47.18080   40.82640   39.46860
 3468.00000   27.32650    0.05800   10.62580    4.53430    0.00660   -0.06900    2.82820   60.05610  110.03780   49.85740   39.88200   32.62960
 3468.50000   23.88300    0.05040   10.56180    4.63630    0.01370   -0.09550    2.89650   58.96890  109.79250  124.37340   62.89390   38.96300
 3469.00000   20.93710    0.04200   10.48200    4.70290    0.01650   -0.11860    2.90520   57.10870  108.68080  154.22560  120.86400   63.77830
 3469.50000   20.35370    0.04120   10.41180    4.68700    0.01220   -0.11280    2.89360   55.03540  104.67890   47.63510   82.40590  104.39820
 3470.00000   19.86680    0.04380   10.33950    4.63980    0.00580   -0.09190    2.87280   53.37760  100.91420   30.11640   56.04140  146.52840
 3470.50000   16.28420    0.03510   10.26350    4.59440   -0.00060   -0.08690    2.85700   52.31730   96.93500   36.88200   84.27980  260.47540
 3471.00000   11.63730    0.02040   10.17380    4.66940   -0.00390   -0.10270    2.88210   51.44800   95.05650   84.72610  203.22850  474.88820
 3471.50000    9.14670    0.00420   10.06660    4.75280   -0.00360   -0.11940    2.91750   50.32700   94.50410  287.15710  407.90630  750.08240
 3472.00000    8.73240    0.00090    9.98740    4.83080    0.00140   -0.13200    2.91910   50.62480   94.39640  277.50580  381.57330  884.57310
 3472.50000    9.55870    0.00200    9.96170    4.88440    0.00260   -0.12930    2.92000   51.06400   94.18410  184.17570  272.34660  539.13740
 3473.00000   10.19670    0.00340    9.88760    4.92710   -0.00190   -0.12830    2.92030   51.02730   93.58110  163.89560  194.38640  254.50290
 3473.50000   10.81410    0.00390    9.82520    4.93300   -0.00700   -0.13480    2.94470   50.40580   93.00920  165.26720  199.60180  314.48360
 3474.00000   12.25090    0.00710    9.75380    4.81050   -0.00550   -0.15220    2.95860   49.02430   91.79290  185.35020  308.76470  415.99530
 3474.50000   14.70230    0.01460    9.72600    4.32420    0.00160   -0.14420    2.93170   47.08290   89.77350  147.74030  205.22970  321.71980
 3475.00000   16.10040    0.02490    9.64840    3.87700    0.00590   -0.11830    2.85980   45.64720   89.78150  140.80940  202.86650  300.82880
 3475.50000   15.94450    0.03370    9.56750    3.59060    0.00520   -0.08980    2.84400   44.64260   89.91750  179.22690  313.66800  476.69390
 3476.00000   14.88970    0.03420    9.50770    3.57970    0.00380   -0.08310    2.86210   45.16240   89.92440  276.30660  489.49830  897.13240
 3476.50000   14.97450    0.02710    9.46920    3.67900    0.00350   -0.10380    2.88150   47.04990   90.42420  461.15530  940.96650 2276.04860
 3477.00000   17.36930    0.02280    9.43660    3.80840    0.00490   -0.10880    2.88170   49.15010   91.61790  545.50620 1413.92810 2103.88920
 3477.50000   23.03350    0.03480    9.40390    3.95920    0.00420   -0.09160    2.84180   49.95220   91.88490   11.55150  233.56370 1764.61690
 3478.00000   30.05850    0.05380    9.37130    3.91050   -0.00730   -0.06310    2.79130   49.87580   90.77050    8.41830   60.50680  167.98550
 3478.50000   36.76550    0.06860    9.33860    3.77600   -0.00890   -0.05110    2.79360   49.51360   90.32110    8.23530  143.55390  384.30140
 3479.00000   41.07980    0.07110    9.30480    3.62120   -0.00570   -0.05360    2.80150   48.75620   90.23330   92.02590  449.01740 1134.24110
 3479.50000   41.65650    0.06550    9.26030    3.50540   -0.00200   -0.06420    2.80940   48.76890   90.23660  268.56760 1084.86710 1468.70630
 3480.00000   39.82130    0.06250    9.21690    3.46190    0.00070   -0.06380    2.81280   51.87510   93.72370  484.29320  921.77890 1215.56600
 3480.50000   37.23620    0.06800    9.18360    3.43650    0.00340   -0.05390    2.81010   57.37590  103.22640  677.09020  721.69450  898.75370
 3481.00000   37.34740    0.07850    9.16620    3.40480    0.01330   -0.04350    2.77880   60.77980  104.66960  109.11900  268.96300  422.50620
 3481.50000   39.10270    0.09870    9.14880    3.36940    0.02730   -0.03010    2.74500   60.96740  104.60760    6.09330   36.54870  134.48530
 3482.00000   39.92030    0.12270    9.13140    3.33130    0.02880   -0.01940    2.73880   59.54860  104.57990    5.12630   13.64220   65.29470
 3482.50000   35.45210    0.12870    9.11400    3.25990    0.01610   -0.02060    2.74310   56.54580  104.68950    5.62190   46.07430  107.43500
 3483.00000   28.13620    0.11750    9.09660    3.20040    0.00580   -0.03740    2.78960   53.69100  104.52610   31.23790   84.15540  177.54120
 3483.50000   22.95460    0.09800    9.07950    3.21860    0.00560   -0.06310    2.82250   51.07950   97.84460   54.84750  106.91820  174.38210
