~Version ---------------------------------------------------
VERS.   2.0 : CWLS log ASCII Standard -VERSION 2.0
WRAP.    NO : One line per depth step
DLM . SPACE : Column Data Section Delimiter
~Well ------------------------------------------------------
STRT .F                 180.0 : START DEPTH
STOP .F                4426.0 : STOP DEPTH
STEP .F                   0.5 : STEP
NULL .               -9999.25 : NULL VALUE
COMP .                        : COMPANY
WELL .                        : WELL
FLD  .                        : FIELD
LOC  .                        : LOCATION
PROV .                        : PROVINCE
CNTY .                        : COUNTY
STAT .                        : STATE
CTRY .                        : COUNTRY
SRVC .                        : SERVICE COMPANY
DATE .                        : DATE
UWI  .                        : UNIQUE WELL ID
API  .                        : API NUMBER
SLAT .WGS84 3.042603956394501 : SURFACE LATITUDE
SLON .WGS84 8.405141355995013 : SURFACE LONGITUDE
DATUM.F               3973.98 : DEPTH DATUM ELEV
~Curve Information -----------------------------------------
DEPT   .F     : 1 MEASURED DEPTH
HSGRD  .GAPI  : HNGS STANDARD GAMMA RAY FROM DENSITY LOG
TNPH_LS.DEC   : THERMAL NEUTRON POROSITY [LIMESTONE]
HCALD  .IN    : HRCC CALIPER CALIBRATED FROM DENSITY LOG
PEFZ   .B/E   : HRDD STANDARD RESOLUTION FORMATION PHOTOELECTRIC FACTOR
HDRA   .G/C3  : HRDD SPINE AND RIBS DENSITY CORRECTION
DPHZ_LS.DEC   : HGRD STANDARD RESOLUTION DENSITY POROSITY
RHOZ   .G/C3  : HRDD STANDARD RESOLUTION FORMATION DENSITY
DTCO   .US/F  : DELTA-T COMPRESSIONAL
DTSM   .US/F  : DELTA-T SHEAR
RXOZ   .OHMM  : INVADED FORMATION RESISTIVITY FILTERED AT 18 INCHES
RLA4   .OHMM  : APPARENT RESISTIVITY FROM COMPUTED FOCUSING MODE 4
RLA5   .OHMM  : APPARENT RESISTIVITY FROM COMPUTED FOCUSING MODE 5
~Params ----------------------------------------------------
~Other -----------------------------------------------------
~ASCII -----------------------------------------------------
# ...
 4408.00000   17.24370    0.16700    7.82210    3.15610    0.02590    0.01870    2.67940   47.74140   92.84090   -9999.25   30.99210   33.70070
 4408.50000   17.23110    0.16320    7.82210    3.10120    0.02340    0.02130    2.68040   47.74130   93.37920   -9999.25   30.95520   33.69000
 4409.00000   17.21860    0.16070    7.82080    3.04630    0.01730    0.02800    2.68180   47.74120   93.80750   -9999.25   30.91840   33.67930
 4409.50000   17.20600    0.15810    7.81650    3.05620    0.01730    0.02210    2.68720   47.74110   94.13160   -9999.25   30.88150   33.66860
 4410.00000   17.19350    0.15530    7.81230    3.10730    0.01880    0.00270    2.70870   47.74080   94.19510   -9999.25   30.84480   33.65790
 4410.50000   17.18090    0.15270    7.80800    3.15800    0.01980   -0.01420    2.73030   47.74040   93.65190   -9999.25   30.91760   33.64720
 4411.00000   17.16840    0.15180    7.80450    3.14870    0.01150   -0.01150    2.73030   47.74040   92.94760   -9999.25   31.08200   33.63650
 4411.50000   17.15580    0.15200    7.81660    3.12950    0.00590    0.00020    2.70770   47.74040   92.85240   -9999.25   -9999.25   -9999.25
 4412.00000   17.14330    0.15220    7.82880    3.10310    0.00240    0.00590    2.70490   47.74040   93.11970   -9999.25   -9999.25   -9999.25
 4412.50000   17.14120    0.15210    7.84190    3.07660    0.00080    0.00700    2.70470   47.74040   93.15190   -9999.25   -9999.25   -9999.25
 4413.00000   17.14210    0.15160    7.86300    3.08290    0.00210    0.00200    2.70480   47.74040   92.61690   -9999.25   -9999.25   -9999.25
 4413.50000   17.14290    0.15160    7.89080    3.11050    0.00360    0.00150    2.70500   47.74040   92.08190   -9999.25   -9999.25   -9999.25
 4414.00000   17.14380    0.15170    7.89960    3.12290    0.00420    0.00240    2.70520   47.74040   92.70380   -9999.25   -9999.25   -9999.25
 4414.50000   17.14460    0.15070    7.88670    3.14670    0.00580    0.00380    2.70520   47.74040   93.16690   -9999.25   -9999.25   -9999.25
 4415.00000   17.14550    0.15120    7.87300    3.14550    0.00770    0.00710    2.70380   47.74040   93.26240   -9999.25   -9999.25   -9999.25
 4415.50000   17.14630    0.15160    7.85940    3.14430    0.00860    0.00800    2.70180   47.74040   93.04670   -9999.25   -9999.25   -9999.25
 4416.00000   17.14720    0.15240    7.84580    3.12670    0.00670    0.00850    2.69890   47.74040   92.71230   -9999.25   -9999.25   -9999.25
 4416.50000   17.14800    0.15320    7.82910    3.11710    0.00470    0.00870    2.69590   47.74040   92.89480   -9999.25   -9999.25   -9999.25
 4417.00000   17.07850    0.15330    7.80570    3.11880    0.00490    0.01130    2.68920   47.74040   93.11650   -9999.25   -9999.25   -9999.25
 4417.50000   17.00170    0.15510    7.75320    3.12290    0.01370    0.01550    2.68510   47.74040   92.68100   -9999.25   -9999.25   -9999.25
 4418.00000   16.92490    0.16600    7.40610    3.15430    0.03240    0.00940    2.68860   47.74040   91.72910   -9999.25   -9999.25   -9999.25
 4418.50000   16.84810    0.18040    6.86380    3.19080    0.05370   -0.00130    2.71050   47.74100   91.62080   -9999.25   -9999.25   -9999.25
 4419.00000   16.77120    0.19230    6.61890    3.23000    0.07080   -0.01160    2.73220   47.74180   92.37910   -9999.25   -9999.25   -9999.25
 4419.50000   16.69440    0.19460    6.73970    3.27050    0.08080   -0.01480    2.73490   47.74270   93.13740   -9999.25   -9999.25   -9999.25
 4420.00000   16.61760    0.19420    7.03560    3.31090    0.08660   -0.01780    2.74020   47.74310   93.89560   -9999.25   -9999.25   -9999.25
 4420.50000   16.54080    0.19390    7.02680    3.32280    0.09420   -0.01940    2.74600   47.74310   94.63130   -9999.25   -9999.25   -9999.25
 4421.00000   16.46390    0.19380    6.97050    3.32250    0.10470   -0.01710    2.74680   47.74310   95.32760   -9999.25   -9999.25   -9999.25
 4421.50000   16.38710    0.19390    6.90260    3.32210    0.11690   -0.01130    2.72630   47.74310   97.68360   -9999.25   -9999.25   -9999.25
 4422.00000   16.32930    0.19410    6.79620    3.32170    0.13040   -0.00790    2.72230   47.74310  101.41740   -9999.25   -9999.25   -9999.25
 4422.50000   16.17510    0.19450    6.52280    3.32140    0.14390   -0.00560    2.71860   47.74310   99.23740   -9999.25   -9999.25   -9999.25
 4423.00000   15.89070    0.19480    6.20530    3.32100    0.15820   -0.00460    2.71700   47.74310   97.18190   -9999.25   -9999.25   -9999.25
 4423.50000   15.64220    0.19510    5.86250    3.32060    0.17100   -0.00530    2.71770   47.74310   96.61840   -9999.25   -9999.25   -9999.25
 4424.00000   15.50300    0.19530    5.70340    3.32030    0.17570   -0.00770    2.72270   47.74290   96.46670   -9999.25   -9999.25   -9999.25
 4424.50000   15.42700    0.19530    5.68880    3.31990    0.18120   -0.01050    2.72990   -9999.25   -9999.25   -9999.25   -9999.25   -9999.25
 4425.00000   15.37200    0.19530    5.67410    3.31950    0.17740   -0.01370    2.73400   -9999.25   -9999.25   -9999.25   -9999.25   -9999.25
 4425.50000   15.35300    0.19570    5.66790    3.31920    0.17420   -0.01290    2.73180   -9999.25   -9999.25   -9999.25   -9999.25   -9999.25
 4426.00000   15.34740    0.19580    5.66270    3.31880    0.17170   -0.01040    2.72850   -9999.25   -9999.25   -9999.25   -9999.25   -9999.25
