~Version ---------------------------------------------------
VERS.   2.0 : CWLS log ASCII Standard -VERSION 2.0
WRAP.    NO : One line per depth step
DLM . SPACE : Column Data Section Delimiter
~Well ------------------------------------------------------
STRT .F                 180.0 : START DEPTH
STOP .F                4426.0 : STOP DEPTH
STEP .F                   0.5 : STEP
NULL .               -9999.25 : NULL VALUE
COMP .                        : COMPANY
WELL .                        : WELL
FLD  .                        : FIELD
LOC  .                        : LOCATION
PROV .                        : PROVINCE
CNTY .                        : COUNTY
STAT .                        : STATE
CTRY .                        : COUNTRY
SRVC .                        : SERVICE COMPANY
DATE .                        : DATE
UWI  .                        : UNIQUE WELL ID
API  .                        : API NUMBER
SLAT .WGS84 3.042603956394501 : SURFACE LATITUDE
SLON .WGS84 8.405141355995013 : SURFACE LONGITUDE
DATUM.F               3973.98 : DEPTH DATUM ELEV
~Curve Information -----------------------------------------
DEPT   .F     : 1 MEASURED DEPTH
HSGRD  .GAPI  : HNGS STANDARD GAMMA RAY FROM DENSITY LOG
TNPH_LS.DEC   : THERMAL NEUTRON POROSITY [LIMESTONE]
HCALD  .IN    : HRCC CALIPER CALIBRATED FROM DENSITY LOG
PEFZ   .B/E   : HRDD STANDARD RESOLUTION FORMATION PHOTOELECTRIC FACTOR
HDRA   .G/C3  : HRDD SPINE AND RIBS DENSITY CORRECTION
DPHZ_LS.DEC   : HGRD STANDARD RESOLUTION DENSITY POROSITY
RHOZ   .G/C3  : HRDD STANDARD RESOLUTION FORMATION DENSITY
DTCO   .US/F  : DELTA-T COMPRESSIONAL
DTSM   .US/F  : DELTA-T SHEAR
RXOZ   .OHMM  : INVADED FORMATION RESISTIVITY FILTERED AT 18 INCHES
RLA4   .OHMM  : APPARENT RESISTIVITY FROM COMPUTED FOCUSING MODE 4
RLA5   .OHMM  : APPARENT RESISTIVITY FROM COMPUTED FOCUSING MODE 5
~Params ----------------------------------------------------
~Other -----------------------------------------------------
~ASCII -----------------------------------------------------
# ...
 3232.00000   10.74080   -0.00330    9.28620    5.26630    0.01890   -0.14050    2.95120   53.48820   97.31650   54.12540  124.30940  675.40030
 3232.50000   10.82140   -0.00240    9.30120    5.31630    0.02880   -0.15070    2.96250   54.09760   97.08200   51.19370   64.78210   81.88540
 3233.00000   10.51670   -0.00080    9.30510    5.30750    0.02260   -0.15830    2.96200   54.56830   96.94580   51.56400   98.39740  715.20210
 3233.50000   11.37910    0.00060    9.30510    5.29760    0.01030   -0.12950    2.91720   54.37560   97.50280  126.77830  239.11260 1073.66780
 3234.00000   14.69690    0.00190    9.30510    5.26040    0.00220   -0.10680    2.87670   53.60000   97.19920  110.79900  166.00860  290.80400
 3234.50000   17.29980    0.00320    9.28440    5.20650    0.00180   -0.10400    2.87410   52.82030   96.06640   91.76130  135.85710  235.62890
 3235.00000   15.98690    0.00420    9.28020    5.00880    0.00290   -0.12050    2.90370   52.26400   95.97800  122.25760  268.91910  479.82140
 3235.50000   12.79820    0.00500    9.26060    4.82100    0.00400   -0.13590    2.93030   51.76090   96.09850  299.16260  533.11680 1289.34240
 3236.00000   11.73690    0.00670    9.23850    4.65290    0.00500   -0.14050    2.93070   51.66280   95.23900  526.71730  836.29630 1045.10520
 3236.50000   13.02680    0.01060    9.22080    4.65380    0.00460   -0.13840    2.93100   51.60100   94.64290  383.25790  501.31740  763.51990
 3237.00000   14.98970    0.01220    9.20410    4.77160   -0.00210   -0.13620    2.93420   50.96450   94.73140   91.00880  172.60380  405.96230
 3237.50000   14.67540    0.01140    9.21510    4.89130   -0.01090   -0.14430    2.94200   49.97740   95.78910   78.45760  102.66640  150.97290
 3238.00000   13.68020    0.00990    9.22460    4.94760   -0.01770   -0.14730    2.94730   48.69640   96.89940  151.21450  265.15760  444.60370
 3238.50000   13.66720    0.00980    9.23370    4.59620   -0.01700   -0.14780    2.94910   47.79300   95.14180  466.38830  646.80000  761.45920
 3239.00000   14.75680    0.01140    9.24370    4.30210   -0.00550   -0.14040    2.94410   47.18260   90.97630  701.38860  823.96730  949.53590
 3239.50000   16.16440    0.01250    9.25440    4.17290   -0.00040   -0.12800    2.92310   46.67890   87.57260  471.61960  873.46080 1136.93740
 3240.00000   17.31140    0.01290    9.26970    4.05920   -0.00140   -0.11640    2.90210   46.34760   85.68120  102.43830  454.71290  853.83240
 3240.50000   18.03800    0.01150    9.28510    3.94540   -0.00130   -0.10760    2.88560   46.07680   85.10740   56.27590   92.73540  123.15540
 3241.00000   17.57650    0.00920    9.31600    3.85750    0.00380   -0.11340    2.90130   45.84090   88.57780   56.95100   81.78340  600.65290
 3241.50000   15.95890    0.00610    9.34770    3.81030    0.00940   -0.12540    2.92200   46.24810   93.74120  178.36870 1335.91820 2253.05620
 3242.00000   15.18290    0.00600    9.38500    3.81980    0.00840   -0.13130    2.92270   47.45110   99.44200  523.29830 1356.54550 2800.52320
 3242.50000   15.63640    0.00880    9.42200    3.84110    0.00510   -0.12070    2.92110   49.55710  104.42130  208.12810  686.87330 1810.56710
 3243.00000   20.49690    0.01350    9.45230    3.91450    0.00170   -0.09950    2.87850   52.72750  106.90210    9.24630  150.86130  567.70870
 3243.50000   25.59740    0.01820    9.49870    4.16200    0.00170   -0.09290    2.85550   55.96020  108.38660    8.48250   33.81420   86.29050
 3244.00000   29.67500    0.02290    9.55120    4.57030    0.00320   -0.09230    2.85550   56.31570  108.10990    8.14770   42.43920   61.25350
 3244.50000   29.78380    0.02560    9.59650    4.86200    0.00610   -0.10930    2.87030   55.68230  107.56870   32.24190   61.22160   75.63720
 3245.00000   23.50860    0.02030    9.63440    5.01560    0.00900   -0.13150    2.91280   54.25290  106.82190   67.66510   88.31660  148.64140
 3245.50000   16.30530    0.00970    9.66610    5.13520    0.00750   -0.15130    2.95520   52.98020  101.13410  123.84050  192.95150  443.15330
 3246.00000   12.43500   -0.00080    9.70110    5.17540    0.00520   -0.16020    2.97120   52.11910   97.13590  282.90280  547.08730 1137.15270
 3246.50000   11.01150   -0.00400    9.74770    5.15020    0.00290   -0.15820    2.97120   51.77520   96.03840  467.11890  720.07310 1366.51500
 3247.00000   12.15150   -0.00330    9.77690    5.08290    0.00120   -0.14710    2.95050   51.95370   95.45270  271.48470  399.36530  474.11480
 3247.50000   14.13090   -0.00000    9.80610    4.95400    0.00110   -0.13850    2.93280   52.52060   95.15560  216.63370  282.64250  457.31670
 3248.00000   14.89730    0.00270    9.83530    4.81420    0.00110   -0.13580    2.92980   53.04290   94.74420  226.15400  412.83750  633.17250
 3248.50000   15.50360    0.00600    9.86530    4.67440    0.00100   -0.13280    2.90750   53.50380   92.97910  262.91020  446.97140  534.45810
 3249.00000   20.42830    0.00950    9.90990    4.37730    0.00090   -0.10160    2.86340   54.10430   89.94040  128.65530  215.57060  323.71020
 3249.50000   29.95960    0.01300    9.94430    4.01760    0.00070   -0.06640    2.80610   54.57190   92.59130   75.58250  103.96800  215.99210
 3250.00000   36.96440    0.01520    9.97300    3.70030    0.00060   -0.03900    2.77290   54.72230   93.24430   62.57250  114.43830  164.62370
 3250.50000   43.00190    0.01370   10.00310    3.46320    0.00050   -0.02150    2.74740   54.89280   93.51370   88.43130  139.50670  158.19870
 3251.00000   44.99100    0.01250   10.03320    3.38520    0.00030   -0.02610    2.74600   54.79970   93.72070  135.82040  137.88590  174.79230
 3251.50000   45.03800    0.01070   10.06340    3.36430    0.00020   -0.02760    2.75010   54.67400   95.10250  139.82400  130.74050  193.61980
 3252.00000   44.44070    0.01270   10.09350    3.42090    0.00010   -0.02710    2.75300   54.79260   97.68950  119.46670  121.63380  159.59960
 3252.50000   42.82020    0.01790   10.12370    3.57120   -0.00010   -0.02990    2.76980   55.05620  100.11020   96.03050  113.16130  145.05870
 3253.00000   40.56890    0.02280   10.15600    3.82710   -0.00040   -0.04890    2.79910   55.33690  100.44740   98.26610  117.59200  152.97720
 3253.50000   37.94860    0.02520   10.18550    4.07000   -0.00070   -0.07240    2.82840   55.66980  100.09260  119.19100  151.60230  185.22130
 3254.00000   36.42440    0.02940   10.19420    4.11830   -0.00100   -0.08390    2.84100   56.25390   99.63110  132.03750  156.08460  203.34370
 3254.50000   37.12500    0.03470   10.20280    4.08690   -0.00130   -0.08040    2.83340   56.98090   99.42910   98.88270  120.96650  160.21510
 3255.00000   41.12870    0.04020   10.21140    3.82570   -0.00150   -0.04950    2.80620   58.00580   99.99220   65.28260   90.27390  118.40500
 3255.50000   45.25630    0.04580   10.22010    3.67100   -0.00180   -0.02150    2.75100   59.07200  102.18060   45.43910   67.36890   87.50590
 3256.00000   48.97190    0.05150   10.22870    3.59910   -0.00210   -0.01070    2.73260   60.40860  103.14580   38.06100   50.27550   64.80550
 3256.50000   52.28450    0.05450   10.23580    3.54540   -0.00240   -0.00050    2.71730   61.29140  104.11100   33.25270   37.86780   47.99590
 3257.00000   55.36430    0.05360   10.24080    3.50600   -0.00270    0.00870    2.69910   61.72700  105.07630   30.01560   36.83640   41.09750
 3257.50000   57.37450    0.05180   10.24580    3.48160   -0.00340    0.02050    2.68310   61.76360  106.03430   27.19700   39.75900   43.23270
 3258.00000   59.15640    0.05040   10.25080    3.45410   -0.00520    0.02530    2.66920   61.61310  106.33150   29.64630   43.13060   46.06540
 3258.50000   60.65250    0.04890   10.25580    3.42950   -0.00620    0.02990    2.66350   61.39600  106.15780   32.71570   46.78810   49.08360
 3259.00000   62.14000    0.04720   10.26080    3.39720   -0.00600    0.03340    2.65770   61.30420  105.29440   34.98610   50.75570   52.29960
 3259.50000   63.52390    0.04690   10.26590    3.36390   -0.00550    0.03510    2.65780   61.28610  104.68180   35.83400   52.21640   55.61350
