~Version ---------------------------------------------------
VERS.   2.0 : CWLS log ASCII Standard -VERSION 2.0
WRAP.    NO : One line per depth step
DLM . SPACE : Column Data Section Delimiter
~Well ------------------------------------------------------
STRT .F                 180.0 : START DEPTH
STOP .F                4426.0 : STOP DEPTH
STEP .F                   0.5 : STEP
NULL .               -9999.25 : NULL VALUE
COMP .                        : COMPANY
WELL .                        : WELL
FLD  .                        : FIELD
LOC  .                        : LOCATION
PROV .                        : PROVINCE
CNTY .                        : COUNTY
STAT .                        : STATE
CTRY .                        : COUNTRY
SRVC .                        : SERVICE COMPANY
DATE .                        : DATE
UWI  .                        : UNIQUE WELL ID
API  .                        : API NUMBER
SLAT .WGS84 3.042603956394501 : SURFACE LATITUDE
SLON .WGS84 8.405141355995013 : SURFACE LONGITUDE
DATUM.F               3973.98 : DEPTH DATUM ELEV
~Curve Information -----------------------------------------
DEPT   .F     : 1 MEASURED DEPTH
HSGRD  .GAPI  : HNGS STANDARD GAMMA RAY FROM DENSITY LOG
TNPH_LS.DEC   : THERMAL NEUTRON POROSITY [LIMESTONE]
HCALD  .IN    : HRCC CALIPER CALIBRATED FROM DENSITY LOG
PEFZ   .B/E   : HRDD STANDARD RESOLUTION FORMATION PHOTOELECTRIC FACTOR
HDRA   .G/C3  : HRDD SPINE AND RIBS DENSITY CORRECTION
DPHZ_LS.DEC   : HGRD STANDARD RESOLUTION DENSITY POROSITY
RHOZ   .G/C3  : HRDD STANDARD RESOLUTION FORMATION DENSITY
DTCO   .US/F  : DELTA-T COMPRESSIONAL
DTSM   .US/F  : DELTA-T SHEAR
RXOZ   .OHMM  : INVADED FORMATION RESISTIVITY FILTERED AT 18 INCHES
RLA4   .OHMM  : APPARENT RESISTIVITY FROM COMPUTED FOCUSING MODE 4
RLA5   .OHMM  : APPARENT RESISTIVITY FROM COMPUTED FOCUSING MODE 5
~Params ----------------------------------------------------
~Other -----------------------------------------------------
~ASCII -----------------------------------------------------
# ...
 1104.00000   22.69250    0.17710   12.88020    3.29840    0.22210    0.32880    1.51720   70.95630  156.52130    4.02620  255.24400  217.12840
 1104.50000   21.58600    0.16040   13.16080    3.26170    0.26990    0.31860    1.50560   69.93650  147.95490    2.90430  209.76080  294.48200
 1105.00000   21.45230    0.12300   13.35970    3.13690    0.28210    0.31240    1.48940   70.26580  142.11830    1.16060  176.27640  375.09660
 1105.50000   21.20900    0.10720   13.52840    3.06350    0.28070    0.31620    1.47960   69.85150  138.06680    0.66100  208.33030  747.73110
 1106.00000   20.82850    0.09910   13.87320    3.07980    0.25570    0.32650    1.47030   69.02630  135.21390    0.69470  320.42200 1313.04160
 1106.50000   20.00070    0.09750   14.17420    3.20840    0.22130    0.33710    1.46100   68.10180  133.00950    1.11270  378.05370 1582.02560
 1107.00000   19.39240    0.09310   14.33640    3.33710    0.19870    0.38060    1.45170   67.45360  131.04170    2.00760  448.17050 1799.01860
 1107.50000   18.89950    0.07270   14.33520    3.46580    0.16700    0.44930    1.42900   67.08570  129.94530    1.31410  482.38620 3004.25270
 1108.00000   17.93560    0.05830   14.33350    3.59450    0.12540    0.57230    1.29190   67.34590  128.84900    1.27560  371.02050 4174.51900
 1108.50000   16.55920    0.04670   14.61710    3.72310    0.01700    0.68530    1.01810   67.55400  125.94600    1.54280  348.26680 6073.49510
 1109.00000   15.08400    0.03500   15.16200    3.85180   -0.09150    0.74020    0.95690   67.85590  122.77280    4.65550  368.56940 8968.30570
 1109.50000   13.93890    0.02930   15.39330    3.96710   -0.17940    0.79460    0.89560   67.91980  121.45600   25.23890  396.80120 10547.52250
 1110.00000   13.17900    0.02660   15.46010    4.00700   -0.23390    0.82780    0.74590   67.93370  120.94590   46.03150  454.26330 7975.66260
 1110.50000   13.30540    0.02360   15.46570    4.00830   -0.24970    0.85000    0.67160   68.04150  119.99520   55.95240  409.24850 18756.17380
 1111.00000   13.57550    0.01990   15.48220    3.97810   -0.24750    0.84280    0.63390   68.32700  119.61430   44.19170  377.68360 13520.84570
 1111.50000   13.65680    0.01360   15.60820    3.90700   -0.20980    0.80970    0.64110   67.93030  119.41550   12.20380  443.43320 9966.68850
 1112.00000   13.36300   -0.00020   15.77160    3.79140   -0.13020    0.65160    0.69750   66.95860  119.21670    7.27670  508.75350 34038.35550
 1112.50000   13.55770   -0.00100   15.72650    3.71040    0.01280    0.52540    0.71030   66.25100  119.01790    3.32270  569.48990 96731.53120
 1113.00000   14.44780    0.00910   15.42650    3.57460    0.12570    0.40280    1.07860   65.09880  119.19180    1.71800  677.63010 29228.97850
 1113.50000   16.01370    0.01770   15.12340    3.31430    0.22770    0.30270    1.41030   64.64830  119.71300    1.81180  654.77170 101145.31250
 1114.00000   17.07670    0.02220   14.88640    3.05410    0.30220    0.29970    1.50530   66.16100  120.60030    1.06930  656.32350 101151.53120
 1114.50000   18.94170    0.02580   15.08930    2.89110    0.35590    0.29930    1.53780   66.83430  122.64100    0.49400  777.96060 100747.41410
 1115.00000   21.65780    0.03330   15.64950    2.81570    0.37220    0.29930    1.55940   65.74100  124.43420    0.25360 1020.36360 100054.58590
 1115.50000   26.14180    0.05090   15.79200    2.79120    0.37070    0.29960    1.57950   65.35800  126.23210    0.20170 1079.80650 99366.62500
 1116.00000   30.66750    0.06850   15.21260    2.77900    0.33470    0.30000    1.58190   67.23290  128.35810    0.21030 1424.84800 84890.43750
 1116.50000   32.63080    0.07520   14.36120    2.83500    0.27420    0.30390    1.55740   67.57520  134.90530    0.44270  492.90460 43307.13670
 1117.00000   30.71470    0.07620   14.23500    2.92460    0.19570    0.44460    1.42780   66.22620  153.02610    0.40130  474.94640 1723.83230
 1117.50000   28.90100    0.08430   14.82260    2.92160    0.14990    0.53250    1.29300   69.69380  171.84180    0.46010  592.06890  958.16290
 1118.00000   29.17090    0.12230   14.92970    2.82680    0.12830    0.60850    1.15540   78.58150  172.79910    0.63990  279.90740  471.72710
 1118.50000   30.75370    0.16040   14.48580    2.73200    0.13590    0.60870    1.02000   82.84130  172.34180    0.57160   74.69250  150.75800
 1119.00000   32.22540    0.19380   14.44490    2.63720    0.14530    0.60080    1.02000   82.23600  169.77220    0.43850   52.71100   50.58440
 1119.50000   31.02840    0.18310   15.50350    2.68610    0.14900    0.59290    1.06170   80.76420  161.23270    0.42430   62.03380  132.20370
 1120.00000   28.22560    0.13030   15.54980    2.82980    0.15020    0.58430    1.06170   78.85330  151.31860    0.66470   77.22080  263.93590
 1120.50000   25.82820    0.07750   14.71940    2.95640    0.14730    0.58070    1.05510   76.87330  143.14690    0.95030   93.63330  445.04150
 1121.00000   24.93330    0.06120   14.36940    3.08300    0.13610    0.59630    1.04820   75.78400  141.07750    0.76690   87.03810  572.89060
 1121.50000   24.46430    0.06050   14.32720    3.20960    0.12130    0.59520    1.04620   75.19780  143.18630    1.14780   66.48760  421.62730
 1122.00000   24.29980    0.06450   14.36890    3.33620    0.12250    0.50960    1.10920   74.50740  144.09620    0.99740   97.51200  355.79820
 1122.50000   23.95530    0.07560   15.47260    3.41230    0.13650    0.43720    1.21500   72.80130  143.23630    1.63360  201.82490  495.53230
 1123.00000   22.83310    0.07820   17.42940    3.43510    0.19590    0.36470    1.32080   69.39010  140.80200    1.11620  509.91250  700.63320
 1123.50000   21.41390    0.07090   19.24780    3.46590    0.24500    0.32190    1.46220   66.63690  133.15360    1.44830  715.66790  923.12400
 1124.00000   19.99480    0.04730   19.02260    3.51240    0.25530    0.33460    1.47120   65.80130  128.08480    1.29910  877.49950 1926.57310
 1124.50000   18.57560    0.02670   17.73920    3.61610    0.23330    0.34800    1.45580   64.88390  124.97860    1.41270 1411.88040 6369.14260
 1125.00000   17.15640    0.01670   16.45580    3.73110    0.21110    0.35420    1.43160   64.29710  122.46480    2.04920  778.29380 13393.52640
 1125.50000   16.24960    0.01050   15.67080    3.78610    0.20120    0.35810    1.42510   64.13850  121.55380    6.26700  608.55270 24014.82030
 1126.00000   15.73130    0.00580   15.38280    3.77850    0.18750    0.36440    1.41980   63.76450  120.73930    4.46130  346.56860 8767.23240
 1126.50000   15.65200   -0.00220   15.21530    3.65570    0.14340    0.37310    1.41410   63.89170  119.83710    1.86310  304.71600 28809.68160
 1127.00000   15.53730   -0.01270   15.12960    3.53540    0.10070    0.46940    1.39570   64.64150  119.35280    0.73220  282.48770 95810.87500
 1127.50000   15.34370   -0.02310   15.23550    3.54460    0.05750    0.55450    1.27300   64.33920  119.16980    0.72940  282.94940 39439.55470
 1128.00000   15.15010   -0.02710   15.38300    3.57350    0.02850    0.62380    1.15030   63.93840  119.22030    1.29440  291.28860 14140.44630
 1128.50000   14.95650   -0.02760   15.41780    3.60230    0.01770    0.62450    0.99500   64.55870  118.91720    4.78390  310.72490 14866.01170
 1129.00000   14.76290   -0.02630   15.66950    3.60650    0.01700    0.62020    0.99360   65.26670  118.51060    0.74290  351.58880 42881.16020
 1129.50000   14.51940   -0.02180   15.97840    3.60540    0.02100    0.62880    0.99360   64.63010  117.53630    0.68220  434.18480 94002.89060
 1130.00000   14.49400   -0.01640   15.81060    3.59370    0.01720    0.68130    0.96820   62.60450  118.26160    0.98790  397.95460 94018.57810
 1130.50000   14.68840   -0.01380   15.62330    3.58200    0.01150    0.69450    0.92480   62.65600  118.63420    4.82480  397.51260 35934.25390
 1131.00000   14.50760   -0.01280   15.67960    3.55240    0.01570    0.68300    0.89220   63.31020  119.30710    1.64500  416.95490 17803.48240
 1131.50000   14.30880   -0.00950   15.75430    3.52040    0.07040    0.59360    0.89000   63.62370  120.55810    1.20470  475.85850 58207.55470
