~Version ---------------------------------------------------
VERS.   2.0 : CWLS log ASCII Standard -VERSION 2.0
WRAP.    NO : One line per depth step
DLM . SPACE : Column Data Section Delimiter
~Well ------------------------------------------------------
STRT .F                 180.0 : START DEPTH
STOP .F                4426.0 : STOP DEPTH
STEP .F                   0.5 : STEP
NULL .               -9999.25 : NULL VALUE
COMP .                        : COMPANY
WELL .                        : WELL
FLD  .                        : FIELD
LOC  .                        : LOCATION
PROV .                        : PROVINCE
CNTY .                        : COUNTY
STAT .                        : STATE
CTRY .                        : COUNTRY
SRVC .                        : SERVICE COMPANY
DATE .                        : DATE
UWI  .                        : UNIQUE WELL ID
API  .                        : API NUMBER
SLAT .WGS84 3.042603956394501 : SURFACE LATITUDE
SLON .WGS84 8.405141355995013 : SURFACE LONGITUDE
DATUM.F               3973.98 : DEPTH DATUM ELEV
~Curve Information -----------------------------------------
DEPT   .F     : 1 MEASURED DEPTH
HSGRD  .GAPI  : HNGS STANDARD GAMMA RAY FROM DENSITY LOG
TNPH_LS.DEC   : THERMAL NEUTRON POROSITY [LIMESTONE]
HCALD  .IN    : HRCC CALIPER CALIBRATED FROM DENSITY LOG
PEFZ   .B/E   : HRDD STANDARD RESOLUTION FORMATION PHOTOELECTRIC FACTOR
HDRA   .G/C3  : HRDD SPINE AND RIBS DENSITY CORRECTION
DPHZ_LS.DEC   : HGRD STANDARD RESOLUTION DENSITY POROSITY
RHOZ   .G/C3  : HRDD STANDARD RESOLUTION FORMATION DENSITY
DTCO   .US/F  : DELTA-T COMPRESSIONAL
DTSM   .US/F  : DELTA-T SHEAR
RXOZ   .OHMM  : INVADED FORMATION RESISTIVITY FILTERED AT 18 INCHES
RLA4   .OHMM  : APPARENT RESISTIVITY FROM COMPUTED FOCUSING MODE 4
RLA5   .OHMM  : APPARENT RESISTIVITY FROM COMPUTED FOCUSING MODE 5
~Params ----------------------------------------------------
~Other -----------------------------------------------------
~ASCII -----------------------------------------------------
# ...
 3008.00000   17.12690    0.01820    9.15890    4.82940   -0.01010   -0.12670    2.92590   48.79720   90.68660  113.52030  431.35970 1899.17050
 3008.50000   19.58520    0.03140    9.15330    4.54530   -0.00930   -0.10560    2.89030   47.85430   88.93480  243.21620  319.49150  422.04550
 3009.00000   21.66040    0.03900    9.14630    4.23620   -0.00310   -0.10190    2.86850   46.96970   86.86000  212.66170  296.51460  388.44260
 3009.50000   21.67260    0.04120    9.13890    4.10110    0.00290   -0.10090    2.87170   46.37470   85.22160  265.14360  319.02550  390.66930
 3010.00000   19.99580    0.04070    9.13970    4.06750    0.00620   -0.10450    2.88690   46.22590   84.77340  321.11880  343.24560  423.79940
 3010.50000   18.54840    0.03040    9.15150    4.05170    0.00520   -0.10490    2.89870   46.20030   86.67550  285.42380  369.30440  494.64240
 3011.00000   17.37050    0.02020    9.16440    4.13350    0.00390   -0.11160    2.90550   47.83920   92.18830  281.74260  400.79560  606.42330
 3011.50000   20.06660    0.01540    9.17920    4.25870    0.00270   -0.12170    2.90550   53.81940  100.12730  383.84240  481.97830  743.46440
 3012.00000   27.01100    0.02970    9.19400    4.25860    0.00590   -0.09180    2.87410   60.28170  107.85010  219.67190  293.26220  746.28310
 3012.50000   40.43260    0.06030    9.25670    4.17110    0.03670   -0.05580    2.81480   65.14510  116.27740   20.31150   83.35650  329.87250
 3013.00000   53.62180    0.09540    9.32770    4.08360    0.06750   -0.01990    2.75540   67.45920  127.61680    2.75000   10.77960   49.77090
 3013.50000   57.70270    0.12270    9.39860    4.04970    0.08570   -0.00580    2.71770   68.54920  133.61070    2.60680    7.19260    8.56890
 3014.00000   53.81460    0.12630    9.44960    4.08320    0.07510   -0.00730    2.72660   67.22090  132.67400    2.62120   12.10190   18.65790
 3014.50000   43.18980    0.10340    9.45100    4.14130    0.04620   -0.03240    2.75860   64.30850  126.91450   14.68680   23.05050   33.31740
 3015.00000   35.81040    0.07750    9.45240    4.31140    0.00900   -0.04700    2.79060   61.39260  117.76760   21.02630   35.25140   49.74740
 3015.50000   31.59080    0.05150    9.45380    4.52180   -0.00180   -0.06120    2.81010   59.95350  115.65280   49.85330   59.77690  144.24090
 3016.00000   30.82450    0.04160    9.45520    4.64310   -0.00770   -0.06670    2.82040   59.96500  115.45680   47.16700   88.49390  122.16160
 3016.50000   30.39490    0.04180    9.45690    4.62910   -0.00700   -0.07210    2.82800   60.45410  115.16240   45.09410   75.62170   94.98120
 3017.00000   32.73370    0.05070    9.46190    4.56980   -0.00570   -0.07190    2.81940   60.76220  113.43010  114.93870   60.29760   79.49280
 3017.50000   35.94280    0.06230    9.47090    4.45580   -0.00320   -0.06340    2.80300   60.77130  110.11220   52.38260   49.84510   68.07230
 3018.00000   37.40950    0.07220    9.44760    4.36000   -0.00050   -0.05540    2.79810   60.58060  110.27120   36.32960   48.00510   58.29260
 3018.50000   35.06060    0.07450    9.44160    4.33740    0.00210   -0.05060    2.79540   60.21490  110.64370   38.84870   48.00510   51.61650
 3019.00000   30.71590    0.07030    9.43550    4.48170    0.00480   -0.06410    2.79540   59.35070  110.05840   40.46200   50.29960   55.64330
 3019.50000   26.38160    0.05960    9.42940    4.66470    0.00590   -0.08310    2.86450   58.40020  107.24120   41.76770   61.96960  111.09870
 3020.00000   21.79080    0.04900    9.42420    4.80380    0.00640   -0.10600    2.90950   57.24340  104.42400   67.44750  129.25240  255.56030
 3020.50000   17.89270    0.03830    9.41900    4.94290    0.00680   -0.12360    2.91780   55.90790  101.86620  198.43750  275.67750  372.83710
 3021.00000   14.99810    0.02990    9.41120    5.08200    0.00720   -0.13610    2.92520   55.02060  101.39110  320.51520  409.91740  515.72430
 3021.50000   13.57020    0.02330    9.40960    5.12570    0.00760   -0.13960    2.94470   54.43180  101.50130  435.99070  317.91130  350.06560
 3022.00000   12.11750    0.01700    9.40910    5.16250    0.00840   -0.15020    2.96440   54.16240  101.33380  476.48720  286.23940  167.76190
 3022.50000   10.67310    0.01250    9.41100    5.19960    0.01030   -0.16400    2.98420   54.43670  100.72580  674.62690  455.09400  302.06500
 3023.00000    9.52220    0.01060    9.40920    5.23770    0.01020   -0.17400    2.98950   55.84030  100.66410 1370.31470  759.91360  555.15300
 3023.50000    9.68650    0.01120    9.39830    5.29330    0.00780   -0.17030    2.96790   57.18540  101.47520 1972.56050 1081.47770  631.76170
 3024.00000   12.50160    0.02400    9.39660    5.37200    0.00580   -0.15280    2.93150   58.21890  104.18900  963.30520  185.15480   76.43530
 3024.50000   15.18750    0.03960    9.39510    5.40690    0.00410   -0.13350    2.91120   58.31330  105.61590   43.52400   73.60860   30.43490
 3025.00000   16.59780    0.05040    9.39350    5.35950    0.00240   -0.12340    2.91420   57.97890  104.42760   26.66400   36.23010   36.52600
 3025.50000   13.97850    0.04140    9.39200    5.31320   -0.00190   -0.13450    2.94360   56.53890  102.89890   27.22630   48.57150   82.47900
 3026.00000   10.49170    0.02010    9.39040    5.26690   -0.02370   -0.15140    2.97310   53.71280  101.66810   56.62990  208.76150  734.48600
 3026.50000    7.78490    0.00540    9.39180    5.22000   -0.03690   -0.16510    2.97620   51.57120   99.71010  349.34090 1562.36180 3899.80370
 3027.00000    8.96760    0.00290    9.39390    5.10980   -0.03790   -0.16330    2.96150   50.38530   95.51890  566.21630 1278.18960 5808.57420
 3027.50000   13.91490    0.00660    9.39290    4.94860   -0.02040   -0.13600    2.92460   49.65160   91.26880  280.60480  442.75860 1052.16480
 3028.00000   18.86230    0.02530    9.39960    4.73650   -0.00490   -0.11120    2.88760   49.11820   88.72730  183.75380  215.60130  304.83300
 3028.50000   21.86460    0.03920    9.40640    4.53760    0.00130   -0.09950    2.85620   48.65590   89.49140  140.23900  160.57810  174.76930
 3029.00000   23.55230    0.04110    9.41320    4.40160    0.00130   -0.08790    2.85090   49.06490   96.69550  147.30210  180.97100  242.76390
 3029.50000   23.39580    0.03600    9.41990    4.41960    0.00130   -0.08880    2.87910   51.13410   98.77330  159.73740  259.79830  410.72790
 3030.00000   22.07190    0.02370    9.42670    4.50270    0.00180   -0.09620    2.90630   53.38060  100.90700  198.60390  372.96140  433.73690
 3030.50000   20.40080    0.02100    9.43640    5.05660    0.00260   -0.12340    2.90900   55.26560  103.24940  177.98040  262.79040  436.68850
 3031.00000   19.59040    0.02900    9.45640    5.37540    0.00330   -0.12780    2.91040   56.89640  105.51900   40.57270   99.88030  202.99790
 3031.50000   19.59070    0.03900    9.45870    5.51110    0.00410   -0.12420    2.91180   57.93930  107.35790   25.95660   40.97840   68.36020
 3032.00000   19.50910    0.03840    9.46110    5.47780    0.00490   -0.12330    2.91590   57.83440  106.90220   25.03020   55.71110  104.48130
 3032.50000   17.91130    0.02850    9.46490    5.40670    0.00530   -0.12810    2.92980   56.73040  104.86450   48.25720  124.13600  197.63030
 3033.00000   14.61910    0.01850    9.46870    5.33560    0.00570   -0.13980    2.95350   54.87800  102.85830  131.23660  283.12920  409.75750
 3033.50000   11.15170    0.00850    9.46210    5.39530    0.00610   -0.15150    2.97720   52.96420  100.81220  285.38050  686.23140 1047.51030
 3034.00000    9.26000    0.00050    9.46310    5.39810   -0.01070   -0.16800    2.98050   51.12030   98.34590  591.00050 1362.56120 4069.79390
 3034.50000    9.33710   -0.00080    9.47450    5.34220   -0.01780   -0.16830    2.97990   49.21600   96.35590  993.52170 5622.98100 8264.39940
 3035.00000   11.37360    0.00500    9.48290    5.08940   -0.01840   -0.15550    2.94970   48.75860   94.69800  552.92350 1247.45940 2907.23730
 3035.50000   16.74390    0.01980    9.49140    4.72110   -0.01280   -0.14350    2.90990   50.68340   99.98360  182.42630  457.90380 1090.46440
