~Version ---------------------------------------------------
VERS.   2.0 : CWLS log ASCII Standard -VERSION 2.0
WRAP.    NO : One line per depth step
DLM . SPACE : Column Data Section Delimiter
~Well ------------------------------------------------------
STRT .F                 180.0 : START DEPTH
STOP .F                4426.0 : STOP DEPTH
STEP .F                   0.5 : STEP
NULL .               -9999.25 : NULL VALUE
COMP .                        : COMPANY
WELL .                        : WELL
FLD  .                        : FIELD
LOC  .                        : LOCATION
PROV .                        : PROVINCE
CNTY .                        : COUNTY
STAT .                        : STATE
CTRY .                        : COUNTRY
SRVC .                        : SERVICE COMPANY
DATE .                        : DATE
UWI  .                        : UNIQUE WELL ID
API  .                        : API NUMBER
SLAT .WGS84 3.042603956394501 : SURFACE LATITUDE
SLON .WGS84 8.405141355995013 : SURFACE LONGITUDE
DATUM.F               3973.98 : DEPTH DATUM ELEV
~Curve Information -----------------------------------------
DEPT   .F     : 1 MEASURED DEPTH
HSGRD  .GAPI  : HNGS STANDARD GAMMA RAY FROM DENSITY LOG
TNPH_LS.DEC   : THERMAL NEUTRON POROSITY [LIMESTONE]
HCALD  .IN    : HRCC CALIPER CALIBRATED FROM DENSITY LOG
PEFZ   .B/E   : HRDD STANDARD RESOLUTION FORMATION PHOTOELECTRIC FACTOR
HDRA   .G/C3  : HRDD SPINE AND RIBS DENSITY CORRECTION
DPHZ_LS.DEC   : HGRD STANDARD RESOLUTION DENSITY POROSITY
RHOZ   .G/C3  : HRDD STANDARD RESOLUTION FORMATION DENSITY
DTCO   .US/F  : DELTA-T COMPRESSIONAL
DTSM   .US/F  : DELTA-T SHEAR
RXOZ   .OHMM  : INVADED FORMATION RESISTIVITY FILTERED AT 18 INCHES
RLA4   .OHMM  : APPARENT RESISTIVITY FROM COMPUTED FOCUSING MODE 4
RLA5   .OHMM  : APPARENT RESISTIVITY FROM COMPUTED FOCUSING MODE 5
~Params ----------------------------------------------------
~Other -----------------------------------------------------
~ASCII -----------------------------------------------------
# ...
 4184.00000    7.78740    0.13490    8.17260    3.20770   -0.00150    0.01740    2.68130   52.02670   99.80040   26.43750   36.26390   57.45320
 4184.50000    7.55640    0.12560    8.16920    3.20160   -0.00190    0.00550    2.69710   51.76180   99.93240   42.28570   53.44340   62.93970
 4185.00000    7.16550    0.12470    8.16430    3.18310    0.00030   -0.00100    2.70720   52.33790  101.09050   49.33540   53.85710   63.77410
 4185.50000    6.68300    0.12680    8.14610    3.16320    0.00380   -0.00140    2.70950   53.81420  103.63200   40.72840   50.74920   59.06660
 4186.00000    6.29860    0.13410    8.11150    3.17820    0.00520    0.00390    2.70490   55.41620  105.57750   33.66550   40.17720   48.03060
 4186.50000    5.77560    0.15470    8.08280    3.22120    0.00470    0.03270    2.68480   56.53600  103.75520   18.89240   27.40550   38.60770
 4187.00000    5.62250    0.17540    8.05400    3.24300    0.00440    0.05220    2.65250   57.07380  102.09590   17.18160   20.33820   21.68670
 4187.50000    5.69750    0.19700    8.02460    3.24100    0.00510    0.05860    2.62240   57.36760  103.92390   15.33360   16.60160   18.89090
 4188.00000    6.16990    0.19840    7.99430    3.20920    0.00580    0.05500    2.61900   57.72110  104.33620   11.60650   13.61640   16.36030
 4188.50000    6.87400    0.19310    7.96410    3.16170    0.00720    0.05850    2.61500   58.38350  104.84690    9.98600   11.40380   14.16030
 4189.00000    7.28210    0.19060    7.93380    3.14650    0.00980    0.06680    2.61100   59.36290  105.13510    9.26530   11.04420   12.58060
 4189.50000    7.23110    0.19230    7.94230    3.16900    0.01070    0.07190    2.60450   60.10480  106.07280    8.63820   10.37270   11.63790
 4190.00000    6.56170    0.20130    7.95700    3.19150    0.01100    0.07310    2.59380   60.54990  105.62800    8.14760    9.72170   10.80980
 4190.50000    5.81040    0.20900    7.97300    3.21360    0.01110    0.07530    2.58880   60.83910  103.90200    7.81790    9.11160   10.04070
 4191.00000    5.35280    0.21340    7.98940    3.23410    0.01110    0.07800    2.58460   60.72700  102.66760    7.67570    8.58060    9.32620
 4191.50000    5.33560    0.21690    8.00580    3.24710    0.01130    0.07520    2.58460   60.35250  104.68480    7.48220    8.12600    8.67430
 4192.00000    5.23420    0.21950    8.01050    3.23380    0.01320    0.06660    2.59370   59.87680  104.38510    7.10380    7.69550    8.55130
 4192.50000    5.11090    0.21150    7.98100    3.23160    0.01490    0.06010    2.60320   59.38230  103.92850    7.02160    8.03750    9.64240
 4193.00000    4.98770    0.19660    7.95150    3.22940    0.01760    0.05720    2.61270   59.39930  103.99510    7.85260    9.80980   12.87640
 4193.50000    5.00090    0.18580    7.92930    3.23570    0.02800    0.05380    2.62220   59.81560  103.63530    9.04690   12.77150   15.05260
 4194.00000    5.28110    0.18190    7.92870    3.22760    0.03060    0.04760    2.63160   60.10180  103.12960   10.82740   14.03900   16.56980
 4194.50000    5.94130    0.18490    7.92820    3.18470    0.02600    0.04410    2.63630   60.27370  103.26730   14.08470   14.62250   18.54120
 4195.00000    6.60160    0.19260    7.93250    3.14060    0.01340    0.04420    2.63880   60.24450  103.45670   12.77470   14.80010   15.66680
 4195.50000    7.20440    0.20020    7.94460    3.11760    0.00280    0.04980    2.63260   59.77480  103.64610   12.77620   14.71230   16.77060
 4196.00000    7.20440    0.20790    7.95280    3.16150    0.00210    0.05600    2.62400   59.52730  103.83560   12.92990   14.33830   16.35850
 4196.50000    7.15890    0.21510    7.97940    3.20540    0.00210    0.06190    2.61570   59.40470  103.76660   12.43790   13.71710   14.46250
 4197.00000    7.06320    0.22210    7.98370    3.20930    0.00200    0.06460    2.60870   59.55480  103.34820   11.72240   12.97260   14.68220
 4197.50000    7.04610    0.22620    7.98430    3.22350    0.00170    0.06580    2.60460   59.67300  103.25700   10.38750   11.95750   14.40070
 4198.00000    7.00650    0.22440    7.98530    3.24340    0.00140    0.06180    2.60500   59.62540  105.38220    8.76670   10.78750   12.36080
 4198.50000    6.96000    0.21320    7.98670    3.27240    0.00130    0.05540    2.62200   59.47600  107.30280    7.87250    9.96840   12.17260
 4199.00000    7.11750    0.19970    7.99920    3.23340    0.00120    0.04270    2.63900   59.43640  110.13370    7.83190    9.72140   12.14790
 4199.50000    7.39190    0.19460    8.03210    3.18920    0.00110    0.04080    2.64680   59.49620  112.32540    7.85430   10.59140   12.33960
 4200.00000    7.58100    0.19880    8.06500    3.15920    0.00090    0.04150    2.64520   59.55820  115.85110    7.87240   10.51530   12.37710
 4200.50000    7.58790    0.21030    8.07800    3.13350    0.00130    0.04590    2.63560   59.74610  117.19740    7.86070    9.51150   10.70580
 4201.00000    6.74420    0.22150    8.08910    3.12230    0.00220    0.05970    2.62210   60.45340  114.67230    7.75780    8.60360    9.37220
 4201.50000    6.10620    0.23050    8.07080    3.11100    0.00520    0.07690    2.60160   61.21130  111.21550    7.11310    7.42390    8.39400
 4202.00000    5.29330    0.23040    8.06940    3.09970    0.00810    0.09510    2.56290   61.96920  110.38980    5.72140    6.39570    7.15580
 4202.50000    5.17660    0.22940    8.07260    3.08850    0.01220    0.10690    2.54080   62.48690  114.04900    3.88140    5.50980    6.17480
 4203.00000    5.49880    0.23200    8.12360    3.07720    0.01670    0.11710    2.53240   63.45980  114.83060    3.38370    5.06870    6.03520
 4203.50000    6.27640    0.24110    8.14470    3.06310    0.01470    0.12050    2.52390   64.58440  111.58930    3.36410    5.22540    6.20350
 4204.00000    7.25010    0.24780    8.10870    3.04560    0.01120    0.12300    2.51550   64.75510  111.23320    4.02440    5.73090    6.50130
 4204.50000    7.95370    0.24520    8.07370    3.02820    0.00810    0.11670    2.51170   64.15030  111.90120    4.76430    6.42760    7.28060
 4205.00000    8.50270    0.23110    8.06750    3.01080    0.00710    0.09740    2.54060   63.14030  111.49610    6.02070    7.47580    9.83900
 4205.50000    8.74890    0.21810    8.09820    3.02960    0.00620    0.07560    2.57660   62.15780  110.29620    7.84240   10.28470   23.65870
 4206.00000    8.78890    0.20870    8.12910    3.05520    0.00400    0.05480    2.61260   61.87400  109.73370    9.77660   22.54780   26.98970
 4206.50000    8.70100    0.20550    8.15290    3.08080    0.00140    0.05820    2.62230   62.05130  110.19690   10.16060   16.28420   24.84660
 4207.00000    8.44460    0.20990    8.14440    3.10660   -0.00240    0.06900    2.61080   63.10540  112.22150    7.68730    9.45140   12.56280
 4207.50000    7.68320    0.21520    8.13510    3.13240   -0.00450    0.08520    2.58320   64.36310  113.09060    5.80200    7.56750    8.16010
 4208.00000    7.58080    0.21650    8.11550    3.15820   -0.00540    0.09770    2.55560   65.40370  112.08830    5.80200    7.12520    8.12780
 4208.50000    8.01660    0.21870    8.10070    3.17450   -0.00500    0.11030    2.52790   65.62620  110.79130    5.80200    6.70880    8.03710
 4209.00000    9.14740    0.22530    8.09950    3.18350   -0.00080    0.11710    2.52280   65.44980  112.09240    5.61050    6.17110    7.80110
 4209.50000   10.60060    0.23000    8.10930    3.19240    0.00250    0.11240    2.52600   65.07440  114.91740    5.29310    6.08560    8.15540
 4210.00000   11.95790    0.22710    8.13110    3.21790   -0.00060    0.10370    2.53810   65.08990  114.63790    6.29020    9.20620   14.76210
 4210.50000   12.34500    0.21690    8.15400    3.23830   -0.00360    0.09440    2.55030   65.21470  113.49830    9.69470   14.23870   16.56220
 4211.00000   11.40830    0.21390    8.17410    3.22700   -0.00840    0.08930    2.56000   65.32420  112.26810   11.74460   12.85230   14.95000
 4211.50000    9.76880    0.22800    8.17230    3.16510   -0.00560    0.10070    2.54560   65.43590  111.03780    8.49480   10.02180   12.56830
