~Version ---------------------------------------------------
VERS.   2.0 : CWLS log ASCII Standard -VERSION 2.0
WRAP.    NO : One line per depth step
DLM . SPACE : Column Data Section Delimiter
~Well ------------------------------------------------------
STRT .F                 180.0 : START DEPTH
STOP .F                4426.0 : STOP DEPTH
STEP .F                   0.5 : STEP
NULL .               -9999.25 : NULL VALUE
COMP .                        : COMPANY
WELL .                        : WELL
FLD  .                        : FIELD
LOC  .                        : LOCATION
PROV .                        : PROVINCE
CNTY .                        : COUNTY
STAT .                        : STATE
CTRY .                        : COUNTRY
SRVC .                        : SERVICE COMPANY
DATE .                        : DATE
UWI  .                        : UNIQUE WELL ID
API  .                        : API NUMBER
SLAT .WGS84 3.042603956394501 : SURFACE LATITUDE
SLON .WGS84 8.405141355995013 : SURFACE LONGITUDE
DATUM.F               3973.98 : DEPTH DATUM ELEV
~Curve Information -----------------------------------------
DEPT   .F     : 1 MEASURED DEPTH
HSGRD  .GAPI  : HNGS STANDARD GAMMA RAY FROM DENSITY LOG
TNPH_LS.DEC   : THERMAL NEUTRON POROSITY [LIMESTONE]
HCALD  .IN    : HRCC CALIPER CALIBRATED FROM DENSITY LOG
PEFZ   .B/E   : HRDD STANDARD RESOLUTION FORMATION PHOTOELECTRIC FACTOR
HDRA   .G/C3  : HRDD SPINE AND RIBS DENSITY CORRECTION
DPHZ_LS.DEC   : HGRD STANDARD RESOLUTION DENSITY POROSITY
RHOZ   .G/C3  : HRDD STANDARD RESOLUTION FORMATION DENSITY
DTCO   .US/F  : DELTA-T COMPRESSIONAL
DTSM   .US/F  : DELTA-T SHEAR
RXOZ   .OHMM  : INVADED FORMATION RESISTIVITY FILTERED AT 18 INCHES
RLA4   .OHMM  : APPARENT RESISTIVITY FROM COMPUTED FOCUSING MODE 4
RLA5   .OHMM  : APPARENT RESISTIVITY FROM COMPUTED FOCUSING MODE 5
~Params ----------------------------------------------------
~Other -----------------------------------------------------
~ASCII -----------------------------------------------------
# ...
 2532.00000   27.32930    0.06430    9.46930    4.50430    0.00300   -0.09290    2.84740   58.32920  102.63460   25.83550   35.29990   54.78510
 2532.50000   28.27960    0.06780    9.46940    4.39200   -0.00020   -0.07390    2.82160   56.19850  101.13160   31.73000   43.30890   72.99980
 2533.00000   29.11470    0.07130    9.44790    4.22610   -0.00510   -0.04940    2.79630   54.42500  100.48650   16.26110   33.89700   57.93360
 2533.50000   29.09120    0.07410    9.42910    4.12940   -0.00620   -0.04250    2.78350   53.51660  100.10520   17.28740   30.99170   60.05960
 2534.00000   27.55230    0.07380    9.41880    4.04280   -0.00580   -0.04390    2.77860   53.27960   99.32570   22.29850   60.64320  123.58600
 2534.50000   26.49380    0.07220    9.42010    3.97560   -0.00550   -0.04200    2.77460   53.26800   99.42490   44.42590   99.05430  132.01500
 2535.00000   26.72340    0.06850    9.45410    3.98850   -0.00520   -0.03800    2.77280   53.71360  101.04480   37.95480   68.97460   96.33250
 2535.50000   26.26940    0.05730    9.53210    4.35420   -0.00460   -0.04060    2.77250   54.84660  103.04490   34.01120   48.02920   70.29460
 2536.00000   23.99380    0.04450    9.61590    4.78800    0.01290   -0.07480    2.81650   55.72390  103.64040   29.72630   45.73570   59.13130
 2536.50000   21.50570    0.03170    9.68710    5.07980    0.02750   -0.12740    2.88760   55.88690  103.24490   27.62480   49.56530   60.57450
 2537.00000   19.47080    0.02150    9.72970    5.27340    0.02540   -0.14010    2.93360   55.72090  103.14910   39.51840   64.53550   77.48220
 2537.50000   18.31490    0.01720    9.77220    5.25350    0.01800   -0.14010    2.93750   55.54970  103.16330   59.37740   94.30570  119.37790
 2538.00000   17.49920    0.01200    9.77000    5.24460    0.01000   -0.14330    2.94740   55.27650  101.77230   98.98170  143.85700  183.30430
 2538.50000   16.50790    0.00700    9.77140    5.25800    0.00850   -0.15770    2.95990   54.74370   98.75140  174.87080  219.44430  276.96100
 2539.00000   15.99900    0.00380    9.78070    5.27110    0.00890   -0.16610    2.97000   54.26550   98.99820  246.69840  293.13760  408.14240
 2539.50000   16.15630    0.00350    9.79450    5.27750    0.00990   -0.16490    2.97290   53.90050  102.01130   85.54640  168.84110  276.33530
 2540.00000   15.99950    0.00450    9.79700    5.27310    0.01210   -0.16420    2.97610   54.14240  104.02550   69.09090  110.70610  257.88400
 2540.50000   14.79530    0.00560    9.79960    5.27230    0.01410   -0.16710    2.97960   54.90820  106.07170  115.03930  218.63860  408.71950
 2541.00000   13.50750    0.00720    9.80210    5.27790    0.01610   -0.17060    2.98300   56.25070  109.38660  709.32900  445.37980  610.97920
 2541.50000   13.72360    0.01420    9.80420    5.23640    0.01820   -0.15020    2.98080   59.35130  112.70150  326.33240  502.70860  614.27120
 2542.00000   17.03300    0.02990    9.80840    5.18000    0.02020   -0.11600    2.94260   62.87110  116.82000   51.81960  170.97700  465.62700
 2542.50000   20.61110    0.04520    9.84580    5.14510    0.02230   -0.10230    2.89810   63.97480  118.60160   14.84540   22.30000   76.02820
 2543.00000   24.16040    0.07340    9.89590    5.09830    0.02240   -0.08860    2.85360   63.71600  118.49000   13.06530   17.74870   19.59160
 2543.50000   24.63990    0.08010    9.92050    5.04600    0.01740   -0.08170    2.83860   62.35960  112.69100   14.44080   20.62630   30.80460
 2544.00000   23.25190    0.07240    9.94210    4.99260    0.01420   -0.09030    2.85820   59.65240  110.52480   16.07040   28.84510   42.93180
 2544.50000   20.53570    0.05170    9.91990    4.93460    0.00760   -0.11230    2.88970   56.28870  109.00030   18.03770   43.86450   73.80950
 2545.00000   18.16950    0.03100    9.89140    4.86250   -0.00600   -0.13380    2.92130   53.55710  104.84220   30.34370  111.25890  477.26580
 2545.50000   16.89960    0.01560    9.86290    4.76130   -0.00600   -0.13310    2.93330   51.98730  101.40560  500.47190 1056.24320 2734.47920
 2546.00000   18.99680    0.01590    9.83900    4.49740   -0.00120   -0.10170    2.90740   52.03630   97.96890  245.26740  736.82310 1931.27270
 2546.50000   24.94560    0.04240    9.85280    4.18120    0.00360   -0.07980    2.85460   52.85780   95.70490  132.90970  327.88460  479.86960
 2547.00000   29.83580    0.06760    9.86670    3.90600    0.00640   -0.04580    2.80190   53.90370   95.45460  117.91120  256.82890  404.73770
 2547.50000   35.02670    0.08480    9.89130    3.84450    0.00330   -0.03380    2.76380   54.72040   99.85360   67.87160  139.16410  346.64700
 2548.00000   37.28870    0.08370    9.91620    3.97840   -0.00050   -0.03330    2.76150   54.79170  101.78660   38.17870   66.44440  136.19690
 2548.50000   36.27210    0.06510    9.94100    4.44840    0.00370   -0.07840    2.79090   54.91410  102.65530   27.16000   41.58750   56.94400
 2549.00000   29.23530    0.04650    9.96590    4.86050    0.01090   -0.12670    2.80700   54.97800  103.40940   33.81300   51.97310   97.17400
 2549.50000   22.41040    0.02790    9.99080    5.03650    0.01570   -0.15730    2.89680   54.79140  103.81080   47.07960   72.78580  337.37260
 2550.00000   20.00900    0.01220   10.01190    5.11340    0.01570   -0.16150    2.96690   54.41650  104.47320   39.54210   54.67960  136.30120
 2550.50000   19.73690    0.00950   10.02910    5.12170    0.01380   -0.16150    2.97360   54.48920  105.27870   35.66940   44.72250   70.61540
 2551.00000   19.28160    0.00990   10.04320    5.13000    0.01160   -0.16190    2.97510   55.11710  106.12020   39.55440   60.41420  258.51990
 2551.50000   18.43200    0.01180   10.05730    5.21790    0.01210   -0.16580    2.97620   55.96920  106.96720   42.93950   57.92770  214.44200
 2552.00000   18.19010    0.01420   10.07290    5.21030    0.01280   -0.15980    2.97680   56.61780  107.57040   33.37900   38.84050   40.30740
 2552.50000   18.75750    0.01880   10.11970    5.16850    0.01370   -0.14980    2.96960   57.27710  107.43050   25.34670   30.28900   57.32270
 2553.00000   19.52480    0.02150   10.13200    5.10160    0.01450   -0.14060    2.94910   57.54220  104.89770   35.58530   50.55830   53.72920
 2553.50000   19.80520    0.02210   10.13280    5.08240    0.01400   -0.13780    2.93860   56.99730  102.51370  100.29020   43.65530   32.32090
 2554.00000   18.71620    0.02040   10.13340    5.11270    0.01300   -0.13980    2.93510   55.20020  102.59360   97.70540   36.54870   40.55940
 2554.50000   16.80230    0.01420   10.13610    5.15660    0.01020   -0.14870    2.93980   53.59380  102.39740   87.08670   54.22220  112.92550
 2555.00000   14.83670    0.00580   10.13840    5.27150   -0.00090   -0.15710    2.95480   52.20560   99.88140   97.79460  162.10860  453.69450
 2555.50000   13.83360   -0.00270   10.13820    5.26940   -0.01290   -0.16190    2.96990   51.80450   99.56810  744.88360  466.90940 1625.07700
 2556.00000   14.19800   -0.00770   10.13620    5.13890   -0.01610   -0.16570    2.97550   51.81750   98.38400 1136.48740 1156.44860 2796.45950
 2556.50000   15.82440   -0.00040   10.12600    4.81730   -0.00990   -0.15670    2.97720   52.31930   96.58680  599.52460  851.36710 1594.79250
 2557.00000   19.36820    0.00920   10.12230    4.47340   -0.00190   -0.13870    2.97030   53.15340   96.13850   71.29340  278.26390  509.43720
 2557.50000   23.49490    0.03200   10.11660    4.07430    0.00300   -0.06660    2.86560   53.90230   96.36890   25.20980   56.26380  128.50690
 2558.00000   27.59730    0.08350   10.12880    3.67120    0.00390   -0.01950    2.79870   53.89020   96.63900   12.73360   24.66360   35.73440
 2558.50000   28.19870    0.12750   10.14210    3.62790   -0.00080    0.02410    2.73180   53.62270   96.86620   11.74540   20.32800   26.03170
 2559.00000   26.37940    0.11910   10.15790    3.83430   -0.00430    0.00690    2.67580   52.67650   97.41820   16.19040   29.98520   69.15050
 2559.50000   22.42290    0.06840   10.17620    4.23810   -0.00420   -0.04360    2.69090   51.90000   97.69560   39.28070   90.02680  347.36980
