~Version ---------------------------------------------------
VERS.   2.0 : CWLS log ASCII Standard -VERSION 2.0
WRAP.    NO : One line per depth step
DLM . SPACE : Column Data Section Delimiter
~Well ------------------------------------------------------
STRT .F                3534.0 : START DEPTH
STOP .F               12816.0 : STOP DEPTH
STEP .F                   0.5 : STEP
NULL .               -9999.25 : NULL VALUE
COMP .                        : COMPANY
WELL .                        : WELL
FLD  .                        : FIELD
LOC  .                        : LOCATION
PROV .                        : PROVINCE
CNTY .                        : COUNTY
STAT .                        : STATE
CTRY .                        : COUNTRY
SRVC .                        : SERVICE COMPANY
DATE .                        : DATE
UWI  .                        : UNIQUE WELL ID
API  .                        : API NUMBER
SLAT .WGS84 5.965102341517699 : SURFACE LATITUDE
SLON .WGS84 4.182719478617997 : SURFACE LONGITUDE
DATUM.F               2110.88 : DEPTH DATUM ELEV
~Curve Information -----------------------------------------
DEPT.F     : 
CALD.IN    : CALIPER FROM DENSITY LOG
RHOB.G/C3  : BULK DENSITY
DRHO.G/C3  : DENSITY CORRECTION
GRD .GAPI  : GAMMA RAY FROM DENSITY LOG
NPHI.DEC   : NEUTRON POROSITY LIMESTONE
DPHI.DEC   : DENSITY POROSITY LIMESTONE
DTSM.US/F  : SHEAR-WAVE TRANSIT TIME
DTCO.US/F  : COMPRESSIONAL-WAVE INTERVAL TRANSIT TIME ACOUSTIC SLOWNESS
SPR .MV    : SPONTANEOUS POTENTIAL FROM RES. LOG
SFL .OHMM  : SHALLOW FOCUSED LOG RESISTIVITY
ILD .OHMM  : INDUCTION LOG DEEP
ILM .OHMM  : INDUCTION LOG MEDIUM
GRR .GAPI  : GAMMA RAY FROM RES. LOG
IDPH.OHMM  : INDUCTION DEEP PHASOR RES.
IMPH.OHMM  : INDUCTION MEDIUM PHASOR RES.
~Params ----------------------------------------------------
~Other -----------------------------------------------------
~ASCII -----------------------------------------------------
# ...
 9721.00000   10.12790    2.66620   -0.01050   95.31660    0.23590    0.02320   -9999.25   -9999.25  -15.29410   10.08630    7.17320    7.52860  111.54090   -9999.25   -9999.25
 9721.50000   10.12900    2.66530   -0.00970   98.33970    0.23980    0.02420   -9999.25   -9999.25  -15.29410    9.89970    7.17290    7.50430  114.83650   -9999.25   -9999.25
 9722.00000   10.13010    2.66440   -0.00890  100.96350    0.24380    0.02520   -9999.25   -9999.25  -15.29410    9.46090    7.17300    7.48010  119.01570   -9999.25   -9999.25
 9722.50000   10.13130    2.66350   -0.00820  103.49330    0.24040    0.02650   -9999.25   -9999.25  -15.29410    9.03180    7.17300    7.45550  114.58210   -9999.25   -9999.25
 9723.00000   10.13210    2.66310   -0.00740  104.71330    0.23430    0.02650   -9999.25   -9999.25  -15.29410    8.96860    7.17300    7.43560  107.15480   -9999.25   -9999.25
 9723.50000   10.14040    2.66510   -0.00660  104.36810    0.22820    0.02560   -9999.25   -9999.25  -15.29410    9.08300    7.17300    7.42140  105.19030   -9999.25   -9999.25
 9724.00000   10.16640    2.66660   -0.00590  101.37710    0.22440    0.02460   -9999.25   -9999.25  -15.29410    9.16640    7.17300    7.40750  103.18650   -9999.25   -9999.25
 9724.50000   10.19040    2.66800   -0.00510   98.34050    0.22850    0.02370   -9999.25   -9999.25  -15.29410    9.25430    7.17300    7.39350  101.56720   -9999.25   -9999.25
 9725.00000   10.21470    2.67020   -0.00430   95.15800    0.23090    0.02280   -9999.25   -9999.25  -15.29410    9.24360    7.17300    7.37960   99.92040   -9999.25   -9999.25
 9725.50000   10.23900    2.66780   -0.00360   92.37940    0.23090    0.02160   -9999.25   -9999.25  -15.29410    9.21420    7.17300    7.36570  101.62090   -9999.25   -9999.25
 9726.00000   10.26330    2.66180   -0.00270   91.97950    0.23090    0.02620   -9999.25   -9999.25  -15.29410    9.18400    7.17300    7.35190  104.47710   -9999.25   -9999.25
 9726.50000   10.28770    2.65570   -0.00310   93.00310    0.23340    0.03000   -9999.25   -9999.25  -15.29410    9.15400    7.17300    7.33810  107.31400   -9999.25   -9999.25
 9727.00000   10.31200    2.65460   -0.00430   94.44700    0.23580    0.03380   -9999.25   -9999.25  -15.29410    9.12510    7.17300    7.32430  106.85330   -9999.25   -9999.25
 9727.50000   10.33500    2.65750   -0.00540   95.74390    0.23250    0.03200   -9999.25   -9999.25  -15.29410    9.10140    7.17300    7.31050  104.91690   -9999.25   -9999.25
 9728.00000   10.34410    2.66010   -0.00650   94.86920    0.23010    0.03020   -9999.25   -9999.25  -15.29410    9.24450    7.17300    7.29670  102.93970   -9999.25   -9999.25
 9728.50000   10.35330    2.66260   -0.00750   93.82410    0.22780    0.02850   -9999.25   -9999.25  -15.29410    9.36070    7.17300    7.28300  106.08160   -9999.25   -9999.25
 9729.00000   10.36220    2.66470   -0.00860   91.31490    0.22550    0.02680   -9999.25   -9999.25  -15.29410    9.47960    7.17300    7.26930  110.07140   -9999.25   -9999.25
 9729.50000   10.37120    2.66280   -0.00970   91.12930    0.22320    0.02490   -9999.25   -9999.25  -15.29410    9.61480    7.17300    7.25560  114.21180   -9999.25   -9999.25
 9730.00000   10.38020    2.66080   -0.01080   91.84600    0.22200    0.02690   -9999.25   -9999.25  -15.29410    9.47040    7.17300    7.24200  116.50730   -9999.25   -9999.25
 9730.50000   10.38920    2.65870   -0.01190   92.49230    0.22650    0.02930   -9999.25   -9999.25  -15.29410    9.30820    7.17300    7.22830  114.41850   -9999.25   -9999.25
 9731.00000   10.39820    2.65630   -0.01300   94.49120    0.22960    0.03170   -9999.25   -9999.25  -15.29410    9.14670    7.17300    7.21470  112.79460   -9999.25   -9999.25
 9731.50000   10.40720    2.64970   -0.01400   95.63720    0.23260    0.03400   -9999.25   -9999.25  -15.29410    9.10090    7.17300    7.20110  111.09210   -9999.25   -9999.25
 9732.00000   10.41630    2.65300   -0.01490   95.82910    0.23570    0.03620   -9999.25   -9999.25  -15.29410    9.19190    7.17300    7.18760  110.54140   -9999.25   -9999.25
 9732.50000   10.42530    2.65760   -0.01030   95.48730    0.23870    0.03130   -9999.25   -9999.25  -15.29410    9.26860    7.17300    7.17420  116.10160   -9999.25   -9999.25
 9733.00000   10.43430    2.66220   -0.00920   95.29020    0.24140    0.02680   -9999.25   -9999.25  -15.29410    9.20820    7.17300    7.16170  118.87860   -9999.25   -9999.25
 9733.50000   10.44310    2.66660   -0.00810   95.79280    0.24140    0.02500   -9999.25   -9999.25  -15.29410    9.14340    7.17300    7.14950  115.56680   -9999.25   -9999.25
 9734.00000   10.45290    2.67000   -0.00700   96.40800    0.23730    0.02320   -9999.25   -9999.25  -15.29410    9.07860    7.17300    7.13730  112.13160   -9999.25   -9999.25
 9734.50000   10.45590    2.67310   -0.00600   97.09880    0.23290    0.02140   -9999.25   -9999.25  -15.29410    9.01380    7.17300    7.12510  113.45820   -9999.25   -9999.25
 9735.00000   10.45330    2.67630   -0.00490   97.80670    0.23090    0.01960   -9999.25   -9999.25  -15.29410    8.94790    7.17300    7.11290  117.69340   -9999.25   -9999.25
 9735.50000   10.45150    2.67730   -0.00380   98.21650    0.23470    0.01920   -9999.25   -9999.25  -15.29410    8.96100    7.17300    7.10080  120.30020   -9999.25   -9999.25
 9736.00000   10.44950    2.67380   -0.00270   97.55380    0.23720    0.02140   -9999.25   -9999.25  -15.29410    8.99200    7.17300    7.08870  121.87740   -9999.25   -9999.25
 9736.50000   10.44770    2.67040   -0.00250   96.99280    0.23960    0.02310   -9999.25   -9999.25  -15.29410    9.02400    7.17300    7.07660  123.55670   -9999.25   -9999.25
 9737.00000   10.44580    2.66700   -0.00250   96.52320    0.24060    0.02480   -9999.25   -9999.25  -15.29410    9.05500    7.17300    7.06440  119.94280   -9999.25   -9999.25
 9737.50000   10.44390    2.66360   -0.00250   96.89610    0.23740    0.02640   -9999.25   -9999.25  -15.29410    9.09270    7.17300    7.05160  115.50930   -9999.25   -9999.25
 9738.00000   10.44200    2.66030   -0.00250   97.26610    0.23530    0.02800   -9999.25   -9999.25  -15.29410    9.05650    7.17300    7.04470  112.65230   -9999.25   -9999.25
 9738.50000   10.44010    2.65720   -0.00250   97.64240    0.23330    0.02970   -9999.25   -9999.25  -15.29410    8.97520    7.17340    7.08300  112.28370   -9999.25   -9999.25
 9739.00000   10.43820    2.65900   -0.00250   97.70920    0.23170    0.02870   -9999.25   -9999.25  -15.29410    8.89800    7.17050    7.11680  113.86430   -9999.25   -9999.25
 9739.50000   10.43630    2.66110   -0.00250   97.36990    0.23570    0.02780   -9999.25   -9999.25  -15.29420    8.82150    7.17770    7.15060  114.85250   -9999.25   -9999.25
 9740.00000   10.43440    2.66400   -0.00250   96.22540    0.23820    0.02690   -9999.25   -9999.25  -15.29390    8.74570    7.05190    7.18450  113.02770   -9999.25   -9999.25
 9740.50000   10.43250    2.66700   -0.00250   95.17420    0.23720    0.02590   -9999.25   -9999.25  -15.29500    8.66930    7.17980    7.21860  110.93170   -9999.25   -9999.25
 9741.00000   10.43070    2.66860   -0.00250   94.02990    0.23490    0.02480   -9999.25   -9999.25  -15.27220    8.61450    7.20050    7.25290  108.86650   -9999.25   -9999.25
 9741.50000   10.42880    2.66500   -0.00250   93.57400    0.23260    0.02580   -9999.25   -9999.25  -15.24980    8.83550    7.22740    7.28730  106.98830   -9999.25   -9999.25
 9742.00000   10.42690    2.66320   -0.00250   95.25320    0.23010    0.02700   -9999.25   -9999.25  -15.22720    9.01570    7.25420    7.32180  109.00620   -9999.25   -9999.25
 9742.50000   10.42500    2.66480   -0.00320   96.41030    0.22960    0.02810   -9999.25   -9999.25  -15.20480    9.19960    7.28100    7.35660  111.18350   -9999.25   -9999.25
 9743.00000   10.42310    2.66650   -0.00490   95.04350    0.22920    0.02700   -9999.25   -9999.25  -15.18230    9.38720    7.30800    7.39150  113.51980   -9999.25   -9999.25
 9743.50000   10.42120    2.66550   -0.00640   92.62490    0.22480    0.02650   -9999.25   -9999.25  -15.15980    9.57860    7.33500    7.42650  112.97940   -9999.25   -9999.25
