~Version ---------------------------------------------------
VERS.   2.0 : CWLS log ASCII Standard -VERSION 2.0
WRAP.    NO : One line per depth step
DLM . SPACE : Column Data Section Delimiter
~Well ------------------------------------------------------
STRT .F                3534.0 : START DEPTH
STOP .F               12816.0 : STOP DEPTH
STEP .F                   0.5 : STEP
NULL .               -9999.25 : NULL VALUE
COMP .                        : COMPANY
WELL .                        : WELL
FLD  .                        : FIELD
LOC  .                        : LOCATION
PROV .                        : PROVINCE
CNTY .                        : COUNTY
STAT .                        : STATE
CTRY .                        : COUNTRY
SRVC .                        : SERVICE COMPANY
DATE .                        : DATE
UWI  .                        : UNIQUE WELL ID
API  .                        : API NUMBER
SLAT .WGS84 5.965102341517699 : SURFACE LATITUDE
SLON .WGS84 4.182719478617997 : SURFACE LONGITUDE
DATUM.F               2110.88 : DEPTH DATUM ELEV
~Curve Information -----------------------------------------
DEPT.F     : 
CALD.IN    : CALIPER FROM DENSITY LOG
RHOB.G/C3  : BULK DENSITY
DRHO.G/C3  : DENSITY CORRECTION
GRD .GAPI  : GAMMA RAY FROM DENSITY LOG
NPHI.DEC   : NEUTRON POROSITY LIMESTONE
DPHI.DEC   : DENSITY POROSITY LIMESTONE
DTSM.US/F  : SHEAR-WAVE TRANSIT TIME
DTCO.US/F  : COMPRESSIONAL-WAVE INTERVAL TRANSIT TIME ACOUSTIC SLOWNESS
SPR .MV    : SPONTANEOUS POTENTIAL FROM RES. LOG
SFL .OHMM  : SHALLOW FOCUSED LOG RESISTIVITY
ILD .OHMM  : INDUCTION LOG DEEP
ILM .OHMM  : INDUCTION LOG MEDIUM
GRR .GAPI  : GAMMA RAY FROM RES. LOG
IDPH.OHMM  : INDUCTION DEEP PHASOR RES.
IMPH.OHMM  : INDUCTION MEDIUM PHASOR RES.
~Params ----------------------------------------------------
~Other -----------------------------------------------------
~ASCII -----------------------------------------------------
# ...
 8939.00000   11.00920    2.62240   -0.00090   86.71600    0.16030    0.05230   -9999.25   -9999.25  -18.36280   31.40480   20.49280   19.44630  105.91370   -9999.25   -9999.25
 8939.50000   11.00310    2.63250   -0.00050   86.98200    0.14870    0.04780   -9999.25   -9999.25  -18.27900   36.24420   21.23920   20.41160  103.74200   -9999.25   -9999.25
 8940.00000   10.99710    2.64120   -0.00020   82.79730    0.13720    0.04330   -9999.25   -9999.25  -18.19580   41.90850   22.01280   21.42480   99.67890   -9999.25   -9999.25
 8940.50000   10.99100    2.64830    0.00020   78.05940    0.13430    0.03890   -9999.25   -9999.25  -18.11280   46.43390   22.81390   22.48840   95.67700   -9999.25   -9999.25
 8941.00000   10.98480    2.64410    0.00060   80.07640    0.13150    0.03620   -9999.25   -9999.25  -18.02980   42.85210   23.64500   23.60470   92.57840   -9999.25   -9999.25
 8941.50000   10.98030    2.63970    0.00100   84.44370    0.12870    0.04090   -9999.25   -9999.25  -17.94680   40.27550   24.50690   24.77640   91.88630   -9999.25   -9999.25
 8942.00000   11.01840    2.64120    0.00120   87.68250    0.12590    0.04420   -9999.25   -9999.25  -17.86380   37.85370   24.91480   26.00200   90.87620   -9999.25   -9999.25
 8942.50000   11.05160    2.65030    0.00320   88.32130    0.12300    0.03850   -9999.25   -9999.25  -17.78080   38.82480   22.85100   26.33640   94.96010   -9999.25   -9999.25
 8943.00000   11.08550    2.65880    0.00550   87.48370    0.12020    0.03270   -9999.25   -9999.25  -17.69780   40.98970   21.60220   23.97170  100.78210   -9999.25   -9999.25
 8943.50000   11.11930    2.66740    0.00830   85.89630    0.12360    0.02700   -9999.25   -9999.25  -17.61480   42.37150   20.42170   22.38830  106.44290   -9999.25   -9999.25
 8944.00000   11.15300    2.67600    0.01110   86.66550    0.14060    0.02120   -9999.25   -9999.25  -17.53180   38.28800   19.30570   20.90280  112.10350   -9999.25   -9999.25
 8944.50000   11.18670    2.68350    0.01380   90.67000    0.15600    0.01550   -9999.25   -9999.25  -17.44880   30.62730   18.25060   19.51580  117.88780   -9999.25   -9999.25
 8945.00000   11.22050    2.68680    0.01660   94.35000    0.16500    0.01430   -9999.25   -9999.25  -17.36570   24.99520   17.25330   18.22110  122.63570   -9999.25   -9999.25
 8945.50000   11.25420    2.68600    0.01930   98.06230    0.17410    0.01480   -9999.25   -9999.25  -17.28270   22.43650   16.31040   17.01450  124.41530   -9999.25   -9999.25
 8946.00000   11.28790    2.68390    0.02210  101.57420    0.17670    0.01540   -9999.25   -9999.25  -17.19970   21.51980   15.41900   15.89360  125.14670   -9999.25   -9999.25
 8946.50000   11.32170    2.67990    0.02480  101.28540    0.17750    0.01660   -9999.25   -9999.25  -17.11670   21.67940   14.65010   14.89930  123.26510   -9999.25   -9999.25
 8947.00000   11.35540    2.67620    0.02750  100.62960    0.17840    0.01970   -9999.25   -9999.25  -17.03340   21.80580   14.27580   14.36740  121.28490   -9999.25   -9999.25
 8947.50000   11.38920    2.67110    0.02820  100.19350    0.17930    0.02280   -9999.25   -9999.25  -16.95090   21.91750   13.92410   13.87320  119.04070   -9999.25   -9999.25
 8948.00000   11.42280    2.65670    0.02870  102.09660    0.18010    0.02590   -9999.25   -9999.25  -16.87060   20.80380   13.57800   13.39630  118.52220   -9999.25   -9999.25
 8948.50000   11.45620    2.64330    0.02920  103.72350    0.18210    0.02910   -9999.25   -9999.25  -16.85870   19.85840   13.24400   12.93710  122.77770   -9999.25   -9999.25
 8949.00000   11.47710    2.62830    0.02960  105.41260    0.18880    0.04010   -9999.25   -9999.25  -16.91160   18.93100   12.91990   12.49360  125.88940   -9999.25   -9999.25
 8949.50000   11.49390    2.60600    0.03000  107.23370    0.19540    0.05310   -9999.25   -9999.25  -16.95350   17.29500   12.63690   12.06720  129.03470   -9999.25   -9999.25
 8950.00000   11.51080    2.61650    0.03230  110.35880    0.20210    0.06610   -9999.25   -9999.25  -16.99590   16.35140   12.42150   12.16190  130.25840   -9999.25   -9999.25
 8950.50000   11.52760    2.63540    0.03460  113.43770    0.20980    0.05560   -9999.25   -9999.25  -17.03810   16.56370   12.78820   12.40230  124.64580   -9999.25   -9999.25
 8951.00000   11.54450    2.65500    0.03580  110.05940    0.20230    0.03960   -9999.25   -9999.25  -17.08040   17.10530   13.05110   12.64520  119.09700   -9999.25   -9999.25
 8951.50000   11.56120    2.66580    0.03160  104.27160    0.19300    0.03060   -9999.25   -9999.25  -17.12260   18.24680   13.32080   12.89350  113.05730   -9999.25   -9999.25
 8952.00000   11.57910    2.67260    0.02760  100.09930    0.18370    0.02560   -9999.25   -9999.25  -17.16480   19.46440   13.59690   13.14660  110.60430   -9999.25   -9999.25
 8952.50000   11.59090    2.68000    0.02350   97.47390    0.17680    0.02060   -9999.25   -9999.25  -17.20710   20.76330   13.87870   13.40470  113.54500   -9999.25   -9999.25
 8953.00000   11.60050    2.67200    0.01940   96.94940    0.17990    0.01600   -9999.25   -9999.25  -17.24930   21.51980   14.16630   13.66780  114.02970   -9999.25   -9999.25
 8953.50000   11.61030    2.66110    0.01540   97.12710    0.18240    0.02520   -9999.25   -9999.25  -17.29150   21.04650   14.38430   13.86710  109.88680   -9999.25   -9999.25
 8954.00000   11.62010    2.65120    0.01130   96.10550    0.18490    0.03290   -9999.25   -9999.25  -17.33380   20.74600   14.38430   13.64190  108.39190   -9999.25   -9999.25
 8954.50000   11.62990    2.65040    0.00780   94.83960    0.19090    0.03470   -9999.25   -9999.25  -17.37600   21.57790   13.82050   13.46480  109.37720   -9999.25   -9999.25
 8955.00000   11.63970    2.64710    0.00430   95.63710    0.19830    0.03630   -9999.25   -9999.25  -17.41820   22.32250   13.65050   13.29070  110.67050   -9999.25   -9999.25
 8955.50000   11.64950    2.61360    0.00070   96.90500    0.20570    0.04380   -9999.25   -9999.25  -17.46040   20.65600   13.48250   13.11850  111.51310   -9999.25   -9999.25
 8956.00000   11.65930    2.57790   -0.00250   96.71750    0.21130    0.06440   -9999.25   -9999.25  -17.50270   19.22530   13.31670   12.94850  111.32300   -9999.25   -9999.25
 8956.50000   11.66910    2.56390   -0.00620   96.27850    0.21540    0.08520   -9999.25   -9999.25  -17.54490   17.89370   13.15280   12.78080  110.92370   -9999.25   -9999.25
 8957.00000   11.67890    2.56280    0.01170   95.67940    0.21950    0.08690   -9999.25   -9999.25  -17.58720   17.08160   12.99100   12.61520  112.49800   -9999.25   -9999.25
 8957.50000   11.68870    2.56460    0.03180   98.18020    0.22360    0.08870   -9999.25   -9999.25  -17.62940   16.74750   12.83120   12.45170  120.73370   -9999.25   -9999.25
 8958.00000   11.69850    2.58110    0.05300  104.17020    0.22770    0.07690   -9999.25   -9999.25  -17.67160   16.40770   12.67330   12.29040  126.17470   -9999.25   -9999.25
 8958.50000   11.70830    2.59940    0.05840  107.16550    0.22770    0.06490   -9999.25   -9999.25  -17.71390   16.05710   12.51740   12.13120  129.46650   -9999.25   -9999.25
 8959.00000   11.71810    2.61780    0.05950  108.20490    0.22380    0.05440   -9999.25   -9999.25  -17.75610   16.05470   12.36330   11.97400  127.82100   -9999.25   -9999.25
 8959.50000   11.72790    2.63550    0.03860  104.04400    0.20560    0.04770   -9999.25   -9999.25  -17.79830   17.84310   12.21120   11.81890  122.85990   -9999.25   -9999.25
 8960.00000   11.73760    2.65040    0.02060  101.59910    0.18750    0.04110   -9999.25   -9999.25  -17.84050   19.56820   12.06100   11.66570  120.16460   -9999.25   -9999.25
 8960.50000   11.74740    2.66370    0.00310  103.56940    0.17010    0.03460   -9999.25   -9999.25  -17.88280   21.51980   11.91260   11.51460  117.87990   -9999.25   -9999.25
 8961.00000   11.75720    2.66590    0.00090  105.39330    0.17670    0.02740   -9999.25   -9999.25  -17.92500   19.67740   11.76610   11.36540  120.45110   -9999.25   -9999.25
 8961.50000   11.76700    2.64710    0.00210  104.69260    0.18640    0.02640   -9999.25   -9999.25  -17.96730   17.94270   11.62130   11.21820  123.91180   -9999.25   -9999.25
