~Version ---------------------------------------------------
VERS.   2.0 : CWLS log ASCII Standard -VERSION 2.0
WRAP.    NO : One line per depth step
DLM . SPACE : Column Data Section Delimiter
~Well ------------------------------------------------------
STRT .F                3534.0 : START DEPTH
STOP .F               12816.0 : STOP DEPTH
STEP .F                   0.5 : STEP
NULL .               -9999.25 : NULL VALUE
COMP .                        : COMPANY
WELL .                        : WELL
FLD  .                        : FIELD
LOC  .                        : LOCATION
PROV .                        : PROVINCE
CNTY .                        : COUNTY
STAT .                        : STATE
CTRY .                        : COUNTRY
SRVC .                        : SERVICE COMPANY
DATE .                        : DATE
UWI  .                        : UNIQUE WELL ID
API  .                        : API NUMBER
SLAT .WGS84 5.965102341517699 : SURFACE LATITUDE
SLON .WGS84 4.182719478617997 : SURFACE LONGITUDE
DATUM.F               2110.88 : DEPTH DATUM ELEV
~Curve Information -----------------------------------------
DEPT.F     : 
CALD.IN    : CALIPER FROM DENSITY LOG
RHOB.G/C3  : BULK DENSITY
DRHO.G/C3  : DENSITY CORRECTION
GRD .GAPI  : GAMMA RAY FROM DENSITY LOG
NPHI.DEC   : NEUTRON POROSITY LIMESTONE
DPHI.DEC   : DENSITY POROSITY LIMESTONE
DTSM.US/F  : SHEAR-WAVE TRANSIT TIME
DTCO.US/F  : COMPRESSIONAL-WAVE INTERVAL TRANSIT TIME ACOUSTIC SLOWNESS
SPR .MV    : SPONTANEOUS POTENTIAL FROM RES. LOG
SFL .OHMM  : SHALLOW FOCUSED LOG RESISTIVITY
ILD .OHMM  : INDUCTION LOG DEEP
ILM .OHMM  : INDUCTION LOG MEDIUM
GRR .GAPI  : GAMMA RAY FROM RES. LOG
IDPH.OHMM  : INDUCTION DEEP PHASOR RES.
IMPH.OHMM  : INDUCTION MEDIUM PHASOR RES.
~Params ----------------------------------------------------
~Other -----------------------------------------------------
~ASCII -----------------------------------------------------
# ...
 8548.00000   10.62370    2.46610    0.04920   98.68480    0.25760    0.15260   -9999.25   -9999.25  -14.54980    9.41320    7.33830    7.73800  117.93590   -9999.25   -9999.25
 8548.50000   10.75550    2.49040    0.05070  101.47800    0.25840    0.13740   -9999.25   -9999.25  -14.52540    9.57370    7.36380    7.81420  119.59340   -9999.25   -9999.25
 8549.00000   10.84760    2.46550    0.03880  103.46360    0.25890    0.12810   -9999.25   -9999.25  -14.49710    9.36340    7.38920    7.86280  121.31260   -9999.25   -9999.25
 8549.50000   10.77330    2.45830    0.03550  104.26340    0.25920    0.14010   -9999.25   -9999.25  -14.45670    9.09910    7.41460    7.70100  122.44810   -9999.25   -9999.25
 8550.00000   10.68290    2.49890    0.03580  105.11490    0.25360    0.13230   -9999.25   -9999.25  -14.41900    9.39100    7.44110    7.45150  119.64610   -9999.25   -9999.25
 8550.50000   10.62580    2.53490    0.03560  105.94430    0.24900    0.10160   -9999.25   -9999.25  -14.38070    9.64080    7.44020    7.20490  117.11710   -9999.25   -9999.25
 8551.00000   10.71490    2.52690    0.03580  106.69740    0.25470    0.10460   -9999.25   -9999.25  -14.34260    9.79200    7.44070    6.96650  112.15450   -9999.25   -9999.25
 8551.50000   10.79040    2.49920    0.03860  106.37620    0.27510    0.11900   -9999.25   -9999.25  -14.30450    9.07270    7.44060    6.78960  106.94240   -9999.25   -9999.25
 8552.00000   10.87830    2.46170    0.05220  105.60640    0.28670    0.13790   -9999.25   -9999.25  -14.26630    8.61280    7.44060    6.82300  105.46560   -9999.25   -9999.25
 8552.50000   10.85310    2.44310    0.06550  104.28800    0.28400    0.15980   -9999.25   -9999.25  -14.22820    9.10670    7.44060    6.85020  111.70070   -9999.25   -9999.25
 8553.00000   10.77330    2.52580    0.07860  103.30980    0.27470    0.13600   -9999.25   -9999.25  -14.19000    9.60190    7.44060    6.87740  116.45900   -9999.25   -9999.25
 8553.50000   10.68960    2.57750    0.09220  105.02630    0.26400    0.10780   -9999.25   -9999.25  -14.15180    9.97340    7.44060    6.90480  121.47150   -9999.25   -9999.25
 8554.00000   10.66820    2.55630    0.08400  106.92970    0.26950    0.08140   -9999.25   -9999.25  -14.11370    9.06860    7.44060    6.93230  122.39040   -9999.25   -9999.25
 8554.50000   10.78710    2.52620    0.07970  106.11240    0.28260    0.09520   -9999.25   -9999.25  -14.07550    8.61440    7.44060    6.95980  123.92220   -9999.25   -9999.25
 8555.00000   10.87950    2.52340    0.07500  102.59520    0.28260    0.10810   -9999.25   -9999.25  -14.03740    9.15200    7.44060    6.98750  123.79260   -9999.25   -9999.25
 8555.50000   10.86440    2.53000    0.07230   99.19680    0.27780    0.11070   -9999.25   -9999.25  -13.99920    9.58590    7.44060    7.01530  123.83960   -9999.25   -9999.25
 8556.00000   10.89730    2.54220    0.06570   98.84990    0.27370    0.10400   -9999.25   -9999.25  -13.96110    9.78820    7.44060    7.04320  123.95200   -9999.25   -9999.25
 8556.50000   10.99480    2.49760    0.05140   98.29370    0.29720    0.11870   -9999.25   -9999.25  -13.92290    9.11850    7.44060    7.07120  124.97030   -9999.25   -9999.25
 8557.00000   10.93280    2.44840    0.03710   97.84570    0.30070    0.13850   -9999.25   -9999.25  -13.88480    8.94060    7.44060    7.09980  125.92950   -9999.25   -9999.25
 8557.50000   10.74700    2.43770    0.03400   97.22280    0.28070    0.16020   -9999.25   -9999.25  -13.84660    9.53770    7.44130    7.12760  126.85800   -9999.25   -9999.25
 8558.00000   10.57060    2.52100    0.03790   98.07110    0.25550    0.11110   -9999.25   -9999.25  -13.80850    9.94380    7.43800    7.15600  127.75910   -9999.25   -9999.25
 8558.50000   10.54540    2.61190    0.03560  100.04410    0.24870    0.05690   -9999.25   -9999.25  -13.77030   10.36710    7.44600    6.99730  128.66940   -9999.25   -9999.25
 8559.00000   10.61440    2.57460    0.02800  100.33660    0.27720    0.05640   -9999.25   -9999.25  -13.73220    9.58780    7.29570    6.57810  129.57470   -9999.25   -9999.25
 8559.50000   10.65730    2.52290    0.02050  101.69560    0.29960    0.09960   -9999.25   -9999.25  -13.69400    8.21590    7.21180    6.19560  131.03460   -9999.25   -9999.25
 8560.00000   10.63120    2.46760    0.01720  104.21130    0.30770    0.13750   -9999.25   -9999.25  -13.65590    7.30560    7.13440    6.33890  126.61700   -9999.25   -9999.25
 8560.50000   10.58790    2.44380    0.03410  106.62950    0.30080    0.16140   -9999.25   -9999.25  -13.61770    8.02010    7.05870    6.76360  118.87080   -9999.25   -9999.25
 8561.00000   10.54510    2.51190    0.04750  109.21220    0.27150    0.13160   -9999.25   -9999.25  -13.57960    8.64720    6.98460    6.91510  116.22150   -9999.25   -9999.25
 8561.50000   10.50300    2.53500    0.06030  110.37500    0.27220    0.10980   -9999.25   -9999.25  -13.54140    9.26900    6.91510    6.67650  116.62670   -9999.25   -9999.25
 8562.00000   10.46080    2.50060    0.05110  107.04320    0.27560    0.12480   -9999.25   -9999.25  -13.50330    9.26900    6.78960    6.54550  116.20400   -9999.25   -9999.25
 8562.50000   10.45190    2.38390    0.04950  102.82280    0.28140    0.16550   -9999.25   -9999.25  -13.46510    9.26900    6.85740    6.58100  115.36480   -9999.25   -9999.25
 8563.00000   10.44370    2.33470    0.04830   98.70550    0.28730    0.20620   -9999.25   -9999.25  -13.42700    9.26900    6.91040    6.60880  114.49610   -9999.25   -9999.25
 8563.50000   10.43610    2.31430    0.05500   94.47240    0.29070    0.23090   -9999.25   -9999.25  -13.38880    9.16370    6.96400    6.63670  116.28250   -9999.25   -9999.25
 8564.00000   10.42820    2.35100    0.06260   92.18620    0.28540    0.22140   -9999.25   -9999.25  -13.35060    9.05200    7.01780    6.66470  115.46510   -9999.25   -9999.25
 8564.50000   10.42010    2.42160    0.07020   93.68840    0.28150    0.18240   -9999.25   -9999.25  -13.31250    8.94110    7.04410    6.69280  114.95220   -9999.25   -9999.25
 8565.00000   10.41490    2.49410    0.07820   95.19190    0.28300    0.14350   -9999.25   -9999.25  -13.27440    8.83150    7.04280    6.72110  114.46730   -9999.25   -9999.25
 8565.50000   10.40980    2.52740    0.08230   96.74520    0.28750    0.10650   -9999.25   -9999.25  -13.23620    8.72410    7.04330    6.74930  115.01250   -9999.25   -9999.25
 8566.00000   10.40390    2.47100    0.06520   98.18240    0.28860    0.14030   -9999.25   -9999.25  -13.19800    8.61710    7.04510    6.77760  115.64430   -9999.25   -9999.25
 8566.50000   10.39810    2.39650    0.04850   99.34060    0.28300    0.17260   -9999.25   -9999.25  -13.15990    8.70660    7.15280    6.87440  116.68220   -9999.25   -9999.25
 8567.00000   10.39220    2.37860    0.04240   99.97650    0.27780    0.19630   -9999.25   -9999.25  -13.12170    8.86490    7.32820    7.02730  120.27090   -9999.25   -9999.25
 8567.50000   10.38640    2.40980    0.06570  100.82730    0.27260    0.17130   -9999.25   -9999.25  -13.08360    9.02610    7.51310    7.18080  123.77270   -9999.25   -9999.25
 8568.00000   10.38060    2.44660    0.09120  101.76840    0.26890    0.15200   -9999.25   -9999.25  -13.04540    9.19020    7.70290    7.33780  126.31620   -9999.25   -9999.25
 8568.50000   10.37470    2.48410    0.11740  100.79440    0.27330    0.13250   -9999.25   -9999.25  -13.00720    9.35710    7.89750    7.49810  127.71030   -9999.25   -9999.25
 8569.00000   10.36890    2.49740    0.13510  100.01260    0.27700    0.12330   -9999.25   -9999.25  -12.96730    9.52720    8.00600    7.66200  129.18960   -9999.25   -9999.25
 8569.50000   10.36310    2.50960    0.13280   99.60690    0.27380    0.11840   -9999.25   -9999.25  -12.94580    9.70060    7.76400    7.48480  130.82510   -9999.25   -9999.25
 8570.00000   10.35720    2.53740    0.12310  101.33360    0.26770    0.10650   -9999.25   -9999.25  -12.99070    9.79240    7.41260    7.14630  131.32370   -9999.25   -9999.25
 8570.50000   10.35140    2.56900    0.10910  102.74220    0.26160    0.09190   -9999.25   -9999.25  -13.02830    9.24980    7.07700    6.82490  129.80860   -9999.25   -9999.25
