~Version ---------------------------------------------------
VERS.   2.0 : CWLS log ASCII Standard -VERSION 2.0
WRAP.    NO : One line per depth step
DLM . SPACE : Column Data Section Delimiter
~Well ------------------------------------------------------
STRT .F                3534.0 : START DEPTH
STOP .F               12816.0 : STOP DEPTH
STEP .F                   0.5 : STEP
NULL .               -9999.25 : NULL VALUE
COMP .                        : COMPANY
WELL .                        : WELL
FLD  .                        : FIELD
LOC  .                        : LOCATION
PROV .                        : PROVINCE
CNTY .                        : COUNTY
STAT .                        : STATE
CTRY .                        : COUNTRY
SRVC .                        : SERVICE COMPANY
DATE .                        : DATE
UWI  .                        : UNIQUE WELL ID
API  .                        : API NUMBER
SLAT .WGS84 5.965102341517699 : SURFACE LATITUDE
SLON .WGS84 4.182719478617997 : SURFACE LONGITUDE
DATUM.F               2110.88 : DEPTH DATUM ELEV
~Curve Information -----------------------------------------
DEPT.F     : 
CALD.IN    : CALIPER FROM DENSITY LOG
RHOB.G/C3  : BULK DENSITY
DRHO.G/C3  : DENSITY CORRECTION
GRD .GAPI  : GAMMA RAY FROM DENSITY LOG
NPHI.DEC   : NEUTRON POROSITY LIMESTONE
DPHI.DEC   : DENSITY POROSITY LIMESTONE
DTSM.US/F  : SHEAR-WAVE TRANSIT TIME
DTCO.US/F  : COMPRESSIONAL-WAVE INTERVAL TRANSIT TIME ACOUSTIC SLOWNESS
SPR .MV    : SPONTANEOUS POTENTIAL FROM RES. LOG
SFL .OHMM  : SHALLOW FOCUSED LOG RESISTIVITY
ILD .OHMM  : INDUCTION LOG DEEP
ILM .OHMM  : INDUCTION LOG MEDIUM
GRR .GAPI  : GAMMA RAY FROM RES. LOG
IDPH.OHMM  : INDUCTION DEEP PHASOR RES.
IMPH.OHMM  : INDUCTION MEDIUM PHASOR RES.
~Params ----------------------------------------------------
~Other -----------------------------------------------------
~ASCII -----------------------------------------------------
# ...
 6984.00000   -9999.25   -9999.25   -9999.25   -9999.25   -9999.25   -9999.25   -9999.25   -9999.25  -19.16270    7.02270    4.23470    3.92660  111.75300   -9999.25   -9999.25
 6984.50000   -9999.25   -9999.25   -9999.25   -9999.25   -9999.25   -9999.25   -9999.25   -9999.25  -19.18540    6.72890    4.73060    3.73760  108.22570   -9999.25   -9999.25
 6985.00000   -9999.25   -9999.25   -9999.25   -9999.25   -9999.25   -9999.25   -9999.25   -9999.25  -19.20480    6.04750    5.26560    3.72390  104.88780   -9999.25   -9999.25
 6985.50000   -9999.25   -9999.25   -9999.25   -9999.25   -9999.25   -9999.25   -9999.25   -9999.25  -18.87780    5.44510    5.86340    4.48870  101.85470   -9999.25   -9999.25
 6986.00000   -9999.25   -9999.25   -9999.25   -9999.25   -9999.25   -9999.25   -9999.25   -9999.25  -18.52560    6.19610    6.97010    5.35890  101.25110   -9999.25   -9999.25
 6986.50000   -9999.25   -9999.25   -9999.25   -9999.25   -9999.25   -9999.25   -9999.25   -9999.25  -18.17080    9.03210    8.88140    6.39510   93.77350   -9999.25   -9999.25
 6987.00000   -9999.25   -9999.25   -9999.25   -9999.25   -9999.25   -9999.25   -9999.25   -9999.25  -17.81790   16.07830   11.31690    7.63160   85.00350   -9999.25   -9999.25
 6987.50000   -9999.25   -9999.25   -9999.25   -9999.25   -9999.25   -9999.25   -9999.25   -9999.25  -17.46500   30.11370   14.42030    9.26900   82.75280   -9999.25   -9999.25
 6988.00000   -9999.25   -9999.25   -9999.25   -9999.25   -9999.25   -9999.25   -9999.25   -9999.25  -17.11200   39.31270   17.91910   13.79010   82.44010   -9999.25   -9999.25
 6988.50000   -9999.25   -9999.25   -9999.25   -9999.25   -9999.25   -9999.25   -9999.25   -9999.25  -16.75910   46.43390   19.23780   22.32250   89.65990   -9999.25   -9999.25
 6989.00000   -9999.25   -9999.25   -9999.25   -9999.25   -9999.25   -9999.25   -9999.25   -9999.25  -16.40620   40.61310   20.36960   22.79060   97.14330   -9999.25   -9999.25
 6989.50000   -9999.25   -9999.25   -9999.25   -9999.25   -9999.25   -9999.25   -9999.25   -9999.25  -16.05590   35.31790   18.68250   22.91220  104.73480   -9999.25   -9999.25
 6990.00000   -9999.25   -9999.25   -9999.25   -9999.25   -9999.25   -9999.25   -9999.25   -9999.25  -15.70300   27.46560   17.28450   19.72330  112.13080   -9999.25   -9999.25
 6990.50000   -9999.25   -9999.25   -9999.25   -9999.25   -9999.25   -9999.25   -9999.25   -9999.25  -15.21780   19.92120   15.99110   16.97820  120.02420   -9999.25   -9999.25
 6991.00000   -9999.25   -9999.25   -9999.25   -9999.25   -9999.25   -9999.25   -9999.25   -9999.25  -14.52850   16.85880   14.79440   14.61520  119.24100   -9999.25   -9999.25
 6991.50000   -9999.25   -9999.25   -9999.25   -9999.25   -9999.25   -9999.25   -9999.25   -9999.25  -14.79380   16.76660   13.61540   12.58100  115.08130   -9999.25   -9999.25
 6992.00000   11.26210    2.70320    0.03370   91.63310    0.16870   -9999.25   -9999.25   -9999.25  -14.96150   16.63580   11.80330   10.83000  110.84020   -9999.25   -9999.25
 6992.50000   11.26210    2.70320    0.03370   91.63310    0.17250   -9999.25   -9999.25   -9999.25  -15.14950   15.49630   10.12670    9.32300  109.62420   -9999.25   -9999.25
 6993.00000   11.22630    2.69410    0.03370   89.57280    0.20230    0.03050   -9999.25   -9999.25  -15.33480   14.57800    8.68830    8.02830  110.47970   -9999.25   -9999.25
 6993.50000   11.23820    2.67430    0.02960   88.83110    0.22090    0.04460   -9999.25   -9999.25  -15.52010   11.48910    7.73650    6.90820  111.38370   -9999.25   -9999.25
 6994.00000   11.25250    2.63190    0.02340   90.04670    0.21250    0.09840   -9999.25   -9999.25  -15.70540    9.28900    7.38900    6.08320  112.25280   -9999.25   -9999.25
 6994.50000   11.26740    2.56290    0.02110   91.12390    0.20380    0.10240   -9999.25   -9999.25  -15.89070    7.44060    7.05710    5.85490  113.11430   -9999.25   -9999.25
 6995.00000   11.28270    2.54760    0.02790   92.29480    0.19510    0.07870   -9999.25   -9999.25  -16.07600    7.81610    6.74010    5.82810  111.88930   -9999.25   -9999.25
 6995.50000   11.29510    2.58850    0.03410   93.06400    0.19850    0.05820   -9999.25   -9999.25  -16.26130    8.22350    6.43730    5.80130  110.41880   -9999.25   -9999.25
 6996.00000   11.36050    2.62100    0.04060   93.43990    0.21540    0.05660   -9999.25   -9999.25  -16.44740    8.65530    6.14810    5.77470  108.85660   -9999.25   -9999.25
 6996.50000   11.45930    2.61330    0.04600   93.89350    0.22720    0.06590   -9999.25   -9999.25  -16.62940    8.93570    6.00190    5.78260  108.88130   -9999.25   -9999.25
 6997.00000   11.55350    2.60210    0.04800   93.83750    0.23030    0.07530   -9999.25   -9999.25  -16.82350    9.00250    6.08130    5.85030  111.36070   -9999.25   -9999.25
 6997.50000   11.65250    2.58890    0.05190   93.32260    0.23740    0.07430   -9999.25   -9999.25  -16.78910    9.07170    6.16170    5.91580  116.04360   -9999.25   -9999.25
 6998.00000   11.66240    2.59430    0.06890   92.82480    0.25600    0.06230   -9999.25   -9999.25  -16.67730    9.10080    6.19560    5.98590  107.78650   -9999.25   -9999.25
 6998.50000   11.61890    2.60660    0.08610   92.39200    0.27470    0.05770   -9999.25   -9999.25  -16.57120    8.79860    6.49760    6.17870   98.51610   -9999.25   -9999.25
 6999.00000   11.57190    2.58920    0.09710   90.60990    0.27870    0.07330   -9999.25   -9999.25  -16.46530    8.62700    6.76420    6.35980   97.67690   -9999.25   -9999.25
 6999.50000   11.52490    2.56910    0.08980   89.05440    0.26540    0.09400   -9999.25   -9999.25  -16.35940    8.45810    7.04290    6.53750   97.45000   -9999.25   -9999.25
 7000.00000   11.47810    2.54780    0.08360   87.35540    0.25090    0.09830   -9999.25   -9999.25  -16.25350    8.91480    7.03470    6.85100   96.94810   -9999.25   -9999.25
 7000.50000   11.43130    2.55980    0.07720   85.75480    0.24320    0.08240   -9999.25   -9999.25  -16.14760    9.39810    6.99420    6.96300   96.10990   -9999.25   -9999.25
 7001.00000   11.38430    2.58010    0.07070   83.81930    0.24560    0.06650   -9999.25   -9999.25  -16.04170    9.69250    6.95430    6.76230   95.10400   -9999.25   -9999.25
 7001.50000   11.33290    2.60420    0.06430   86.11260    0.25220    0.07360   -9999.25   -9999.25  -15.93590    9.25380    6.91440    6.56870   93.90940   -9999.25   -9999.25
 7002.00000   11.34800    2.57050    0.05780   92.28640    0.26400    0.11250   -9999.25   -9999.25  -15.83000    8.60390    6.91550    6.52060   94.70410   -9999.25   -9999.25
 7002.50000   11.56470    2.50040    0.05150   98.32980    0.26680    0.13420   -9999.25   -9999.25  -15.72410    7.44060    6.91510    6.91830  101.75140   -9999.25   -9999.25
 7003.00000   11.70420    2.48090    0.04730  102.95790    0.25320    0.12770   -9999.25   -9999.25  -15.61820    7.03790    7.21440    7.34010  108.61290   -9999.25   -9999.25
 7003.50000   11.55850    2.51660    0.04650  103.66590    0.22410    0.11470   -9999.25   -9999.25  -15.51230    8.55240    7.50900    7.78770  114.43330   -9999.25   -9999.25
 7004.00000   11.32230    2.55700    0.04700  101.84260    0.19600    0.09240   -9999.25   -9999.25  -15.40640   10.63490    7.81540    8.26270  115.77170   -9999.25   -9999.25
 7004.50000   11.08020    2.59820    0.02530   96.62380    0.17900    0.06980   -9999.25   -9999.25  -15.30060   13.25450    8.13450    8.76650  114.47330   -9999.25   -9999.25
 7005.00000   11.01290    2.62840    0.00510   92.83940    0.17840    0.05140   -9999.25   -9999.25  -15.19470   13.81640    8.46650    9.30110  111.97210   -9999.25   -9999.25
 7005.50000   11.01400    2.63590   -0.00030   92.71760    0.18730    0.04170   -9999.25   -9999.25  -15.08880   13.39620    8.81220    9.79240  109.78210   -9999.25   -9999.25
 7006.00000   11.01050    2.64560    0.00140  101.23710    0.19800    0.03920   -9999.25   -9999.25  -14.98290   12.77910    9.17190    9.81450  114.54710   -9999.25   -9999.25
 7006.50000   11.00710    2.64590    0.00250  109.55520    0.20860    0.04160   -9999.25   -9999.25  -14.87700   11.72850    9.54630    9.87970  120.99200   -9999.25   -9999.25
