~Version ---------------------------------------------------
VERS.   2.0 : CWLS log ASCII Standard -VERSION 2.0
WRAP.    NO : One line per depth step
DLM . SPACE : Column Data Section Delimiter
~Well ------------------------------------------------------
STRT .F                3534.0 : START DEPTH
STOP .F               12816.0 : STOP DEPTH
STEP .F                   0.5 : STEP
NULL .               -9999.25 : NULL VALUE
COMP .                        : COMPANY
WELL .                        : WELL
FLD  .                        : FIELD
LOC  .                        : LOCATION
PROV .                        : PROVINCE
CNTY .                        : COUNTY
STAT .                        : STATE
CTRY .                        : COUNTRY
SRVC .                        : SERVICE COMPANY
DATE .                        : DATE
UWI  .                        : UNIQUE WELL ID
API  .                        : API NUMBER
SLAT .WGS84 5.965102341517699 : SURFACE LATITUDE
SLON .WGS84 4.182719478617997 : SURFACE LONGITUDE
DATUM.F               2110.88 : DEPTH DATUM ELEV
~Curve Information -----------------------------------------
DEPT.F     : 
CALD.IN    : CALIPER FROM DENSITY LOG
RHOB.G/C3  : BULK DENSITY
DRHO.G/C3  : DENSITY CORRECTION
GRD .GAPI  : GAMMA RAY FROM DENSITY LOG
NPHI.DEC   : NEUTRON POROSITY LIMESTONE
DPHI.DEC   : DENSITY POROSITY LIMESTONE
DTSM.US/F  : SHEAR-WAVE TRANSIT TIME
DTCO.US/F  : COMPRESSIONAL-WAVE INTERVAL TRANSIT TIME ACOUSTIC SLOWNESS
SPR .MV    : SPONTANEOUS POTENTIAL FROM RES. LOG
SFL .OHMM  : SHALLOW FOCUSED LOG RESISTIVITY
ILD .OHMM  : INDUCTION LOG DEEP
ILM .OHMM  : INDUCTION LOG MEDIUM
GRR .GAPI  : GAMMA RAY FROM RES. LOG
IDPH.OHMM  : INDUCTION DEEP PHASOR RES.
IMPH.OHMM  : INDUCTION MEDIUM PHASOR RES.
~Params ----------------------------------------------------
~Other -----------------------------------------------------
~ASCII -----------------------------------------------------
# ...
 10469.50000   11.24670    2.58220    0.12200  102.12830    0.22690    0.07680   -9999.25   -9999.25  -11.00190    6.83770    5.03170    5.30110  118.06060   -9999.25   -9999.25
 10470.00000   11.26690    2.58850    0.10380  105.05780    0.22450    0.07080   -9999.25   -9999.25  -10.98260    6.77850    5.01750    5.27190  111.29770   -9999.25   -9999.25
 10470.50000   11.28700    2.58350    0.09720  107.94190    0.21970    0.07800   -9999.25   -9999.25  -10.96340    6.72030    5.00330    5.24280  107.90920   -9999.25   -9999.25
 10471.00000   11.30710    2.57420    0.10770  107.24190    0.22590    0.08510   -9999.25   -9999.25  -10.94410    6.66240    4.98920    5.21390  112.58000   -9999.25   -9999.25
 10471.50000   11.32790    2.55370    0.11560  104.02450    0.23050    0.09210   -9999.25   -9999.25  -10.92480    6.60490    4.97510    5.18510  116.72440   -9999.25   -9999.25
 10472.00000   11.34200    2.54260    0.12360  100.92290    0.23120    0.09900   -9999.25   -9999.25  -10.90560    6.54860    4.96110    5.15650  121.26210   -9999.25   -9999.25
 10472.50000   11.35990    2.56680    0.13160   97.45050    0.23160    0.08340   -9999.25   -9999.25  -10.88630    6.54540    4.94710    5.12800  123.26590   -9999.25   -9999.25
 10473.00000   11.40670    2.58920    0.14030   96.37800    0.23500    0.06790   -9999.25   -9999.25  -10.86700    6.54480    4.93310    5.09940  120.14480   -9999.25   -9999.25
 10473.50000   11.45010    2.57720    0.14380   95.42950    0.23900    0.07810   -9999.25   -9999.25  -10.84780    6.54030    4.91900    5.07070  120.62090   -9999.25   -9999.25
 10474.00000   11.49740    2.55960    0.13730   96.58130    0.24140    0.08860   -9999.25   -9999.25  -10.82850    6.31920    4.90690    5.04090  120.81540   -9999.25   -9999.25
 10474.50000   11.50590    2.54940    0.15350   97.86700    0.23700    0.09130   -9999.25   -9999.25  -10.80920    6.19550    4.89040    4.97250  120.33430   -9999.25   -9999.25
 10475.00000   11.50370    2.57210    0.16790   98.89040    0.23250    0.08110   -9999.25   -9999.25  -10.79000    6.38000    4.97000    4.90660  118.26430   -9999.25   -9999.25
 10475.50000   11.50460    2.56530    0.16330   98.90990    0.23740    0.08260   -9999.25   -9999.25  -10.77070    6.40400    4.89890    4.84160  117.43390   -9999.25   -9999.25
 10476.00000   11.50160    2.52010    0.15180   98.88220    0.24550    0.10030   -9999.25   -9999.25  -10.75140    6.25070    4.82800    4.77730  118.28740   -9999.25   -9999.25
 10476.50000   11.54760    2.47860    0.14140   98.98150    0.25350    0.13350   -9999.25   -9999.25  -10.73220    6.14350    4.75690    4.71390  117.96400   -9999.25   -9999.25
 10477.00000   11.60790    2.44990    0.13100   97.74480    0.25950    0.15330   -9999.25   -9999.25  -10.71290    6.03810    4.68690    4.65140  115.96450   -9999.25   -9999.25
 10477.50000   11.65120    2.43000    0.12080   95.49380    0.26210    0.16210   -9999.25   -9999.25  -10.69370    5.93450    4.61780    4.58970  112.43170   -9999.25   -9999.25
 10478.00000   11.78330    2.40980    0.12280   93.27690    0.26480    0.17350   -9999.25   -9999.25  -10.67440    5.83270    4.54990    4.52880  111.26780   -9999.25   -9999.25
 10478.50000   12.02350    2.39020    0.12450   93.65030    0.27160    0.18570   -9999.25   -9999.25  -10.65510    5.75800    4.48290    4.46870  114.12680   -9999.25   -9999.25
 10479.00000   12.25280    2.37130    0.12520   94.84310    0.26760    0.19780   -9999.25   -9999.25  -10.63580    5.85410    4.41690    4.40940  116.52620   -9999.25   -9999.25
 10479.50000   12.39420    2.40270    0.13230   95.97590    0.25920    0.18390   -9999.25   -9999.25  -10.61660    5.93180    4.35190    4.35090  117.19790   -9999.25   -9999.25
 10480.00000   12.24560    2.43300    0.13900   97.10590    0.26990    0.16210   -9999.25   -9999.25  -10.59720    5.75800    4.28780    4.29320  114.07700   -9999.25   -9999.25
 10480.50000   12.09060    2.44440    0.14580   98.23550    0.27700    0.15630   -9999.25   -9999.25  -10.57940    5.63960    4.21780    4.23630  112.52680   -9999.25   -9999.25
 10481.00000   12.02590    2.40910    0.15280   99.36500    0.27450    0.17720   -9999.25   -9999.25  -10.56210    5.53220    4.23110    4.17970  110.61100   -9999.25   -9999.25
 10481.50000   12.13370    2.40250    0.15530  100.49460    0.27290    0.18270   -9999.25   -9999.25  -10.54500    5.42690    4.25810    4.14130  110.33810   -9999.25   -9999.25
 10482.00000   12.22270    2.40800    0.15110  101.63150    0.27410    0.17920   -9999.25   -9999.25  -10.52790    5.32350    4.28530    4.18590  106.50730   -9999.25   -9999.25
 10482.50000   12.31450    2.36060    0.13930  102.77170    0.27520    0.20210   -9999.25   -9999.25  -10.51080    5.25430    4.31260    4.22070  102.32540   -9999.25   -9999.25
 10483.00000   12.37980    2.31760    0.12850  103.59000    0.27340    0.22500   -9999.25   -9999.25  -10.49370    5.43500    4.34020    4.25550   99.03150   -9999.25   -9999.25
 10483.50000   12.26260    2.30890    0.11700  102.21350    0.27100    0.23410   -9999.25   -9999.25  -10.47660    5.57610    4.36790    4.29070  103.83680   -9999.25   -9999.25
 10484.00000   12.15440    2.38590    0.11130  100.92270    0.26860    0.20320   -9999.25   -9999.25  -10.45950    5.72090    4.39580    4.32620  108.81570   -9999.25   -9999.25
 10484.50000   12.03640    2.44140    0.11070   99.60770    0.26610    0.17750   -9999.25   -9999.25  -10.44240    5.73750    4.42380    4.36200  107.68750   -9999.25   -9999.25
 10485.00000   11.98450    2.44790    0.10990   98.26370    0.27250    0.15170   -9999.25   -9999.25  -10.42530    5.65580    4.45210    4.39810  109.05800   -9999.25   -9999.25
 10485.50000   11.98810    2.44090    0.11320   96.92360    0.28100    0.15610   -9999.25   -9999.25  -10.40820    5.59790    4.48050    4.43450  113.22960   -9999.25   -9999.25
 10486.00000   12.07970    2.43820    0.11780   95.54900    0.28950    0.16040   -9999.25   -9999.25  -10.39120    5.54820    4.50910    4.47120  116.87550   -9999.25   -9999.25
 10486.50000   12.29480    2.44620    0.12230   94.47620    0.29640    0.15790   -9999.25   -9999.25  -10.37410    5.77940    4.53670    4.50820  115.23540   -9999.25   -9999.25
 10487.00000   12.24450    2.45280    0.12600   94.12890    0.28590    0.15070   -9999.25   -9999.25  -10.35690    5.86460    4.53990    4.53830  111.89350   -9999.25   -9999.25
 10487.50000   12.09580    2.45760    0.12760   95.72190    0.27710    0.14760   -9999.25   -9999.25  -10.33990    5.79750    4.48680    4.48450  108.53850   -9999.25   -9999.25
 10488.00000   11.94430    2.44920    0.10840   96.52750    0.26840    0.18110   -9999.25   -9999.25  -10.32280    5.75590    4.44370    4.43950  105.60080   -9999.25   -9999.25
 10488.50000   11.90400    2.26540    0.06420   97.36720    0.26480    0.23920   -9999.25   -9999.25  -10.30570    5.71460    4.40120    4.39530  105.10140   -9999.25   -9999.25
 10489.00000   11.99710    2.16720    0.04330   97.56700    0.26480    0.29800   -9999.25   -9999.25  -10.28860    5.67360    4.35910    4.35140  105.96680   -9999.25   -9999.25
 10489.50000   12.06520    2.12530    0.04700   96.27640    0.27200    0.34440   -9999.25   -9999.25  -10.27150    5.63280    4.31740    4.30800  108.14180   -9999.25   -9999.25
 10490.00000   12.13450    2.11940    0.05970   95.26670    0.28260    0.33740   -9999.25   -9999.25  -10.25440    5.59240    4.27610    4.26500  110.24260   -9999.25   -9999.25
 10490.50000   12.20430    2.14550    0.07200   94.84830    0.29320    0.32810   -9999.25   -9999.25  -10.23730    5.55220    4.23510    4.22240  111.55290   -9999.25   -9999.25
 10491.00000   12.27120    2.15600    0.08440   95.25890    0.29960    0.31890   -9999.25   -9999.25  -10.22020    5.51230    4.19460    4.18100  112.25810   -9999.25   -9999.25
 10491.50000   12.34030    2.16890    0.09680   96.17660    0.29920    0.30970   -9999.25   -9999.25  -10.20310    5.47270    4.15450    4.13700  113.13100   -9999.25   -9999.25
