~Version ---------------------------------------------------
VERS.   2.0 : CWLS log ASCII Standard -VERSION 2.0
WRAP.    NO : One line per depth step
DLM . SPACE : Column Data Section Delimiter
~Well ------------------------------------------------------
STRT .F                3534.0 : START DEPTH
STOP .F               12816.0 : STOP DEPTH
STEP .F                   0.5 : STEP
NULL .               -9999.25 : NULL VALUE
COMP .                        : COMPANY
WELL .                        : WELL
FLD  .                        : FIELD
LOC  .                        : LOCATION
PROV .                        : PROVINCE
CNTY .                        : COUNTY
STAT .                        : STATE
CTRY .                        : COUNTRY
SRVC .                        : SERVICE COMPANY
DATE .                        : DATE
UWI  .                        : UNIQUE WELL ID
API  .                        : API NUMBER
SLAT .WGS84 5.965102341517699 : SURFACE LATITUDE
SLON .WGS84 4.182719478617997 : SURFACE LONGITUDE
DATUM.F               2110.88 : DEPTH DATUM ELEV
~Curve Information -----------------------------------------
DEPT.F     : 
CALD.IN    : CALIPER FROM DENSITY LOG
RHOB.G/C3  : BULK DENSITY
DRHO.G/C3  : DENSITY CORRECTION
GRD .GAPI  : GAMMA RAY FROM DENSITY LOG
NPHI.DEC   : NEUTRON POROSITY LIMESTONE
DPHI.DEC   : DENSITY POROSITY LIMESTONE
DTSM.US/F  : SHEAR-WAVE TRANSIT TIME
DTCO.US/F  : COMPRESSIONAL-WAVE INTERVAL TRANSIT TIME ACOUSTIC SLOWNESS
SPR .MV    : SPONTANEOUS POTENTIAL FROM RES. LOG
SFL .OHMM  : SHALLOW FOCUSED LOG RESISTIVITY
ILD .OHMM  : INDUCTION LOG DEEP
ILM .OHMM  : INDUCTION LOG MEDIUM
GRR .GAPI  : GAMMA RAY FROM RES. LOG
IDPH.OHMM  : INDUCTION DEEP PHASOR RES.
IMPH.OHMM  : INDUCTION MEDIUM PHASOR RES.
~Params ----------------------------------------------------
~Other -----------------------------------------------------
~ASCII -----------------------------------------------------
# ...
 11999.50000    5.22980    2.70100   -0.02080   37.13460    0.03780    0.00400  107.50960   66.51720  -24.54120   65.22310   -9999.25   -9999.25   44.38290   31.49990   30.36940
 12000.00000    5.22980    2.69510   -0.01980   45.67870    0.06330    0.00720  107.55860   64.15890  -24.14100   41.53680   -9999.25   -9999.25   50.83940   25.98650   23.63130
 12000.50000    5.22980    2.67780   -0.02340   54.09200    0.07200    0.01500  107.60760   61.96570  -23.74220   24.23060   -9999.25   -9999.25   57.27040   21.07460   17.81420
 12001.00000    5.22980    2.66140   -0.02610   62.08180    0.08070    0.02450  107.65650   61.87640  -23.35640   22.52250   -9999.25   -9999.25   63.48310   17.12260   14.26280
 12001.50000    5.22980    2.64430   -0.02890   63.82950    0.08460    0.03410  107.70550   61.80120  -23.32280   21.33660   -9999.25   -9999.25   63.83660   15.60910   12.88230
 12002.00000    5.22980    2.63480   -0.03080   61.89480    0.08510    0.04240  107.75640   61.72600  -23.30090   21.99770   -9999.25   -9999.25   61.23840   14.24090   11.66550
 12002.50000    5.22980    2.64100   -0.03000   61.59730    0.08730    0.04560  107.80370   61.65080  -23.28050   22.84070   -9999.25   -9999.25   60.66220   13.19070   12.09970
 12003.00000    5.22980    2.64630   -0.03160   62.47960    0.08950    0.03790  107.85250   61.55270  -23.25850   23.36090   -9999.25   -9999.25   60.62150   13.49650   12.09970
 12003.50000    5.22980    2.64280   -0.03290   63.35280    0.09160    0.03600  110.24750   62.78620  -23.23650   21.32070   -9999.25   -9999.25   61.36140   14.65930   12.32290
 12004.00000    5.22980    2.63050   -0.03330   58.54450    0.08700    0.04430  113.41690   64.07060  -23.21460   20.55580   -9999.25   -9999.25   62.77160   15.95630   13.01650
 12004.50000    5.22980    2.63530   -0.03000   47.17870    0.07030    0.04720  112.16190   64.73620  -23.19260   25.94260   -9999.25   -9999.25   61.92110   17.49250   14.77940
 12005.00000    5.22980    2.65170   -0.02760   38.86660    0.05370    0.04280  111.42340   62.78680  -23.17060   40.35190   -9999.25   -9999.25   56.37470   19.17490   16.78060
 12005.50000    5.22980    2.66720   -0.02490   33.06310    0.03700    0.03080  110.69630   61.48340  -23.14860   69.05900   -9999.25   -9999.25   50.64590   21.01760   19.05170
 12006.00000    5.22980    2.68280   -0.02390   37.45200    0.02620    0.01870  109.85490   59.98680  -23.12660  118.18880   -9999.25   -9999.25   44.31460   23.05070   21.65400
 12006.50000    5.22980    2.69510   -0.02660   46.22410    0.04020    0.00850  107.63430   55.23750  -23.10470  145.25830   -9999.25   -9999.25   42.61010   24.67990   23.79180
 12007.00000    5.22980    2.67920   -0.02870   54.64300    0.05070    0.01240  106.68870   55.23750  -23.08270   71.37590   -9999.25   -9999.25   51.49480   21.81510   21.21060
 12007.50000    5.22980    2.65900   -0.03080   63.29960    0.06970    0.02130  115.00000   57.34080  -23.06070   40.69500   -9999.25   -9999.25   61.88480   19.77780   19.35140
 12008.00000    5.22990    2.64100   -0.03370   62.17540    0.06590    0.03020  115.00000   60.38260  -23.03870   23.66500   -9999.25   -9999.25   72.39570   18.76080   17.76000
 12008.50000    5.23070    2.63930   -0.03420   58.24040    0.05410    0.03910  109.50340   57.73480  -23.01680   26.62750   -9999.25   -9999.25   73.95090   20.18950   17.76000
 12009.00000    5.23500    2.63560   -0.03790   54.40350    0.04250    0.04200  103.91820   54.06890  -22.99480   41.16570   -9999.25   -9999.25   66.59620   23.16870   21.67850
 12009.50000    5.23930    2.63780   -0.04140   50.65910    0.03440    0.04270  101.86090   52.86280  -22.97280   63.43940   -9999.25   -9999.25   58.77720   26.57380   27.26670
 12010.00000    5.24360    2.65320   -0.04480   45.43290    0.03060    0.03950  100.12300   56.08670  -22.95080   98.99950   -9999.25   -9999.25   51.00850   30.54050   34.29540
 12010.50000    5.24790    2.66620   -0.04060   44.27970    0.02660    0.02810   98.38500   57.61210  -22.92880  156.61720   -9999.25   -9999.25   43.34020   31.21580   44.28620
 12011.00000    5.25210    2.67250   -0.03570   49.47030    0.02450    0.01570   97.58570   56.02870  -22.90690  247.76840   -9999.25   -9999.25   35.35330   28.33940   44.28620
 12011.50000    5.25640    2.67890   -0.03060   63.53210    0.02330    0.01530   96.79420   55.23750  -22.88490  411.64430   -9999.25   -9999.25   30.91850   26.66380   38.26270
 12012.00000    5.26070    2.68390   -0.03270   77.40150    0.04240    0.01490   98.24490   56.02900  -22.86290  396.87070   -9999.25   -9999.25   34.84990   22.63330   31.10500
 12012.50000    5.26500    2.67560   -0.03690   84.69960    0.06980    0.01750  100.89310   60.10160  -22.84090  119.55800   -9999.25   -9999.25   50.77170   18.98450   20.46700
 12013.00000    5.26930    2.66620   -0.04090   87.24190    0.09310    0.02660  107.15910   61.96570  -22.81900   40.02480   -9999.25   -9999.25   66.29210   15.91280   13.46720
 12013.50000    5.27360    2.65600   -0.04500   88.97120    0.10890    0.03430  113.28000   61.63330  -22.79700   16.17780   -9999.25   -9999.25   79.83660   13.33090    9.83310
 12014.00000    5.27790    2.65250   -0.04900   87.66410    0.11170    0.02930  119.41210   65.55090  -22.77500   11.63820   -9999.25   -9999.25   89.54730   11.15160    9.07530
 12014.50000    5.28220    2.66650   -0.05310   86.62080    0.10940    0.02470  126.47760   71.46440  -22.75300   11.04320   -9999.25   -9999.25   96.54380    9.80210    8.91910
 12015.00000    5.28650    2.66810   -0.05710   82.98590    0.10770    0.02140  126.08180   73.04750  -22.73100   11.81890   -9999.25   -9999.25   93.12560    9.40000    8.68880
 12015.50000    5.29080    2.65900   -0.06130   74.59870    0.10600    0.02670  124.89450   72.93590  -22.70910   12.44470   -9999.25   -9999.25   84.86430    9.03850    8.71840
 12016.00000    5.29500    2.65120   -0.06330   61.28750    0.09810    0.03270  121.05520   72.44710  -22.68710   13.01730   -9999.25   -9999.25   76.66220    8.85920    8.70800
 12016.50000    5.29930    2.65570   -0.06150   56.47610    0.09080    0.03590  116.39290   71.95830  -22.66510   15.46830   -9999.25   -9999.25   69.76250   10.05250    9.98440
 12017.00000    5.30360    2.66830   -0.06000   58.00570    0.08340    0.03350  111.73060   71.46440  -22.64310   18.02370   -9999.25   -9999.25   67.09830   11.24140   11.27110
 12017.50000    5.30790    2.68060   -0.05860   62.15390    0.07600    0.02270  107.06840   69.88130  -22.62110   19.96640   -9999.25   -9999.25   61.37160   12.56600   12.72380
 12018.00000    5.31220    2.68530   -0.05560   64.96300    0.06720    0.01030  102.40610   64.40310  -22.59920   23.98740   -9999.25   -9999.25   49.30960   14.04680   14.36360
 12018.50000    5.31650    2.70930   -0.05270   65.10740    0.06010   -0.00220  100.35620   62.22450  -22.57710   45.99520   -9999.25   -9999.25   37.31160   15.70200   16.21470
 12019.00000    5.32080    2.73330   -0.05160   64.55830    0.06550   -0.01650  103.49410   61.96570  -22.55560   66.20200   -9999.25   -9999.25   32.61540   16.50810   17.12260
 12019.50000    5.32510    2.73780   -0.05050   65.01660    0.06930   -0.01540  107.99090   63.03880  -22.53010   63.58970   -9999.25   -9999.25   35.30210   16.50810   16.81250
 12020.00000    5.32940    2.72020   -0.04720   65.52610    0.07300   -0.00110  112.47370   64.17930  -22.50300   57.19780   -9999.25   -9999.25   42.39770   15.99100   15.74120
 12020.50000    5.33370    2.69760   -0.04080   64.27150    0.07680    0.01980  116.96710   64.73620  -22.47640   16.50810   -9999.25   -9999.25   54.08590   15.14980   14.69460
 12021.00000    5.33790    2.68170   -0.03460   61.66690    0.08050    0.02380  120.26950   63.25830  -22.44970   15.62740   -9999.25   -9999.25   63.18880   14.34120   13.75090
 12021.50000    5.34220    2.66690   -0.02840   60.99390    0.08470    0.02870  112.22960   64.11860  -22.42300   17.92070   -9999.25   -9999.25   64.69260   13.57160   12.99170
