~Version ---------------------------------------------------
VERS.   2.0 : CWLS log ASCII Standard -VERSION 2.0
WRAP.    NO : One line per depth step
DLM . SPACE : Column Data Section Delimiter
~Well ------------------------------------------------------
STRT .F                3534.0 : START DEPTH
STOP .F               12816.0 : STOP DEPTH
STEP .F                   0.5 : STEP
NULL .               -9999.25 : NULL VALUE
COMP .                        : COMPANY
WELL .                        : WELL
FLD  .                        : FIELD
LOC  .                        : LOCATION
PROV .                        : PROVINCE
CNTY .                        : COUNTY
STAT .                        : STATE
CTRY .                        : COUNTRY
SRVC .                        : SERVICE COMPANY
DATE .                        : DATE
UWI  .                        : UNIQUE WELL ID
API  .                        : API NUMBER
SLAT .WGS84 5.965102341517699 : SURFACE LATITUDE
SLON .WGS84 4.182719478617997 : SURFACE LONGITUDE
DATUM.F               2110.88 : DEPTH DATUM ELEV
~Curve Information -----------------------------------------
DEPT.F     : 
CALD.IN    : CALIPER FROM DENSITY LOG
RHOB.G/C3  : BULK DENSITY
DRHO.G/C3  : DENSITY CORRECTION
GRD .GAPI  : GAMMA RAY FROM DENSITY LOG
NPHI.DEC   : NEUTRON POROSITY LIMESTONE
DPHI.DEC   : DENSITY POROSITY LIMESTONE
DTSM.US/F  : SHEAR-WAVE TRANSIT TIME
DTCO.US/F  : COMPRESSIONAL-WAVE INTERVAL TRANSIT TIME ACOUSTIC SLOWNESS
SPR .MV    : SPONTANEOUS POTENTIAL FROM RES. LOG
SFL .OHMM  : SHALLOW FOCUSED LOG RESISTIVITY
ILD .OHMM  : INDUCTION LOG DEEP
ILM .OHMM  : INDUCTION LOG MEDIUM
GRR .GAPI  : GAMMA RAY FROM RES. LOG
IDPH.OHMM  : INDUCTION DEEP PHASOR RES.
IMPH.OHMM  : INDUCTION MEDIUM PHASOR RES.
~Params ----------------------------------------------------
~Other -----------------------------------------------------
~ASCII -----------------------------------------------------
# ...
 7766.00000   11.90740    2.44970    0.14010   94.71830    0.29230    0.14580   -9999.25   -9999.25  -12.40390    8.77210    6.31010    5.98340  103.98910   -9999.25   -9999.25
 7766.50000   11.88140    2.46800    0.14300   96.26550    0.27720    0.14630   -9999.25   -9999.25  -12.44570    8.51340    6.41690    6.07840  102.05170   -9999.25   -9999.25
 7767.00000   11.95370    2.47800    0.14600   95.62280    0.27580    0.13940   -9999.25   -9999.25  -12.48740    8.12710    6.51860    6.17490  103.05350   -9999.25   -9999.25
 7767.50000   12.01940    2.47430    0.14900   94.15650    0.27440    0.13800   -9999.25   -9999.25  -12.52920    7.86070    6.62260    6.27300  108.28210   -9999.25   -9999.25
 7768.00000   12.09000    2.47210    0.15200   93.88350    0.27820    0.13920   -9999.25   -9999.25  -12.57100    8.21720    6.72820    6.37260  113.29280   -9999.25   -9999.25
 7768.50000   12.10900    2.50860    0.15510   95.13990    0.28730    0.12840   -9999.25   -9999.25  -12.61280    8.64140    6.83550    6.47380  118.78660   -9999.25   -9999.25
 7769.00000   12.02760    2.53040    0.15580   94.86830    0.29560    0.11210   -9999.25   -9999.25  -12.65450    9.08750    6.94450    6.57660  119.92020   -9999.25   -9999.25
 7769.50000   11.93540    2.53710    0.14890   95.19790    0.29720    0.10560   -9999.25   -9999.25  -12.69630    9.55670    7.05530    6.68110  116.80390   -9999.25   -9999.25
 7770.00000   11.84420    2.55520    0.14230   97.35300    0.28530    0.09740   -9999.25   -9999.25  -12.73810    9.79710    7.16780    6.78720  113.36980   -9999.25   -9999.25
 7770.50000   11.75680    2.58790    0.13500   99.31470    0.27260    0.08580   -9999.25   -9999.25  -12.77990    9.89310    7.28210    6.89500  110.41620   -9999.25   -9999.25
 7771.00000   11.72730    2.59780    0.13390  101.47490    0.25980    0.06700   -9999.25   -9999.25  -12.82160    9.97460    7.39820    7.00450  111.40280   -9999.25   -9999.25
 7771.50000   11.68710    2.58200    0.13820  100.74500    0.24630    0.06690   -9999.25   -9999.25  -12.86320   10.00570    7.51620    7.11570  113.31990   -9999.25   -9999.25
 7772.00000   11.64740    2.52670    0.14100   97.88640    0.25350    0.07250   -9999.25   -9999.25  -12.90520   10.03520    7.63600    7.22870  113.62710   -9999.25   -9999.25
 7772.50000   11.63860    2.49500    0.15590   98.06100    0.26730    0.12340   -9999.25   -9999.25  -12.95100   10.06400    7.75780    7.34350  110.42670   -9999.25   -9999.25
 7773.00000   11.69960    2.51220    0.19650   99.35100    0.26240    0.12420   -9999.25   -9999.25  -13.03390   10.09300    7.86260    7.44060  107.61710   -9999.25   -9999.25
 7773.50000   11.65660    2.52850    0.23210  100.46130    0.25350    0.10810   -9999.25   -9999.25  -13.11410   10.12220    7.85980    7.93710  106.41180   -9999.25   -9999.25
 7774.00000   11.48550    2.54740    0.23670  101.56380    0.22890    0.09420   -9999.25   -9999.25  -13.19540   10.15140    7.88780    8.38900  105.37810   -9999.25   -9999.25
 7774.50000   11.32220    2.58120    0.20450  102.72850    0.20340    0.08030   -9999.25   -9999.25  -13.27640   10.64240    7.91610    8.86660  104.96730   -9999.25   -9999.25
 7775.00000   11.25790    2.59690    0.17510  102.70830    0.21070    0.06360   -9999.25   -9999.25  -13.35730   11.29290    7.94420    9.26900  105.01560   -9999.25   -9999.25
 7775.50000   11.26030    2.52260    0.13540   99.62760    0.21800    0.07590   -9999.25   -9999.25  -13.43830   11.97750    7.97260    8.83990  104.88240   -9999.25   -9999.25
 7776.00000   11.30640    2.42050    0.09490   95.93420    0.24710    0.10740   -9999.25   -9999.25  -13.51930   11.97600    8.00140    8.49710  106.30150   -9999.25   -9999.25
 7776.50000   11.38460    2.37790    0.08480   92.27320    0.27540    0.19620   -9999.25   -9999.25  -13.60030   11.97630    8.00820    8.16760  108.34620   -9999.25   -9999.25
 7777.00000   11.46500    2.40430    0.11430   88.58430    0.27290    0.18570   -9999.25   -9999.25  -13.68130   11.97620    7.96320    7.85090  109.71620   -9999.25   -9999.25
 7777.50000   11.50520    2.43790    0.14070   85.01820    0.27050    0.17600   -9999.25   -9999.25  -13.76230   11.97360    7.88380    7.54640  110.32900   -9999.25   -9999.25
 7778.00000   11.52840    2.47600    0.16750   81.25830    0.27860    0.14310   -9999.25   -9999.25  -13.84330   11.81540    7.79600    7.28180  111.16390   -9999.25   -9999.25
 7778.50000   11.63960    2.49460    0.19300   83.91830    0.28640    0.12590   -9999.25   -9999.25  -13.92430   11.17900    7.52340    7.04150  114.03590   -9999.25   -9999.25
 7779.00000   11.74620    2.48950    0.19830   87.79020    0.29340    0.12760   -9999.25   -9999.25  -14.00530   10.57680    7.26390    6.80910  114.54270   -9999.25   -9999.25
 7779.50000   11.85450    2.49200    0.19280   91.56680    0.29960    0.12910   -9999.25   -9999.25  -14.08630   10.00710    7.01300    6.58440  111.53850   -9999.25   -9999.25
 7780.00000   11.96350    2.51110    0.18390   95.39960    0.30120    0.12200   -9999.25   -9999.25  -14.16730    9.46800    6.77070    6.36710  107.18080   -9999.25   -9999.25
 7780.50000   12.06840    2.53080    0.17520   95.16870    0.30730    0.11280   -9999.25   -9999.25  -14.24830    8.95800    6.53680    6.15690  102.57040   -9999.25   -9999.25
 7781.00000   12.17440    2.54440    0.16640   94.33840    0.31480    0.10350   -9999.25   -9999.25  -14.33510    8.51000    6.31100    5.95380  102.33720   -9999.25   -9999.25
 7781.50000   12.02720    2.52010    0.15800   93.49410    0.31590    0.09520   -9999.25   -9999.25  -14.39040    8.16380    6.09300    5.75730  105.95000   -9999.25   -9999.25
 7782.00000   11.90420    2.49180    0.14960   92.70940    0.31730    0.11630   -9999.25   -9999.25  -14.54950    7.83170    5.86520    5.55100  109.18920   -9999.25   -9999.25
 7782.50000   11.96990    2.48330    0.16330   91.77090    0.31820    0.13320   -9999.25   -9999.25  -13.04380    7.51300    6.05690    5.73320  112.37230   -9999.25   -9999.25
 7783.00000   12.03790    2.51970    0.17970   93.20020    0.30120    0.12660   -9999.25   -9999.25  -10.90950    7.39010    6.27180    5.93660  116.42760   -9999.25   -9999.25
 7783.50000   12.07390    2.55620    0.19670   95.65840    0.30010    0.10510   -9999.25   -9999.25  -10.17210    7.66090    6.49520    6.14800  121.53980   -9999.25   -9999.25
 7784.00000   11.99580    2.55980    0.20080   96.90680    0.29800    0.08300   -9999.25   -9999.25  -11.38020    8.07030    6.72700    6.36740  123.61330   -9999.25   -9999.25
 7784.50000   11.89220    2.54100    0.19010   96.07060    0.27530    0.09630   -9999.25   -9999.25  -12.59300    9.19740    6.96700    6.59460  114.91180   -9999.25   -9999.25
 7785.00000   11.79600    2.51280    0.17890   94.14660    0.27370    0.11030   -9999.25   -9999.25  -12.17800   10.53660    7.21570    6.83000  112.43340   -9999.25   -9999.25
 7785.50000   11.77970    2.47860    0.16700   91.44980    0.27840    0.12440   -9999.25   -9999.25  -12.14620   10.71310    7.47320    7.07380  111.65510   -9999.25   -9999.25
 7786.00000   11.76590    2.47970    0.16200   93.82070    0.27930    0.13880   -9999.25   -9999.25  -12.10540   10.90010    7.74000    7.32630  113.05410   -9999.25   -9999.25
 7786.50000   11.75650    2.49100    0.16920   97.75190    0.28020    0.13220   -9999.25   -9999.25  -12.08780   11.09040    8.01620    7.58770  114.53910   -9999.25   -9999.25
 7787.00000   11.71250    2.50820    0.17490  101.67480    0.27950    0.12080   -9999.25   -9999.25  -12.06650   11.18180    8.30150    7.86070  115.76830   -9999.25   -9999.25
 7787.50000   11.63180    2.52720    0.18160  103.23330    0.27770    0.10950   -9999.25   -9999.25  -12.04510   11.24710    8.30510    7.84060  113.84110   -9999.25   -9999.25
 7788.00000   11.57820    2.54630    0.16750  100.44900    0.27600    0.09800   -9999.25   -9999.25  -12.02380   11.31230    8.24300    7.82060  109.86900   -9999.25   -9999.25
 7788.50000   11.52320    2.56130    0.14650   97.02620    0.27450    0.08490   -9999.25   -9999.25  -12.00240   11.21010    8.16780    7.80070  106.05540   -9999.25   -9999.25
