~Version ---------------------------------------------------
VERS.   2.0 : CWLS log ASCII Standard -VERSION 2.0
WRAP.    NO : One line per depth step
DLM . SPACE : Column Data Section Delimiter
~Well ------------------------------------------------------
STRT .F                3534.0 : START DEPTH
STOP .F               12816.0 : STOP DEPTH
STEP .F                   0.5 : STEP
NULL .               -9999.25 : NULL VALUE
COMP .                        : COMPANY
WELL .                        : WELL
FLD  .                        : FIELD
LOC  .                        : LOCATION
PROV .                        : PROVINCE
CNTY .                        : COUNTY
STAT .                        : STATE
CTRY .                        : COUNTRY
SRVC .                        : SERVICE COMPANY
DATE .                        : DATE
UWI  .                        : UNIQUE WELL ID
API  .                        : API NUMBER
SLAT .WGS84 5.965102341517699 : SURFACE LATITUDE
SLON .WGS84 4.182719478617997 : SURFACE LONGITUDE
DATUM.F               2110.88 : DEPTH DATUM ELEV
~Curve Information -----------------------------------------
DEPT.F     : 
CALD.IN    : CALIPER FROM DENSITY LOG
RHOB.G/C3  : BULK DENSITY
DRHO.G/C3  : DENSITY CORRECTION
GRD .GAPI  : GAMMA RAY FROM DENSITY LOG
NPHI.DEC   : NEUTRON POROSITY LIMESTONE
DPHI.DEC   : DENSITY POROSITY LIMESTONE
DTSM.US/F  : SHEAR-WAVE TRANSIT TIME
DTCO.US/F  : COMPRESSIONAL-WAVE INTERVAL TRANSIT TIME ACOUSTIC SLOWNESS
SPR .MV    : SPONTANEOUS POTENTIAL FROM RES. LOG
SFL .OHMM  : SHALLOW FOCUSED LOG RESISTIVITY
ILD .OHMM  : INDUCTION LOG DEEP
ILM .OHMM  : INDUCTION LOG MEDIUM
GRR .GAPI  : GAMMA RAY FROM RES. LOG
IDPH.OHMM  : INDUCTION DEEP PHASOR RES.
IMPH.OHMM  : INDUCTION MEDIUM PHASOR RES.
~Params ----------------------------------------------------
~Other -----------------------------------------------------
~ASCII -----------------------------------------------------
# ...
 8157.00000   11.30120    2.04100    0.05430   65.37450    0.10400    0.39900   -9999.25   -9999.25  -30.11860   26.55410   24.01890   23.32920   70.46260   -9999.25   -9999.25
 8157.50000   11.33370    2.08490    0.05640   63.71620    0.11130    0.37940   -9999.25   -9999.25  -30.75770   26.80810   23.34290   22.33050   66.01950   -9999.25   -9999.25
 8158.00000   11.58650    2.12430    0.07490   66.52500    0.11930    0.34490   -9999.25   -9999.25  -31.39550   24.48510   22.66480   21.37450   63.86330   -9999.25   -9999.25
 8158.50000   11.85230    2.16640    0.10080   70.53160    0.12730    0.31380   -9999.25   -9999.25  -32.03330   22.32250   22.00640   20.45950   67.42970   -9999.25   -9999.25
 8159.00000   11.83050    2.17150    0.11710   74.37920    0.13530    0.31730   -9999.25   -9999.25  -32.67120   22.32800   21.36710   19.58370   74.66720   -9999.25   -9999.25
 8159.50000   11.52510    2.16480    0.12290   78.24190    0.14330    0.31990   -9999.25   -9999.25  -33.30900   22.33100   20.14090   18.64030   81.38190   -9999.25   -9999.25
 8160.00000   11.24660    2.16590    0.13040   76.32190    0.14520    0.31840   -9999.25   -9999.25  -33.94600   21.58740   18.64430   17.20330   88.43440   -9999.25   -9999.25
 8160.50000   10.96400    2.16260    0.13840   72.41500    0.14440    0.31580   -9999.25   -9999.25  -34.58930   20.03710   17.59400   15.71390   93.10910   -9999.25   -9999.25
 8161.00000   10.83910    2.14270    0.13800   66.87400    0.14340    0.35980   -9999.25   -9999.25  -35.18970   18.58410   18.40060   14.92080   91.93810   -9999.25   -9999.25
 8161.50000   11.34900    2.07610    0.12190   59.28600    0.14240    0.39820   -9999.25   -9999.25  -36.20430   17.74280   19.39250   15.29060   80.29060   -9999.25   -9999.25
 8162.00000   12.59640    2.01360    0.10730   54.22920    0.13600    0.43700   -9999.25   -9999.25  -37.04800   18.25020   20.43780   16.72650   68.40790   -9999.25   -9999.25
 8162.50000   13.77420    1.97520    0.09260   49.20960    0.11930    0.43450   -9999.25   -9999.25  -37.67310   21.34540   21.53960   18.29920   56.33280   -9999.25   -9999.25
 8163.00000   14.99360    1.98880    0.07960   44.59810    0.10310    0.35250   -9999.25   -9999.25  -38.31250   24.65460   22.70070   20.01570   54.44920   -9999.25   -9999.25
 8163.50000   15.98690    2.04110    0.09340   44.49480    0.08700    0.29220   -9999.25   -9999.25  -38.95260   28.47680   23.98530   21.89190   55.06020   -9999.25   -9999.25
 8164.00000   15.50470    2.20990    0.10880   44.40760    0.07090    0.26170   -9999.25   -9999.25  -39.59270   29.57390   24.72330   23.95140   55.73590   -9999.25   -9999.25
 8164.50000   14.65510    2.34570    0.12070   45.00470    0.07920    0.23120   -9999.25   -9999.25  -40.23280   27.94590   24.61090   26.32170   57.14460   -9999.25   -9999.25
 8165.00000   12.56440    2.35890    0.11980   45.94520    0.09240    0.20060   -9999.25   -9999.25  -40.87290   26.40760   23.70430   23.52560   54.30710   -9999.25   -9999.25
 8165.50000   11.01650    2.38930    0.11680   47.39930    0.10570    0.17010   -9999.25   -9999.25  -41.51300   24.91480   22.84190   20.89890   51.04070   -9999.25   -9999.25
 8166.00000   10.96060    2.44420    0.11480   49.23260    0.11890    0.15250   -9999.25   -9999.25  -42.15310   23.81740   22.01080   18.56560   49.43270   -9999.25   -9999.25
 8166.50000   10.81020    2.44390    0.09270   51.02990    0.13390    0.15810   -9999.25   -9999.25  -42.79500   22.73920   21.21000   17.45460   54.10800   -9999.25   -9999.25
 8167.00000   10.68900    2.41620    0.05060   52.87980    0.14000    0.16890   -9999.25   -9999.25  -43.42520   21.70980   20.43830   17.92280   59.92010   -9999.25   -9999.25
 8167.50000   10.55850    2.40890    0.04440   54.22900    0.14760    0.17760   -9999.25   -9999.25  -44.11520   20.72700   19.63710   18.40370   66.17980   -9999.25   -9999.25
 8168.00000   10.45380    2.41180    0.03410   54.35110    0.14770    0.16930   -9999.25   -9999.25  -44.33070   19.78870   20.10240   19.02800   67.71120   -9999.25   -9999.25
 8168.50000   10.37030    2.43530    0.02690   54.46980    0.14670    0.15990   -9999.25   -9999.25  -44.31380   20.28580   20.87070   19.75510   67.08590   -9999.25   -9999.25
 8169.00000   10.28500    2.44740    0.02510   54.85680    0.14070    0.15050   -9999.25   -9999.25  -44.31400   23.12130   21.66820   20.51000   63.70010   -9999.25   -9999.25
 8169.50000   10.20290    2.44910    0.02300   50.66460    0.13000    0.14110   -9999.25   -9999.25  -44.31370   26.56870   22.49630   21.29380   58.73980   -9999.25   -9999.25
 8170.00000   10.10990    2.47780    0.02090   44.10660    0.11930    0.13170   -9999.25   -9999.25  -44.31370   32.79000   23.35590   22.10750   53.80830   -9999.25   -9999.25
 8170.50000   10.18160    2.49300    0.01960   43.09240    0.10860    0.13100   -9999.25   -9999.25  -44.31370   31.05250   24.24850   22.95210   53.38000   -9999.25   -9999.25
 8171.00000   10.31950    2.48160    0.01930   45.44100    0.09790    0.13440   -9999.25   -9999.25  -44.31370   29.19250   25.17510   23.82700   53.76880   -9999.25   -9999.25
 8171.50000   10.42610    2.47040    0.02680   48.52670    0.08730    0.13800   -9999.25   -9999.25  -44.31580   29.57640   26.13720   24.74010   54.20570   -9999.25   -9999.25
 8172.00000   10.67050    2.45000    0.03720   51.57150    0.07820    0.16820   -9999.25   -9999.25  -44.30680   32.13380   26.80810   25.37520   54.08330   -9999.25   -9999.25
 8172.50000   11.12810    2.37420    0.04740   54.66040    0.10060    0.20010   -9999.25   -9999.25  -44.33650   30.69780   25.51500   22.28680   55.17200   -9999.25   -9999.25
 8173.00000   11.56460    2.29860    0.05750   57.08820    0.12010    0.23210   -9999.25   -9999.25  -43.77310   26.35390   23.25720   17.27470   58.81270   -9999.25   -9999.25
 8173.50000   11.82710    2.25260    0.06780   55.62210    0.13060    0.26480   -9999.25   -9999.25  -42.99660   23.15520   21.19910   19.37500   61.01780   -9999.25   -9999.25
 8174.00000   11.37600    2.27540    0.07600   52.71070    0.12610    0.22040   -9999.25   -9999.25  -42.24020   24.16360   22.96350   21.91750   62.21900   -9999.25   -9999.25
 8174.50000   10.93000    2.38530    0.07510   50.17330    0.12160    0.17480   -9999.25   -9999.25  -41.48420   25.61810   23.45800   22.16670   63.67860   -9999.25   -9999.25
 8175.00000   10.45100    2.47040    0.06260   51.54530    0.11710    0.12020   -9999.25   -9999.25  -40.72830   28.57040   23.70390   22.42660   66.91350   -9999.25   -9999.25
 8175.50000   10.31540    2.51410    0.04470   53.19870    0.11260    0.11660   -9999.25   -9999.25  -39.97180   31.54690   24.01230   22.72830   69.94680   -9999.25   -9999.25
 8176.00000   10.76810    2.52340    0.02770   54.85820    0.10730    0.11130   -9999.25   -9999.25  -39.22030   29.40180   24.01720   22.80760   73.03460   -9999.25   -9999.25
 8176.50000   11.51820    2.50320    0.01010   56.63480    0.10890    0.12530   -9999.25   -9999.25  -38.42680   26.93890   24.01870   22.89510   76.11740   -9999.25   -9999.25
 8177.00000   12.32470    2.50210   -0.00300   57.19420    0.10890    0.12200   -9999.25   -9999.25  -37.92830   24.66670   24.01880   22.98310   79.25100   -9999.25   -9999.25
 8177.50000   12.17260    2.52120   -0.00170   56.04460    0.10170    0.11170   -9999.25   -9999.25  -37.75570   22.32250   24.01960   23.07450   81.75480   -9999.25   -9999.25
 8178.00000   11.36970    2.54090    0.00480   54.67720    0.09350    0.10150   -9999.25   -9999.25  -37.55380   22.59210   24.01630   23.15520   78.98320   -9999.25   -9999.25
 8178.50000   10.68560    2.55220    0.01180   53.29160    0.09490    0.09190   -9999.25   -9999.25  -37.35610   23.18110   24.07440   19.95240   73.05450   -9999.25   -9999.25
 8179.00000   10.77020    2.53600    0.01890   52.10700    0.09810    0.11540   -9999.25   -9999.25  -37.15760   23.78550   24.16280   18.58750   67.20470   -9999.25   -9999.25
 8179.50000   10.86960    2.47680    0.02590   51.31580    0.10120    0.13910   -9999.25   -9999.25  -36.95920   24.46270   24.24770   19.92430   63.10200   -9999.25   -9999.25
