~Version ---------------------------------------------------
VERS.   2.0 : CWLS log ASCII Standard -VERSION 2.0
WRAP.    NO : One line per depth step
DLM . SPACE : Column Data Section Delimiter
~Well ------------------------------------------------------
STRT .F                3534.0 : START DEPTH
STOP .F               12816.0 : STOP DEPTH
STEP .F                   0.5 : STEP
NULL .               -9999.25 : NULL VALUE
COMP .                        : COMPANY
WELL .                        : WELL
FLD  .                        : FIELD
LOC  .                        : LOCATION
PROV .                        : PROVINCE
CNTY .                        : COUNTY
STAT .                        : STATE
CTRY .                        : COUNTRY
SRVC .                        : SERVICE COMPANY
DATE .                        : DATE
UWI  .                        : UNIQUE WELL ID
API  .                        : API NUMBER
SLAT .WGS84 5.965102341517699 : SURFACE LATITUDE
SLON .WGS84 4.182719478617997 : SURFACE LONGITUDE
DATUM.F               2110.88 : DEPTH DATUM ELEV
~Curve Information -----------------------------------------
DEPT.F     : 
CALD.IN    : CALIPER FROM DENSITY LOG
RHOB.G/C3  : BULK DENSITY
DRHO.G/C3  : DENSITY CORRECTION
GRD .GAPI  : GAMMA RAY FROM DENSITY LOG
NPHI.DEC   : NEUTRON POROSITY LIMESTONE
DPHI.DEC   : DENSITY POROSITY LIMESTONE
DTSM.US/F  : SHEAR-WAVE TRANSIT TIME
DTCO.US/F  : COMPRESSIONAL-WAVE INTERVAL TRANSIT TIME ACOUSTIC SLOWNESS
SPR .MV    : SPONTANEOUS POTENTIAL FROM RES. LOG
SFL .OHMM  : SHALLOW FOCUSED LOG RESISTIVITY
ILD .OHMM  : INDUCTION LOG DEEP
ILM .OHMM  : INDUCTION LOG MEDIUM
GRR .GAPI  : GAMMA RAY FROM RES. LOG
IDPH.OHMM  : INDUCTION DEEP PHASOR RES.
IMPH.OHMM  : INDUCTION MEDIUM PHASOR RES.
~Params ----------------------------------------------------
~Other -----------------------------------------------------
~ASCII -----------------------------------------------------
# ...
 11234.50000    5.85390    2.64990   -0.02850  105.35440    0.20900    0.03510   -9999.25   -9999.25  -33.48060    5.77840   -9999.25   -9999.25  100.79980    4.63140    4.46550
 11235.00000    5.85850    2.64390   -0.02890  104.94190    0.20330    0.04060   -9999.25   -9999.25  -33.46260    5.75490   -9999.25   -9999.25  100.35860    4.61310    4.44820
 11235.50000    5.86310    2.63700   -0.02930  104.82190    0.20180    0.04430   -9999.25   -9999.25  -33.44460    5.73220   -9999.25   -9999.25  104.19620    4.59350    4.42730
 11236.00000    5.86770    2.62740   -0.02970  106.47660    0.20140    0.04880   -9999.25   -9999.25  -33.42660    5.71980   -9999.25   -9999.25  107.15630    4.71630    4.55080
 11236.50000    5.87240    2.64980   -0.03010  110.10840    0.20250    0.04740   -9999.25   -9999.25  -33.40860    5.87210   -9999.25   -9999.25  108.66830    4.80680    4.63300
 11237.00000    5.87530    2.65390   -0.03050  111.42190    0.20330    0.04580   -9999.25   -9999.25  -33.39060    6.01870   -9999.25   -9999.25  106.24140    4.87080    4.69560
 11237.50000    5.87580    2.64410   -0.03090  110.49000    0.20410    0.04360   -9999.25   -9999.25  -33.37260    6.16890   -9999.25   -9999.25  105.80440    4.93550    4.75840
 11238.00000    5.87640    2.63920   -0.03130  107.96380    0.20320    0.04080   -9999.25   -9999.25  -33.35460    6.32290   -9999.25   -9999.25  105.15720    5.00120    4.82170
 11238.50000    5.87690    2.64160   -0.03150  105.90660    0.20120    0.03890   -9999.25   -9999.25  -33.33660    6.48080   -9999.25   -9999.25  104.65680    5.06770    4.88580
 11239.00000    5.87750    2.64400   -0.03010  104.77640    0.19920    0.03840   -9999.25   -9999.25  -33.31860    6.62020   -9999.25   -9999.25  102.78280    5.13310    4.95620
 11239.50000    5.87800    2.64660   -0.02900  102.81960    0.19730    0.03650   -9999.25   -9999.25  -33.30060    6.74230   -9999.25   -9999.25   99.57590    5.20990    5.02180
 11240.00000    5.87860    2.64900   -0.02780  101.16750    0.19560    0.03430   -9999.25   -9999.25  -33.28260    6.66860   -9999.25   -9999.25   97.48790    5.17560    4.99050
 11240.50000    5.87920    2.65240   -0.02810  100.40550    0.19650    0.03180   -9999.25   -9999.25  -33.26460    6.59170   -9999.25   -9999.25  101.16090    5.15100    4.96610
 11241.00000    5.87970    2.65110   -0.02910   99.54450    0.19730    0.03570   -9999.25   -9999.25  -33.24660    6.51610   -9999.25   -9999.25  105.15060    5.12620    4.94220
 11241.50000    5.88030    2.64640   -0.03000   98.84680    0.19810    0.03970   -9999.25   -9999.25  -33.22860    6.44020   -9999.25   -9999.25  109.17020    5.10130    4.91820
 11242.00000    5.88080    2.64200   -0.03090   99.67230    0.19880    0.04320   -9999.25   -9999.25  -33.21060    6.38260   -9999.25   -9999.25  113.12240    5.07650    4.89430
 11242.50000    5.88140    2.63810   -0.03160  103.87320    0.19950    0.04360   -9999.25   -9999.25  -33.19260    6.36080   -9999.25   -9999.25  117.35580    5.05190    4.87060
 11243.00000    5.88200    2.63570   -0.03160  108.21460    0.20020    0.04400   -9999.25   -9999.25  -33.17460    6.33420   -9999.25   -9999.25  118.96280    5.02740    4.84690
 11243.50000    5.88250    2.63300   -0.03160  112.70260    0.19990    0.04440   -9999.25   -9999.25  -33.15660    6.30760   -9999.25   -9999.25  113.78810    5.00300    4.82340
 11244.00000    5.88310    2.63400   -0.03170  115.65900    0.19930    0.04480   -9999.25   -9999.25  -33.13860    6.28110   -9999.25   -9999.25  107.89250    4.97870    4.80000
 11244.50000    5.88360    2.63700   -0.03220  115.39220    0.19880    0.04330   -9999.25   -9999.25  -33.12070    6.25480   -9999.25   -9999.25  102.78630    4.95450    4.77670
 11245.00000    5.88420    2.64000   -0.03260  112.70630    0.20070    0.04190   -9999.25   -9999.25  -33.10260    6.22860   -9999.25   -9999.25  104.11490    4.93050    4.75350
 11245.50000    5.88480    2.64280   -0.03300  109.47750    0.20220    0.04160   -9999.25   -9999.25  -33.08470    6.20270   -9999.25   -9999.25  106.24210    4.90650    4.73050
 11246.00000    5.88530    2.64600   -0.03350  106.24270    0.20360    0.04210   -9999.25   -9999.25  -33.06670    6.17540   -9999.25   -9999.25  109.51560    4.88270    4.70750
 11246.50000    5.88590    2.64700   -0.03230  103.53220    0.20120    0.04240   -9999.25   -9999.25  -33.04870    6.15040   -9999.25   -9999.25  110.98150    4.85900    4.68460
 11247.00000    5.88650    2.64820   -0.03010  102.71390    0.19890    0.03980   -9999.25   -9999.25  -33.03070    6.31250   -9999.25   -9999.25  110.22620    4.83550    4.66190
 11247.50000    5.88700    2.65160   -0.02790  104.52750    0.19720    0.03780   -9999.25   -9999.25  -33.01270    6.38410   -9999.25   -9999.25  108.08750    4.81200    4.63930
 11248.00000    5.88760    2.65500   -0.02680  105.48710    0.20100    0.03590   -9999.25   -9999.25  -32.99470    6.25760   -9999.25   -9999.25  105.76930    4.78860    4.61680
 11248.50000    5.88810    2.65150   -0.02550  106.14650    0.20410    0.03860   -9999.25   -9999.25  -32.97670    6.15010   -9999.25   -9999.25  105.01840    4.76540    4.59440
 11249.00000    5.88870    2.64520   -0.02660  106.84340    0.20730    0.04130   -9999.25   -9999.25  -32.95860    6.04210   -9999.25   -9999.25  105.98100    4.74230    4.57210
 11249.50000    5.88930    2.64170   -0.02740  107.35950    0.20820    0.04210   -9999.25   -9999.25  -32.94030    6.04220   -9999.25   -9999.25  107.66100    4.71920    4.54980
 11250.00000    5.88980    2.64530   -0.02660  108.80160    0.20650    0.04100   -9999.25   -9999.25  -32.91930    6.04200   -9999.25   -9999.25  108.26040    4.69580    4.52810
 11250.50000    5.89040    2.64820   -0.02530  110.67500    0.20530    0.03890   -9999.25   -9999.25  -32.94840    6.04210   -9999.25   -9999.25  104.92250    4.67750    4.50940
 11251.00000    5.89100    2.64930   -0.02400  112.57390    0.20410    0.03830   -9999.25   -9999.25  -33.15070    6.04210   -9999.25   -9999.25  103.69280    4.68550    4.51710
 11251.50000    5.89150    2.65080   -0.02280  113.83280    0.20530    0.03840   -9999.25   -9999.25  -33.34880    6.04210   -9999.25   -9999.25  104.23370    4.69430    4.52580
 11252.00000    5.89210    2.65180   -0.02170  113.33990    0.20810    0.03510   -9999.25   -9999.25  -33.55540    6.04210   -9999.25   -9999.25  103.32210    4.70330    4.53450
 11252.50000    5.89260    2.66590   -0.02260  111.33190    0.21100    0.02610   -9999.25   -9999.25  -33.70180    6.04220   -9999.25   -9999.25  101.81680    4.71230    4.54320
 11253.00000    5.89320    2.67200   -0.02360  109.24110    0.21380    0.02560   -9999.25   -9999.25  -33.64870    6.04190   -9999.25   -9999.25  103.12430    4.72140    4.55190
 11253.50000    5.89380    2.66060   -0.02460  109.86550    0.21660    0.02930   -9999.25   -9999.25  -33.60720    6.04310   -9999.25   -9999.25  107.04620    4.73040    4.56060
 11254.00000    5.89430    2.65680   -0.02570  112.56760    0.21940    0.03590   -9999.25   -9999.25  -33.56210    6.01550   -9999.25   -9999.25  113.44750    4.73950    4.56940
 11254.50000    5.89490    2.65400   -0.02670  112.23630    0.22070    0.03670   -9999.25   -9999.25  -33.51760    5.98270   -9999.25   -9999.25  115.53300    4.74860    4.57800
 11255.00000    5.89550    2.65120   -0.02770  111.67380    0.22100    0.03750   -9999.25   -9999.25  -33.47320    5.95060   -9999.25   -9999.25  106.59460    4.75960    4.58590
 11255.50000    5.89600    2.64850   -0.02880  113.49550    0.22130    0.03670   -9999.25   -9999.25  -33.42870    5.91850   -9999.25   -9999.25   98.88580    4.74120    4.57260
 11256.00000    5.89660    2.64540   -0.02980  115.60980    0.22090    0.04150   -9999.25   -9999.25  -33.38430    5.88670   -9999.25   -9999.25   95.63060    4.63720    4.47100
 11256.50000    5.89710    2.64220   -0.03080  116.34650    0.21960    0.04150   -9999.25   -9999.25  -33.33990    5.85500   -9999.25   -9999.25  107.94890    4.53770    4.37490
