~Version ---------------------------------------------------
VERS.   2.0 : CWLS log ASCII Standard -VERSION 2.0
WRAP.    NO : One line per depth step
DLM . SPACE : Column Data Section Delimiter
~Well ------------------------------------------------------
STRT .F                3534.0 : START DEPTH
STOP .F               12816.0 : STOP DEPTH
STEP .F                   0.5 : STEP
NULL .               -9999.25 : NULL VALUE
COMP .                        : COMPANY
WELL .                        : WELL
FLD  .                        : FIELD
LOC  .                        : LOCATION
PROV .                        : PROVINCE
CNTY .                        : COUNTY
STAT .                        : STATE
CTRY .                        : COUNTRY
SRVC .                        : SERVICE COMPANY
DATE .                        : DATE
UWI  .                        : UNIQUE WELL ID
API  .                        : API NUMBER
SLAT .WGS84 5.965102341517699 : SURFACE LATITUDE
SLON .WGS84 4.182719478617997 : SURFACE LONGITUDE
DATUM.F               2110.88 : DEPTH DATUM ELEV
~Curve Information -----------------------------------------
DEPT.F     : 
CALD.IN    : CALIPER FROM DENSITY LOG
RHOB.G/C3  : BULK DENSITY
DRHO.G/C3  : DENSITY CORRECTION
GRD .GAPI  : GAMMA RAY FROM DENSITY LOG
NPHI.DEC   : NEUTRON POROSITY LIMESTONE
DPHI.DEC   : DENSITY POROSITY LIMESTONE
DTSM.US/F  : SHEAR-WAVE TRANSIT TIME
DTCO.US/F  : COMPRESSIONAL-WAVE INTERVAL TRANSIT TIME ACOUSTIC SLOWNESS
SPR .MV    : SPONTANEOUS POTENTIAL FROM RES. LOG
SFL .OHMM  : SHALLOW FOCUSED LOG RESISTIVITY
ILD .OHMM  : INDUCTION LOG DEEP
ILM .OHMM  : INDUCTION LOG MEDIUM
GRR .GAPI  : GAMMA RAY FROM RES. LOG
IDPH.OHMM  : INDUCTION DEEP PHASOR RES.
IMPH.OHMM  : INDUCTION MEDIUM PHASOR RES.
~Params ----------------------------------------------------
~Other -----------------------------------------------------
~ASCII -----------------------------------------------------
# ...
 10852.00000    9.49990    2.42970    0.13910  113.30720    0.27450    0.15660   -9999.25   -9999.25  -10.57900    5.86640    4.26120    4.58470  143.58600   -9999.25   -9999.25
 10852.50000    9.53040    2.46550    0.15260  112.33650    0.28310    0.15070   -9999.25   -9999.25  -10.61810    5.83870    4.21930    4.53990  146.98590   -9999.25   -9999.25
 10853.00000    9.60770    2.47210    0.16630  113.03520    0.29150    0.14480   -9999.25   -9999.25  -10.66560    5.72930    4.17840    4.49590  149.93620   -9999.25   -9999.25
 10853.50000    9.68240    2.47370    0.18100  116.05640    0.29880    0.13890   -9999.25   -9999.25  -10.71220    5.62420    4.13780    4.45230  147.01520   -9999.25   -9999.25
 10854.00000    9.89350    2.48930    0.19820  117.47020    0.30200    0.12840   -9999.25   -9999.25  -10.75890    5.52040    4.09770    4.40910  145.13450   -9999.25   -9999.25
 10854.50000   10.03160    2.52640    0.21530  118.71220    0.30280    0.11190   -9999.25   -9999.25  -10.80550    5.45030    4.05780    4.36630  140.18130   -9999.25   -9999.25
 10855.00000    9.84200    2.53540    0.22850  118.94740    0.30280    0.09600   -9999.25   -9999.25  -10.85220    5.48710    4.01890    4.32390  133.67430   -9999.25   -9999.25
 10855.50000    9.68500    2.48080    0.20500  116.68350    0.30070    0.12100   -9999.25   -9999.25  -10.89890    5.51540    3.99180    4.29570  130.49550   -9999.25   -9999.25
 10856.00000    9.51040    2.44000    0.18190  115.89160    0.29870    0.14520   -9999.25   -9999.25  -10.94560    5.54380    4.00070    4.34040  130.68600   -9999.25   -9999.25
 10856.50000    9.43730    2.41560    0.15710  116.46930    0.29640    0.17220   -9999.25   -9999.25  -10.99230    5.57240    4.00670    4.37380  132.36790   -9999.25   -9999.25
 10857.00000    9.51230    2.43090    0.14410  116.97360    0.29310    0.17350   -9999.25   -9999.25  -11.03900    5.60150    4.01290    4.40780  131.60970   -9999.25   -9999.25
 10857.50000    9.55360    2.44300    0.14610  115.88090    0.29910    0.16280   -9999.25   -9999.25  -11.08570    5.62950    4.01910    4.44180  127.98700   -9999.25   -9999.25
 10858.00000    9.59710    2.45670    0.14800  114.11760    0.30370    0.15270   -9999.25   -9999.25  -11.13240    5.65340    4.02540    4.37510  126.63650   -9999.25   -9999.25
 10858.50000    9.64110    2.45950    0.16130  112.38150    0.31090    0.14520   -9999.25   -9999.25  -11.17910    5.58240    4.03160    4.30970  132.40070   -9999.25   -9999.25
 10859.00000    9.68380    2.45580    0.18010  111.31770    0.31750    0.14750   -9999.25   -9999.25  -11.22580    5.52250    4.03780    4.25560  136.94290   -9999.25   -9999.25
 10859.50000    9.72460    2.45340    0.19930  114.78130    0.31820    0.14930   -9999.25   -9999.25  -11.27250    5.46390    4.04400    4.20220  141.35400   -9999.25   -9999.25
 10860.00000    9.68120    2.45150    0.20780  116.88700    0.31570    0.15110   -9999.25   -9999.25  -11.31910    5.40590    4.05030    4.14130  141.60360   -9999.25   -9999.25
 10860.50000    9.63140    2.47830    0.20890  115.72320    0.31050    0.14130   -9999.25   -9999.25  -11.36580    5.35140    4.05700    4.34880  141.45320   -9999.25   -9999.25
 10861.00000    9.56100    2.50070    0.19140  111.50610    0.30530    0.12610   -9999.25   -9999.25  -11.41250    5.38410    4.06350    4.60800  140.68740   -9999.25   -9999.25
 10861.50000    9.77880    2.51550    0.16810  109.22490    0.29960    0.11540   -9999.25   -9999.25  -11.45920    5.67650    4.05260    4.88280  136.41900   -9999.25   -9999.25
 10862.00000   10.49140    2.39340    0.14240  107.67250    0.28020    0.12320   -9999.25   -9999.25  -11.50590    6.18650    3.92610    4.81870  131.96830   -9999.25   -9999.25
 10862.50000   11.11570    2.28030    0.12610  106.11410    0.28780    0.19090   -9999.25   -9999.25  -11.55260    6.74230    3.79990    4.60060  127.39090   -9999.25   -9999.25
 10863.00000   11.21580    2.19040    0.12110  103.74290    0.29480    0.27540   -9999.25   -9999.25  -11.59930    6.02760    3.67800    4.39230  123.95930   -9999.25   -9999.25
 10863.50000   11.38610    2.23010    0.13690  100.64470    0.29960    0.29700   -9999.25   -9999.25  -11.64600    4.96190    3.56000    4.19350  122.77520   -9999.25   -9999.25
 10864.00000   11.34410    2.27300    0.15960   99.15050    0.30990    0.29800   -9999.25   -9999.25  -11.69270    4.28970    3.44580    4.00360  121.48280   -9999.25   -9999.25
 10864.50000   11.19790    2.31950    0.17140   97.97840    0.31820    0.24660   -9999.25   -9999.25  -11.73940    3.84880    3.33530    3.82240  116.45110   -9999.25   -9999.25
 10865.00000   11.04630    2.33860    0.17040  100.85200    0.31590    0.22190   -9999.25   -9999.25  -11.78600    3.87820    3.22830    3.64930  112.92590   -9999.25   -9999.25
 10865.50000   10.99520    2.34470    0.17070  103.77310    0.31420    0.21700   -9999.25   -9999.25  -11.83270    3.90390    3.12480    3.48410  112.66120   -9999.25   -9999.25
 10866.00000   11.16420    2.35200    0.17330  105.47680    0.31330    0.21200   -9999.25   -9999.25  -11.87940    3.92980    3.02460    3.32640  116.14140   -9999.25   -9999.25
 10866.50000   11.22330    2.33960    0.16630  105.86290    0.33230    0.20990   -9999.25   -9999.25  -11.92610    3.95590    2.92950    3.17580  119.35250   -9999.25   -9999.25
 10867.00000   11.08150    2.32270    0.16000  102.66560    0.34920    0.22030   -9999.25   -9999.25  -11.97280    3.98380    2.86970    3.08700  120.57900   -9999.25   -9999.25
 10867.50000   10.94820    2.32110    0.15360   98.00580    0.36090    0.22840   -9999.25   -9999.25  -12.01950    3.95410    2.88270    3.10170  116.84860   -9999.25   -9999.25
 10868.00000   10.86360    2.33170    0.14710   99.80370    0.36420    0.22500   -9999.25   -9999.25  -12.06690    3.89420    2.89090    3.11060  114.24520   -9999.25   -9999.25
 10868.50000   10.90390    2.33500    0.14620  101.93650    0.36120    0.22130   -9999.25   -9999.25  -12.11340    3.83490    2.89900    3.11920  111.34980   -9999.25   -9999.25
 10869.00000   10.93590    2.33150    0.14650  104.15060    0.35000    0.21960   -9999.25   -9999.25  -12.14950    3.77890    2.90710    3.12800  118.80210   -9999.25   -9999.25
 10869.50000   10.97020    2.32900    0.15680  107.43950    0.34670    0.22180   -9999.25   -9999.25  -11.99450    3.84120    2.91530    3.13680  124.96770   -9999.25   -9999.25
 10870.00000   11.00410    2.35950    0.16850  110.83960    0.34590    0.22310   -9999.25   -9999.25  -11.84350    3.90100    2.92350    3.14560  131.53940   -9999.25   -9999.25
 10870.50000   11.03830    2.38640    0.18020  114.39160    0.34510    0.21560   -9999.25   -9999.25  -11.69010    3.96170    2.93170    3.15450  134.73190   -9999.25   -9999.25
 10871.00000   11.07000    2.41380    0.19180  115.20450    0.34430    0.19420   -9999.25   -9999.25  -11.53750    3.99640    2.93990    3.16330  129.40130   -9999.25   -9999.25
 10871.50000   11.11530    2.44120    0.20350  111.56380    0.34360    0.17330   -9999.25   -9999.25  -11.38490    4.00450    2.94820    3.17220  125.34970   -9999.25   -9999.25
 10872.00000   10.97640    2.46790    0.21520  108.26380    0.34120    0.15230   -9999.25   -9999.25  -11.23220    4.01250    2.95650    3.18110  121.17210   -9999.25   -9999.25
 10872.50000   10.93280    2.49640    0.22530  105.49610    0.33780    0.13140   -9999.25   -9999.25  -11.07960    4.02060    2.96490    3.19010  117.12700   -9999.25   -9999.25
 10873.00000   11.09740    2.49010    0.21860  104.97000    0.33440    0.12260   -9999.25   -9999.25  -10.92630    4.02870    2.97360    3.19910  116.21120   -9999.25   -9999.25
 10873.50000   11.19970    2.47220    0.19690  104.43990    0.33090    0.13160   -9999.25   -9999.25  -10.77620    4.03680    2.99230    3.22280  117.90730   -9999.25   -9999.25
 10874.00000   11.30340    2.45500    0.17700  103.92900    0.33410    0.14200   -9999.25   -9999.25  -10.61820    4.04490    3.04190    3.27290  120.80020   -9999.25   -9999.25
