~Version ---------------------------------------------------
VERS.   2.0 : CWLS log ASCII Standard -VERSION 2.0
WRAP.    NO : One line per depth step
DLM . SPACE : Column Data Section Delimiter
~Well ------------------------------------------------------
STRT .F                3534.0 : START DEPTH
STOP .F               12816.0 : STOP DEPTH
STEP .F                   0.5 : STEP
NULL .               -9999.25 : NULL VALUE
COMP .                        : COMPANY
WELL .                        : WELL
FLD  .                        : FIELD
LOC  .                        : LOCATION
PROV .                        : PROVINCE
CNTY .                        : COUNTY
STAT .                        : STATE
CTRY .                        : COUNTRY
SRVC .                        : SERVICE COMPANY
DATE .                        : DATE
UWI  .                        : UNIQUE WELL ID
API  .                        : API NUMBER
SLAT .WGS84 5.965102341517699 : SURFACE LATITUDE
SLON .WGS84 4.182719478617997 : SURFACE LONGITUDE
DATUM.F               2110.88 : DEPTH DATUM ELEV
~Curve Information -----------------------------------------
DEPT.F     : 
CALD.IN    : CALIPER FROM DENSITY LOG
RHOB.G/C3  : BULK DENSITY
DRHO.G/C3  : DENSITY CORRECTION
GRD .GAPI  : GAMMA RAY FROM DENSITY LOG
NPHI.DEC   : NEUTRON POROSITY LIMESTONE
DPHI.DEC   : DENSITY POROSITY LIMESTONE
DTSM.US/F  : SHEAR-WAVE TRANSIT TIME
DTCO.US/F  : COMPRESSIONAL-WAVE INTERVAL TRANSIT TIME ACOUSTIC SLOWNESS
SPR .MV    : SPONTANEOUS POTENTIAL FROM RES. LOG
SFL .OHMM  : SHALLOW FOCUSED LOG RESISTIVITY
ILD .OHMM  : INDUCTION LOG DEEP
ILM .OHMM  : INDUCTION LOG MEDIUM
GRR .GAPI  : GAMMA RAY FROM RES. LOG
IDPH.OHMM  : INDUCTION DEEP PHASOR RES.
IMPH.OHMM  : INDUCTION MEDIUM PHASOR RES.
~Params ----------------------------------------------------
~Other -----------------------------------------------------
~ASCII -----------------------------------------------------
# ...
 9330.00000   10.05500    2.36050    0.01510   92.82060    0.28370    0.20670   -9999.25   -9999.25  -14.50240    8.61790    6.78960    6.54550  111.43420   -9999.25   -9999.25
 9330.50000   10.03230    2.41290    0.02800   94.44030    0.26500    0.19020   -9999.25   -9999.25  -14.43310    7.89030    7.25940    6.97710  110.92520   -9999.25   -9999.25
 9331.00000   10.01370    2.46900    0.04100   95.56400    0.24610    0.15770   -9999.25   -9999.25  -14.36320    7.44060    7.63720    7.32390  111.49580   -9999.25   -9999.25
 9331.50000   10.02470    2.52940    0.05430   95.94550    0.24200    0.12530   -9999.25   -9999.25  -14.29230    8.85570    8.03470    7.68670  111.92430   -9999.25   -9999.25
 9332.00000   10.03560    2.54870    0.06590   94.47410    0.24440    0.10390   -9999.25   -9999.25  -14.22170   10.08220    8.45290    8.06820  111.69930   -9999.25   -9999.25
 9332.50000   10.04750    2.55080    0.06810   95.24270    0.24550    0.09110   -9999.25   -9999.25  -14.15110   11.47870    8.89290    8.46860  111.99490   -9999.25   -9999.25
 9333.00000   10.05280    2.54910    0.07030   99.19710    0.24080    0.09110   -9999.25   -9999.25  -14.08060   12.65060    9.35570    8.88880  114.78580   -9999.25   -9999.25
 9333.50000   10.05180    2.55170    0.07230  102.68160    0.23740    0.09160   -9999.25   -9999.25  -14.01000   13.12580    9.84270    9.32990  117.71850   -9999.25   -9999.25
 9334.00000   10.05390    2.52360    0.07400  106.40310    0.23580    0.09240   -9999.25   -9999.25  -13.93940   12.64680   10.34540    9.79290  120.97160   -9999.25   -9999.25
 9334.50000   10.04640    2.50670    0.05470  108.33830    0.24500    0.11730   -9999.25   -9999.25  -13.87010   12.19880    9.61270    9.26700  122.07820   -9999.25   -9999.25
 9335.00000   10.19820    2.43410    0.03830  103.73980    0.25510    0.14020   -9999.25   -9999.25  -13.79570   12.35670    8.54350    8.23620  119.61090   -9999.25   -9999.25
 9335.50000   10.34110    2.29470    0.02150   95.09420    0.28660    0.17400   -9999.25   -9999.25  -13.72200   11.98150    7.59310    7.32010  118.68700   -9999.25   -9999.25
 9336.00000   10.59140    2.05330    0.00500   86.72580    0.34290    0.23400   -9999.25   -9999.25  -13.36100   11.27730    6.74850    6.50580  110.13950   -9999.25   -9999.25
 9336.50000   10.93740    1.98110   -0.01260   85.01880    0.42910    0.29960   -9999.25   -9999.25  -12.98550    7.82280    6.17590    5.06090  100.01680   -9999.25   -9999.25
 9337.00000   11.27690    1.78580   -0.01760   85.89870    0.42720    0.53800   -9999.25   -9999.25  -12.60730    5.65360    6.05050    3.71040   99.57700   -9999.25   -9999.25
 9337.50000   11.44620    1.86130   -0.00830   88.42380    0.41390    0.52980   -9999.25   -9999.25  -12.23100    4.37510    5.96740    3.91640   98.02290   -9999.25   -9999.25
 9338.00000   10.64150    1.93140   -0.00190   90.84950    0.40190    0.52310   -9999.25   -9999.25  -11.85450    4.45600    5.65370    4.06160  102.47760   -9999.25   -9999.25
 9338.50000   10.21630    2.00670    0.00480   92.46530    0.39820    0.30100   -9999.25   -9999.25  -11.47640    4.85840    5.32570    4.21220  110.90610   -9999.25   -9999.25
 9339.00000   10.23380    2.23880    0.00940   89.91700    0.39950    0.29930   -9999.25   -9999.25  -11.10790    5.48020    5.01480    4.36830  116.80540   -9999.25   -9999.25
 9339.50000   10.19170    2.43780    0.00740   85.90530    0.40050    0.22250   -9999.25   -9999.25  -10.69480    6.18170    4.70760    4.53830  115.49190   -9999.25   -9999.25
 9340.00000   10.16730    2.59620    0.00580   82.01910    0.40140    0.12020   -9999.25   -9999.25  -10.63200    6.97300    5.02920    4.78470  107.37340   -9999.25   -9999.25
 9340.50000   10.14130    2.61220    0.00410   78.38830    0.29940    0.05960   -9999.25   -9999.25  -10.99280    6.39240    5.39110    5.05820   96.59830   -9999.25   -9999.25
 9341.00000   10.11600    2.61920    0.00240   78.02140    0.29910    0.05590   -9999.25   -9999.25  -11.23930    5.49890    5.77910    5.34740   88.26050   -9999.25   -9999.25
 9341.50000   10.09560    2.62760    0.00070   77.54620    0.29880    0.04990   -9999.25   -9999.25  -11.48670    4.73030    6.19420    5.65310   86.24440   -9999.25   -9999.25
 9342.00000   10.25090    2.63550   -0.00050   77.97420    0.24820    0.04420   -9999.25   -9999.25  -11.73370    5.01800    6.63860    5.97240   83.75080   -9999.25   -9999.25
 9342.50000   10.39810    2.54200   -0.00080   81.72600    0.18160    0.07900   -9999.25   -9999.25  -11.98080    8.88530    7.12460    6.31240   82.24100   -9999.25   -9999.25
 9343.00000   10.54320    2.43670   -0.00170   85.26480    0.21310    0.13160   -9999.25   -9999.25  -12.22780   17.27470    7.23250    5.98940   90.41570   -9999.25   -9999.25
 9343.50000   10.70300    2.34750   -0.00240   88.87710    0.24980    0.18420   -9999.25   -9999.25  -12.47490   15.98670    6.79750    5.69220   98.03190   -9999.25   -9999.25
 9344.00000   10.65010    2.36940   -0.00320   92.44200    0.28740    0.21310   -9999.25   -9999.25  -12.72200   14.38430    6.50280    5.40940  105.64180   -9999.25   -9999.25
 9344.50000   10.50650    2.39460   -0.00410   96.12600    0.29770    0.19420   -9999.25   -9999.25  -12.96900    6.83720    6.22100    5.15890  113.67640   -9999.25   -9999.25
 9345.00000   10.36990    2.41420   -0.00480   98.18430    0.28540    0.18110   -9999.25   -9999.25  -13.21670    5.15890    5.95130    5.01690  115.48570   -9999.25   -9999.25
 9345.50000   10.27190    2.37870   -0.00700   99.73270    0.24550    0.17110   -9999.25   -9999.25  -13.46260    5.45030    5.69330    4.94590  113.47210   -9999.25   -9999.25
 9346.00000   10.48640    2.22510    0.00100  100.15420    0.30040    0.21690   -9999.25   -9999.25  -13.70280    5.93030    5.44660    4.87590  113.93520   -9999.25   -9999.25
 9346.50000   10.68480    2.07530    0.01180  100.09760    0.31900    0.25910   -9999.25   -9999.25  -13.79710    6.40630    5.21050    4.80690  116.43210   -9999.25   -9999.25
 9347.00000   10.88510    2.02450    0.02240  100.07530    0.33600    0.40180   -9999.25   -9999.25  -13.87330    6.46470    4.98460    4.73950  118.19240   -9999.25   -9999.25
 9347.50000   10.99130    2.04880    0.03380   99.69580    0.31590    0.36390   -9999.25   -9999.25  -13.94880    6.12450    4.88320    4.70480  119.67670   -9999.25   -9999.25
 9348.00000   11.24990    2.06790    0.03830   96.49570    0.30180    0.30400   -9999.25   -9999.25  -14.02490    6.98690    4.88320    4.70760  114.95870   -9999.25   -9999.25
 9348.50000   11.62100    2.09600    0.01250   93.63990    0.27700    0.30460   -9999.25   -9999.25  -14.10090   10.15770    4.70910    4.31040  109.16690   -9999.25   -9999.25
 9349.00000   10.99040    2.12920   -0.00700   88.56410    0.31070    0.30270   -9999.25   -9999.25  -14.17690    9.81180    4.41340    3.68220  107.72160   -9999.25   -9999.25
 9349.50000   10.25670    2.18770   -0.02130   82.28960    0.38910    0.30500   -9999.25   -9999.25  -14.25290    9.01700    4.29570    3.38580  109.53280   -9999.25   -9999.25
 9350.00000   10.26760    2.40260   -0.01240   87.45460    0.43700    0.30120   -9999.25   -9999.25  -14.32890    5.59040    4.37520    3.53130  114.02740   -9999.25   -9999.25
 9350.50000   10.26950    2.55100   -0.00440   95.82030    0.30210    0.09110   -9999.25   -9999.25  -14.40500    4.68760    4.42620    3.89990  118.04230   -9999.25   -9999.25
 9351.00000   10.28210    2.47570   -0.00130  103.91100    0.29340    0.12840   -9999.25   -9999.25  -14.48100    6.41060    4.45600    4.29570  122.11150   -9999.25   -9999.25
 9351.50000   10.29380    2.40850    0.00180  111.98010    0.28340    0.17320   -9999.25   -9999.25  -14.55700    8.61440    4.84650    4.59500  126.37760   -9999.25   -9999.25
 9352.00000   10.27580    2.33930    0.01000  120.05650    0.29800    0.21790   -9999.25   -9999.25  -14.63300    8.07320    5.53700    4.90670  129.27960   -9999.25   -9999.25
 9352.50000   10.22340    2.31830    0.02140  128.12400    0.28510    0.23330   -9999.25   -9999.25  -14.70900    7.47340    6.32580    5.23950  131.21250   -9999.25   -9999.25
