~Version ---------------------------------------------------
VERS.   2.0 : CWLS log ASCII Standard -VERSION 2.0
WRAP.    NO : One line per depth step
DLM . SPACE : Column Data Section Delimiter
~Well ------------------------------------------------------
STRT .F                3534.0 : START DEPTH
STOP .F               12816.0 : STOP DEPTH
STEP .F                   0.5 : STEP
NULL .               -9999.25 : NULL VALUE
COMP .                        : COMPANY
WELL .                        : WELL
FLD  .                        : FIELD
LOC  .                        : LOCATION
PROV .                        : PROVINCE
CNTY .                        : COUNTY
STAT .                        : STATE
CTRY .                        : COUNTRY
SRVC .                        : SERVICE COMPANY
DATE .                        : DATE
UWI  .                        : UNIQUE WELL ID
API  .                        : API NUMBER
SLAT .WGS84 5.965102341517699 : SURFACE LATITUDE
SLON .WGS84 4.182719478617997 : SURFACE LONGITUDE
DATUM.F               2110.88 : DEPTH DATUM ELEV
~Curve Information -----------------------------------------
DEPT.F     : 
CALD.IN    : CALIPER FROM DENSITY LOG
RHOB.G/C3  : BULK DENSITY
DRHO.G/C3  : DENSITY CORRECTION
GRD .GAPI  : GAMMA RAY FROM DENSITY LOG
NPHI.DEC   : NEUTRON POROSITY LIMESTONE
DPHI.DEC   : DENSITY POROSITY LIMESTONE
DTSM.US/F  : SHEAR-WAVE TRANSIT TIME
DTCO.US/F  : COMPRESSIONAL-WAVE INTERVAL TRANSIT TIME ACOUSTIC SLOWNESS
SPR .MV    : SPONTANEOUS POTENTIAL FROM RES. LOG
SFL .OHMM  : SHALLOW FOCUSED LOG RESISTIVITY
ILD .OHMM  : INDUCTION LOG DEEP
ILM .OHMM  : INDUCTION LOG MEDIUM
GRR .GAPI  : GAMMA RAY FROM RES. LOG
IDPH.OHMM  : INDUCTION DEEP PHASOR RES.
IMPH.OHMM  : INDUCTION MEDIUM PHASOR RES.
~Params ----------------------------------------------------
~Other -----------------------------------------------------
~ASCII -----------------------------------------------------
# ...
 11617.00000    6.03630    2.67610   -0.02890  106.26000    0.21580    0.02220   -9999.25   -9999.25  -26.53250   10.74120   -9999.25   -9999.25  106.66380    8.32610    8.02730
 11617.50000    6.03630    2.68440   -0.02570  109.39860    0.22200    0.01440   -9999.25   -9999.25  -26.53980   10.43620   -9999.25   -9999.25  107.27930    8.25820    7.96180
 11618.00000    6.03630    2.69220   -0.02250  113.14130    0.22530    0.00670   -9999.25   -9999.25  -26.38970   10.13730   -9999.25   -9999.25  107.41340    8.19090    7.89710
 11618.50000    6.03630    2.70110   -0.01960  115.99710    0.21990    0.00450   -9999.25   -9999.25  -26.23590    9.84580   -9999.25   -9999.25  113.00050    8.12310    7.83240
 11619.00000    6.03630    2.69870   -0.02030  117.40930    0.21450    0.01040   -9999.25   -9999.25  -26.08110    9.72130   -9999.25   -9999.25  113.93630    8.09130    7.80210
 11619.50000    6.03630    2.69090   -0.02140  117.54400    0.21010    0.01470   -9999.25   -9999.25  -25.92810   10.22330   -9999.25   -9999.25  113.22910    8.15520    7.85980
 11620.00000    6.03630    2.68260   -0.02000  115.17800    0.21350    0.01900   -9999.25   -9999.25  -25.77360   10.56400   -9999.25   -9999.25  111.53820    8.20920    7.90960
 11620.50000    6.03630    2.68000   -0.01860  112.00520    0.21570    0.01460   -9999.25   -9999.25  -25.68380   10.64680   -9999.25   -9999.25  107.47050    8.26310    7.95910
 11621.00000    6.03630    2.69120   -0.01770  109.62650    0.21330    0.01030   -9999.25   -9999.25  -25.61540   10.64680   -9999.25   -9999.25  106.79180    8.31740    8.00900
 11621.50000    6.03630    2.69900   -0.01960  110.69200    0.21040    0.00690   -9999.25   -9999.25  -25.54650   10.64690   -9999.25   -9999.25  110.67560    8.37210    8.05930
 11622.00000    6.03630    2.69810   -0.02130  114.58720    0.20760    0.00990   -9999.25   -9999.25  -25.47760   10.64680   -9999.25   -9999.25  114.64060    8.42720    8.10980
 11622.50000    6.03630    2.69260   -0.02160  117.33250    0.20520    0.01240   -9999.25   -9999.25  -25.40870   10.64610   -9999.25   -9999.25  116.62390    8.48300    8.16080
 11623.00000    6.03630    2.69180   -0.02150  114.93310    0.20690    0.01490   -9999.25   -9999.25  -25.33970   10.64850   -9999.25   -9999.25  114.17270    8.53930    8.21220
 11623.50000    6.03630    2.69710   -0.02160  111.24710    0.21090    0.01110   -9999.25   -9999.25  -25.27070   10.71040   -9999.25   -9999.25  111.67460    8.57330    8.24330
 11624.00000    6.03630    2.70070   -0.02140  108.46670    0.21490    0.00730   -9999.25   -9999.25  -25.20180   10.88930   -9999.25   -9999.25  111.88250    8.63870    8.30710
 11624.50000    6.03630    2.70460   -0.02350  108.71550    0.21460    0.00350   -9999.25   -9999.25  -25.13270   11.06660   -9999.25   -9999.25  112.30580    8.70280    8.37000
 11625.00000    6.03630    2.70650   -0.02360  110.15170    0.21410    0.00120   -9999.25   -9999.25  -25.06330   11.24700   -9999.25   -9999.25  112.60990    8.76730    8.43400
 11625.50000    6.03630    2.69200   -0.02270  110.83390    0.21530    0.01030   -9999.25   -9999.25  -24.98930   11.43050   -9999.25   -9999.25  110.24740    8.83240    8.49870
 11626.00000    6.03630    2.67980   -0.02210  108.88810    0.21650    0.01680   -9999.25   -9999.25  -24.95070   11.61710   -9999.25   -9999.25  105.01470    8.89800    8.56390
 11626.50000    6.03630    2.66830   -0.02140  108.02120    0.21160    0.02330   -9999.25   -9999.25  -25.24470   11.80670   -9999.25   -9999.25  102.18550    8.96410    8.62970
 11627.00000    6.03630    2.67820   -0.02070  109.73810    0.20670    0.01930   -9999.25   -9999.25  -25.49130   11.88060   -9999.25   -9999.25  103.89100    9.03060    8.69590
 11627.50000    6.03630    2.68910   -0.02010  113.17770    0.20170    0.01280   -9999.25   -9999.25  -25.74220   11.47360   -9999.25   -9999.25  107.15620    9.09770    8.76260
 11628.00000    6.03630    2.70120   -0.01940  113.97510    0.19880    0.00630   -9999.25   -9999.25  -25.99220   11.15310   -9999.25   -9999.25  107.03450    9.16520    8.82990
 11628.50000    6.03630    2.69210   -0.02190  114.57930    0.20200    0.01010   -9999.25   -9999.25  -26.24220   10.83870   -9999.25   -9999.25  110.48910    9.23320    8.89760
 11629.00000    6.03630    2.67660   -0.02500  111.69250    0.20430    0.02080   -9999.25   -9999.25  -26.49220   10.84650   -9999.25   -9999.25  114.39140    9.30080    8.96590
 11629.50000    6.03630    2.66240   -0.02830  108.65970    0.20590    0.02930   -9999.25   -9999.25  -26.74220   11.17050   -9999.25   -9999.25  118.68750    9.36750    9.03220
 11630.00000    6.03620    2.66460   -0.02970  106.11540    0.20710    0.02380   -9999.25   -9999.25  -26.99220   11.57620   -9999.25   -9999.25  119.53810    9.22020    8.88930
 11630.50000    6.03710    2.66830   -0.02880  106.78770    0.20830    0.01880   -9999.25   -9999.25  -27.24220   11.99660   -9999.25   -9999.25  116.84600    9.08090    8.75500
 11631.00000    6.04020    2.67210   -0.02610  109.84570    0.20680    0.01870   -9999.25   -9999.25  -27.49260   12.32730   -9999.25   -9999.25  114.33030    8.94340    8.62240
 11631.50000    6.04300    2.67590   -0.02350  113.70310    0.20480    0.01850   -9999.25   -9999.25  -27.74050   12.12770   -9999.25   -9999.25  111.41940    8.80770    8.49160
 11632.00000    6.04590    2.67910   -0.02150  115.66900    0.20360    0.01830   -9999.25   -9999.25  -28.00680   11.89060   -9999.25   -9999.25  110.51650    8.67400    8.36270
 11632.50000    6.04880    2.67800   -0.02340  115.02050    0.20690    0.01820   -9999.25   -9999.25  -28.12060   11.31840   -9999.25   -9999.25  109.78920    8.54240    8.23580
 11633.00000    6.05170    2.67650   -0.02490  112.06310    0.20920    0.01930   -9999.25   -9999.25  -28.03750   10.70450   -9999.25   -9999.25  112.15640    8.41290    8.11090
 11633.50000    6.05450    2.67500   -0.02650  109.16790    0.21090    0.02060   -9999.25   -9999.25  -27.97890   10.11510   -9999.25   -9999.25  114.43630    8.28530    7.98780
 11634.00000    6.05740    2.67350   -0.02810  107.96030    0.21220    0.02030   -9999.25   -9999.25  -27.91790    9.71710   -9999.25   -9999.25  116.99700    8.15980    7.86660
 11634.50000    6.06030    2.67280   -0.02970  108.37090    0.21330    0.01980   -9999.25   -9999.25  -27.85730    9.89630   -9999.25   -9999.25  117.77460    8.23290    7.93480
 11635.00000    6.06310    2.67410   -0.03120  108.56040    0.21090    0.02300   -9999.25   -9999.25  -27.79660   10.92350   -9999.25   -9999.25  115.15290    8.52430    8.21800
 11635.50000    6.06600    2.66480   -0.03290  105.97960    0.20770    0.02700   -9999.25   -9999.25  -27.73600   11.97300   -9999.25   -9999.25  108.35430    8.82820    8.51140
 11636.00000    6.06890    2.65510   -0.03340  104.10840    0.19960    0.03100   -9999.25   -9999.25  -27.67540   13.12340   -9999.25   -9999.25  101.65270    9.14340    8.81530
 11636.50000    6.07170    2.65700   -0.03220  103.24130    0.19150    0.03190   -9999.25   -9999.25  -27.61480   13.75090   -9999.25   -9999.25   96.01460    9.46980    9.12950
 11637.00000    6.07470    2.66360   -0.03130  104.11570    0.19010    0.02620   -9999.25   -9999.25  -27.55420   13.07880   -9999.25   -9999.25   98.85080    9.80790    9.45500
 11637.50000    6.07630    2.67020   -0.03030  104.82750    0.19100    0.02280   -9999.25   -9999.25  -27.49450   12.49250   -9999.25   -9999.25  103.13280   10.15800    9.79340
 11638.00000    6.07350    2.67330   -0.02990  103.73460    0.19150    0.02220   -9999.25   -9999.25  -27.42580   12.09970   -9999.25   -9999.25  105.50620   10.27870    9.89630
 11638.50000    6.07130    2.67220   -0.03080  102.36440    0.18950    0.02420   -9999.25   -9999.25  -27.39580   12.56050   -9999.25   -9999.25  105.01970   10.32480    9.89630
 11639.00000    6.06890    2.67090   -0.02680  101.03020    0.18830    0.02460   -9999.25   -9999.25  -26.83140   12.92580   -9999.25   -9999.25  105.22660   10.37110    9.89720
