~Version ---------------------------------------------------
VERS.   2.0 : CWLS log ASCII Standard -VERSION 2.0
WRAP.    NO : One line per depth step
DLM . SPACE : Column Data Section Delimiter
~Well ------------------------------------------------------
STRT .F                3534.0 : START DEPTH
STOP .F               12816.0 : STOP DEPTH
STEP .F                   0.5 : STEP
NULL .               -9999.25 : NULL VALUE
COMP .                        : COMPANY
WELL .                        : WELL
FLD  .                        : FIELD
LOC  .                        : LOCATION
PROV .                        : PROVINCE
CNTY .                        : COUNTY
STAT .                        : STATE
CTRY .                        : COUNTRY
SRVC .                        : SERVICE COMPANY
DATE .                        : DATE
UWI  .                        : UNIQUE WELL ID
API  .                        : API NUMBER
SLAT .WGS84 5.965102341517699 : SURFACE LATITUDE
SLON .WGS84 4.182719478617997 : SURFACE LONGITUDE
DATUM.F               2110.88 : DEPTH DATUM ELEV
~Curve Information -----------------------------------------
DEPT.F     : 
CALD.IN    : CALIPER FROM DENSITY LOG
RHOB.G/C3  : BULK DENSITY
DRHO.G/C3  : DENSITY CORRECTION
GRD .GAPI  : GAMMA RAY FROM DENSITY LOG
NPHI.DEC   : NEUTRON POROSITY LIMESTONE
DPHI.DEC   : DENSITY POROSITY LIMESTONE
DTSM.US/F  : SHEAR-WAVE TRANSIT TIME
DTCO.US/F  : COMPRESSIONAL-WAVE INTERVAL TRANSIT TIME ACOUSTIC SLOWNESS
SPR .MV    : SPONTANEOUS POTENTIAL FROM RES. LOG
SFL .OHMM  : SHALLOW FOCUSED LOG RESISTIVITY
ILD .OHMM  : INDUCTION LOG DEEP
ILM .OHMM  : INDUCTION LOG MEDIUM
GRR .GAPI  : GAMMA RAY FROM RES. LOG
IDPH.OHMM  : INDUCTION DEEP PHASOR RES.
IMPH.OHMM  : INDUCTION MEDIUM PHASOR RES.
~Params ----------------------------------------------------
~Other -----------------------------------------------------
~ASCII -----------------------------------------------------
# ...
 12382.00000    5.51210    2.65080   -0.03540  110.86140    0.17940    0.03350  128.23500   66.89520  -17.76890   12.18580   -9999.25   -9999.25  100.77880    9.55380    9.21090
 12382.50000    5.51210    2.64730   -0.03600  110.33110    0.18330    0.03700  128.06700   66.77200  -17.76890   11.99110   -9999.25   -9999.25  109.25280    9.36840    9.03220
 12383.00000    5.51210    2.64090   -0.03670  107.59140    0.18660    0.04020  127.74840   67.06810  -17.76890   11.75760   -9999.25   -9999.25  111.02970    9.33990    9.00470
 12383.50000    5.51210    2.63410   -0.03740  104.38060    0.19000    0.04330  127.41790   67.72510  -17.76890   11.52880   -9999.25   -9999.25  106.84100    9.31320    8.97910
 12384.00000    5.51210    2.63200   -0.03630  102.79000    0.18750    0.04480  127.09530   68.29810  -17.76890   11.63410   -9999.25   -9999.25  104.36010    9.28650    8.95330
 12384.50000    5.51210    2.64500   -0.03460  101.47540    0.17940    0.03910  126.47760   67.46670  -17.76890   12.32060   -9999.25   -9999.25  102.54110    9.26000    8.92760
 12385.00000    5.51210    2.65480   -0.03290  101.05440    0.17890    0.03330  124.65860   64.90440  -17.76890   12.55010   -9999.25   -9999.25  101.32520    9.23410    8.90130
 12385.50000    5.51210    2.66500   -0.03120  105.08060    0.18400    0.02700  122.51980   63.15300  -17.76890   11.83470   -9999.25   -9999.25  101.72530    9.21240    8.87150
 12386.00000    5.51210    2.66010   -0.02980  108.35180    0.19160    0.02140  123.91080   67.69380  -17.76890   11.30410   -9999.25   -9999.25  102.97180    9.08340    8.75740
 12386.50000    5.51210    2.65090   -0.03070  112.04140    0.19910    0.03110  126.87340   68.29810  -17.76890   10.79730   -9999.25   -9999.25  107.43990    8.69350    8.38150
 12387.00000    5.51210    2.64180   -0.03180  112.90470    0.20280    0.03910  127.61810   66.31930  -17.76890   10.26470   -9999.25   -9999.25  110.53760    8.32030    8.02170
 12387.50000    5.51210    2.63540   -0.03290  107.41710    0.18900    0.04230  128.43930   63.94460  -17.76890   11.14530   -9999.25   -9999.25  107.99440    7.96310    7.67730
 12388.00000    5.51210    2.63840   -0.03360  103.33670    0.17980    0.03820  130.62840   64.31210  -17.76880   10.82010   -9999.25   -9999.25  102.92260    7.62130    7.34780
 12388.50000    5.51210    2.64120   -0.03350  101.10280    0.18230    0.03590  134.20080   65.13190  -17.76930    9.52570   -9999.25   -9999.25  100.49070    7.29410    7.03240
 12389.00000    5.51210    2.64410   -0.03360  104.67350    0.19000    0.03980  137.77320   63.81520  -17.76560    8.38610   -9999.25   -9999.25  104.65680    6.98110    6.73050
 12389.50000    5.51210    2.64700   -0.03190  107.54360    0.19770    0.03860  140.39210   62.33690  -17.81150    7.38290   -9999.25   -9999.25  108.80150    6.68200    6.44160
 12390.00000    5.51210    2.65000   -0.02870  110.76210    0.20540    0.03550  140.61110   61.56990  -17.90720    7.25360   -9999.25   -9999.25  111.23760    6.39650    6.16510
 12390.50000    5.51210    2.65280   -0.02730  111.26130    0.21110    0.03230  140.83010   63.76440  -17.99740    7.56660   -9999.25   -9999.25  109.02150    6.15350    5.93270
 12391.00000    5.51210    2.65590   -0.02640  111.66230    0.21260    0.02940  141.04910   65.83400  -18.08840    7.94760   -9999.25   -9999.25  105.98880    6.04210    5.82530
 12391.50000    5.51210    2.65660   -0.02560  111.33890    0.21390    0.02780  140.32980   67.90350  -18.17940    7.88340   -9999.25   -9999.25  102.35620    6.20370    5.98100
 12392.00000    5.51210    2.65410   -0.02710  110.88130    0.21530    0.02780  139.05290   69.97300  -18.27030    7.80370   -9999.25   -9999.25  100.02510    6.32270    6.09580
 12392.50000    5.51210    2.65230   -0.02900  109.73920    0.21170    0.03070  136.40980   69.48550  -18.36120    8.14640   -9999.25   -9999.25  104.10760    6.49170    6.25870
 12393.00000    5.51210    2.65040   -0.03100  108.58010    0.20570    0.03830  133.66920   67.11620  -18.45210    8.52880   -9999.25   -9999.25  106.56860    6.66520    6.42600
 12393.50000    5.51210    2.64870   -0.03280  107.35000    0.19880    0.03870  131.62270   63.94460  -18.54300    8.70800   -9999.25   -9999.25  106.00450    6.84330    6.59770
 12394.00000    5.51210    2.64720   -0.03490  106.57270    0.19770    0.03640  131.06380   63.94460  -18.63390    8.55030   -9999.25   -9999.25  103.85150    7.02620    6.77410
 12394.50000    5.51210    2.65240   -0.03410  106.39760    0.19630    0.03420  130.83110   65.49290  -18.72480    9.38350   -9999.25   -9999.25  102.61230    7.21400    6.95510
 12395.00000    5.51210    2.65800   -0.03120  105.11340    0.19500    0.03150  130.83110   66.32710  -18.81570   10.04530   -9999.25   -9999.25  101.86930    7.40680    7.14100
 12395.50000    5.51210    2.66350   -0.02850  103.81650    0.19390    0.02880  130.83110   63.97620  -18.90660   10.65610   -9999.25   -9999.25  104.92830    7.60480    7.33180
 12396.00000    5.51210    2.66820   -0.02560  105.18730    0.19800    0.02610  130.43540   63.93050  -18.99750   10.34960   -9999.25   -9999.25  108.08000    7.80800    7.52780
 12396.50000    5.51210    2.66350   -0.02400  108.92740    0.20130    0.02300  130.07010   64.14790  -19.08840    9.73320   -9999.25   -9999.25  111.41740    8.01670    7.72900
 12397.00000    5.51210    2.65800   -0.02790  112.97690    0.20440    0.02620  128.46860   64.34500  -19.17940    9.36840   -9999.25   -9999.25  112.98470    8.23090    7.93550
 12397.50000    5.51230    2.65240   -0.03150  112.09810    0.19300    0.03100  126.86720   64.54210  -19.27030    9.54120   -9999.25   -9999.25  110.58880    8.45090    8.14760
 12398.00000    5.50780    2.64740   -0.03360  107.94500    0.18190    0.03570  125.26370   64.75660  -19.36120   11.05590   -9999.25   -9999.25  104.50700    8.67670    8.36530
 12398.50000    5.50250    2.64800   -0.02850   98.48030    0.17070    0.03280  125.45990   66.29120  -19.45210   13.04090   -9999.25   -9999.25   98.79700    8.90850    8.58890
 12399.00000    5.49720    2.64920   -0.02800   93.15160    0.16410    0.02510  125.62290   67.81820  -19.54300   13.62360   -9999.25   -9999.25   92.71160    9.14660    8.81840
 12399.50000    5.49190    2.65030   -0.03050   95.80530    0.17870    0.01900  125.78390   69.35850  -19.63390   13.24900   -9999.25   -9999.25   90.47720    9.39250    9.05410
 12400.00000    5.48660    2.65160   -0.03230  100.89130    0.19310    0.01980  125.94470   70.27700  -19.72480   12.44570   -9999.25   -9999.25   92.68700    9.53690    9.19870
 12400.50000    5.48130    2.65250   -0.03340  105.04180    0.19360    0.03230  126.12130   66.30450  -19.81570   11.69110   -9999.25   -9999.25   97.12830    9.28490    8.95230
 12401.00000    5.47610    2.65730   -0.03110  105.63240    0.19310    0.03350  127.96100   65.06840  -19.90660   10.98220   -9999.25   -9999.25  101.19160    9.10700    8.78030
 12401.50000    5.47080    2.66300   -0.02960  104.38150    0.18930    0.02750  129.55780   64.48190  -19.99770   10.45400   -9999.25   -9999.25  102.32160    8.93210    8.61150
 12402.00000    5.46550    2.66830   -0.02950  103.30570    0.18670    0.02330  131.20470   61.92990  -20.09100   10.45400   -9999.25   -9999.25  102.68000    8.76040    8.44600
 12402.50000    5.46020    2.66180   -0.02960  105.18360    0.19290    0.02530  131.23490   59.19530  -20.16210   11.04320   -9999.25   -9999.25  102.89400    8.59210    8.28370
 12403.00000    5.45490    2.65440   -0.02950  107.57000    0.19880    0.03240  131.22690   59.19530  -20.15850   10.82710   -9999.25   -9999.25  103.03000    8.42690    8.12450
 12403.50000    5.44960    2.64660   -0.02950  109.81770    0.19980    0.03640  131.22690   61.15380  -20.15970   10.34480   -9999.25   -9999.25  104.13340    8.26500    7.96830
 12404.00000    5.44450    2.64520   -0.03020  109.15570    0.20100    0.03560  132.56980   63.27190  -20.15940    9.88260   -9999.25   -9999.25  105.98020    8.10610    7.81520
