~Version ---------------------------------------------------
VERS.   2.0 : CWLS log ASCII Standard -VERSION 2.0
WRAP.    NO : One line per depth step
DLM . SPACE : Column Data Section Delimiter
~Well ------------------------------------------------------
STRT .F                3534.0 : START DEPTH
STOP .F               12816.0 : STOP DEPTH
STEP .F                   0.5 : STEP
NULL .               -9999.25 : NULL VALUE
COMP .                        : COMPANY
WELL .                        : WELL
FLD  .                        : FIELD
LOC  .                        : LOCATION
PROV .                        : PROVINCE
CNTY .                        : COUNTY
STAT .                        : STATE
CTRY .                        : COUNTRY
SRVC .                        : SERVICE COMPANY
DATE .                        : DATE
UWI  .                        : UNIQUE WELL ID
API  .                        : API NUMBER
SLAT .WGS84 5.965102341517699 : SURFACE LATITUDE
SLON .WGS84 4.182719478617997 : SURFACE LONGITUDE
DATUM.F               2110.88 : DEPTH DATUM ELEV
~Curve Information -----------------------------------------
DEPT.F     : 
CALD.IN    : CALIPER FROM DENSITY LOG
RHOB.G/C3  : BULK DENSITY
DRHO.G/C3  : DENSITY CORRECTION
GRD .GAPI  : GAMMA RAY FROM DENSITY LOG
NPHI.DEC   : NEUTRON POROSITY LIMESTONE
DPHI.DEC   : DENSITY POROSITY LIMESTONE
DTSM.US/F  : SHEAR-WAVE TRANSIT TIME
DTCO.US/F  : COMPRESSIONAL-WAVE INTERVAL TRANSIT TIME ACOUSTIC SLOWNESS
SPR .MV    : SPONTANEOUS POTENTIAL FROM RES. LOG
SFL .OHMM  : SHALLOW FOCUSED LOG RESISTIVITY
ILD .OHMM  : INDUCTION LOG DEEP
ILM .OHMM  : INDUCTION LOG MEDIUM
GRR .GAPI  : GAMMA RAY FROM RES. LOG
IDPH.OHMM  : INDUCTION DEEP PHASOR RES.
IMPH.OHMM  : INDUCTION MEDIUM PHASOR RES.
~Params ----------------------------------------------------
~Other -----------------------------------------------------
~ASCII -----------------------------------------------------
# ...
 7375.00000   13.96370    2.51590    0.11480   96.85590    0.21880    0.10100   -9999.25   -9999.25  -16.92610   12.25480    9.37630    9.10020  106.69140   -9999.25   -9999.25
 7375.50000   13.97060    2.51180    0.12070   97.40780    0.23660    0.11700   -9999.25   -9999.25  -16.87010   11.90340    9.33920    8.94600  108.99230   -9999.25   -9999.25
 7376.00000   14.05040    2.51340    0.12270   95.00360    0.25430    0.11700   -9999.25   -9999.25  -16.74890   11.43060    9.30210    8.81890  111.67540   -9999.25   -9999.25
 7376.50000   14.13610    2.51810    0.11790   94.29610    0.25840    0.11490   -9999.25   -9999.25  -16.60570   10.97650    9.26530    8.55260  114.59720   -9999.25   -9999.25
 7377.00000   14.22450    2.51680    0.10630   96.28630    0.26250    0.11290   -9999.25   -9999.25  -16.46390   10.76280    9.22860    8.29250  111.57230   -9999.25   -9999.25
 7377.50000   14.30130    2.51890    0.09530   98.52240    0.26650    0.11090   -9999.25   -9999.25  -16.32210   10.83430    9.19200    8.04030  107.36070   -9999.25   -9999.25
 7378.00000   14.38930    2.53820    0.08410  100.05210    0.27060    0.10570   -9999.25   -9999.25  -16.18040   10.90620    9.15530    7.79770  103.17490   -9999.25   -9999.25
 7378.50000   14.04100    2.51720    0.06930   99.29420    0.27470    0.09840   -9999.25   -9999.25  -16.03870   10.82360    9.12090    7.57220   98.98180   -9999.25   -9999.25
 7379.00000   14.22450    2.46060    0.04970   97.43160    0.27250    0.13390   -9999.25   -9999.25  -15.89690   10.45390    9.09670    7.16380   94.88080   -9999.25   -9999.25
 7379.50000   14.41910    2.35950    0.02920   95.47310    0.26220    0.17640   -9999.25   -9999.25  -15.75520   10.12430    8.85310    7.93240   90.78160   -9999.25   -9999.25
 7380.00000   14.63580    2.35120    0.02340   93.50210    0.25180    0.21850   -9999.25   -9999.25  -15.61190   10.17900    8.63190    8.61080   92.28550   -9999.25   -9999.25
 7380.50000   14.69660    2.38920    0.03640   91.57190    0.24150    0.20230   -9999.25   -9999.25  -15.47660   10.59130    8.41620    7.83580   94.87980   -9999.25   -9999.25
 7381.00000   14.32650    2.42550    0.05120   89.40780    0.23680    0.18730   -9999.25   -9999.25  -15.31520   11.02030    8.20620    7.19580   97.98290   -9999.25   -9999.25
 7381.50000   14.01170    2.44360    0.06590   89.74900    0.23900    0.17250   -9999.25   -9999.25  -15.57700   10.87770    8.13520    7.00580   98.44900   -9999.25   -9999.25
 7382.00000   14.00040    2.42520    0.08060   92.48640    0.26390    0.15820   -9999.25   -9999.25  -15.98700    9.92600    8.11010    7.27030   97.57010   -9999.25   -9999.25
 7382.50000   13.94910    2.40100    0.09530   95.15900    0.30160    0.17290   -9999.25   -9999.25  -16.38430    9.00630    8.08510    7.54480   97.65660   -9999.25   -9999.25
 7383.00000   13.81290    2.37790    0.10990   94.07990    0.30210    0.18690   -9999.25   -9999.25  -16.78120    8.75950    8.06020    7.82970   98.09180   -9999.25   -9999.25
 7383.50000   13.65440    2.37520    0.12510   93.46030    0.29990    0.19650   -9999.25   -9999.25  -17.17800    8.95970    8.03530    7.85930   98.46200   -9999.25   -9999.25
 7384.00000   13.49700    2.37630    0.13470   90.37320    0.26900    0.19550   -9999.25   -9999.25  -17.57770    9.88660    8.00600    7.50350  100.96760   -9999.25   -9999.25
 7384.50000   13.34460    2.33540    0.13450   88.37340    0.28110    0.20100   -9999.25   -9999.25  -17.96560   10.90940    8.12690    7.16380  109.71660   -9999.25   -9999.25
 7385.00000   13.16440    2.29100    0.13140   86.85450    0.28960    0.22470   -9999.25   -9999.25  -18.37640   11.58920    8.41990    6.78960  118.83340   -9999.25   -9999.25
 7385.50000   13.31000    2.24690    0.12090   85.33200    0.30520    0.24840   -9999.25   -9999.25  -18.20470   10.88780    8.72350    7.66550  122.93020   -9999.25   -9999.25
 7386.00000   13.71900    2.23250    0.11130   83.79670    0.29960    0.27200   -9999.25   -9999.25  -17.92580   10.16260    9.03810    8.85390  111.93170   -9999.25   -9999.25
 7386.50000   14.04210    2.34600    0.10160   82.34600    0.25770    0.25890   -9999.25   -9999.25  -17.64820   10.92030    9.36400   10.22650   98.23950   -9999.25   -9999.25
 7387.00000   13.73170    2.45700    0.09170   80.75590    0.21910    0.18550   -9999.25   -9999.25  -17.37250   13.81000    9.70600   11.01320   97.66890   -9999.25   -9999.25
 7387.50000   13.21090    2.54950    0.08370   79.19660    0.18110    0.10490   -9999.25   -9999.25  -17.09700   18.70710   10.08960    9.94600   96.88270   -9999.25   -9999.25
 7388.00000   12.96290    2.54910    0.08150   77.80120    0.16460    0.09030   -9999.25   -9999.25  -16.82140   19.57000   12.15150   10.08230   95.76740   -9999.25   -9999.25
 7388.50000   13.29810    2.46980    0.07940   76.65830    0.17160    0.14700   -9999.25   -9999.25  -16.54570   16.98310   15.84250   13.24470   90.48670   -9999.25   -9999.25
 7389.00000   13.65100    2.37440    0.07720   70.86920    0.17760    0.19840   -9999.25   -9999.25  -16.27010   20.74600   16.94860   17.39890   83.43850   -9999.25   -9999.25
 7389.50000   13.76230    2.35270    0.07560   63.82660    0.14280    0.20770   -9999.25   -9999.25  -15.99450  136.77920   15.79750   22.85610   76.88980   -9999.25   -9999.25
 7390.00000   13.17310    2.39190    0.06620   57.07140    0.11150    0.20010   -9999.25   -9999.25  -15.71900  869.36260   14.65010   17.50160   69.76240   -9999.25   -9999.25
 7390.50000   12.37170    2.35570    0.04650   58.74120    0.10750    0.19250   -9999.25   -9999.25  -15.44340  381.37140   12.86030   11.20550   75.48140   -9999.25   -9999.25
 7391.00000   12.85120    2.19620    0.02730   68.56460    0.16060    0.30440   -9999.25   -9999.25  -15.16720   62.97400   11.22870    7.17430   85.81100   -9999.25   -9999.25
 7391.50000   14.28130    2.10330    0.01230   76.70520    0.21370    0.36670   -9999.25   -9999.25  -14.89500    9.97340    9.80410    6.30780   99.36560   -9999.25   -9999.25
 7392.00000   14.21500    2.07310    0.03520   81.28030    0.26690    0.36670   -9999.25   -9999.25  -14.60070    8.18280    8.56030    6.91510  107.86710   -9999.25   -9999.25
 7392.50000   13.93620    2.22640    0.07920   86.31920    0.30170    0.30360   -9999.25   -9999.25  -14.43600    8.65120    7.47420    6.71750  115.70000   -9999.25   -9999.25
 7393.00000   13.70040    2.34970    0.09930   89.49270    0.30070    0.23560   -9999.25   -9999.25  -14.32670    9.11120    6.91510    6.21830  116.61340   -9999.25   -9999.25
 7393.50000   13.82630    2.34600    0.09570   90.58190    0.31290    0.21260   -9999.25   -9999.25  -14.21350    9.03400    6.87850    5.87640  116.27980   -9999.25   -9999.25
 7394.00000   13.95600    2.29230    0.09390   91.08820    0.32780    0.23430   -9999.25   -9999.25  -14.10020    9.10080    6.84320    5.88970  120.53890   -9999.25   -9999.25
 7394.50000   14.04470    2.26530    0.09170   91.61860    0.31550    0.25600   -9999.25   -9999.25  -13.98680    9.55680    6.80800    5.90830  125.72700   -9999.25   -9999.25
 7395.00000   13.96800    2.31660    0.09200   93.61550    0.30450    0.24890   -9999.25   -9999.25  -13.87340   10.02090    6.77310    5.92810  131.20610   -9999.25   -9999.25
 7395.50000   13.90350    2.36200    0.10870   95.81560    0.30130    0.21900   -9999.25   -9999.25  -13.76000   10.33620    6.73830    5.94910  132.92270   -9999.25   -9999.25
 7396.00000   13.82590    2.41020    0.12490   97.60030    0.30010    0.18900   -9999.25   -9999.25  -13.64660   10.33530    6.70370    5.97460  130.62370   -9999.25   -9999.25
 7396.50000   13.85770    2.44240    0.14070   97.13050    0.29480    0.15820   -9999.25   -9999.25  -13.53320    9.74680    6.66930    5.80390  125.94810   -9999.25   -9999.25
 7397.00000   13.94380    2.43900    0.14200   96.68970    0.29880    0.16360   -9999.25   -9999.25  -13.41980    9.23400    6.63500    5.57340  121.45570   -9999.25   -9999.25
 7397.50000   14.02490    2.42050    0.13170   96.21360    0.32230    0.16910   -9999.25   -9999.25  -13.30640    8.98600    6.60100    5.35200  117.03500   -9999.25   -9999.25
