~Version ---------------------------------------------------
VERS.   2.0 : CWLS log ASCII Standard -VERSION 2.0
WRAP.    NO : One line per depth step
DLM . SPACE : Column Data Section Delimiter
~Well ------------------------------------------------------
STRT .F                3534.0 : START DEPTH
STOP .F               12816.0 : STOP DEPTH
STEP .F                   0.5 : STEP
NULL .               -9999.25 : NULL VALUE
COMP .                        : COMPANY
WELL .                        : WELL
FLD  .                        : FIELD
LOC  .                        : LOCATION
PROV .                        : PROVINCE
CNTY .                        : COUNTY
STAT .                        : STATE
CTRY .                        : COUNTRY
SRVC .                        : SERVICE COMPANY
DATE .                        : DATE
UWI  .                        : UNIQUE WELL ID
API  .                        : API NUMBER
SLAT .WGS84 5.965102341517699 : SURFACE LATITUDE
SLON .WGS84 4.182719478617997 : SURFACE LONGITUDE
DATUM.F               2110.88 : DEPTH DATUM ELEV
~Curve Information -----------------------------------------
DEPT.F     : 
CALD.IN    : CALIPER FROM DENSITY LOG
RHOB.G/C3  : BULK DENSITY
DRHO.G/C3  : DENSITY CORRECTION
GRD .GAPI  : GAMMA RAY FROM DENSITY LOG
NPHI.DEC   : NEUTRON POROSITY LIMESTONE
DPHI.DEC   : DENSITY POROSITY LIMESTONE
DTSM.US/F  : SHEAR-WAVE TRANSIT TIME
DTCO.US/F  : COMPRESSIONAL-WAVE INTERVAL TRANSIT TIME ACOUSTIC SLOWNESS
SPR .MV    : SPONTANEOUS POTENTIAL FROM RES. LOG
SFL .OHMM  : SHALLOW FOCUSED LOG RESISTIVITY
ILD .OHMM  : INDUCTION LOG DEEP
ILM .OHMM  : INDUCTION LOG MEDIUM
GRR .GAPI  : GAMMA RAY FROM RES. LOG
IDPH.OHMM  : INDUCTION DEEP PHASOR RES.
IMPH.OHMM  : INDUCTION MEDIUM PHASOR RES.
~Params ----------------------------------------------------
~Other -----------------------------------------------------
~ASCII -----------------------------------------------------
# ...
 12764.50000    4.44110    2.65910   -0.00720  117.12300    0.15500    0.03410   -9999.25   -9999.25  -16.28730   12.44900   -9999.25   -9999.25  100.54700   10.41990   10.93870
 12765.00000    4.43270    2.65040   -0.00930  119.88180    0.16000    0.02840   -9999.25   -9999.25  -16.26600   14.34490   -9999.25   -9999.25   94.74310   11.22690   11.84120
 12765.50000    4.42440    2.64250   -0.01150  122.51160    0.16880    0.03360   -9999.25   -9999.25  -16.24470   19.92790   -9999.25   -9999.25   96.03290   12.10440   12.81820
 12766.00000    4.41610    2.63510   -0.01370  124.88840    0.17780    0.03820   -9999.25   -9999.25  -16.22330   27.53040   -9999.25   -9999.25   98.48710   13.05180   13.87700
 12766.50000    4.40770    2.63630   -0.01590  124.54720    0.18400    0.04270   -9999.25   -9999.25  -16.20280   33.70070   -9999.25   -9999.25  100.88700   14.00450   15.03430
 12767.00000    4.39940    2.63630   -0.01810  123.45520    0.18470    0.04720   -9999.25   -9999.25  -16.17900   27.00000   -9999.25   -9999.25  103.36660   13.73240   15.92940
 12767.50000    4.39120    2.63630   -0.02030  122.42360    0.18550    0.04580   -9999.25   -9999.25  -16.20720   21.94640   -9999.25   -9999.25  104.96330   13.50190   15.91560
 12768.00000    4.38250    2.63620   -0.02150  121.25800    0.18610    0.04220   -9999.25   -9999.25  -16.25420   17.83870   -9999.25   -9999.25  105.32120   12.26300   13.93710
 12768.50000    4.38160    2.63690   -0.02090  120.99990    0.19200    0.03960   -9999.25   -9999.25  -16.29970   14.79370   -9999.25   -9999.25  105.86220   11.21900   12.32650
 12769.00000    4.38780    2.63800   -0.02050  122.54080    0.19730    0.04150   -9999.25   -9999.25  -16.34520   13.84020   -9999.25   -9999.25  106.34740   10.26300   10.90200
 12769.50000    4.39220    2.63900   -0.02010  123.62510    0.20270    0.04290   -9999.25   -9999.25  -16.39070   12.91640   -9999.25   -9999.25  108.33390    9.39020    9.64210
 12770.00000    4.39650    2.64010   -0.01970  124.70360    0.20800    0.04140   -9999.25   -9999.25  -16.43610   12.05430   -9999.25   -9999.25  110.23720    8.58880    8.52790
 12770.50000    4.40090    2.64110   -0.01960  125.91210    0.21330    0.03800   -9999.25   -9999.25  -16.48160   11.14810   -9999.25   -9999.25  111.59780    7.94760    7.66240
 12771.00000    4.40520    2.64230   -0.01990  126.22570    0.21860    0.04350   -9999.25   -9999.25  -16.52700   10.22590   -9999.25   -9999.25  106.53180    7.80370    7.52360
 12771.50000    4.40960    2.64360   -0.02020  123.30520    0.22470    0.04980   -9999.25   -9999.25  -16.57250    9.37990   -9999.25   -9999.25  101.43830    8.08440    7.79430
 12772.00000    4.41390    2.63900   -0.02040  120.72740    0.22330    0.05330   -9999.25   -9999.25  -16.61790    8.86860   -9999.25   -9999.25   96.32870    8.39580    8.09440
 12772.50000    4.41790    2.62190   -0.02060  119.89220    0.22160    0.04370   -9999.25   -9999.25  -16.66340   10.00840   -9999.25   -9999.25   91.67270    8.71650    8.40370
 12773.00000    4.42850    2.62250   -0.02090  123.88180    0.21990    0.03710   -9999.25   -9999.25  -16.70880   12.09330   -9999.25   -9999.25   92.06590    9.04380    8.71930
 12773.50000    4.46030    2.61950   -0.02110  126.90530    0.21920    0.03800   -9999.25   -9999.25  -16.75430   14.62690   -9999.25   -9999.25   97.78130    9.49160    9.14010
 12774.00000    4.49160    2.61980   -0.02140  129.43430    0.21860    0.03880   -9999.25   -9999.25  -16.79970   17.75910   -9999.25   -9999.25  105.45670    9.99460    9.63410
 12774.50000    4.52330    2.59540   -0.02150  127.50640    0.21980    0.03860   -9999.25   -9999.25  -16.84520   15.88570   -9999.25   -9999.25  110.25650   10.55500   10.15470
 12775.00000    4.55480    2.56800   -0.02140  122.75460    0.22220    0.03760   -9999.25   -9999.25  -16.89070   14.19650   -9999.25   -9999.25  110.65550   11.45590   10.69190
 12775.50000    4.58650    2.54620   -0.02120  120.08790    0.22470    0.03660   -9999.25   -9999.25  -16.93610   13.01690   -9999.25   -9999.25  107.28460   12.56120   11.27260
 12776.00000    4.61780    2.52610   -0.02110  121.36080    0.22710    0.03560   -9999.25   -9999.25  -16.98160   14.11010   -9999.25   -9999.25  104.09160   14.30870   11.92470
 12776.50000    4.65070    2.52960   -0.02100  122.00650    0.22720    0.03690   -9999.25   -9999.25  -17.02700   22.37480   -9999.25   -9999.25  103.71650   17.20290   15.73750
 12777.00000    4.66320    2.53510   -0.02080  121.97170    0.22430    0.03870   -9999.25   -9999.25  -17.07250   35.46180   -9999.25   -9999.25  106.50370   19.10680   18.42110
 12777.50000    4.64550    2.54120   -0.02070  122.01370    0.22170    0.04270   -9999.25   -9999.25  -17.11790   56.20310   -9999.25   -9999.25  109.03930   23.33400   24.37920
 12778.00000    4.63150    2.54300   -0.02050  122.30560    0.21910    0.04670   -9999.25   -9999.25  -17.16340   87.08010   -9999.25   -9999.25  108.04930   28.31320   31.97400
 12778.50000    4.61720    2.53200   -0.02040  124.66080    0.22420    0.05010   -9999.25   -9999.25  -17.20880   97.47240   -9999.25   -9999.25  105.10560   34.35490   41.93480
 12779.00000    4.60290    2.52310   -0.02020  126.87470    0.22550    0.04920   -9999.25   -9999.25  -17.25430  108.52970   -9999.25   -9999.25  102.16720   41.68590   50.88140
 12779.50000    4.58860    2.52010   -0.02010  129.17710    0.22360    0.04840   -9999.25   -9999.25  -17.29970  111.08740   -9999.25   -9999.25  100.20610   50.58120   56.38640
 12780.00000    4.57430    2.52830   -0.02000  130.98860    0.22170    0.04760   -9999.25   -9999.25  -17.34520  103.31570   -9999.25   -9999.25  100.51320   60.42110   62.48700
 12780.50000    4.56000    2.53500   -0.01980  131.75240    0.21970    0.04680   -9999.25   -9999.25  -17.39070   97.17130   -9999.25   -9999.25  102.43660   66.44490   69.24760
 12781.00000    4.54570    2.54180   -0.01970  129.85980    0.21790    0.04600   -9999.25   -9999.25  -17.43610  111.50850   -9999.25   -9999.25  104.29360   72.55100   76.73970
 12781.50000    4.53140    2.54860   -0.01950  126.13440    0.21670    0.04520   -9999.25   -9999.25  -17.48160  142.00630   -9999.25   -9999.25  106.17450   79.21820   83.95490
 12782.00000    4.51720    2.55520   -0.01940  123.22800    0.21540    0.04660   -9999.25   -9999.25  -17.52700  180.84550   -9999.25   -9999.25  108.10100   86.49820   88.75960
 12782.50000    4.50290    2.56600   -0.01930   -9999.25    0.21430    0.04980   -9999.25   -9999.25  -17.57250  213.21010   -9999.25   -9999.25  109.64510   90.32170   94.38040
 12783.00000    4.48860    2.57980   -0.01910   -9999.25    0.21580    0.05330   -9999.25   -9999.25  -17.61790  209.34920   -9999.25   -9999.25   -9999.25   67.68340   92.26560
 12783.50000    4.47430    2.59320   -0.01900   -9999.25    0.21720    0.05220   -9999.25   -9999.25  -17.66350  175.69920   -9999.25   -9999.25   -9999.25   54.38540   61.89630
 12784.00000    4.46000    2.60710   -0.01880   -9999.25    0.21860    0.05080   -9999.25   -9999.25  -17.70820  136.93990   -9999.25   -9999.25   -9999.25   43.70010   54.52290
 12784.50000    4.44580    2.61520   -0.01870   -9999.25    0.21990    0.05010   -9999.25   -9999.25  -17.75680   92.55370   -9999.25   -9999.25   -9999.25   35.11420   42.53120
 12785.00000    4.43090    2.61950   -0.01850   -9999.25    0.21910    0.05300   -9999.25   -9999.25  -17.76670   57.80860   -9999.25   -9999.25   -9999.25   28.21520   33.07320
 12785.50000    4.42230    2.62410   -0.01840   -9999.25    0.21830    0.05410   -9999.25   -9999.25  -17.74470   36.26630   -9999.25   -9999.25   -9999.25   22.67730   25.71850
 12786.00000    4.40830    2.62870   -0.01830   -9999.25    0.21750    0.05130   -9999.25   -9999.25  -17.73020   22.77730   -9999.25   -9999.25   -9999.25   18.21250   19.99930
 12786.50000    4.37880    2.63210   -0.01810   -9999.25    0.21670    0.04930   -9999.25   -9999.25  -17.71570   20.55580   -9999.25   -9999.25   -9999.25   15.91840   17.12260
