~Version ---------------------------------------------------
VERS.   2.0 : CWLS log ASCII Standard -VERSION 2.0
WRAP.    NO : One line per depth step
DLM . SPACE : Column Data Section Delimiter
~Well ------------------------------------------------------
STRT .F                3534.0 : START DEPTH
STOP .F               12816.0 : STOP DEPTH
STEP .F                   0.5 : STEP
NULL .               -9999.25 : NULL VALUE
COMP .                        : COMPANY
WELL .                        : WELL
FLD  .                        : FIELD
LOC  .                        : LOCATION
PROV .                        : PROVINCE
CNTY .                        : COUNTY
STAT .                        : STATE
CTRY .                        : COUNTRY
SRVC .                        : SERVICE COMPANY
DATE .                        : DATE
UWI  .                        : UNIQUE WELL ID
API  .                        : API NUMBER
SLAT .WGS84 5.965102341517699 : SURFACE LATITUDE
SLON .WGS84 4.182719478617997 : SURFACE LONGITUDE
DATUM.F               2110.88 : DEPTH DATUM ELEV
~Curve Information -----------------------------------------
DEPT.F     : 
CALD.IN    : CALIPER FROM DENSITY LOG
RHOB.G/C3  : BULK DENSITY
DRHO.G/C3  : DENSITY CORRECTION
GRD .GAPI  : GAMMA RAY FROM DENSITY LOG
NPHI.DEC   : NEUTRON POROSITY LIMESTONE
DPHI.DEC   : DENSITY POROSITY LIMESTONE
DTSM.US/F  : SHEAR-WAVE TRANSIT TIME
DTCO.US/F  : COMPRESSIONAL-WAVE INTERVAL TRANSIT TIME ACOUSTIC SLOWNESS
SPR .MV    : SPONTANEOUS POTENTIAL FROM RES. LOG
SFL .OHMM  : SHALLOW FOCUSED LOG RESISTIVITY
ILD .OHMM  : INDUCTION LOG DEEP
ILM .OHMM  : INDUCTION LOG MEDIUM
GRR .GAPI  : GAMMA RAY FROM RES. LOG
IDPH.OHMM  : INDUCTION DEEP PHASOR RES.
IMPH.OHMM  : INDUCTION MEDIUM PHASOR RES.
~Params ----------------------------------------------------
~Other -----------------------------------------------------
~ASCII -----------------------------------------------------
# ...
 10087.00000   11.36280    2.51380    0.05910  107.86860    0.28260    0.11800   -9999.25   -9999.25  -12.94120   10.04230    7.86070    7.57810  108.39360   -9999.25   -9999.25
 10087.50000   11.53410    2.49190    0.04260  106.34720    0.25030    0.13330   -9999.25   -9999.25  -12.94120    9.81180    8.47890    8.17220  107.90500   -9999.25   -9999.25
 10088.00000   11.58770    2.47210    0.03840  102.42620    0.21800    0.12090   -9999.25   -9999.25  -12.94120    9.58730    9.08900    8.76050  105.31030   -9999.25   -9999.25
 10088.50000   11.39480    2.55580    0.04400  100.88600    0.18570    0.06960   -9999.25   -9999.25  -12.94140   12.83340    9.73620    9.38670  102.41040   -9999.25   -9999.25
 10089.00000   11.27350    2.63360    0.04910  102.53040    0.16600    0.05070   -9999.25   -9999.25  -12.94030   16.05470   10.34070    9.96930  103.38400   -9999.25   -9999.25
 10089.50000   11.35770    2.62710    0.06130  103.17690    0.18670    0.04680   -9999.25   -9999.25  -12.94780   16.96130   10.13440    9.58840  105.19060   -9999.25   -9999.25
 10090.00000   11.43080    2.59960    0.07550   99.53180    0.20710    0.05900   -9999.25   -9999.25  -12.85800   14.64470    9.52050    8.97650  102.75890   -9999.25   -9999.25
 10090.50000   11.50780    2.56900    0.09010   96.23880    0.22760    0.07740   -9999.25   -9999.25  -12.68290   12.54920    8.90490    8.41810   96.50430   -9999.25   -9999.25
 10091.00000   11.58400    2.53830    0.10060   92.73370    0.23130    0.09580   -9999.25   -9999.25  -12.51870   10.92960    8.32590    7.89270   92.53550   -9999.25   -9999.25
 10091.50000   11.66020    2.50840    0.09850   97.41040    0.22990    0.11390   -9999.25   -9999.25  -12.35320    9.79390    7.78350    7.40000   94.69570   -9999.25   -9999.25
 10092.00000   11.73640    2.47770    0.08490  103.59350    0.23500    0.13150   -9999.25   -9999.25  -12.18780    8.92720    7.27620    6.93810  102.73710   -9999.25   -9999.25
 10092.50000   11.81220    2.48160    0.07000  109.01000    0.24940    0.13890   -9999.25   -9999.25  -12.02250    8.15390    6.80210    6.50500  110.79960   -9999.25   -9999.25
 10093.00000   11.89020    2.48970    0.06480  110.26370    0.26380    0.13240   -9999.25   -9999.25  -11.85720    7.92550    6.35840    6.09890  113.71200   -9999.25   -9999.25
 10093.50000   11.96030    2.50180    0.08150  112.05720    0.27820    0.12630   -9999.25   -9999.25  -11.69110    7.71810    5.93920    5.71820  111.98360   -9999.25   -9999.25
 10094.00000   12.16010    2.45440    0.10000  113.98840    0.28250    0.15130   -9999.25   -9999.25  -11.52560    7.55370    5.62760    5.39530  115.69510   -9999.25   -9999.25
 10094.50000   12.41990    2.38130    0.11030  112.93050    0.27580    0.18400   -9999.25   -9999.25  -11.37580    7.39980    5.49150    5.18520  113.92860   -9999.25   -9999.25
 10095.00000   12.67370    2.31010    0.11290  108.82670    0.27300    0.21670   -9999.25   -9999.25  -11.36870    7.24900    5.36580    4.98340  110.13450   -9999.25   -9999.25
 10095.50000   12.92800    2.26930    0.11610  104.53030    0.28280    0.24630   -9999.25   -9999.25  -11.37250    6.99490    5.24290    4.78940  106.09520   -9999.25   -9999.25
 10096.00000   13.18150    2.22950    0.11890   94.75940    0.29170    0.26240   -9999.25   -9999.25  -11.37260    6.64390    5.15890    4.60290   99.78590   -9999.25   -9999.25
 10096.50000   13.44310    2.21740    0.11450   91.22150    0.29880    0.27860   -9999.25   -9999.25  -11.37260    6.31060    5.03540    4.42370   93.00710   -9999.25   -9999.25
 10097.00000   13.60820    2.27410    0.14150   93.34120    0.33250    0.28830   -9999.25   -9999.25  -11.37260    5.97280    4.97740    4.37510   92.11530   -9999.25   -9999.25
 10097.50000   13.59390    2.35420    0.18040   95.62060    0.32060    0.23170   -9999.25   -9999.25  -11.37260    5.97280    4.92020    4.41820   96.39130   -9999.25   -9999.25
 10098.00000   13.59090    2.43270    0.21970   97.67720    0.31200    0.14610   -9999.25   -9999.25  -11.37260    5.97340    4.86360    4.46500   99.19670   -9999.25   -9999.25
 10098.50000   13.58500    2.46080    0.23750   99.13650    0.30760    0.15940   -9999.25   -9999.25  -11.37260    5.97240    4.80710    4.51220  101.42770   -9999.25   -9999.25
 10099.00000   13.57970    2.38620    0.22140  100.48850    0.31690    0.18170   -9999.25   -9999.25  -11.37260    6.00850    4.79610    4.56000  101.65720   -9999.25   -9999.25
 10099.50000   13.57440    2.34540    0.20000   97.40730    0.32830    0.20390   -9999.25   -9999.25  -11.37260    6.05500    4.79970    4.60830   98.87740   -9999.25   -9999.25
 10100.00000   13.56850    2.31820    0.17930   94.05440    0.33550    0.22620   -9999.25   -9999.25  -11.37260    6.17730    4.80270    4.65700   93.77320   -9999.25   -9999.25
 10100.50000   13.56560    2.32720    0.15760   90.68590    0.32180    0.23290   -9999.25   -9999.25  -11.37260    6.42040    4.80560    4.70600   88.62380   -9999.25   -9999.25
 10101.00000   13.53390    2.34530    0.14240   87.38730    0.32280    0.21900   -9999.25   -9999.25  -11.37260    6.66640    4.80850    4.75640   88.19640   -9999.25   -9999.25
 10101.50000   13.58920    2.36480    0.14780   86.83760    0.32320    0.20750   -9999.25   -9999.25  -11.37260    6.63130    4.81150    4.79460   88.86460   -9999.25   -9999.25
 10102.00000   13.71420    2.38960    0.14860   88.43370    0.32370    0.19160   -9999.25   -9999.25  -11.37260    6.59730    4.81440    4.69390   90.39170   -9999.25   -9999.25
 10102.50000   13.83330    2.40990    0.14810   89.75540    0.33000    0.17760   -9999.25   -9999.25  -11.37260    6.56340    4.81730    4.57670   91.84670   -9999.25   -9999.25
 10103.00000   13.95300    2.36230    0.14150   91.13300    0.35370    0.19820   -9999.25   -9999.25  -11.37260    6.43270    4.82030    4.46250   93.35160   -9999.25   -9999.25
 10103.50000   14.07290    2.29460    0.12940   92.61940    0.37710    0.23030   -9999.25   -9999.25  -11.37260    6.19870    4.82320    4.35120   94.76070   -9999.25   -9999.25
 10104.00000   14.19020    2.24090    0.11790   94.43510    0.38920    0.26230   -9999.25   -9999.25  -11.37260    6.01420    4.82620    4.29570   97.44190   -9999.25   -9999.25
 10104.50000   14.33260    2.18360    0.10580   98.36230    0.35060    0.29720   -9999.25   -9999.25  -11.37260    5.86440    4.82910    4.34450  101.53500   -9999.25   -9999.25
 10105.00000   14.37380    2.26550    0.09920  102.64410    0.32790    0.30240   -9999.25   -9999.25  -11.37260    5.94760    4.83210    4.38950  105.18560   -9999.25   -9999.25
 10105.50000   14.04360    2.34050    0.11120  104.21180    0.32730    0.29640   -9999.25   -9999.25  -11.37260    6.12530    4.83500    4.43490  104.53620   -9999.25   -9999.25
 10106.00000   13.78280    2.41850    0.12900   99.62650    0.32850    0.22040   -9999.25   -9999.25  -11.37260    6.34190    4.83800    4.45730   98.03910   -9999.25   -9999.25
 10106.50000   13.81900    2.46480    0.14100   93.32740    0.32350    0.14280   -9999.25   -9999.25  -11.37260    6.56610    4.84090    4.47290   91.09890   -9999.25   -9999.25
 10107.00000   13.98000    2.44110    0.13900   88.60790    0.31660    0.15370   -9999.25   -9999.25  -11.37260    6.66640    4.84390    4.48770   92.18660   -9999.25   -9999.25
 10107.50000   14.13940    2.42220    0.13720   92.96980    0.30970    0.16500   -9999.25   -9999.25  -11.37260    6.63200    4.84680    4.50260   96.13920   -9999.25   -9999.25
 10108.00000   14.20960    2.40210    0.13310   97.19390    0.30690    0.17630   -9999.25   -9999.25  -11.37260    6.61010    4.84980    4.51750  101.32530   -9999.25   -9999.25
 10108.50000   14.16760    2.38210    0.12910  101.65650    0.31340    0.18760   -9999.25   -9999.25  -11.37260    6.58830    4.85270    4.53310  103.60130   -9999.25   -9999.25
 10109.00000   14.16350    2.36320    0.12530  102.27940    0.31820    0.19890   -9999.25   -9999.25  -11.37260    6.56650    4.85570    4.55490  101.16680   -9999.25   -9999.25
