~Version ---------------------------------------------------
VERS.   2.0 : CWLS log ASCII Standard -VERSION 2.0
WRAP.    NO : One line per depth step
DLM . SPACE : Column Data Section Delimiter
~Well ------------------------------------------------------
STRT .FT                4900.0 : START DEPTH
STOP .FT               11953.0 : STOP DEPTH
STEP .FT                   0.5 : STEP
NULL .                -9999.25 : NULL VALUE
COMP .                         : COMPANY
WELL .                         : WELL
FLD  .                         : FIELD
LOC  .                         : LOCATION
PROV .                         : PROVINCE
CNTY .                         : COUNTY
STAT .                         : STATE
CTRY .                         : COUNTRY
SRVC .                         : SERVICE COMPANY
DATE .                         : DATE
UWI  .                         : UNIQUE WELL ID
API  .                         : API NUMBER
SLAT .WGS84 1.6357003682451001 : SURFACE LATITUDE
SLON .WGS84  7.946482497978991 : SURFACE LONGITUDE
DATUM.F                    nan : DEPTH DATUM ELEV
~Curve Information -----------------------------------------
DEPT.FT    : 
CALS.IN    : CALIPER FROM SONIC LOG
DTCO.US/F  : DELTA-T COMPRESSIONAL
DTSM.US/F  : DELTA-T SHEAR
GRS .GAPI  : GAMMA RAY FROM SONIC LOG
~Params ----------------------------------------------------
~Other -----------------------------------------------------
~ASCII -----------------------------------------------------
# ...
 7259.50000    9.17440   65.69230  119.86220   66.89390
 7260.00000    9.15410   65.83810  120.01240   72.68860
 7260.50000    9.14690   65.94540  120.91350   81.09720
 7261.00000    9.12950   65.90680  121.46420   87.87880
 7261.50000    9.12950   65.72660  121.71450   97.34670
 7262.00000    9.12950   66.45600  122.09830  106.76380
 7262.50000    9.12950   67.40860  123.06610  112.69350
 7263.00000    9.12950   67.52880  123.16620  116.58770
 7263.50000    9.14430   67.40860  123.01600  118.17420
 7264.00000    9.14650   67.01810  122.91590  122.67530
 7264.50000    9.14260   66.86800  122.93260  140.67880
 7265.00000    9.14490   65.32750  122.96600  150.60870
 7265.50000    9.16410   63.41380  122.56550  173.17060
 7266.00000    9.17470   62.83430  121.13520  150.00000
 7266.50000    9.17240   62.16120  120.11250   91.62540
 7267.00000    9.17010   62.49240  119.54920   74.47700
 7267.50000    9.18270   62.45430  119.51840   85.25920
 7268.00000    9.16390   62.75470  119.48750   91.73410
 7268.50000    9.16650   63.38550  119.35790   90.10220
 7269.00000    9.16910   64.07480  119.71240   88.92100
 7269.50000    9.12950   64.65980  120.02170  103.06410
 7270.00000    9.11870   64.85450  119.72920  119.41100
 7270.50000    9.12640   64.91740  119.73180  128.03990
 7271.00000    9.11100   64.81830  120.11650  121.58310
 7271.50000    9.09550   64.73720  120.28320  110.73850
 7272.00000    9.07540   64.80560  119.51760  108.01650
 7272.50000    9.03390   64.64940  119.95790  110.40020
 7273.00000    9.07690   64.42820  120.12450  107.87850
 7273.50000    9.08580   64.33770  119.92710  105.45400
 7274.00000    9.10260   64.42260  120.13620  105.96530
 7274.50000    9.09270   64.61640  120.65890  114.49870
 7275.00000    9.08290   65.12590  121.21400  126.10980
 7275.50000    9.08940   65.15600  120.76270  124.53230
 7276.00000    9.05800   65.79600  120.79080  116.53430
 7276.50000    9.07850   65.96870  120.41770  113.32170
 7277.00000    9.03690   65.72840  120.62660  117.94630
 7277.50000    9.03400   65.33570  120.48330  119.07230
 7278.00000    9.03120   64.91880  119.91270  122.82850
 7278.50000    9.02890   64.67540  120.43310  123.79460
 7279.00000    9.02890   65.33690  121.01380  124.24340
 7279.50000    9.02890   65.75320  121.17870  123.52620
 7280.00000    9.02890   65.75670  121.98220  121.04650
 7280.50000    9.02890   65.87860  122.33890  120.65850
 7281.00000    9.02890   65.81740  122.67360  121.52350
 7281.50000    9.02890   65.66660  123.00620  123.07480
 7282.00000    9.03890   64.73550  123.06620  122.77470
 7282.50000    9.05560   64.58530  123.26650  122.96950
 7283.00000    9.05900   64.05060  123.26770  121.10430
 7283.50000    9.05900   63.51000  123.36630  118.42910
 7284.00000    9.05900   63.14350  123.77310  111.57550
 7284.50000    9.05900   62.84320  123.01620  104.86940
 7285.00000    9.04780   62.45270  110.20070  108.63080
 7285.50000    9.02920   62.12230  119.59950  113.01880
 7286.00000    9.02910   62.12230  119.18650  116.33430
 7286.50000    9.02910   62.54280  118.62340  115.34690
 7287.00000    9.02900   62.97330  118.51070  113.17470
 7287.50000    9.02890   63.68420  118.96130  115.54760
 7288.00000    9.02890   64.43510  119.97080  115.98150
 7288.50000    9.02890   65.08590  120.23120  119.31340
 7289.00000    9.02610   65.47640  120.17230  123.95920
 7289.50000    9.02250   65.69660  120.93430  142.36030
 7290.00000    9.01900   66.11710  122.56560  150.00680
 7290.50000    9.01550   66.62780  123.81720  161.96140
 7291.00000    9.01190   66.86800  124.19260  160.98340
 7291.50000    8.99250   67.79920  124.26770  149.84950
 7292.00000    8.98370   67.82920  124.49350  123.37040
 7292.50000    8.98170   67.64900  124.17270  114.64920
 7293.00000    8.97980   67.28860  123.34330  121.80670
 7293.50000    8.94300   67.19840  124.68720  135.89820
 7294.00000    8.94300   67.22100  127.01080  137.70550
 7294.50000    8.94470   67.43870  128.78790  134.76470
 7295.00000    8.91180   67.83420  130.34690  124.12800
 7295.50000    8.89460   68.31150  131.92200  129.74510
 7296.00000    8.87750   68.63700  133.66130  149.85640
 7296.50000    8.86170   68.63720  134.68060  165.34670
 7297.00000    8.84860   69.87620  135.16670  183.30280
 7297.50000    8.84860   70.08330  135.29640  187.88530
 7298.00000    8.84860   69.90540  135.67150  183.12760
 7298.50000    8.84860   69.93350  136.04670  178.43660
 7299.00000    8.84860   70.57890  136.14780  183.97390
 7299.50000    8.83550   70.93420  136.18310  187.46410
 7300.00000    8.88760   71.13330  135.98190  180.35470
 7300.50000    8.92630   71.30620  135.92300  149.39810
 7301.00000    9.13600   71.58130  136.08440  125.67190
 7301.50000    9.39960   71.52760  136.24510  113.74640
 7302.00000    9.58810   71.38030  136.14030  140.67840
 7302.50000    9.01220   70.95480  135.98660  150.15730
 7303.00000    9.01430   70.34950  134.92870  174.39570
 7303.50000    9.02790   70.06580  134.09430  171.17160
 7304.00000    9.04140   69.17530  131.39110  153.14810
 7304.50000    9.05500   68.13190  129.77440  130.44730
 7305.00000    9.06860   65.24780  125.47920  113.29500
 7305.50000    9.08220   64.27000  124.29790  101.32810
 7306.00000    9.09580   63.58730  123.50650   90.50760
 7306.50000    9.10940   63.21970  122.68050   83.80320
 7307.00000    9.11380   62.75480  120.84500   84.10550
 7307.50000    9.12950   62.65570  120.10200   92.23090
 7308.00000    9.13380   63.12720  120.10840  107.48240
 7308.50000    9.13820   63.71520  122.28000  120.36660
 7309.00000    9.14250   64.46690  122.78060  123.60140
 7309.50000    9.08940   65.42810  123.98210  125.33170
 7310.00000    9.04310   65.82660  125.26490  149.55550
 7310.50000    9.02480   66.05880  126.12170  160.83290
 7311.00000    9.01380   66.25890  127.16380  181.11410
 7311.50000    9.00280   66.75360  127.98770  190.34430
 7312.00000    8.99190   67.22740  128.67370  173.75900
 7312.50000    8.98460   67.77090  128.71170  151.43400
 7313.00000    8.99200   67.82200  128.57260  138.27110
 7313.50000    8.99940   68.37160  129.18840  142.42660
 7314.00000    9.00690   68.69860  130.84670  149.25450
 7314.50000    9.01430   69.15550  131.96680  172.93890
 7315.00000    9.02170   69.75290  133.14110  178.46430
 7315.50000    9.02920   69.99190  133.16230  175.12650
 7316.00000    9.03010   69.29270  132.57570  176.27840
 7316.50000    9.03090   68.65560  131.37410  185.89500
 7317.00000    9.03180   67.90180  130.84750  195.58880
 7317.50000    9.03270   67.20770  129.88210  188.56740
 7318.00000    9.03350   66.40710  128.91670  159.54250
 7318.50000    9.03440   65.66840  128.18720  123.22530
 7319.00000    9.03530   64.64710  127.42520   99.45290
 7319.50000    9.10470   63.78380  126.75310   81.07540
 7320.00000    9.11410   63.36550  126.28490   83.30070
 7320.50000    9.13720   63.24300  123.50260   87.63310
 7321.00000    9.16030   63.24030  122.95780   92.53180
 7321.50000    9.15190   63.41460  122.07980   85.95000
 7322.00000    9.18470   63.36430  120.60320   81.03520
 7322.50000    9.18780   63.44570  119.71540   77.42580
 7323.00000    9.21980   63.04920  120.19660   79.48920
 7323.50000   10.07710   63.23770  121.27880   91.14760
 7324.00000   11.00490   63.44280  123.20200   98.39970
 7324.50000   10.86450   62.85700  124.68300   88.24370
 7325.00000   10.25900   62.98310  126.47940   75.37950
 7325.50000   10.29730   63.37110  126.93570   64.09520
 7326.00000   10.26260   63.00930  126.89520   65.80980
 7326.50000   10.02220   63.13100  127.14610   66.46640
 7327.00000    9.57130   63.56580  128.96230   64.10290
 7327.50000    9.25960   63.88300  130.79040   65.86200
 7328.00000    9.25960   64.33960  132.87850   69.63500
 7328.50000    9.24730   64.14140  135.34560   73.23430
 7329.00000    9.20510   63.81380  137.78410   78.08780
 7329.50000    9.19350   65.24790  139.08570   79.89330
 7330.00000    9.18190   66.53940  137.16340   84.66620
 7330.50000    9.15670   66.82090  137.33360   90.42540
