~Version ---------------------------------------------------
VERS.   2.0 : CWLS log ASCII Standard -VERSION 2.0
WRAP.    NO : One line per depth step
DLM . SPACE : Column Data Section Delimiter
~Well ------------------------------------------------------
STRT .FT                4900.0 : START DEPTH
STOP .FT               11953.0 : STOP DEPTH
STEP .FT                   0.5 : STEP
NULL .                -9999.25 : NULL VALUE
COMP .                         : COMPANY
WELL .                         : WELL
FLD  .                         : FIELD
LOC  .                         : LOCATION
PROV .                         : PROVINCE
CNTY .                         : COUNTY
STAT .                         : STATE
CTRY .                         : COUNTRY
SRVC .                         : SERVICE COMPANY
DATE .                         : DATE
UWI  .                         : UNIQUE WELL ID
API  .                         : API NUMBER
SLAT .WGS84 1.6357003682451001 : SURFACE LATITUDE
SLON .WGS84  7.946482497978991 : SURFACE LONGITUDE
DATUM.F                    nan : DEPTH DATUM ELEV
~Curve Information -----------------------------------------
DEPT.FT    : 
CALS.IN    : CALIPER FROM SONIC LOG
DTCO.US/F  : DELTA-T COMPRESSIONAL
DTSM.US/F  : DELTA-T SHEAR
GRS .GAPI  : GAMMA RAY FROM SONIC LOG
~Params ----------------------------------------------------
~Other -----------------------------------------------------
~ASCII -----------------------------------------------------
# ...
 7688.50000    9.40680   63.08340  120.17100   63.94510
 7689.00000    9.45250   62.45260  121.39130   56.72310
 7689.50000    9.38570   61.08810  122.60210   51.54960
 7690.00000    9.28920   60.38390  122.97470   51.13960
 7690.50000    9.26290   61.45400  122.55500   53.56310
 7691.00000    9.22980   62.00220  120.37780   56.44330
 7691.50000    9.30100   61.58170  119.19740   58.67650
 7692.00000    9.37220   61.37140  117.04160   59.35370
 7692.50000    9.29030   61.83400  114.87110   59.74640
 7693.00000    9.33010   62.81320  113.22580   59.27580
 7693.50000    9.27720   62.45280  112.91330   58.37780
 7694.00000    9.26740   62.33260  112.54780   57.78160
 7694.50000    9.25770   62.75310  110.70610   59.35670
 7695.00000    9.23670   61.88210  111.07680   62.07410
 7695.50000    9.23500   61.73190  112.08310   62.59060
 7696.00000    9.23330   61.85200  111.69800   61.59320
 7696.50000    9.23150   62.16440  110.92340   60.04010
 7697.00000    9.22980   61.96620  109.16420   60.44640
 7697.50000    9.24350   61.67180  109.91170   61.09800
 7698.00000    9.25710   61.62680  110.79600   62.40910
 7698.50000    9.23690   61.49160  111.86750   63.53290
 7699.00000    9.23250   61.16120  115.13390   60.03280
 7699.50000    9.23410   60.89090  116.79220   55.99650
 7700.00000    9.23580   60.69780  118.05500   54.01490
 7700.50000    9.24840   60.50040  118.90930   54.54420
 7701.00000    9.24120   60.44030  119.02610   56.02280
 7701.50000    9.23410   60.71920  119.48580   53.50880
 7702.00000    9.21830   61.03030  121.30930   52.44480
 7702.50000    9.18970   61.34140  119.57680   53.36170
 7703.00000    9.19560   61.49160  115.63450   57.32440
 7703.50000    9.20540   61.46160  112.88560   61.46490
 7704.00000    9.18390   61.73190  111.55140   67.81760
 7704.50000    9.16240   62.69300  111.21670   75.37940
 7705.00000    9.14950   63.38560  110.97150   83.20320
 7705.50000    9.14950   64.10650  110.85900   89.22150
 7706.00000    9.14950   64.82030  110.74650   98.11030
 7706.50000    9.18260   65.62630  111.02270  117.20670
 7707.00000    9.18970   66.01380  112.21790  135.08970
 7707.50000    9.21470   66.17370  113.76980  140.67810
 7708.00000    9.23030   66.13290  114.46520  133.32520
 7708.50000    9.23170   65.96880  115.34580  126.53510
 7709.00000    9.23300   65.30800  115.47560  116.90580
 7709.50000    9.26290   63.80610  114.44620  106.07280
 7710.00000    9.27330   63.18150  112.50540   90.54070
 7710.50000    9.28370   62.99830  109.70430   78.38870
 7711.00000    9.30460   62.88760  108.78150   73.87500
 7711.50000    9.30360   63.03300  107.86250   70.19300
 7712.00000    9.32620   63.71920  106.08120   69.73050
 7712.50000    9.35020   64.73290  106.43110   75.37950
 7713.00000    9.37520   65.60830  109.63470   94.93910
 7713.50000    9.40030   65.42900  111.21610  124.93570
 7714.00000    9.39350   66.23270  110.96630  149.40500
 7714.50000    9.42340   66.08170  111.08930  164.89530
 7715.00000    9.42460   65.18780  111.06640  156.84580
 7715.50000    9.42780   63.16900  112.91550  149.84950
 7716.00000    9.43740   63.26430  114.26910  120.99850
 7716.50000    9.47270   63.82180  113.66150  111.64000
 7717.00000    9.50790   63.70140  113.05380  108.48040
 7717.50000    9.55410   63.50900  111.37930  105.77210
 7718.00000    9.61380   63.59410  120.98670  103.21350
 7718.50000    9.66410   63.44390  124.81350   97.94830
 7719.00000    9.72170   63.35380  116.97360   92.96950
 7719.50000    9.78700   63.02510  114.57640   83.20340
 7720.00000    9.82610   62.63470  109.06400   77.24520
 7720.50000    9.90720   62.24420  104.52560   70.26400
 7721.00000    9.90770   61.80990   92.46760   61.23650
 7721.50000    9.89740   61.85260   84.09970   57.51990
 7722.00000    9.88710   61.74090  115.48780   52.96670
 7722.50000    9.90790   61.88380  113.26910   53.22610
 7723.00000    9.98810   62.66470  112.52570   53.38270
 7723.50000   10.03980   63.17720  116.43060   56.57730
 7724.00000   10.11220   63.33700  119.74290   58.72100
 7724.50000   10.06700   63.49670  101.82120   60.48420
 7725.00000   10.02190   63.83430  106.05130   58.97960
 7725.50000   10.05200   63.92020  113.96990   58.61550
 7726.00000   10.05200   64.67540  122.11480   58.22730
 7726.50000   10.00520   66.77790  127.38620   55.69060
 7727.00000    9.98280   66.48760  126.04850   55.97040
 7727.50000    9.98780   65.78670  132.33300   57.67220
 7728.00000    9.99180   65.87680  140.26780   62.85970
 7728.50000   10.05200   65.69660  142.67790   63.17060
 7729.00000   10.03220   66.38920  141.46210   64.65760
 7729.50000    9.99550   67.43860  140.66830   65.35940
 7730.00000    9.95890   67.89880  137.56450   66.00850
 7730.50000    9.91630   67.28090  136.22000   65.82080
 7731.00000    9.90520   67.08830  130.59010   65.35920
 7731.50000    9.89410   67.28860  126.40300   64.66650
 7732.00000    9.89180   66.15150  122.67850   63.89630
 7732.50000    9.89180   63.95450  120.34360   64.70690
 7733.00000    9.89180   63.77430  121.12790   67.85700
 7733.50000    9.87760   65.84680  115.41270   69.41180
 7734.00000    9.86770   63.40180   86.50260   69.12940
 7734.50000    9.85770   62.91830   88.81380   66.25210
 7735.00000    9.83570   62.57280   99.86880   65.78590
 7735.50000    9.81160   62.54880  100.92010   62.92490
 7736.00000    9.78630   63.02940  113.03480   63.65970
 7736.50000    9.76850   63.44390  112.63430   63.21300
 7737.00000    9.75340   62.54280  112.80480   65.73600
 7737.50000    9.73130   63.75930  112.67180   67.40620
 7738.00000    9.68860   65.31780  112.53870   70.08980
 7738.50000    9.66710   67.59070  113.25500   67.71950
 7739.00000    9.62900   68.88050  116.19670   62.99940
 7739.50000    9.59750   68.63420  117.54420   59.79240
 7740.00000    9.57510   68.90270  118.72070   64.36610
 7740.50000    9.55270   69.48290  121.34110   73.27310
 7741.00000    9.51210   70.05900  123.90180   89.22170
 7741.50000    9.54640   70.55360  123.74730   97.34640
 7742.00000    9.53810   70.74350  124.74980   97.68550
 7742.50000    9.43740   70.94760  124.48430  102.44210
 7743.00000    9.34590   70.79020  121.82610  116.00330
 7743.50000    9.32160   68.43160  119.40930  131.23560
 7744.00000    9.33520   64.79770  117.97460  140.79500
 7744.50000    9.32280   64.76720  117.02350  126.53540
 7745.00000    9.31040   64.18390  115.62180   93.73550
 7745.50000    9.29000   64.29810  115.42150   72.98190
 7746.00000    9.27450   64.25220  115.51360   61.83830
 7746.50000    9.24870   63.24420  116.07230   62.59060
 7747.00000    9.24320   61.69380  118.03290   82.30060
 7747.50000    9.23760   66.14880  118.62080  107.87850
 7748.00000    9.23200   61.82180  119.42640  143.76480
 7748.50000    9.22980   64.31490  119.94300  152.55770
 7749.00000    9.23060   65.39620  119.99310  141.02950
 7749.50000    9.19370   66.08700  119.66090  136.46560
 7750.00000    9.24970   66.79010  119.33220  150.30750
 7750.50000    9.58060   66.83810  118.67570  151.80540
 7751.00000    9.30300   63.50580  117.07380  149.84950
 7751.50000    9.20970   62.99340  115.14640  103.06370
 7752.00000    9.20570   62.32160  112.72380   71.49890
 7752.50000    9.23220   60.76450  111.44200   56.06800
 7753.00000    9.26640   59.74410  111.31070   59.64580
 7753.50000    9.29670   59.29170  111.33210   65.44920
 7754.00000    9.34120   59.36110  111.57310   70.07680
 7754.50000    9.35160   59.49090  112.28450   69.09450
 7755.00000    9.40490   60.14170  114.11960   67.12220
 7755.50000    9.37020   60.79620  115.53790   65.92170
 7756.00000    9.37020   61.45080  115.58930   66.69800
 7756.50000    9.43850   61.77740  115.34220   67.17370
 7757.00000    9.50680   61.64230  115.09510   69.51150
 7757.50000    9.55210   61.41520  113.75890   78.08760
 7758.00000    9.86410   61.61350  111.89250   94.93350
 7758.50000    9.71890   61.57440  109.04140  106.37370
 7759.00000    9.71390   61.56040  106.31010  117.20670
 7759.50000    9.75500   61.72210  105.77000  121.91270
