~Version ---------------------------------------------------
VERS.   2.0 : CWLS log ASCII Standard -VERSION 2.0
WRAP.    NO : One line per depth step
DLM . SPACE : Column Data Section Delimiter
~Well ------------------------------------------------------
STRT .FT                4900.0 : START DEPTH
STOP .FT               11953.0 : STOP DEPTH
STEP .FT                   0.5 : STEP
NULL .                -9999.25 : NULL VALUE
COMP .                         : COMPANY
WELL .                         : WELL
FLD  .                         : FIELD
LOC  .                         : LOCATION
PROV .                         : PROVINCE
CNTY .                         : COUNTY
STAT .                         : STATE
CTRY .                         : COUNTRY
SRVC .                         : SERVICE COMPANY
DATE .                         : DATE
UWI  .                         : UNIQUE WELL ID
API  .                         : API NUMBER
SLAT .WGS84 1.6357003682451001 : SURFACE LATITUDE
SLON .WGS84  7.946482497978991 : SURFACE LONGITUDE
DATUM.F                    nan : DEPTH DATUM ELEV
~Curve Information -----------------------------------------
DEPT.FT    : 
CALS.IN    : CALIPER FROM SONIC LOG
DTCO.US/F  : DELTA-T COMPRESSIONAL
DTSM.US/F  : DELTA-T SHEAR
GRS .GAPI  : GAMMA RAY FROM SONIC LOG
~Params ----------------------------------------------------
~Other -----------------------------------------------------
~ASCII -----------------------------------------------------
# ...
 10470.50000    8.98910   74.19860  124.03200   73.87540
 10471.00000    8.97010   73.46340  121.79260   63.18300
 10471.50000    8.94630   73.14840  119.27620   61.74030
 10472.00000    8.95550   72.82650  117.66160   62.55490
 10472.50000    8.94780   72.95130  116.87330   57.77140
 10473.00000    8.91140   72.94460  116.17800   52.20930
 10473.50000    8.91440   73.32760  115.62180   46.74190
 10474.00000    8.91910   73.90970  115.68850   44.28510
 10474.50000    8.92380   74.10900  115.66670   46.19090
 10475.00000    8.92850   74.26870  115.50370   49.80190
 10475.50000    8.93330   74.42890  116.15030   54.64640
 10476.00000    8.93610   74.64260  115.74920   56.73510
 10476.50000    8.94040   75.00170  115.75690   59.19420
 10477.00000    8.92600   75.19160  116.14650   58.81810
 10477.50000    8.91170   75.23590  116.47920   59.77240
 10478.00000    8.90880   74.91950  116.70460   59.77090
 10478.50000    8.90880   74.54470  116.48360   59.76930
 10479.00000    8.91440   74.20880  116.13770   59.30560
 10479.50000    8.92830   73.74810  115.81200   59.38910
 10480.00000    8.97740   73.71800  116.08960   61.16920
 10480.50000    8.93190   73.91260  116.34870   63.04200
 10481.00000    8.93970   74.18470  116.91140   65.24410
 10481.50000    8.95280   74.79930  117.69080   65.72830
 10482.00000    8.98950   75.95840  121.06210   70.46490
 10482.50000    8.98290   76.90190  123.83170   82.90250
 10483.00000    8.98010   77.80300  125.03320   97.34640
 10483.50000    8.98760   78.65670  126.28470  109.68400
 10484.00000    9.01580   79.15460  128.75910  114.95010
 10484.50000    9.03180   79.67960  131.90260  116.96970
 10485.00000    9.03500   79.72530  132.79260  121.11890
 10485.50000    9.03820   78.57130  131.58160  126.04790
 10486.00000    9.06310   78.03430  131.37980  123.88660
 10486.50000    9.03380   77.90780  131.03080  117.73350
 10487.00000    8.99780   77.87590  130.65520   96.14280
 10487.50000    9.03660   77.83300  130.25550   89.22170
 10488.00000    9.07540   77.31640  128.81440   84.78740
 10488.50000    9.10700   75.94070  126.58510   82.60150
 10489.00000    9.03470   74.31880  124.34770   79.84620
 10489.50000    9.03010   73.43470  122.68030   80.69290
 10490.00000    9.01980   73.28420  121.63740   82.79540
 10490.50000    9.00810   73.34070  121.35580   80.28070
 10491.00000    8.99640   73.69060  121.50180   70.86620
 10491.50000    8.98470   74.07850  121.72890   63.17130
 10492.00000    8.95400   74.96000  122.93060   67.32710
 10492.50000    8.95080   75.57250  124.38240   74.17630
 10493.00000    8.98520   77.02200  126.70980   89.82410
 10493.50000    8.98710   78.64400  127.97930  100.35620
 10494.00000    8.98900   80.08440  129.69390  107.88550
 10494.50000    8.99090   80.76070  130.67750  109.93290
 10495.00000    8.99280   80.95780  131.13080  111.79430
 10495.50000    9.03130   80.65900  131.75650  114.92070
 10496.00000    9.07910   78.82420  131.69800  113.53610
 10496.50000    9.08440   74.55910  128.28710  110.73790
 10497.00000    9.07610   72.69680  125.73400  108.33060
 10497.50000    9.02920   70.47010  122.88060  110.28650
 10498.00000    8.90690   70.25580  120.27740   99.47500
 10498.50000    8.85740   70.78950  119.34130   76.04960
 10499.00000    8.89460   71.61550  119.34320   63.83530
 10499.50000    8.94180   73.42980  119.49250   58.46730
 10500.00000    8.98910   75.33150  119.69290   64.89170
 10500.50000    8.98570   77.14220  123.98210   75.68090
 10501.00000    8.98690   78.22360  125.68410   86.45730
 10501.50000    9.02260   79.16590  128.03700  101.55990
 10502.00000    9.02940   79.58860  131.31780  111.46100
 10502.50000    9.03050   79.94330  132.30920  116.28440
 10503.00000    9.03170   80.11580  132.91740  115.74170
 10503.50000    9.03280   79.89720  132.29210  106.07370
 10504.00000    9.03390   78.80270  130.19510  100.01800
 10504.50000    9.03510   77.20230  128.18710   98.24980
 10505.00000    9.03620   75.21990  126.41000   96.14340
 10505.50000    9.03640   71.43530  122.58040   90.72680
 10506.00000    9.00020   69.81450  120.43860   85.49460
 10506.50000    8.96390   69.12910  117.72450   79.29190
 10507.00000    8.92770   69.38630  116.15310   75.68090
 10507.50000    8.91370   69.42290  115.81220   65.99130
 10508.00000    8.91460   69.53170  115.96230   60.48450
 10508.50000    8.92890   69.65020  116.10260   64.45280
 10509.00000    8.94760   70.01060  116.33300   74.47720
 10509.50000    8.98710   71.49540  116.67120   86.41930
 10510.00000    8.99460   73.94930  120.42200   91.72720
 10510.50000    9.00210   75.98790  124.07000   94.63880
 10511.00000    9.00960   75.11230  125.32960   93.78710
 10511.50000    9.01720   74.82880  124.93970   94.46810
 10512.00000    9.02470   74.89430  124.75030   92.30600
 10512.50000    9.02920   74.89420  124.49080   88.33650
 10513.00000    9.01890   73.91400  123.58170   76.88460
 10513.50000    8.96750   73.41780  121.67930   61.53780
 10514.00000    8.91600   73.01880  121.36340   55.39920
 10514.50000    8.92890   72.62780  121.13840   56.95520
 10515.00000    8.94430   72.58320  120.86770   67.25520
 10515.50000    8.98470   72.54670  120.82830   83.80570
 10516.00000    8.98470   72.58420  120.70820   95.04500
 10516.50000    8.98470   73.17750  120.94140   93.90710
 10517.00000    8.98470   75.14990  122.28010   86.42750
 10517.50000    8.98470   76.14590  123.78190   73.37360
 10518.00000    8.94110   76.48640  126.65450   67.42070
 10518.50000    8.94440   76.95760  128.18720   72.00700
 10519.00000    8.98710   78.75690  128.15120   85.31030
 10519.50000    9.02920   79.60530  128.96740  100.05530
 10520.00000    9.07480   80.06370  131.15760  110.28460
 10520.50000    9.07150   80.74660  132.59250  115.70240
 10521.00000    9.03730   81.45670  133.54360  119.68950
 10521.50000    9.07260   82.09740  134.11820  120.06560
 10522.00000    9.06950   82.33910  134.74830  118.46800
 10522.50000    9.07720   82.06550  136.06730  115.40140
 10523.00000    9.08480   81.46750  134.79520  114.62800
 10523.50000    9.08270   80.62650  132.58960  113.52720
 10524.00000    9.05260   78.68750  131.69390  112.38630
 10524.50000    9.02920   78.18570  130.28000  105.47120
 10525.00000    9.02140   77.62280  129.08820   95.24000
 10525.50000    9.01180   76.78180  128.31470   86.81440
 10526.00000    9.00210   74.68940  125.69210   74.97170
 10526.50000    8.99240   73.05730  120.62800   66.65300
 10527.00000    8.94980   71.71570  118.26080   56.12090
 10527.50000    8.92890   71.50470  116.93550   51.92050
 10528.00000    8.92000   71.22510  117.88190   49.46980
 10528.50000    8.92450   71.27310  118.52540   48.74840
 10529.00000    8.92890   71.39410  119.20630   47.32570
 10529.50000    8.94060   71.77350  120.15460   46.79860
 10530.00000    8.95370   72.08890  120.12660   45.89000
 10530.50000    8.95170   72.38210  120.07520   47.55100
 10531.00000    8.94960   72.93710  121.19560   49.31640
 10531.50000    8.94750   73.44780  121.85380   50.77350
 10532.00000    8.94540   73.79430  122.54000   49.22890
 10532.50000    8.94340   74.13860  121.70510   50.02890
 10533.00000    8.94130   74.85950  121.15570   52.96160
 10533.50000    8.92890   75.32500  121.36390   55.21850
 10534.00000    8.95180   75.47460  121.53540   57.04620
 10534.50000    8.98050   75.84050  121.97960   59.49730
 10535.00000    8.94930   76.57160  123.39820   62.74140
 10535.50000    8.94230   77.14220  123.99430   71.76900
 10536.00000    8.95550   77.57500  126.13220   85.83810
 10536.50000    8.97850   77.83310  127.44720  101.73150
 10537.00000    9.00160   77.68290  128.48750  107.27730
 10537.50000    9.02460   77.07290  129.26350  104.99040
 10538.00000    9.02400   77.02210  129.50480  108.98590
 10538.50000    9.01740   76.58720  129.30450  115.74600
 10539.00000    9.01080   76.26150  128.63770  116.69180
 10539.50000    9.00430   75.39640  127.88680  101.86080
 10540.00000    8.99770   72.82240  123.74000   87.78660
 10540.50000    9.00910   70.49410  121.17850   86.64280
