~Version ---------------------------------------------------
VERS.   2.0 : CWLS log ASCII Standard -VERSION 2.0
WRAP.    NO : One line per depth step
DLM . SPACE : Column Data Section Delimiter
~Well ------------------------------------------------------
STRT .FT                4900.0 : START DEPTH
STOP .FT               11953.0 : STOP DEPTH
STEP .FT                   0.5 : STEP
NULL .                -9999.25 : NULL VALUE
COMP .                         : COMPANY
WELL .                         : WELL
FLD  .                         : FIELD
LOC  .                         : LOCATION
PROV .                         : PROVINCE
CNTY .                         : COUNTY
STAT .                         : STATE
CTRY .                         : COUNTRY
SRVC .                         : SERVICE COMPANY
DATE .                         : DATE
UWI  .                         : UNIQUE WELL ID
API  .                         : API NUMBER
SLAT .WGS84 1.6357003682451001 : SURFACE LATITUDE
SLON .WGS84  7.946482497978991 : SURFACE LONGITUDE
DATUM.F                    nan : DEPTH DATUM ELEV
~Curve Information -----------------------------------------
DEPT.FT    : 
CALS.IN    : CALIPER FROM SONIC LOG
DTCO.US/F  : DELTA-T COMPRESSIONAL
DTSM.US/F  : DELTA-T SHEAR
GRS .GAPI  : GAMMA RAY FROM SONIC LOG
~Params ----------------------------------------------------
~Other -----------------------------------------------------
~ASCII -----------------------------------------------------
# ...
 11387.00000    8.88870   89.74610  149.08260  100.95520
 11387.50000    8.87370   90.53850  152.71690   98.97140
 11388.00000    8.95770   91.46000  155.13830  103.51020
 11388.50000    8.97980   91.98020  156.15700  107.87850
 11389.00000    8.95830   92.76120  156.38130  111.85920
 11389.50000    8.94280   93.34690  156.93200  111.15610
 11390.00000    8.92520   93.72650  157.37700  110.07070
 11390.50000    8.90480   93.85380  157.64860  105.16820
 11391.00000    8.88870   93.86780  157.84600  101.73090
 11391.50000    8.92690   93.88720  157.49490  102.18040
 11392.00000    8.99040   93.84250  157.97370  103.72300
 11392.50000    8.94950   92.75920  158.33100  100.05470
 11393.00000    8.99000   92.72470  158.74810   96.69290
 11393.50000    9.00350   92.81050  159.07460   98.01660
 11394.00000    9.01690   93.22670  159.34770  104.26750
 11394.50000    9.09920   93.45200  159.56820  104.57050
 11395.00000    9.06820   93.50760  159.47510  106.47400
 11395.50000    9.02920   93.52040  159.47510  108.03640
 11396.00000    9.13320   93.53310  159.75880  108.89410
 11396.50000    9.15480   94.25330  160.38570  108.21380
 11397.00000    9.07980   94.98390  160.17370  105.12770
 11397.50000    9.08940   94.42730  159.95630  106.65540
 11398.00000    9.05240   94.01540  160.32040  110.09850
 11398.50000    8.99070   93.86970  160.66650  111.30910
 11399.00000    8.95480   93.98320  159.98960  107.82770
 11399.50000    9.09160   93.06150  160.20980  103.66570
 11400.00000    9.05870   92.51590  160.26030  100.96930
 11400.50000    9.11120   92.68620  160.07570  105.08530
 11401.00000    9.19350   93.00150  160.07570  107.97000
 11401.50000    9.26290   93.49220  160.19800  107.70080
 11402.00000    9.49440   93.96640  161.02690  102.92370
 11402.50000    9.27850   94.74360  162.82910   95.58450
 11403.00000    8.98910   94.97390  163.72530   91.93050
 11403.50000    9.18520   95.17840  164.08780   94.68070
 11404.00000    9.10190   95.39400  163.98050   99.06340
 11404.50000    8.98910   95.55100  165.18110  104.87000
 11405.00000    9.01490   95.88500  165.60940  108.05970
 11405.50000    9.02480   96.13900  165.95680  110.42930
 11406.00000    8.99570   95.67160  166.37450  109.75350
 11406.50000    8.96650   94.50160  166.17510  110.35650
 11407.00000    8.87950   94.21360  165.22970  109.97420
 11407.50000    8.82860   94.22650  165.28540  111.33970
 11408.00000    8.88460   94.14340  165.34110  110.91950
 11408.50000    8.95220   94.25400  165.24510  108.43840
 11409.00000    8.97060   94.57340  164.93050  104.53470
 11409.50000    8.98910   94.61040  164.44920  100.84070
 11410.00000    9.03870   94.69550  164.82500  103.03480
 11410.50000    8.99580   94.78070  164.95600  107.83710
 11411.00000    8.98910   94.93240  165.08700  110.35530
 11411.50000    8.99490   95.01180  165.21790  109.77220
 11412.00000    9.00080   95.11890  165.38180  108.54190
 11412.50000    9.00660   95.18290  165.61970  110.61960
 11413.00000    9.01250   95.25420  165.85770  112.20640
 11413.50000    9.01830   95.33530  166.13310  108.26460
 11414.00000    9.02420   95.56570  166.77990  102.43690
 11414.50000    9.03010   95.61720  167.01920  105.54380
 11415.00000    9.03590   95.67790  167.73510  106.71340
 11415.50000    9.04180   95.39700  168.51190  111.18930
 11416.00000    9.04640   95.85500  169.10770  104.63040
 11416.50000    9.02900   96.14320  169.24140  110.34920
 11417.00000    9.02800   96.17630  168.96380  113.22690
 11417.50000    9.02700   96.10720  168.68620  116.96690
 11418.00000    9.02600   95.85490  168.76980  110.43680
 11418.50000    9.02500   95.81210  168.68620  110.97440
 11419.00000    9.02400   95.73530  168.43020  112.09200
 11419.50000    8.99270   95.59580  167.87520  115.81740
 11420.00000    8.98910   95.10090  168.24700  113.72350
 11420.50000    8.98910   95.01390  168.68780  110.62310
 11421.00000    8.98910   95.04310  168.45670  109.29070
 11421.50000    8.98910   94.89370  168.32990  108.67760
 11422.00000    8.98910   94.73460  168.24190  107.52390
 11422.50000    8.98910   94.61440  167.96620  106.08380
 11423.00000    8.98910   94.53330  167.68500  106.23820
 11423.50000    9.07290   94.53330  167.48470  106.92600
 11424.00000    9.06240   94.53330  167.44340  111.29360
 11424.50000    9.14680   94.53330  167.41220  113.34730
 11425.00000    9.15740   94.61440  167.48470  114.67990
 11425.50000    9.17410   95.00970  167.68500  111.28550
 11426.00000    9.17970   94.98670  167.38710  109.97540
 11426.50000    9.16960   94.72070  166.33340  109.85630
 11427.00000    9.18570   94.35310  165.32350  110.25720
 11427.50000    9.19070   94.21360  164.55110  112.09330
 11428.00000    9.19580   93.99270  164.11910  112.16600
 11428.50000    9.17960   93.60400  163.60610  111.53530
 11429.00000    9.10410   92.76120  163.14300  108.18010
 11429.50000    8.95310   92.35650  162.46870  102.76560
 11430.00000    8.98980   92.35610  162.59010   93.58150
 11430.50000    8.98970   92.61100  162.58060   94.53000
 11431.00000    8.98960   92.65100  162.76720   96.79550
 11431.50000    8.98950   92.88970  162.87920   98.47820
 11432.00000    8.98940   93.24330  163.17970  100.47000
 11432.50000    8.98930   93.33190  163.71590   99.82280
 11433.00000    8.98920   93.22250  163.95380  102.46200
 11433.50000    8.98910   92.76120  163.57760  107.27670
 11434.00000    8.99660   92.17050  163.20600  110.98550
 11434.50000    9.00420   91.87440  163.16350  112.63300
 11435.00000    9.01170   91.43960  163.03430  109.08220
 11435.50000    9.01930   90.89890  161.58630  104.21440
 11436.00000    9.02680   90.00910  160.80110  100.12440
 11436.50000    9.03440   89.65170  159.97560  100.29320
 11437.00000    9.04190   89.31410  159.40100  103.44220
 11437.50000    9.04640   89.31300  158.94090  104.25700
 11438.00000    9.04070   89.76500  158.91300  101.08230
 11438.50000    9.03340   90.11200  159.47460   99.05870
 11439.00000    9.02590   90.62860  160.51790   97.88810
 11439.50000    9.01830   91.31940  161.72780  100.33840
 11440.00000    9.01080   93.27640  163.49990  102.02950
 11440.50000    9.00330   94.29180  164.33060  104.05730
 11441.00000    8.99570   95.11600  165.61450  108.90560
 11441.50000    9.00140   95.24240  166.84680  108.35100
 11442.00000    9.06190   95.24400  167.39170  107.47440
 11442.50000    9.04140   95.16590  168.04050  104.39730
 11443.00000    9.02940   94.96060  168.57040  104.92970
 11443.50000    9.03000   94.62320  168.27250  106.25200
 11444.00000    9.03060   93.91610  168.10670  107.45420
 11444.50000    9.03120   93.35010  167.71530  106.06860
 11445.00000    9.03170   92.56780  165.97670  104.66260
 11445.50000    9.03230   92.06690  164.24480  104.24160
 11446.00000    9.03290   92.01540  163.99240  106.78520
 11446.50000    9.03350   91.96000  163.91280  107.27670
 11447.00000    9.03410   91.54110  163.39810  109.28280
 11447.50000    9.06940   90.27820  161.95900  109.29780
 11448.00000    8.93890   89.75820  160.89870  104.90470
 11448.50000    8.91430   89.49500  160.59530  100.95740
 11449.00000    8.92890   89.30410  160.43690   96.43610
 11449.50000    8.94270   89.34210  160.43690   97.23500
 11450.00000    8.96170   89.31450  160.43690   98.73970
 11450.50000    8.97470   89.33530  160.35830   98.89620
 11451.00000    8.98760   89.45680  160.36050   97.87950
 11451.50000    9.02250   89.70650  160.69300   98.53870
 11452.00000    9.02280   89.71180  160.83890  100.80700
 11452.50000    9.01390   89.49750  160.92830  101.02170
 11453.00000    9.00500   89.33980  161.01760  101.97980
 11453.50000    8.99610   89.33080  160.97220  102.51220
 11454.00000    8.98720   89.21540  160.92720  102.86410
 11454.50000    8.94990   89.06550  160.84140  102.72250
 11455.00000    9.06830   88.94770  160.64330  104.41880
 11455.50000    9.19690   89.01950  160.90290  105.68570
 11456.00000    9.16760   89.35940  161.21730  104.42080
 11456.50000    9.12950   89.63580  161.00150  101.96050
 11457.00000    9.12950   89.83300  162.07320  101.40880
