~Version ---------------------------------------------------
VERS.   2.0 : CWLS log ASCII Standard -VERSION 2.0
WRAP.    NO : One line per depth step
DLM . SPACE : Column Data Section Delimiter
~Well ------------------------------------------------------
STRT .FT                4900.0 : START DEPTH
STOP .FT               11953.0 : STOP DEPTH
STEP .FT                   0.5 : STEP
NULL .                -9999.25 : NULL VALUE
COMP .                         : COMPANY
WELL .                         : WELL
FLD  .                         : FIELD
LOC  .                         : LOCATION
PROV .                         : PROVINCE
CNTY .                         : COUNTY
STAT .                         : STATE
CTRY .                         : COUNTRY
SRVC .                         : SERVICE COMPANY
DATE .                         : DATE
UWI  .                         : UNIQUE WELL ID
API  .                         : API NUMBER
SLAT .WGS84 1.6357003682451001 : SURFACE LATITUDE
SLON .WGS84  7.946482497978991 : SURFACE LONGITUDE
DATUM.F                    nan : DEPTH DATUM ELEV
~Curve Information -----------------------------------------
DEPT.FT    : 
CALS.IN    : CALIPER FROM SONIC LOG
DTCO.US/F  : DELTA-T COMPRESSIONAL
DTSM.US/F  : DELTA-T SHEAR
GRS .GAPI  : GAMMA RAY FROM SONIC LOG
~Params ----------------------------------------------------
~Other -----------------------------------------------------
~ASCII -----------------------------------------------------
# ...
 5400.50000    9.16830   64.46680  112.77460  180.84410
 5401.00000    9.16190   63.62250  111.35240  150.15040
 5401.50000    9.15540   62.90490  109.56250  108.48100
 5402.00000    9.14900   62.68320  108.74870   77.81740
 5402.50000    9.14250   62.81480  108.14790   66.50290
 5403.00000    9.12950   63.20530  108.01640   68.15800
 5403.50000    9.14630   64.94740  108.55160   86.11270
 5404.00000    9.15240   65.49200  109.06200   98.18420
 5404.50000    9.15860   65.60650  109.70810  106.54460
 5405.00000    9.16480   69.64320  111.73740  112.69390
 5405.50000    9.17100   72.88980  116.18920  135.56370
 5406.00000    9.17720   72.50410  119.01480  149.85730
 5406.50000    9.22280   72.39870  119.33800  167.88350
 5407.00000    9.22840   71.91580  118.40020  169.86060
 5407.50000    9.21720   71.31510  117.89000  160.53210
 5408.00000    9.25460   70.07190  118.26590  150.75220
 5408.50000    9.29200   69.09240  117.25690  126.66780
 5409.00000    9.34630   68.01110  116.02480  109.47400
 5409.50000    9.39920   67.67920  114.54150   96.14340
 5410.00000    9.39980   67.38030  114.58880   95.16540
 5410.50000    9.41040   67.42560  114.63270   94.63880
 5411.00000    9.48060   67.55700  114.65390   88.62040
 5411.50000    9.55080   67.68070  115.49550   82.60200
 5412.00000    9.58590   67.44410  115.74790   76.44750
 5412.50000    9.61100   67.41950  115.60960   74.77820
 5413.00000    9.61100   68.08120  115.57910   80.91090
 5413.50000    9.61100   67.69670  115.55670   79.22770
 5414.00000    9.61700   67.77830  115.70690   75.91750
 5414.50000    9.64710   67.94200  115.91510   71.45320
 5415.00000    9.67240   68.22390  115.74290   69.84310
 5415.50000    9.67850   68.31620  116.14670   73.24060
 5416.00000    9.73250   67.85850  116.62300   79.38910
 5416.50000    9.77150   68.73200  116.73010   87.16740
 5417.00000    9.78060   69.46300  117.11660   91.19550
 5417.50000    9.82620   69.69780  117.63850   89.33840
 5418.00000    9.87180   69.55120  118.33380   84.46910
 5418.50000    9.90770   68.46450  118.42520   76.28280
 5419.00000    9.90900   68.51020  118.62040   72.08170
 5419.50000    9.94180   68.77770  118.62540   67.64060
 5420.00000    9.95220   69.17050  119.10170   69.20490
 5420.50000    9.97080   69.13020  119.70230   73.10440
 5421.00000    9.98950   69.38260  120.68170   78.38920
 5421.50000   10.05120   69.93630  120.76300   80.86530
 5422.00000   10.06340   69.98560  121.65070   79.95680
 5422.50000   10.10550   69.96850  122.24490   77.88210
 5423.00000   10.15350   69.97680  122.72440   76.76020
 5423.50000   10.19320   70.20380  123.32710   74.98040
 5424.00000   10.23290   70.30670  123.35630   70.89430
 5424.50000   10.23940   70.32740  123.16430   71.01670
 5425.00000   10.27970   70.34490  123.03080   71.88850
 5425.50000   10.32180   70.43800  123.11980   72.22040
 5426.00000   10.36180   70.24240  123.22470   71.34090
 5426.50000   10.39770   69.45110  123.99960   68.98680
 5427.00000   10.43350   69.90160  124.98310   70.41480
 5427.50000   10.46930   71.52060  126.28470   70.43300
 5428.00000   10.50510   71.95590  127.42780   71.10230
 5428.50000   10.53380   72.42470  127.98680   69.07400
 5429.00000   10.59060   72.18440  128.54170   67.85700
 5429.50000   10.66750   73.43440  129.87430   68.15800
 5430.00000   10.82520   73.82690  131.79060   70.11390
 5430.50000   10.98280   74.37590  132.43370   71.43560
 5431.00000   11.12220   74.97960  133.43640   71.98000
 5431.50000   11.10890   75.49170  133.70620   72.52130
 5432.00000   10.98700   76.08290  134.13190   71.86960
 5432.50000   10.84960   76.84180  134.66720   69.25420
 5433.00000   10.80510   77.42360  135.37910   62.74140
 5433.50000   10.82260   77.66060  136.69740   66.75370
 5434.00000   10.84010   77.87860  138.72810   66.65340
 5434.50000   10.85760   77.88060  139.40670   64.24600
 5435.00000   10.88590   77.73280  137.72520   57.32490
 5435.50000   10.93040   77.54990  138.86230   52.81110
 5436.00000   10.96620   77.52150  139.08610   48.12380
 5436.50000   11.01730   77.43350  139.25050   45.83510
 5437.00000   11.08290   77.47260  139.78630   44.87180
 5437.50000   11.13560   77.43350  140.98780   44.64640
 5438.00000   11.25600   77.99850  140.92630   43.59690
 5438.50000   11.31790   78.46380  140.53930   43.03130
 5439.00000   11.39520   79.13970  142.01400   41.52670
 5439.50000   11.48190   79.39430  143.69110   41.22260
 5440.00000   11.61630   79.44980  143.48700   40.62390
 5440.50000   11.73950   79.34260  148.23430   40.92480
 5441.00000   11.66860   79.07260  151.07120   42.57990
 5441.50000   10.96650   79.23220  152.89410   48.29730
 5442.00000    9.12950   79.66530  160.81190   52.05880
 5442.50000   10.13260   79.59150  160.56160   57.92670
 5443.00000   10.37330   79.66760  159.10980   54.24050
 5443.50000   11.33470   79.46200  157.01980   49.53860
 5444.00000   12.41950   79.62910  155.60560   42.80170
 5444.50000   12.52650   79.65030  153.70330   41.30430
 5445.00000   12.58000   79.71640  152.45180   40.66610
 5445.50000   12.58750   80.04520  151.35040   41.72480
 5446.00000   12.62480   79.87730  149.34800   42.21700
 5446.50000   12.66200   79.75540  147.59590   48.32950
 5447.00000   12.71340   79.60520  147.04520   50.65380
 5447.50000   12.68270   78.52710  146.14410   54.01480
 5448.00000   12.66420   78.07160  143.83300   57.30090
 5448.50000   12.64020   77.95150  140.28700   62.74140
 5449.00000   12.56780   77.41870  138.33470   65.09980
 5449.50000   12.52650   77.21170  136.60760   64.47450
 5450.00000   12.43290   76.46350  136.28220   61.37940
 5450.50000   12.00490   75.92730  135.43110   59.07940
 5451.00000   11.77230   75.58210  133.62900   58.72130
 5451.50000   11.59820   75.76370  133.60390   61.34490
 5452.00000   11.53870   76.72620  133.52880   61.35770
 5452.50000   11.51880   76.29590  132.65780   58.86040
 5453.00000   11.46700   75.45160  131.92690   53.68660
 5453.50000   11.36630   73.98670  132.17720   51.92950
 5454.00000   11.36300   75.45740  132.67780   54.49930
 5454.50000   11.39640   74.10060  132.72790   56.26380
 5455.00000   11.40640   73.82080  132.19390   57.30300
 5455.50000   11.45660   73.94940  132.04370   61.83870
 5456.00000   11.50680   74.05250  132.17720   70.82950
 5456.50000   11.51850   74.30870  131.92690   74.72930
 5457.00000   11.52060   74.79940  131.82680   75.98180
 5457.50000   11.52720   75.28000  132.36070   75.22950
 5458.00000   11.56590   75.86860  133.62650   66.02590
 5458.50000   11.58310   76.31850  134.49000   60.63500
 5459.00000   11.60030   76.75180  135.53290   54.79760
 5459.50000   11.60370   76.95280  136.69750   53.41300
 5460.00000   11.59890   77.06140  137.82600   58.95070
 5460.50000   11.59010   76.72260  138.69990   63.04230
 5461.00000   11.58560   76.54860  140.15850   67.92290
 5461.50000   11.59650   76.65990  140.38710   68.68460
 5462.00000   11.63070   76.14930  138.73510   66.62330
 5462.50000   11.67200   76.56980  137.80360   63.56890
 5463.00000   11.67300   76.48740  137.17410   64.99830
 5463.50000   11.67180   76.31670  136.72490   68.63440
 5464.00000   11.65040   75.97080  136.24690   68.26460
 5464.50000   11.66320   75.65300  135.92040   65.90110
 5465.00000   11.67600   75.13820  135.63570   65.29920
 5465.50000   11.69710   75.26350  135.77220   66.47720
 5466.00000   11.62800   75.94080  135.95990   69.13470
 5466.50000   11.69270   76.90200  136.48030   65.44850
 5467.00000   11.73510   77.47260  137.59860   60.93590
 5467.50000   11.77760   77.70760  139.60100   52.51020
 5468.00000   11.83680   78.06210  142.95160   48.14690
 5468.50000   11.92290   78.37200  145.14290   46.68520
 5469.00000   12.06210   78.70240  146.64980   45.69540
 5469.50000   12.17400   79.12880  147.42620   46.80530
 5470.00000   12.28580   79.69760  148.20260   49.30480
 5470.50000   12.41290   80.39770  150.11370   50.77350
 5471.00000   12.52650   80.43930  151.68180   50.31390
 5471.50000   12.63320   80.07680  152.46650   50.33900
