~Version ---------------------------------------------------
VERS.   2.0 : CWLS log ASCII Standard -VERSION 2.0
WRAP.    NO : One line per depth step
DLM . SPACE : Column Data Section Delimiter
~Well ------------------------------------------------------
STRT .FT                4900.0 : START DEPTH
STOP .FT               11953.0 : STOP DEPTH
STEP .FT                   0.5 : STEP
NULL .                -9999.25 : NULL VALUE
COMP .                         : COMPANY
WELL .                         : WELL
FLD  .                         : FIELD
LOC  .                         : LOCATION
PROV .                         : PROVINCE
CNTY .                         : COUNTY
STAT .                         : STATE
CTRY .                         : COUNTRY
SRVC .                         : SERVICE COMPANY
DATE .                         : DATE
UWI  .                         : UNIQUE WELL ID
API  .                         : API NUMBER
SLAT .WGS84 1.6357003682451001 : SURFACE LATITUDE
SLON .WGS84  7.946482497978991 : SURFACE LONGITUDE
DATUM.F                    nan : DEPTH DATUM ELEV
~Curve Information -----------------------------------------
DEPT.FT    : 
CALS.IN    : CALIPER FROM SONIC LOG
DTCO.US/F  : DELTA-T COMPRESSIONAL
DTSM.US/F  : DELTA-T SHEAR
GRS .GAPI  : GAMMA RAY FROM SONIC LOG
~Params ----------------------------------------------------
~Other -----------------------------------------------------
~ASCII -----------------------------------------------------
# ...
 9547.50000    8.69710   63.61100  103.80330   43.26570
 9548.00000    8.70260   62.79880  103.20510   34.54820
 9548.50000    8.70820   62.27420  103.06050   32.25410
 9549.00000    8.70930   61.64350  102.55090   37.16310
 9549.50000    8.71460   60.30810  102.17160   41.22550
 9550.00000    8.71990   60.56780  102.12160   37.80800
 9550.50000    8.72520   61.14490  102.22170   31.14500
 9551.00000    8.73050   61.45310  102.97800   25.86170
 9551.50000    8.73580   62.30430  103.83260   26.49580
 9552.00000    8.74110   63.38380  104.68740   32.49710
 9552.50000    8.74640   65.03490  104.88240   42.57990
 9553.00000    8.75170   67.23020  106.81120   48.89920
 9553.50000    8.75700   69.36080  109.06400   52.61840
 9554.00000    8.71070   70.56430  111.01380   53.99240
 9554.50000    8.71610   71.79580  112.66830   63.34330
 9555.00000    8.74210   72.84700  113.39950   73.07580
 9555.50000    8.74420   72.26560  114.23020   79.82650
 9556.00000    8.77080   71.47610  114.04380   75.78920
 9556.50000    8.78140   69.93350  113.41920   68.45890
 9557.00000    8.74570   68.13130  112.76850   61.16160
 9557.50000    8.71820   64.68770  110.42810   57.69230
 9558.00000    8.75270   62.53700  108.58210   54.13880
 9558.50000    8.75610   63.13220  107.16170   48.59830
 9559.00000    8.73230   63.98630  106.11040   35.57280
 9559.50000    8.72830   65.24780  106.06610   31.44590
 9560.00000    8.75190   65.70550  107.06150   32.64960
 9560.50000    8.78140   65.98730  107.96260   47.99610
 9561.00000    8.71190   66.55720  108.88880   66.95390
 9561.50000    8.69550   68.97230  109.70100   80.50530
 9562.00000    8.71890   71.02350  111.16800   85.88340
 9562.50000    8.72830   72.39040  113.16890   79.59240
 9563.00000    8.74810   73.65800  115.17140   70.61650
 9563.50000    8.75650   74.73650  116.67320   70.02320
 9564.00000    8.76640   75.18460  118.61050   81.39450
 9564.50000    8.74430   75.34010  119.36250   91.92990
 9565.00000    8.73430   75.94080  118.97600   99.51690
 9565.50000    8.72830   76.52900  120.11070  101.69970
 9566.00000    8.76040   77.27240  119.75230   99.48550
 9566.50000    8.76840   77.47260  120.17740   99.13480
 9567.00000    8.78840   77.63200  120.82900   95.42360
 9567.50000    8.75670   77.64940  121.09400   96.44370
 9568.00000    8.70370   77.65780  120.82820   93.92050
 9568.50000    8.74130   77.66400  120.82820   95.77310
 9569.00000    8.73450   77.67020  120.90170  101.25840
 9569.50000    8.74720   77.77300  120.62800  105.41100
 9570.00000    8.76920   78.11820  121.20740  102.45480
 9570.50000    8.76890   78.14130  122.05220   97.87950
 9571.00000    8.76850   78.07340  121.97520   96.08910
 9571.50000    8.75060   78.02730  121.82940   99.76230
 9572.00000    8.80060   78.14210  121.63770  101.10060
 9572.50000    8.79830   78.35750  121.35510   98.86220
 9573.00000    8.78330   78.13960  121.35030   98.31790
 9573.50000    8.76840   77.96590  121.37890   99.59560
 9574.00000    8.77950   77.23930  120.51490   97.23730
 9574.50000    8.76840   76.24120  120.31320   92.92440
 9575.00000    8.74160   75.46400  120.14480   88.28610
 9575.50000    8.68990   73.27710  118.73780   87.91660
 9576.00000    8.70970   70.56260  117.03850   89.86820
 9576.50000    8.72940   67.84800  114.97110   88.85290
 9577.00000    8.72830   65.24780  110.61590   83.50430
 9577.50000    8.74310   62.81490  106.84740   67.85660
 9578.00000    8.74740   60.83520  104.97160   53.72200
 9578.50000    8.73490   59.54090  103.09570   40.84350
 9579.00000    8.72830   58.69990  101.21990   28.73750
 9579.50000    8.72830   57.76880  100.25330   24.96390
 9580.00000    8.71130   57.56860   99.35450   27.56220
 9580.50000    8.74950   57.42330   98.29380   31.44570
 9581.00000    8.78300   57.90920   97.57220   36.59100
 9581.50000    8.76840   58.76000   98.95970   38.14570
 9582.00000    8.73990   60.71820  101.16900   37.06370
 9582.50000    8.73000   64.88740  103.55730   34.00350
 9583.00000    8.72010   66.74960  105.86760   35.95950
 9583.50000    8.71020   68.49180  107.53960   46.49160
 9584.00000    8.72420   69.70930  109.32500   68.35120
 9584.50000    8.72830   70.59430  110.26540   84.70800
 9585.00000    8.72420   71.79880  113.06880   95.28300
 9585.50000    8.71420   72.99720  116.07250   95.65820
 9586.00000    8.70420   74.71670  117.55300   86.92300
 9586.50000    8.69420   74.37890  118.69160   82.24900
 9587.00000    8.70120   73.64000  118.94190   76.46280
 9587.50000    8.70560   73.15790  118.79180   79.20550
 9588.00000    8.71010   72.73740  118.18100   83.94120
 9588.50000    8.71450   72.62780  117.37880   86.71640
 9589.00000    8.72830   73.07350  116.62310   83.87190
 9589.50000    8.71250   73.17460  116.38570   74.17590
 9590.00000    8.72040   72.44910  116.02240   69.31630
 9590.50000    8.72830   71.97600  115.77210   71.02960
 9591.00000    8.72110   70.71210  114.44730   81.14900
 9591.50000    8.71400   69.03240  113.29410   84.82880
 9592.00000    8.70690   66.97410  111.96750   81.87930
 9592.50000    8.68820   64.40680  109.66470   75.38000
 9593.00000    8.70210   61.46320  107.06150   57.92670
 9593.50000    8.70650   59.63100  105.86010   39.26980
 9594.00000    8.70050   58.92070  102.80090   26.20990
 9594.50000    8.68780   58.49370  100.76790   21.72620
 9595.00000    8.67500   58.35600  100.30430   19.91140
 9595.50000    8.68820   59.96140  101.38160   19.62300
 9596.00000    8.69720   61.99290  102.45900   20.73780
 9596.50000    8.71220   63.68590  104.16490   29.03860
 9597.00000    8.72670   66.14890  107.96260   41.67710
 9597.50000    8.72410   68.98190  109.66470   67.85700
 9598.00000    8.72150   71.78110  112.83020   89.96980
 9598.50000    8.71610   74.43900  117.47910  101.96860
 9599.00000    8.68820   75.37780  119.02790  103.53260
 9599.50000    8.68850   75.52510  120.23790  101.31920
 9600.00000    8.71720   75.42940  120.72810  102.64320
 9600.50000    8.74550   75.39800  120.88910  102.83880
 9601.00000    8.76810   75.03970  120.67800   97.34700
 9601.50000    8.75160   73.89830  119.27630   85.00940
 9602.00000    8.72410   72.98190  118.40190   80.22660
 9602.50000    8.69660   72.09010  116.57310   80.79680
 9603.00000    8.70220   71.03070  115.80910   86.21310
 9603.50000    8.74140   70.73400  114.91470   92.30510
 9604.00000    8.78060   71.15100  113.78130   96.17290
 9604.50000    8.78490   72.16110  113.41920   90.27730
 9605.00000    8.75220   73.24210  114.04500   81.39840
 9605.50000    8.70820   72.69690  114.60630   67.40570
 9606.00000    8.69900   71.58850  115.07670   72.10810
 9606.50000    8.68990   71.06800  115.57670   81.69930
 9607.00000    8.72830   70.32550  116.27270   95.19120
 9607.50000    8.78710   70.64750  117.02360   99.93200
 9608.00000    8.81920   71.56490  117.15160   96.59330
 9608.50000    8.82400   71.81980  117.49970   83.38640
 9609.00000    8.77080   71.10420  119.21740   77.18550
 9609.50000    8.72830   70.65440  120.14450   81.49870
 9610.00000    8.71430   71.70330  120.16560   95.39960
 9610.50000    8.71090   72.32650  119.94150  104.56910
 9611.00000    8.71050   73.12650  120.11660  108.42870
 9611.50000    8.72630   74.03800  120.54220  106.94740
 9612.00000    8.72150   74.19720  120.72530  104.41390
 9612.50000    8.74230   73.79540  120.83350  100.95810
 9613.00000    8.74490   72.25060  121.17590   93.43510
 9613.50000    8.73430   73.59790  121.47900   88.01860
 9614.00000    8.70370   72.45820  120.75240   80.34860
 9614.50000    8.72780   71.97600  120.47900   77.06510
 9615.00000    8.76160   70.83460  120.04720   81.97440
 9615.50000    8.73830   69.51300  120.55380   83.83800
 9616.00000    8.71250   67.00990  120.71630   85.82190
 9616.50000    8.68010   65.12770  120.63400   73.17980
 9617.00000    8.67810   63.25520  120.85320   68.15800
 9617.50000    8.72830   62.88220  121.02850   64.05600
 9618.00000    8.77840   63.09990  120.82820   66.70250
 9618.50000    8.76840   62.92240  120.31080   74.47720
