~Version ---------------------------------------------------
VERS.   2.0 : CWLS log ASCII Standard -VERSION 2.0
WRAP.    NO : One line per depth step
DLM . SPACE : Column Data Section Delimiter
~Well ------------------------------------------------------
STRT .FT                4900.0 : START DEPTH
STOP .FT               11953.0 : STOP DEPTH
STEP .FT                   0.5 : STEP
NULL .                -9999.25 : NULL VALUE
COMP .                         : COMPANY
WELL .                         : WELL
FLD  .                         : FIELD
LOC  .                         : LOCATION
PROV .                         : PROVINCE
CNTY .                         : COUNTY
STAT .                         : STATE
CTRY .                         : COUNTRY
SRVC .                         : SERVICE COMPANY
DATE .                         : DATE
UWI  .                         : UNIQUE WELL ID
API  .                         : API NUMBER
SLAT .WGS84 1.6357003682451001 : SURFACE LATITUDE
SLON .WGS84  7.946482497978991 : SURFACE LONGITUDE
DATUM.F                    nan : DEPTH DATUM ELEV
~Curve Information -----------------------------------------
DEPT.FT    : 
CALS.IN    : CALIPER FROM SONIC LOG
DTCO.US/F  : DELTA-T COMPRESSIONAL
DTSM.US/F  : DELTA-T SHEAR
GRS .GAPI  : GAMMA RAY FROM SONIC LOG
~Params ----------------------------------------------------
~Other -----------------------------------------------------
~ASCII -----------------------------------------------------
# ...
 10047.50000    8.76750   53.49160   96.56030   26.74540
 10048.00000    8.76290   53.60220   95.63380   23.43490
 10048.50000    8.75840   53.61190   95.26440   19.97740
 10049.00000    8.75380   53.60990   95.12990   18.55330
 10049.50000    8.74920   53.35350   95.10430   18.13660
 10050.00000    8.74890   52.58450   94.64460   23.17040
 10050.50000    8.74970   52.39460   94.27010   26.61460
 10051.00000    8.76840   52.20020   93.95230   26.66470
 10051.50000    8.75220   52.19900   93.79560   23.62190
 10052.00000    8.73600   52.11040   92.89450   19.94210
 10052.50000    8.78600   51.75610   92.16770   19.47780
 10053.00000    8.75060   51.47690   92.32050   18.97560
 10053.50000    8.75400   51.49120   92.99460   17.28540
 10054.00000    8.80150   52.23380   93.32800   15.46530
 10054.50000    8.81260   53.23330   93.84950   15.88330
 10055.00000    8.79540   54.13440   94.24610   16.94840
 10055.50000    8.79000   55.51610   96.04830   17.29120
 10056.00000    8.78460   56.72270   98.61740   20.26090
 10056.50000    8.76840   58.03920   99.48240   26.65540
 10057.00000    8.73960   59.12050   99.54620   35.35760
 10057.50000    8.76360   60.33440  101.45490   43.85200
 10058.00000    8.79040   61.06320  102.20670   44.35690
 10058.50000    8.80550   61.53290  103.21140   38.66760
 10059.00000    8.79370   61.24860  104.05760   36.26030
 10059.50000    8.77520   60.98090  104.12410   42.54760
 10060.00000    8.75660   59.90510  103.30060   52.03320
 10060.50000    8.76080   58.48680  102.62310   54.61630
 10061.00000    8.77090   57.64560  101.87160   48.89890
 10061.50000    8.78340   56.47730  100.69520   37.76500
 10062.00000    8.79380   55.20220  100.11300   28.18160
 10062.50000    8.81140   53.87370   99.65670   21.21460
 10063.00000    8.81870   53.56970   99.59560   16.09900
 10063.50000    8.82590   54.03590   99.19330   12.18710
 10064.00000    8.83320   54.06340   98.83340   10.66280
 10064.50000    8.80850   53.94230   98.51730   11.13390
 10065.00000    8.80850   53.75120   98.23100   13.39070
 10065.50000    8.81130   54.13380   98.23820   17.30270
 10066.00000    8.81600   54.76420   97.61560   21.12370
 10066.50000    8.82060   55.16770   97.11150   21.66590
 10067.00000    8.79250   54.98630   96.23190   21.22510
 10067.50000    8.80850   54.91160   95.79800   23.02010
 10068.00000    8.78640   54.56320   95.68900   31.45480
 10068.50000    8.81210   53.65380   95.18440   37.15960
 10069.00000    8.84250   53.05310   95.43080   36.94820
 10069.50000    8.87560   52.12030   95.19690   29.94110
 10070.00000    8.89620   51.68710   94.96300   24.75670
 10070.50000    8.88870   51.25380   94.81270   24.12060
 10071.00000    8.86020   50.10950   94.81270   29.34600
 10071.50000    8.83870   49.37820   95.16310   30.34520
 10072.00000    8.81730   49.31560   95.56360   22.52630
 10072.50000    8.87410   51.68840   95.96410   15.83730
 10073.00000    8.94360   51.50820   97.63540   11.69610
 10073.50000    8.98010   54.09130   99.75330   13.00680
 10074.00000    8.97300   50.26470  101.87130   21.94930
 10074.50000    8.93940   48.00900  105.25040   34.75580
 10075.00000    8.90570   63.15570  108.62940   63.34290
 10075.50000    8.83460   67.77790  112.12870   83.50430
 10076.00000    8.90030   71.63590  115.70800   99.94190
 10076.50000    8.95620   71.90090  117.92400  103.72720
 10077.00000    9.02460   70.72170  118.34120  102.16110
 10077.50000    9.10700   69.74130  116.97360   98.55010
 10078.00000    8.99800   68.34600  115.95030   90.68480
 10078.50000    8.94980   67.33120  114.35220   73.87500
 10079.00000    8.90600   66.14890  112.86860   47.51150
 10079.50000    8.90600   64.10640  110.77950   35.50810
 10080.00000    8.96620   61.86820  107.72130   40.58610
 10080.50000    8.94080   60.84520  105.96030   59.08710
 10081.00000    8.95000   60.47210  104.84230   66.05110
 10081.50000    8.98510   60.73580  103.82370   58.06420
 10082.00000    8.95040   61.71530  104.28960   39.95160
 10082.50000    8.91570   62.78490  105.00490   31.59620
 10083.00000    8.91010   63.35560  105.24990   34.87620
 10083.50000    8.91170   63.81580  106.66120   47.69520
 10084.00000    8.92540   64.95480  107.82610   59.02810
 10084.50000    9.00910   67.41050  108.66360   66.65300
 10085.00000    9.00910   69.29210  111.36690   69.73320
 10085.50000    8.98370   71.21130  113.76980   71.90610
 10086.00000    8.98050   71.78380  116.35790   70.78010
 10086.50000    8.97730   71.50980  117.47430   73.05540
 10087.00000    8.97420   71.18070  118.19180   80.49510
 10087.50000    8.98250   70.77460  117.87470   98.90570
 10088.00000    8.99410   69.84910  117.20890  107.20950
 10088.50000    9.00580   69.15260  117.02370   97.72750
 10089.00000    9.01750   68.55190  117.01800   86.21250
 10089.50000    9.02920   67.83100  115.55530   73.94570
 10090.00000    9.02580   67.28580  115.30810   75.53940
 10090.50000    8.98080   67.10620  114.75970   77.78690
 10091.00000    8.93580   67.58750  114.29880   80.98240
 10091.50000    8.90880   69.15260  114.97120   84.70800
 10092.00000    8.92510   71.74020  116.07260   93.23580
 10092.50000    8.97880   72.21630  116.84020  100.95740
 10093.00000    8.98300   72.99730  118.28390  109.34510
 10093.50000    8.98710   73.89840  119.37240  121.46510
 10094.00000    8.99120   75.11760  119.94230  127.30430
 10094.50000    8.94900   75.52550  120.14250  120.51700
 10095.00000    8.94210   76.21150  120.88220  103.66570
 10095.50000    8.93850   76.04110  121.10250   92.23090
 10096.00000    8.92050   75.28450  120.99390   82.77520
 10096.50000    8.93360   74.55920  120.65700   79.82030
 10097.00000    8.94430   73.53190  120.36890   80.54240
 10097.50000    8.97720   73.03700  120.40640   81.99970
 10098.00000    8.93040   72.72150  119.76590   79.36250
 10098.50000    8.88870   72.95640  119.37660   78.43380
 10099.00000    8.88870   72.83130  118.52400   76.53960
 10099.50000    8.88870   72.61400  118.41540   77.85830
 10100.00000    8.89440   73.10550  118.75470   78.26840
 10100.50000    8.94380   73.44420  119.03610   80.78410
 10101.00000    8.94470   73.81190  119.22640   86.81420
 10101.50000    8.93950   74.14950  119.07460   91.86500
 10102.00000    8.91000   73.54240  118.30720   91.25300
 10102.50000    8.88050   72.63680  117.70140   88.69250
 10103.00000    8.87390   72.09620  117.37410   86.37060
 10103.50000    8.90750   71.07490  116.42300   87.53040
 10104.00000    8.94420   69.01190  114.57280   79.48450
 10104.50000    8.94390   67.17020  112.66840   67.25470
 10105.00000    8.91330   66.31380  111.36690   57.02350
 10105.50000    8.87560   66.09510  110.31030   47.97450
 10106.00000    8.82890   66.41690  109.39080   48.69670
 10106.50000    8.83500   66.53940  108.82980   48.74830
 10107.00000    8.85460   66.50040  111.06650   50.70430
 10107.50000    8.88370   67.09330  112.36810   59.73180
 10108.00000    8.90460   67.61000  112.70470   71.86060
 10108.50000    8.91300   67.95120  113.46710   75.92100
 10109.00000    8.87010   68.49180  113.86990   67.55560
 10109.50000    8.87190   69.21270  114.97180   55.99420
 10110.00000    8.87380   69.91680  115.97240   53.78800
 10110.50000    8.87560   70.76160  117.08090   60.03930
 10111.00000    8.90240   71.55550  117.69960   72.38610
 10111.50000    8.90490   72.39650  118.07500   81.42400
 10112.00000    8.90730   72.98960  118.98410   88.75570
 10112.50000    8.90340   73.68030  119.89320   96.20950
 10113.00000    8.87270   74.13870  119.84320  101.56950
 10113.50000    8.85070   74.62940  120.31400  102.00390
 10114.00000    8.83100   74.94590  120.95730   89.49930
 10114.50000    8.86730   75.34240  121.34500   82.08160
 10115.00000    8.89180   74.61010  121.39500   88.56040
 10115.50000    8.88400   73.56800  121.09470  104.08150
 10116.00000    8.86430   73.19170  119.36160  124.11800
 10116.50000    8.85250   73.07870  119.34850  136.66090
 10117.00000    8.94500   73.08250  119.35440  123.50990
 10117.50000    8.83470   73.30970  118.88630   89.35760
