~Version ---------------------------------------------------
VERS.   2.0 : CWLS log ASCII Standard -VERSION 2.0
WRAP.    NO : One line per depth step
DLM . SPACE : Column Data Section Delimiter
~Well ------------------------------------------------------
STRT .FT                4900.0 : START DEPTH
STOP .FT               11953.0 : STOP DEPTH
STEP .FT                   0.5 : STEP
NULL .                -9999.25 : NULL VALUE
COMP .                         : COMPANY
WELL .                         : WELL
FLD  .                         : FIELD
LOC  .                         : LOCATION
PROV .                         : PROVINCE
CNTY .                         : COUNTY
STAT .                         : STATE
CTRY .                         : COUNTRY
SRVC .                         : SERVICE COMPANY
DATE .                         : DATE
UWI  .                         : UNIQUE WELL ID
API  .                         : API NUMBER
SLAT .WGS84 1.6357003682451001 : SURFACE LATITUDE
SLON .WGS84  7.946482497978991 : SURFACE LONGITUDE
DATUM.F                    nan : DEPTH DATUM ELEV
~Curve Information -----------------------------------------
DEPT.FT    : 
CALS.IN    : CALIPER FROM SONIC LOG
DTCO.US/F  : DELTA-T COMPRESSIONAL
DTSM.US/F  : DELTA-T SHEAR
GRS .GAPI  : GAMMA RAY FROM SONIC LOG
~Params ----------------------------------------------------
~Other -----------------------------------------------------
~ASCII -----------------------------------------------------
# ...
 8189.00000    9.37630   79.84550  124.36880   91.27710
 8189.50000    9.37020   80.38430  125.52860   88.84110
 8190.00000    9.37620   81.27970  127.12210   90.42580
 8190.50000    9.35730   81.87380  128.50340   91.73540
 8191.00000    9.35480   82.39440  128.88790  102.01130
 8191.50000    9.36790   82.54880  130.94040  118.71220
 8192.00000    9.38140   83.29730  131.31140  138.83630
 8192.50000    9.35280   83.55980  131.79930  146.09580
 8193.00000    9.34590   84.01630  132.37230  138.25400
 8193.50000    9.33010   83.90040  132.72120  118.75240
 8194.00000    9.34220   83.38230  132.73320  110.13760
 8194.50000    9.32820   83.06360  133.03290  119.91590
 8195.00000    9.32440   83.19540  132.54980  133.77900
 8195.50000    9.32610   83.40180  132.29200  134.80710
 8196.00000    9.31940   82.95190  131.69470  115.70640
 8196.50000    9.31270   82.87920  131.59870  105.47180
 8197.00000    9.31790   82.99930  131.55790  121.91240
 8197.50000    9.33010   82.84300  131.37050  139.38710
 8198.00000    9.33010   82.40050  130.75480  141.81130
 8198.50000    9.33010   82.05610  130.52080  128.04070
 8199.00000    9.34420   81.75410  130.20500  111.02390
 8199.50000    9.34580   81.82050  128.85920  101.51690
 8200.00000    9.34750   81.47450  128.74130   98.94100
 8200.50000    9.34600   81.26440  128.87550  101.37930
 8201.00000    9.33010   81.84740  128.76470  106.97640
 8201.50000    9.33010   81.75880  128.64540  117.66180
 8202.00000    9.34430   82.27430  129.68690  122.59410
 8202.50000    9.34610   82.71520  129.40450  122.62420
 8203.00000    9.34800   83.75190  130.25550  117.28040
 8203.50000    9.33120   84.11070  131.09510  114.28880
 8204.00000    9.33700   84.30590  131.89730  110.54780
 8204.50000    9.32640   84.90150  132.09860  110.39830
 8205.00000    9.31580   85.55980  131.93680  115.40210
 8205.50000    9.30520   85.54770  133.49350  121.58390
 8206.00000    9.29000   85.71600  132.85270  123.70640
 8206.50000    9.28000   85.51840  134.26040  122.56400
 8207.00000    9.29000   85.01540  132.09180  124.99700
 8207.50000    9.28780   84.11070  134.19430  132.02980
 8208.00000    9.28220   82.16460  133.61190  141.56020
 8208.50000    9.27660   79.24470  132.49220  157.22200
 8209.00000    9.27100   77.92310  130.96140  154.66420
 8209.50000    9.26780   76.29430  130.57330  153.61100
 8210.00000    9.26510   76.04950  128.42230  136.36750
 8210.50000    9.24990   76.20130  127.43610  115.70420
 8211.00000    9.24060   76.35820  126.48500   97.94980
 8211.50000    9.23140   77.21300  125.15610  102.83150
 8212.00000    9.22490   77.61750  124.64150  109.75190
 8212.50000    9.21020   77.73840  124.08200  115.81290
 8213.00000    9.21030   78.89130  124.99430  116.47410
 8213.50000    9.21040   78.96750  124.97080  114.31100
 8214.00000    9.25190   78.82880  123.60670  111.64180
 8214.50000    9.15310   77.98320  123.22270  108.36750
 8215.00000    9.12950   76.90190  121.67910  102.91570
 8215.50000    9.12950   73.71800  118.12480   86.51480
 8216.00000    9.11410   70.34840  115.78380   72.85130
 8216.50000    9.08940   67.84360  113.69090   64.90880
 8217.00000    9.09480   66.08880  111.76710   58.74490
 8217.50000    9.10140   64.28660  107.76220   49.31500
 8218.00000    9.10810   62.79100  103.62760   36.08190
 8218.50000    9.10240   61.40310  101.45460   33.11420
 8219.00000    9.02890   59.96130   99.53770   42.03010
 8219.50000    9.11920   58.99820   98.53430   46.64280
 8220.00000    9.03090   58.48920   97.36090   39.45050
 8220.50000    8.95370   58.12740   95.93690   28.13580
 8221.00000    8.92860   57.58840   94.84650   23.32110
 8221.50000    8.98840   57.23030   93.68210   20.30050
 8222.00000    9.00660   56.51460   92.52870   20.31190
 8222.50000    9.02920   56.16010   92.39350   21.01010
 8223.00000    8.99740   56.04250   92.45440   23.02020
 8223.50000    8.96570   55.97090   91.94200   24.87340
 8224.00000    8.94300   55.60600   90.98380   23.94890
 8224.50000    8.94340   55.57990   91.14200   21.80200
 8225.00000    8.91170   55.45580   90.69850   19.62020
 8225.50000    8.90350   55.01740   90.36690   19.26290
 8226.00000    8.89510   55.22350   90.33270   18.87310
 8226.50000    8.96050   55.77840   91.26220   19.74950
 8227.00000    8.94640   56.25120   90.79450   21.06420
 8227.50000    8.91230   56.68730   91.02620   21.07200
 8228.00000    8.90880   57.28810   91.57360   22.84370
 8228.50000    8.90880   57.56250   91.85370   25.42750
 8229.00000    8.92010   58.10510   92.33310   30.15380
 8229.50000    8.93130   58.54960   92.89420   33.71020
 8230.00000    8.95590   58.84280   93.43340   35.80030
 8230.50000    8.98630   59.18040   94.60380   38.06610
 8231.00000    8.98910   60.08150   95.45110   42.39310
 8231.50000    8.97050   60.61920   95.69150   43.80670
 8232.00000    8.95200   61.31280   96.51360   47.80770
 8232.50000    8.93350   61.94370   98.32720   50.70470
 8233.00000    8.92890   62.90490   99.51040   57.92670
 8233.50000    8.91890   63.80600  100.85380   60.63500
 8234.00000    8.95180   65.71250  101.84240   64.65740
 8234.50000    8.98440   67.05550  102.81030   66.65340
 8235.00000    8.98410   67.77080  104.58320   71.56840
 8235.50000    8.98380   68.73200  105.96000   71.81410
 8236.00000    8.98350   69.29480  107.03250   67.34330
 8236.50000    8.98240   69.54300  107.54060   61.23680
 8237.00000    8.98110   69.59880  107.70210   55.46510
 8237.50000    8.98480   69.24970  107.46950   51.93160
 8238.00000    8.99720   68.58490  107.06520   53.00320
 8238.50000    9.00950   67.77080  106.66090   53.40160
 8239.00000    9.02180   66.86970  105.53050   54.43110
 8239.50000    9.02920   65.99490  105.74330   54.02090
 8240.00000    8.99940   66.28280  105.93210   50.01800
 8240.50000    8.98880   66.29620  105.69080   46.50650
 8241.00000    8.99970   66.26890  104.52000   43.10980
 8241.50000    9.01050   66.00960  104.93580   46.29120
 8242.00000    9.02140   66.18280  105.98540   49.92730
 8242.50000    9.03220   65.93850  105.81630   51.64180
 8243.00000    9.07190   66.55420  106.32930   52.62460
 8243.50000    9.07560   66.97450  106.43460   50.39240
 8244.00000    9.07910   67.20630  105.90970   49.50730
 8244.50000    9.05650   67.18100  105.82400   46.72640
 8245.00000    9.04560   66.70790  105.47540   45.48810
 8245.50000    9.03890   66.32890  104.90750   43.81690
 8246.00000    9.04900   65.28490  104.14250   42.57990
 8246.50000    9.07420   63.44540  102.65570   41.05760
 8247.00000    9.08940   60.98240  100.18120   38.66800
 8247.50000    9.08940   59.00000   98.78480   32.97580
 8248.00000    9.08940   57.51450   97.92980   25.76580
 8248.50000    9.10240   56.47690   96.96670   20.01100
 8249.00000    9.08940   55.62580   95.51880   17.67610
 8249.50000    9.07460   55.33780   94.41440   18.80730
 8250.00000    9.03780   54.90900   93.94180   21.77660
 8250.50000    9.02920   55.30400   93.56230   23.16360
 8251.00000    9.03380   56.11680   93.32200   23.09170
 8251.50000    9.03830   57.19810   93.81980   22.26790
 8252.00000    9.07390   58.20280   95.16510   23.71830
 8252.50000    9.03330   59.78120   96.99930   28.28630
 8253.00000    9.02330   61.34310   98.85160   35.65880
 8253.50000    9.01320   62.78480  100.05400   40.62390
 8254.00000    9.00320   63.68070  100.76330   44.77170
 8254.50000    8.99310   65.36800  102.45600   48.19560
 8255.00000    8.99410   67.17020  105.31080   50.83720
 8255.50000    9.02370   69.82890  106.98800   53.22490
 8256.00000    9.02430   70.93580  108.31420   59.73220
 8256.50000    9.02490   71.91590  109.99010   63.34360
 8257.00000    9.02560   72.87710  111.66710   67.51470
 8257.50000    9.02620   74.02080  114.11320   69.61850
 8258.00000    9.02690   74.82910  115.10020   75.50550
 8258.50000    9.02750   75.11000  116.14820   76.88460
 8259.00000    9.02820   75.39050  116.74940   71.53250
 8259.50000    9.02880   75.18990  117.47800   67.99800
 8260.00000    9.03120   74.78630  117.60310   66.44700
