~Version ---------------------------------------------------
VERS.   2.0 : CWLS log ASCII Standard -VERSION 2.0
WRAP.    NO : One line per depth step
DLM . SPACE : Column Data Section Delimiter
~Well ------------------------------------------------------
STRT .FT                4900.0 : START DEPTH
STOP .FT               11953.0 : STOP DEPTH
STEP .FT                   0.5 : STEP
NULL .                -9999.25 : NULL VALUE
COMP .                         : COMPANY
WELL .                         : WELL
FLD  .                         : FIELD
LOC  .                         : LOCATION
PROV .                         : PROVINCE
CNTY .                         : COUNTY
STAT .                         : STATE
CTRY .                         : COUNTRY
SRVC .                         : SERVICE COMPANY
DATE .                         : DATE
UWI  .                         : UNIQUE WELL ID
API  .                         : API NUMBER
SLAT .WGS84 1.6357003682451001 : SURFACE LATITUDE
SLON .WGS84  7.946482497978991 : SURFACE LONGITUDE
DATUM.F                    nan : DEPTH DATUM ELEV
~Curve Information -----------------------------------------
DEPT.FT    : 
CALS.IN    : CALIPER FROM SONIC LOG
DTCO.US/F  : DELTA-T COMPRESSIONAL
DTSM.US/F  : DELTA-T SHEAR
GRS .GAPI  : GAMMA RAY FROM SONIC LOG
~Params ----------------------------------------------------
~Other -----------------------------------------------------
~ASCII -----------------------------------------------------
# ...
 9118.50000    8.83400   77.66960  125.09480  140.07660
 9119.00000    8.87660   76.84190  124.56490  131.52200
 9119.50000    8.86010   75.34010  123.38130  123.82710
 9120.00000    8.78850   73.90530  122.14390  117.89760
 9120.50000    8.79400   72.21630  120.32760  112.04220
 9121.00000    8.82920   70.83460  117.47420   95.90830
 9121.50000    8.79720   69.48770  115.37160   75.70810
 9122.00000    8.79120   69.38130  114.59110   64.48980
 9122.50000    8.79920   69.56660  113.90310   64.25010
 9123.00000    8.80720   69.92050  113.60950   66.74540
 9123.50000    8.79280   71.72570  116.47300   69.16300
 9124.00000    8.80090   75.74190  118.08510   80.15510
 9124.50000    8.82750   77.26240  119.25140   98.64500
 9125.00000    8.83580   78.35390  120.85750  110.70750
 9125.50000    8.84420   78.82430  122.73050  118.69380
 9126.00000    8.85850   80.27800  127.77410  120.79250
 9126.50000    8.87030   81.12180  128.13850  128.81820
 9127.00000    8.83640   80.95820  128.33730  140.88980
 9127.50000    8.82610   80.74660  128.77140  150.15800
 9128.00000    8.80760   80.10980  128.68910  152.93290
 9128.50000    8.81050   80.19910  127.98690  145.76710
 9129.00000    8.81340   79.58870  127.22410  134.90360
 9129.50000    8.86280   79.34210  126.39000  125.28750
 9130.00000    8.85950   79.56260  125.25290  119.53760
 9130.50000    8.82140   79.87560  125.03760  116.65510
 9131.00000    8.84790   80.13090  126.34780  120.19110
 9131.50000    8.89760   80.18590  126.36950  129.27360
 9132.00000    8.86320   80.36450  126.87900  131.29640
 9132.50000    8.83230   80.72360  127.43410  125.86540
 9133.00000    8.86300   81.34730  127.74450  119.24260
 9133.50000    8.83190   81.97480  127.96790  124.55070
 9134.00000    8.79510   81.77990  128.41660  129.13680
 9134.50000    8.77880   81.55760  128.63770  121.29810
 9135.00000    8.79330   81.73320  128.23720  113.00080
 9135.50000    8.82100   81.95460  128.23720  111.65860
 9136.00000    8.77960   82.10430  128.09800  113.34290
 9136.50000    8.80470   82.32290  127.97190  114.79600
 9137.00000    8.80470   82.45180  128.43750  111.77150
 9137.50000    8.79090   82.55770  128.93810  114.28460
 9138.00000    8.75720   82.66650  129.13020  120.48440
 9138.50000    8.78830   82.72000  129.03580  124.01320
 9139.00000    8.80310   82.70600  128.83790  121.34060
 9139.50000    8.79460   82.77980  128.56250  113.66940
 9140.00000    8.80680   82.45170  128.59640  105.53100
 9140.50000    8.81910   81.70770  128.91080  101.46720
 9141.00000    8.79340   81.37730  128.73770  106.67490
 9141.50000    8.76840   81.14290  128.43730  115.25100
 9142.00000    8.79070   80.62640  127.35850  114.19780
 9142.50000    8.84860   79.00450  126.54200  115.40140
 9143.00000    8.85790   77.69490  126.08450  111.57190
 9143.50000    8.86720   76.95300  124.82350  116.60510
 9144.00000    8.91180   76.77500  124.25230  122.15270
 9144.50000    8.85590   76.92080  123.87390  126.46060
 9145.00000    8.75220   77.67630  123.59190  122.52370
 9145.50000    8.75410   78.58290  123.10080  118.08650
 9146.00000    8.81850   79.59970  123.91510  114.34080
 9146.50000    8.78990   80.26600  125.91470  121.47310
 9147.00000    8.82650   80.74660  127.13570  122.89500
 9147.50000    8.87330   81.25240  127.92240  124.72990
 9148.00000    8.90300   81.74160  128.16000  126.51670
 9148.50000    8.82830   82.06910  128.21370  135.26190
 9149.00000    8.76640   82.21590  128.78770  147.90040
 9149.50000    8.81970   82.11540  129.10410  149.85640
 9150.00000    8.81410   82.17490  128.91570  146.47150
 9150.50000    8.80850   82.21270  129.03490  132.55450
 9151.00000    8.85070   81.98020  129.03120  123.22600
 9151.50000    8.82340   81.73020  128.80290  117.47570
 9152.00000    8.78580   81.60870  128.71530  114.69610
 9152.50000    8.74970   81.94810  128.62770  114.16600
 9153.00000    8.79040   82.39440  128.83500  113.53210
 9153.50000    8.79850   82.31180  128.95410  113.02410
 9154.00000    8.85060   82.11290  129.25440  110.70700
 9154.50000    8.93230   82.07410  129.50480  110.95720
 9155.00000    8.92020   81.64770  129.10540  110.73790
 9155.50000    8.87270   80.86680  127.93680  110.03190
 9156.00000    8.81960   79.67500  127.10250  105.81690
 9156.50000    8.82360   78.95540  126.18470  104.54510
 9157.00000    8.83390   78.27460  125.10570  107.96390
 9157.50000    8.84420   78.25470  124.90170  107.35470
 9158.00000    8.85660   78.58460  124.40560   99.67070
 9158.50000    8.86280   78.59050  123.94400   91.35580
 9159.00000    8.80850   78.55400  124.32370   86.96530
 9159.50000    8.80320   78.67300  124.56050   96.74520
 9160.00000    8.83570   78.54530  124.79720  105.98170
 9160.50000    8.83550   78.63410  124.96690  111.43940
 9161.00000    8.83370   78.88790  125.33690  113.21980
 9161.50000    8.86170   79.31490  124.94670  104.86940
 9162.00000    8.85620   79.12410  125.03330   91.41290
 9162.50000    8.83400   78.78070  124.38250   86.34390
 9163.00000    8.81580   78.26200  123.28120   89.71960
 9163.50000    8.82390   78.27460  122.54440   95.02440
 9164.00000    8.82960   78.81430  122.11480   94.79610
 9164.50000    8.83530   79.03730  122.32300   88.92080
 9165.00000    8.87000   79.39500  121.85450   83.80520
 9165.50000    8.87650   79.78540  120.98500   77.74120
 9166.00000    8.84600   80.04300  120.65110   81.93280
 9166.50000    8.80850   80.21370  120.86160   93.19500
 9167.00000    8.80850   80.74660  121.47900   98.86520
 9167.50000    8.84860   81.46950  123.28410   98.81620
 9168.00000    8.85400   81.66190  123.71730   97.44520
 9168.50000    8.88870   81.38340  124.15480  105.51730
 9169.00000    8.89550   81.14090  124.50560  116.16490
 9169.50000    8.90220   81.09410  124.35380  124.19810
 9170.00000    8.89680   69.71020  123.98070  130.34590
 9170.50000    8.82860   70.70890  122.78870  123.22600
 9171.00000    8.86870   72.89410  121.55640  101.86080
 9171.50000    8.90350   70.54350  121.28410   67.42150
 9172.00000    8.90630   71.31180  120.32560   49.25750
 9172.50000    8.90910   71.67550  120.12740   59.46080
 9173.00000    8.94090   72.57660  119.95970   77.48640
 9173.50000    8.87080   75.15980  120.20400  101.25900
 9174.00000    8.80650   76.09090  120.42710  109.18380
 9174.50000    8.85470   77.08210  121.54650  109.62330
 9175.00000    8.90290   78.36590  123.78170  101.38210
 9175.50000    8.94150   78.61400  125.18340   94.48830
 9176.00000    8.94910   78.38360  125.48220  102.69590
 9176.50000    8.94320   78.26480  125.43370  119.01320
 9177.00000    8.90090   78.09620  125.53750  129.98920
 9177.50000    8.85640   77.62570  126.05650  128.81920
 9178.00000    8.88710   77.28250  126.59760  118.33830
 9178.50000    8.91670   78.64970  127.08570  105.77270
 9179.00000    8.97870   79.51930  127.88670   97.34700
 9179.50000    8.95720   77.29770  128.47880   93.91660
 9180.00000    8.91200   81.85430  128.40360   95.50110
 9180.50000    8.86670   81.76740  128.80370   98.49670
 9181.00000    8.86350   83.44050  128.21980  100.87250
 9181.50000    8.86780   80.23090  128.15310   99.86480
 9182.00000    8.90290   79.50910  129.17620   97.80730
 9182.50000    8.98010   79.75540  128.88800   97.30570
 9183.00000    8.98000   79.97940  129.34460   98.09930
 9183.50000    8.97980   79.20960  129.35030   97.25180
 9184.00000    8.88450   77.51540  128.88800   97.01610
 9184.50000    8.84060   74.73930  127.75130  100.39920
 9185.00000    8.83090   73.12900  126.77040  107.10000
 9185.50000    8.87300   72.73410  126.39050  102.90110
 9186.00000    8.93560   73.42380  125.19730   91.26450
 9186.50000    8.98440   73.77820  123.78280   73.87540
 9187.00000    8.97870   74.61920  122.99240   58.99280
 9187.50000    8.89310   75.02340  122.28580   61.65220
 9188.00000    8.82860   75.21990  121.74030   74.86830
 9188.50000    8.83040   76.67250  121.67060   96.44010
 9189.00000    8.83230   78.58400  121.24420  103.35730
 9189.50000    8.90220   79.97940  122.55660   99.32290
