~Version ---------------------------------------------------
VERS.   2.0 : CWLS log ASCII Standard -VERSION 2.0
WRAP.    NO : One line per depth step
DLM . SPACE : Column Data Section Delimiter
~Well ------------------------------------------------------
STRT .FT                4900.0 : START DEPTH
STOP .FT               11953.0 : STOP DEPTH
STEP .FT                   0.5 : STEP
NULL .                -9999.25 : NULL VALUE
COMP .                         : COMPANY
WELL .                         : WELL
FLD  .                         : FIELD
LOC  .                         : LOCATION
PROV .                         : PROVINCE
CNTY .                         : COUNTY
STAT .                         : STATE
CTRY .                         : COUNTRY
SRVC .                         : SERVICE COMPANY
DATE .                         : DATE
UWI  .                         : UNIQUE WELL ID
API  .                         : API NUMBER
SLAT .WGS84 1.6357003682451001 : SURFACE LATITUDE
SLON .WGS84  7.946482497978991 : SURFACE LONGITUDE
DATUM.F                    nan : DEPTH DATUM ELEV
~Curve Information -----------------------------------------
DEPT.FT    : 
CALS.IN    : CALIPER FROM SONIC LOG
DTCO.US/F  : DELTA-T COMPRESSIONAL
DTSM.US/F  : DELTA-T SHEAR
GRS .GAPI  : GAMMA RAY FROM SONIC LOG
~Params ----------------------------------------------------
~Other -----------------------------------------------------
~ASCII -----------------------------------------------------
 4900.00000   -9999.25   -9999.25   -9999.25   72.90230
 4900.50000   -9999.25   -9999.25   -9999.25   73.19130
 4901.00000   -9999.25   -9999.25   -9999.25   73.42020
 4901.50000   -9999.25   -9999.25   -9999.25   74.79250
 4902.00000   -9999.25   -9999.25   -9999.25   74.74420
 4902.50000   -9999.25   -9999.25   -9999.25   70.56530
 4903.00000   -9999.25   -9999.25   -9999.25   62.54880
 4903.50000   -9999.25   -9999.25   -9999.25   65.27770
 4904.00000   -9999.25   -9999.25   -9999.25   70.24120
 4904.50000   -9999.25   -9999.25   -9999.25   74.63280
 4905.00000   -9999.25   -9999.25   -9999.25   75.28480
 4905.50000   -9999.25   -9999.25   -9999.25   75.66390
 4906.00000   -9999.25   -9999.25   -9999.25   76.09020
 4906.50000   -9999.25   -9999.25   -9999.25   75.03700
 4907.00000   -9999.25   -9999.25   -9999.25   75.18740
 4907.50000   -9999.25   -9999.25   -9999.25   69.92140
 4908.00000   -9999.25   -9999.25   -9999.25   69.36770
 4908.50000   -9999.25   -9999.25   -9999.25   70.70420
 4909.00000   -9999.25   -9999.25   -9999.25   74.29940
 4909.50000   -9999.25   -9999.25   -9999.25   79.39900
 4910.00000   -9999.25   -9999.25   -9999.25   79.20310
 4910.50000   -9999.25   -9999.25   -9999.25   73.27360
 4911.00000   -9999.25   -9999.25   -9999.25   66.35250
 4911.50000   -9999.25   -9999.25   -9999.25   59.69020
 4912.00000   -9999.25   -9999.25   -9999.25   79.79760
 4912.50000   -9999.25   -9999.25   -9999.25   95.84250
 4913.00000   -9999.25   -9999.25   -9999.25  111.18930
 4913.50000   -9999.25   -9999.25   -9999.25  118.86280
 4914.00000   10.31980   65.35600  113.44780  122.68140
 4914.50000   10.78790   65.55180  113.19820  137.02620
 4915.00000   10.77900   66.42350  112.44810  132.84260
 4915.50000   11.42990   67.20680  111.69800  119.91600
 4916.00000   11.67060   69.55260  111.39830   89.39350
 4916.50000   11.92470   71.24480  113.10260   71.16720
 4917.00000   11.99160   71.79240  113.55340   58.83440
 4917.50000   12.03170   71.95720  113.62850   54.61240
 4918.00000   12.11190   72.09530  115.03590   63.50240
 4918.50000   12.13870   72.27950  117.48700   88.62050
 4919.00000   12.66700   72.48210  121.14660  114.19850
 4919.50000   12.25640   72.56090  123.10000  149.96570
 4920.00000    9.97210   71.80680  124.68120  150.15040
 4920.50000    9.95870   70.24960  124.92420  132.70500
 4921.00000   10.14590   69.22580  123.00290  108.86790
 4921.50000   10.37330   68.50270  120.84690   96.59480
 4922.00000   10.87390   68.02560  118.14380  102.14440
 4922.50000   11.08210   67.82180  114.57990  105.32140
 4923.00000   11.01790   67.47010  112.68790   97.04610
 4923.50000   10.92160   67.47070  116.02600   85.00940
 4924.00000   10.90830   67.81780  117.47850   76.02510
 4924.50000   10.89490   67.95960  118.65580   70.40010
 4925.00000   10.84140   68.02320  119.69430   67.85710
 4925.50000   10.76110   68.05400  120.68280   67.01250
 4926.00000   10.61020   67.99940  121.60490   65.92350
 4926.50000   10.46690   67.91320  122.33770   64.78770
 4927.00000   10.30640   67.59740  121.59830   66.50290
 4927.50000   10.19940   67.68980  121.46350   68.08600
 4928.00000   10.19940   67.80160  121.46350   69.76910
 4928.50000   10.17270   68.07920  121.60980   69.65120
 4929.00000   10.22580   68.36030  121.60230   71.29650
 4929.50000   10.24550   68.52730  121.71290   72.06910
 4930.00000   10.26510   68.98020  122.59350   77.60830
 4930.50000   10.27640   69.38250  122.62400   82.90300
 4931.00000   10.29310   70.15950  122.93010   91.93050
 4931.50000   10.29330   70.69360  123.17460   98.24980
 4932.00000   10.31770   71.14640  123.76690  109.78500
 4932.50000   10.30030   71.68120  124.41200  119.91590
 4933.00000   10.33680   72.07060  124.42640  130.95590
 4933.50000   10.37330   71.48980  124.22290  136.16550
 4934.00000   10.35830   71.55040  125.78760  118.59010
 4934.50000   10.35600   72.14320  127.52340  101.25900
 4935.00000   10.37930   72.80200  126.93080   79.29190
 4935.50000   10.40760   73.59520  127.78990   67.18370
 4936.00000   10.42750   74.11460  128.44240   63.58690
 4936.50000   10.46300   74.51080  128.43310   65.05030
 4937.00000   10.51890   75.33650  129.55460   67.92170
 4937.50000   10.54720   77.07770  133.08680   69.64110
 4938.00000   10.57640   77.47230  134.87170   71.16710
 4938.50000   10.60570   77.53310  134.81730   68.71640
 4939.00000   10.63490   77.91780  135.07300   65.53550
 4939.50000   10.66750   78.51820  135.92920   65.60020
 4940.00000   10.70770   79.11870  137.37490   65.97420
 4940.50000   10.70530   79.14550  137.62560   67.30540
 4941.00000   10.72220   78.90250  137.59320   65.52490
 4941.50000   10.75660   78.21670  136.88810   64.39650
 4942.00000   10.81230   77.46830  135.79880   64.28790
 4942.50000   10.86790   77.10830  134.88490   65.96600
 4943.00000   10.87270   76.87650  132.34310   64.59850
 4943.50000   10.86780   76.89210  131.24790   58.52860
 4944.00000   10.96840   76.49180  131.72600   52.74950
 4944.50000   11.00190   75.96180  131.66430   51.45980
 4945.00000   11.00190   75.96160  131.63580   52.98420
 4945.50000   11.00190   76.38030  132.57520   55.66980
 4946.00000   11.00190   76.14010  134.17070   51.00560
 4946.50000   11.06270   75.72050  135.63390   53.06220
 4947.00000   11.16600   79.43480  137.18390   55.93170
 4947.50000   11.26940   80.08780  138.72780   58.02190
 4948.00000   11.26340   80.11140  140.80360   58.36730
 4948.50000   11.27610   79.98880  141.60940   58.83590
 4949.00000   11.34930   80.08440  141.22170   59.11370
 4949.50000   11.41420   80.21140  141.03320   55.89020
 4950.00000   11.47730   80.02900  141.57080   53.82940
 4950.50000   11.51030   80.03720  142.24290   55.16690
 4951.00000   11.51280   80.12870  142.16980   58.82950
 4951.50000   11.51530   79.88480  141.63870   62.21480
 4952.00000   11.52770   79.51940  141.37620   63.87140
 4952.50000   11.55510   79.28340  140.97760   65.29920
 4953.00000   11.59010   78.89930  140.62790   65.56580
 4953.50000   11.59440   78.78410  140.24810   66.99940
 4954.00000   11.53680   78.30120  139.86470   66.80380
 4954.50000   11.43390   78.06570  139.18550   68.14240
 4955.00000   11.37640   77.75000  138.55920   69.81300
 4955.50000   11.32620   77.67090  138.84570   69.59380
 4956.00000   11.32370   77.35050  138.92910   70.30950
 4956.50000   11.35090   76.77290  138.06040   69.66250
 4957.00000   11.31410   76.20510  137.35910   66.84290
 4957.50000   11.28190   75.70730  136.70370   64.83070
 4958.00000   11.27870   75.09230  134.62250   63.38030
 4958.50000   11.27830   74.52800  132.66890   69.00050
 4959.00000   11.28940   74.33150  131.62660   81.09740
 4959.50000   11.28080   74.74220  131.22290   92.67920
 4960.00000   11.26950   74.81950  130.56080  100.20580
 4960.50000   11.25830   74.64590  130.00220   95.54150
 4961.00000   11.24710   74.23320  130.21450   83.80570
 4961.50000   11.23590   73.90260  129.55450   69.66250
 4962.00000   11.26640   73.97570  129.27190   63.65030
 4962.50000   11.31480   73.97620  129.26220   63.44570
 4963.00000   11.31940   73.70590  129.61940   68.75980
 4963.50000   11.32730   73.28090  129.36880   75.92120
 4964.00000   11.33530   72.68780  126.46740   79.42780
 4964.50000   11.34320   72.99060  125.82630   79.96420
 4965.00000   11.34960   73.23560  125.58570   77.48640
 4965.50000   11.34960   73.37650  125.51280   81.39840
 4966.00000   11.34960   73.69300  129.53810   73.63510
 4966.50000   11.40310   74.43070  130.64100   63.04230
 4967.00000   11.43130   74.82080  131.91320   51.90840
 4967.50000   11.45060   75.30220  133.11770   46.64230
 4968.00000   11.50800   75.73110  134.81940   46.40840
 4968.50000   11.61710   76.19030  136.14810   48.29730
 4969.00000   11.65720   76.60380  137.14890   50.52880
 4969.50000   11.69730   76.96880  138.77360   53.71390
 4970.00000   11.70060   76.81590  139.75700   60.67120
 4970.50000   11.75230   76.39580  139.03720   65.35030
 4971.00000   11.72600   76.09860  135.52760   68.45890
