~Version ---------------------------------------------------
VERS.   2.0 : CWLS log ASCII Standard -VERSION 2.0
WRAP.    NO : One line per depth step
DLM . SPACE : Column Data Section Delimiter
~Well ------------------------------------------------------
STRT .FT                4900.0 : START DEPTH
STOP .FT               11953.0 : STOP DEPTH
STEP .FT                   0.5 : STEP
NULL .                -9999.25 : NULL VALUE
COMP .                         : COMPANY
WELL .                         : WELL
FLD  .                         : FIELD
LOC  .                         : LOCATION
PROV .                         : PROVINCE
CNTY .                         : COUNTY
STAT .                         : STATE
CTRY .                         : COUNTRY
SRVC .                         : SERVICE COMPANY
DATE .                         : DATE
UWI  .                         : UNIQUE WELL ID
API  .                         : API NUMBER
SLAT .WGS84 1.6357003682451001 : SURFACE LATITUDE
SLON .WGS84  7.946482497978991 : SURFACE LONGITUDE
DATUM.F                    nan : DEPTH DATUM ELEV
~Curve Information -----------------------------------------
DEPT.FT    : 
CALS.IN    : CALIPER FROM SONIC LOG
DTCO.US/F  : DELTA-T COMPRESSIONAL
DTSM.US/F  : DELTA-T SHEAR
GRS .GAPI  : GAMMA RAY FROM SONIC LOG
~Params ----------------------------------------------------
~Other -----------------------------------------------------
~ASCII -----------------------------------------------------
# ...
 11880.50000    8.70990   83.52890  151.16180   95.37530
 11881.00000    8.74790   84.69920  152.62190   97.28290
 11881.50000    8.74080   84.98680  154.21960  103.98410
 11882.00000    8.72750   85.37750  154.64080  109.87210
 11882.50000    8.74210   85.07010  154.29230  115.96740
 11883.00000    8.70540   83.54380  151.98950  115.21000
 11883.50000    8.67320   82.34360  149.61090   -9999.25
 11884.00000    8.67310   80.04660  146.74430   -9999.25
 11884.50000    8.68240   78.86020  144.40120   -9999.25
 11885.00000    8.70290   78.59450  142.07340   -9999.25
 11885.50000    8.71650   76.40550  139.74560   -9999.25
 11886.00000    8.70080   75.95130  138.48960   -9999.25
 11886.50000    8.67260   76.82160  138.29560   -9999.25
 11887.00000    8.65390   77.86220  139.17360   -9999.25
 11887.50000    8.56250   77.77970  139.94760   -9999.25
 11888.00000    8.58260   78.18390  140.28310   -9999.25
 11888.50000    8.64010   78.49750  139.71010   -9999.25
 11889.00000    8.74470   79.02370  141.13460   -9999.25
 11889.50000    8.76360   79.59090  142.43060   -9999.25
 11890.00000    8.76620   81.32960  145.07300   -9999.25
 11890.50000    8.74660   82.78910  147.51060   -9999.25
 11891.00000    8.70120   84.05060  151.21510   -9999.25
 11891.50000    8.71820   84.38480  153.66410   -9999.25
 11892.00000    8.72160   85.40600  155.43930   -9999.25
 11892.50000    8.70490   86.15690  157.34160   -9999.25
 11893.00000    8.68810   87.10310  159.20100   -9999.25
 11893.50000    8.74130   88.56740  161.06040   -9999.25
 11894.00000    8.76050   88.55990  162.64800   -9999.25
 11894.50000    8.76840   87.73600  162.54790   -9999.25
 11895.00000    8.76740   87.38470  160.88760   -9999.25
 11895.50000    8.76640   87.36590  160.54550   -9999.25
 11896.00000    8.76540   87.35840  160.59560   -9999.25
 11896.50000    8.75360   87.97630  160.94600   -9999.25
 11897.00000    8.76840   88.55990  161.24630   -9999.25
 11897.50000    8.76840   88.58990  161.64680   -9999.25
 11898.00000    8.76530   88.80010  161.94720   -9999.25
 11898.50000    8.74990   89.16060  161.69690   -9999.25
 11899.00000    8.73440   89.01040  159.69450   -9999.25
 11899.50000    8.74450   89.70120  159.91140   -9999.25
 11900.00000    8.81720   89.35800  161.24640   -9999.25
 11900.50000    8.89570   88.69290  162.09740   -9999.25
 11901.00000    8.87540   88.43970  162.14750   -9999.25
 11901.50000   -9999.25   88.52980  161.99730   -9999.25
 11902.00000   -9999.25   87.06810  159.61110   -9999.25
 11902.50000   -9999.25   84.74530  156.87860   -9999.25
 11903.00000   -9999.25   84.42490  154.89870   -9999.25
 11903.50000   -9999.25   84.17460  153.93750   -9999.25
 11904.00000   -9999.25   84.11450  154.34800   -9999.25
 11904.50000   -9999.25   84.32470  154.99710   -9999.25
 11905.00000   -9999.25   84.86540  156.04010   -9999.25
 11905.50000   -9999.25   86.60750  158.76150   -9999.25
 11906.00000   -9999.25   88.40970  162.62990   -9999.25
 11906.50000   -9999.25   89.85140  165.31800   -9999.25
 11907.00000   -9999.25   89.94150  165.74470   -9999.25
 11907.50000   -9999.25   90.15180  166.00210   -9999.25
 11908.00000   -9999.25   90.09170  166.10220   -9999.25
 11908.50000   -9999.25   89.82140  166.10220   -9999.25
 11909.00000   -9999.25   89.88150  165.30130   -9999.25
 11909.50000   -9999.25   88.25950  163.34890   -9999.25
 11910.00000   -9999.25   87.77890  162.02230   -9999.25
 11910.50000   -9999.25   87.44850  160.79580   -9999.25
 11911.00000   -9999.25   86.82520  160.14500   -9999.25
 11911.50000   -9999.25   86.30710  159.18550   -9999.25
 11912.00000   -9999.25   86.21700  158.16340   -9999.25
 11912.50000   -9999.25   85.97670  157.14140   -9999.25
 11913.00000   -9999.25   86.00680  156.64080   -9999.25
 11913.50000   -9999.25   86.30710  156.64080   -9999.25
 11914.00000   -9999.25   86.87780  157.73210   -9999.25
 11914.50000   -9999.25   87.02800  166.95330   -9999.25
 11915.00000   -9999.25   87.02800  176.06430   -9999.25
 11915.50000   -9999.25   87.20820  174.49240   -9999.25
 11916.00000   -9999.25   87.71880  172.20960   -9999.25
 11916.50000   -9999.25   88.28950  171.40870   -9999.25
 11917.00000   -9999.25   88.43970  159.84460   -9999.25
 11917.50000   -9999.25   88.49980  159.74450   -9999.25
 11918.00000   -9999.25   88.49980  159.86470   -9999.25
 11918.50000   -9999.25   88.46970  159.84460   -9999.25
 11919.00000   -9999.25   88.31960  159.99480   -9999.25
 11919.50000   -9999.25   87.92910  160.44540   -9999.25
 11920.00000   -9999.25   87.74890  160.39530   -9999.25
 11920.50000   -9999.25   87.05800  159.69440   -9999.25
 11921.00000   -9999.25   86.78770  159.44410   -9999.25
 11921.50000   -9999.25   87.08800  159.64430   -9999.25
 11922.00000   -9999.25   87.29830  160.29510   -9999.25
 11922.50000   -9999.25   86.90780  160.64560   -9999.25
 11923.00000   -9999.25   86.98510  159.74450   -9999.25
 11923.50000   -9999.25   87.22110  159.72630   -9999.25
 11924.00000   -9999.25   87.36440  160.38620   -9999.25
 11924.50000   -9999.25   87.47850  161.04610   -9999.25
 11925.00000   -9999.25   87.56860  160.89590   -9999.25
 11925.50000   -9999.25   87.90650  160.64560   -9999.25
 11926.00000   -9999.25   88.04920  160.74570   -9999.25
 11926.50000   -9999.25   87.71880  160.99600   -9999.25
 11927.00000   -9999.25   88.01920  160.89590   -9999.25
 11927.50000   -9999.25   87.92910  160.39530   -9999.25
 11928.00000   -9999.25   87.62870  158.70030   -9999.25
 11928.50000   -9999.25   87.35840  156.62640   -9999.25
 11929.00000   -9999.25   85.70640  154.55250   -9999.25
 11929.50000   -9999.25   88.83020  153.78720   -9999.25
 11930.00000   -9999.25   88.49970  153.73720   -9999.25
 11930.50000   -9999.25   83.63380  153.73720   -9999.25
 11931.00000   -9999.25   83.69390  153.43680   -9999.25
 11931.50000   -9999.25   84.46480  153.85880   -9999.25
 11932.00000   -9999.25   85.09060  154.78850   -9999.25
 11932.50000   -9999.25   85.67630  156.43040   -9999.25
 11933.00000   -9999.25   86.38220  158.58310   -9999.25
 11933.50000   -9999.25   86.97390  160.05570   -9999.25
 11934.00000   -9999.25   87.41470  160.86100   -9999.25
 11934.50000   -9999.25   88.74760  161.66640   -9999.25
 11935.00000   -9999.25   89.80630  162.47170   -9999.25
 11935.50000   -9999.25   89.97150  163.27700   -9999.25
 11936.00000   -9999.25   89.59110  163.64920   -9999.25
 11936.50000   -9999.25   89.19060  163.49900   -9999.25
 11937.00000   -9999.25   88.98030  162.89270   -9999.25
 11937.50000   -9999.25   88.89020  162.19750   -9999.25
 11938.00000   -9999.25   88.80010  162.19750   -9999.25
 11938.50000   -9999.25   88.71000  161.64680   -9999.25
 11939.00000   -9999.25   88.55980  160.91590   -9999.25
 11939.50000   -9999.25   88.49970  160.19000   -9999.25
 11940.00000   -9999.25   88.55980  160.04480   -9999.25
 11940.50000   -9999.25   88.68000  160.09490   -9999.25
 11941.00000   -9999.25   88.80010  159.59430   -9999.25
 11941.50000   -9999.25   88.95030  159.69130   -9999.25
 11942.00000   -9999.25   89.04040  160.17620   -9999.25
 11942.50000   -9999.25   89.51770  160.66120   -9999.25
 11943.00000   -9999.25   89.75600  161.19620   -9999.25
 11943.50000   -9999.25   89.98660  161.44650   -9999.25
 11944.00000   -9999.25   90.67240  162.69810   -9999.25
 11944.50000   -9999.25   91.14300  162.34760   -9999.25
 11945.00000   -9999.25   90.18180  162.34760   -9999.25
 11945.50000   -9999.25   90.00160  161.09610   -9999.25
 11946.00000   -9999.25   89.76130  159.84460   -9999.25
 11946.50000   -9999.25   87.80890  158.59310   -9999.25
 11947.00000   -9999.25   87.83890  156.69080   -9999.25
 11947.50000   -9999.25   86.21700  153.06540   -9999.25
 11948.00000   -9999.25   85.49610  149.44010   -9999.25
 11948.50000   -9999.25   84.05740  145.81470   -9999.25
 11949.00000   -9999.25   82.27020  142.18930   -9999.25
 11949.50000   -9999.25   79.49380  138.56400   -9999.25
 11950.00000   -9999.25   73.21130  134.93860   -9999.25
 11950.50000   -9999.25   71.91970  132.51150   -9999.25
