~Version ---------------------------------------------------
VERS.   2.0 : CWLS log ASCII Standard -VERSION 2.0
WRAP.    NO : One line per depth step
DLM . SPACE : Column Data Section Delimiter
~Well ------------------------------------------------------
STRT .FT                4900.0 : START DEPTH
STOP .FT               11953.0 : STOP DEPTH
STEP .FT                   0.5 : STEP
NULL .                -9999.25 : NULL VALUE
COMP .                         : COMPANY
WELL .                         : WELL
FLD  .                         : FIELD
LOC  .                         : LOCATION
PROV .                         : PROVINCE
CNTY .                         : COUNTY
STAT .                         : STATE
CTRY .                         : COUNTRY
SRVC .                         : SERVICE COMPANY
DATE .                         : DATE
UWI  .                         : UNIQUE WELL ID
API  .                         : API NUMBER
SLAT .WGS84 1.6357003682451001 : SURFACE LATITUDE
SLON .WGS84  7.946482497978991 : SURFACE LONGITUDE
DATUM.F                    nan : DEPTH DATUM ELEV
~Curve Information -----------------------------------------
DEPT.FT    : 
CALS.IN    : CALIPER FROM SONIC LOG
DTCO.US/F  : DELTA-T COMPRESSIONAL
DTSM.US/F  : DELTA-T SHEAR
GRS .GAPI  : GAMMA RAY FROM SONIC LOG
~Params ----------------------------------------------------
~Other -----------------------------------------------------
~ASCII -----------------------------------------------------
# ...
 6330.00000   10.17490   71.63430  120.46000  166.28460
 6330.50000   10.17490   71.24400  120.13800  177.94860
 6331.00000   10.17770   70.72900  118.76080  171.04580
 6331.50000   10.18490   69.82000  116.92360  154.09570
 6332.00000   10.19200   68.86340  114.97340  139.77550
 6332.50000   10.19920   67.99930  114.00310  110.28570
 6333.00000   10.21280   67.78850  113.18980   94.82880
 6333.50000   10.21280   67.74090  113.21910   80.17400
 6334.00000   10.21890   67.78440  113.44800   83.12490
 6334.50000   10.23690   67.71170  113.78290   88.51510
 6335.00000   10.26590   66.80980  114.27040   99.61130
 6335.50000   10.27060   66.17900  114.88630  105.47110
 6336.00000   10.24610   66.14300  114.90020   94.78330
 6336.50000   10.29930   66.13300  114.70310   83.20330
 6337.00000   10.28520   66.37490  114.69590   64.62170
 6337.50000   10.32530   66.65890  114.99430   63.49330
 6338.00000   10.37490   66.99540  115.13080   61.85420
 6338.50000   10.39330   66.94400  115.55560   60.52540
 6339.00000   10.42340   67.71090  116.37290   58.78930
 6339.50000   10.47360   68.66200  117.67450   58.98640
 6340.00000   10.49990   70.05320  118.47500   64.26760
 6340.50000   10.51040   70.38290  118.78890   67.20220
 6341.00000   10.52080   70.53250  119.38260   67.57130
 6341.50000   10.53130   70.36230  119.64790   68.47010
 6342.00000   10.54180   70.07870  119.91320   74.20640
 6342.50000   10.55220   70.17210  119.62830   78.21980
 6343.00000   10.56270   70.64150  119.58340   77.84140
 6343.50000   10.58630   70.82560  119.42660   74.52970
 6344.00000   10.61580   71.36790  119.54360   65.46050
 6344.50000   10.63370   72.15520  119.65500   60.35840
 6345.00000   10.66410   72.79250  120.57770   56.36440
 6345.50000   10.72200   72.17360  122.40520   57.50490
 6346.00000   10.72220   72.70590  123.81120   56.49980
 6346.50000   10.72300   74.32570  124.08230   55.66120
 6347.00000   10.72300   74.51380  125.18360   55.75650
 6347.50000   10.73400   74.22880  125.88440   56.68770
 6348.00000   10.74710   74.22880  126.61800   57.41340
 6348.50000   10.76010   74.28400  126.62570   58.13920
 6349.00000   10.77310   74.10860  126.63530   58.68290
 6349.50000   10.78620   74.05510  126.69510   58.19170
 6350.00000   10.79920   74.24120  126.48440   61.05360
 6350.50000   10.82800   74.37290  126.23480   66.65300
 6351.00000   10.85470   74.43000  126.36990   71.57110
 6351.50000   10.85470   74.58700  126.70840   72.92210
 6352.00000   10.85470   74.70930  126.90810   72.06950
 6352.50000   10.85470   74.88590  127.09660   75.22910
 6353.00000   10.85470   75.00550  127.23600   74.32630
 6353.50000   10.85470   74.94940  127.23600   72.06950
 6354.00000   10.85470   74.94880  127.36950   71.91500
 6354.50000   10.85470   74.79040  127.59200   75.08560
 6355.00000   10.87420   74.70930  127.91770   77.09910
 6355.50000   10.89490   74.73530  128.08390   77.78690
 6356.00000   10.89490   74.48890  128.37600   74.34420
 6356.50000   10.89490   73.94760  128.45430   69.06030
 6357.00000   10.89490   73.36050  127.82370   65.25890
 6357.50000   10.89490   73.03770  126.68530   65.96090
 6358.00000   10.88580   72.84960  124.94820   70.96760
 6358.50000   10.86330   72.60670  123.96410   75.83090
 6359.00000   10.84080   72.37070  123.15110   71.53500
 6359.50000   10.81830   72.48820  123.14650   65.36340
 6360.00000   10.79570   72.53000  123.14180   62.72770
 6360.50000   10.75660   72.70450  123.25260   65.44930
 6361.00000   10.73510   73.18650  123.72620   71.78020
 6361.50000   10.70650   73.56690  123.83200   75.25160
 6362.00000   10.69180   74.00270  124.13230   77.03460
 6362.50000   10.66720   74.83660  124.43270   73.77470
 6363.00000   10.63630   75.23010  125.44510   72.82180
 6363.50000   10.61400   75.39120  126.45840   73.90510
 6364.00000   10.59560   75.61040  126.73460   75.48490
 6364.50000   10.58690   75.47460  126.39500   76.09570
 6365.00000   10.54980   75.13350  125.56910   73.66100
 6365.50000   10.53380   74.79940  125.36290   71.98290
 6366.00000   10.52340   73.69870  125.06310   74.50920
 6366.50000   10.49760   72.39650  124.61010   77.00450
 6367.00000   10.47170   71.25520  123.73880   75.24550
 6367.50000   10.43750   70.48920  123.58720   72.12870
 6368.00000   10.37250   70.33400  122.18000   67.20180
 6368.50000   10.32090   70.02190  121.12870   63.64380
 6369.00000   10.29210   70.21210  120.37780   66.95390
 6369.50000   10.26330   70.44240  119.92720   68.00710
 6370.00000   10.23560   70.47250  120.02730   73.14930
 6370.50000   10.20470   70.95300  119.71370   75.41430
 6371.00000   10.15920   71.34100  119.93150   77.18500
 6371.50000   10.15260   71.20950  120.30350   76.28230
 6372.00000   10.12750   70.69640  120.28750   68.94170
 6372.50000   10.10240   70.26780  120.48160   69.45430
 6373.00000   10.08070   69.83090  119.70410   70.73330
 6373.50000   10.04420   69.30290  118.40800   71.23550
 6374.00000   10.01300   68.76030  117.87140   70.94570
 6374.50000    9.99210   68.15620  117.07370   71.34590
 6375.00000    9.96200   67.58850  116.25580   71.46760
 6375.50000    9.93190   66.98990  115.58390   70.79010
 6376.00000    9.90980   66.00820  114.92110   73.88720
 6376.50000    9.90620   64.73840  113.40480   83.27710
 6377.00000    9.86510   64.67590  112.40940   90.12450
 6377.50000    9.83270   64.57390  112.10470   79.52590
 6378.00000    9.81670   64.32950  111.82150   70.00850
 6378.50000    9.80060   64.76010  111.48730   66.35200
 6379.00000    9.78450   65.89300  111.02630   86.21250
 6379.50000    9.76340   66.38920  111.76720  100.56650
 6380.00000    9.74990   67.02090  112.24050  104.87000
 6380.50000    9.73130   67.59660  112.85210  104.67340
 6381.00000    9.72630   68.01120  113.33310  108.70720
 6381.50000    9.72130   68.92760  114.07000  111.00580
 6382.00000    9.71630   70.24490  115.11520  108.48640
 6382.50000    9.71130   69.84240  115.51480  105.17090
 6383.00000    9.71290   69.24090  115.42170  112.39300
 6383.50000    9.71460   68.73210  114.92110  127.05100
 6384.00000    9.71630   67.32270  112.84360  137.82060
 6384.50000    9.73130   64.46690  110.46570  131.95260
 6385.00000    9.73130   62.84490  109.51450  109.68470
 6385.50000    9.72130   61.62540  108.83870   82.90300
 6386.00000    9.74280   61.05990  108.37390   69.51210
 6386.50000    9.75400   60.51560  107.68560   69.36160
 6387.00000    9.77150   61.45230  107.09000   82.05550
 6387.50000    9.77880   62.24420  107.60510   88.92130
 6388.00000    9.81520   64.05020  108.80440   97.22100
 6388.50000    9.85170   65.54820  109.86490  104.26820
 6389.00000    9.86040   68.13130  112.47310  116.00400
 6389.50000    9.89180   70.17380  114.47050  138.57290
 6390.00000    9.92920   71.90750  117.72200  148.19940
 6390.50000    9.94570   72.87400  118.51840  155.71600
 6391.00000    9.98920   73.43390  118.55350  149.39810
 6391.50000   10.04050   73.39400  118.76070  145.44860
 6392.00000   10.02630   72.51660  118.74710  135.61550
 6392.50000   10.10510   71.49540  118.07490  126.76810
 6393.00000   10.11530   68.61190  115.75710  112.62120
 6393.50000   10.16910   67.23020  114.57060  104.19440
 6394.00000   10.18470   65.83450  112.48090   93.15740
 6394.50000   10.20040   65.24780  111.06640   86.43330
 6395.00000   10.23510   64.23270  109.63080   75.89240
 6395.50000   10.26290   63.84210  108.85110   66.57010
 6396.00000   10.30140   63.67790  108.28300   61.01720
 6396.50000   10.34490   63.98940  108.73970   56.98390
 6397.00000   10.39590   64.33170  109.86490   57.35320
 6397.50000   10.44690   65.24780  111.88820   57.79230
 6398.00000   10.48970   65.96190  113.37090   59.83760
 6398.50000   10.54820   66.92990  114.48700   60.65960
 6399.00000   10.59280   67.80690  115.57240   62.87730
 6399.50000   10.64460   68.45130  116.75600   66.20960
 6400.00000   10.67210   69.31300  119.70450   69.11430
 6400.50000   10.70510   70.32220  120.62200   72.33740
 6401.00000   10.73810   70.74450  121.25480   72.98720
