~Version ---------------------------------------------------
VERS.   2.0 : CWLS log ASCII Standard -VERSION 2.0
WRAP.    NO : One line per depth step
DLM . SPACE : Column Data Section Delimiter
~Well ------------------------------------------------------
STRT .FT                4900.0 : START DEPTH
STOP .FT               11953.0 : STOP DEPTH
STEP .FT                   0.5 : STEP
NULL .                -9999.25 : NULL VALUE
COMP .                         : COMPANY
WELL .                         : WELL
FLD  .                         : FIELD
LOC  .                         : LOCATION
PROV .                         : PROVINCE
CNTY .                         : COUNTY
STAT .                         : STATE
CTRY .                         : COUNTRY
SRVC .                         : SERVICE COMPANY
DATE .                         : DATE
UWI  .                         : UNIQUE WELL ID
API  .                         : API NUMBER
SLAT .WGS84 1.6357003682451001 : SURFACE LATITUDE
SLON .WGS84  7.946482497978991 : SURFACE LONGITUDE
DATUM.F                    nan : DEPTH DATUM ELEV
~Curve Information -----------------------------------------
DEPT.FT    : 
CALS.IN    : CALIPER FROM SONIC LOG
DTCO.US/F  : DELTA-T COMPRESSIONAL
DTSM.US/F  : DELTA-T SHEAR
GRS .GAPI  : GAMMA RAY FROM SONIC LOG
~Params ----------------------------------------------------
~Other -----------------------------------------------------
~ASCII -----------------------------------------------------
# ...
 5829.50000   10.51370   76.19620  144.85370   56.03200
 5830.00000   10.84140   76.93080  148.16700   57.17410
 5830.50000    9.24980   77.23780  151.85010   56.42180
 5831.00000   10.09910   77.05930  151.90530   57.32460
 5831.50000   10.95240   77.61940  150.99980   55.88870
 5832.00000   11.24000   77.59950  149.51300   54.29400
 5832.50000   11.38570   77.95320  147.32460   52.79940
 5833.00000   11.46990   77.78870  145.85860   52.55500
 5833.50000   11.77090   77.67390  146.35920   51.59570
 5834.00000   12.08070   78.83710  146.11910   51.16020
 5834.50000   12.12530   80.08410  147.24540   49.98220
 5835.00000   12.16990   80.05400  148.04640   51.72750
 5835.50000   12.12540   79.90390  148.00890   49.92500
 5836.00000   12.07790   80.13810  147.94630   52.54510
 5836.50000   12.07850   80.56460  148.14650   53.22730
 5837.00000   12.06460   80.25060  147.69600   54.42970
 5837.50000   12.05060   79.93660  146.84500   50.69270
 5838.00000   12.03170   79.87380  146.64470   48.90710
 5838.50000   12.03800   79.82380  146.74480   46.64200
 5839.00000   12.04600   79.72360  147.16200   46.11790
 5839.50000   12.07920   79.57720  147.54580   46.57610
 5840.00000   12.05760   79.29560  146.31430   47.25110
 5840.50000   12.01370   79.03280  145.49330   47.80960
 5841.00000   11.96740   78.84880  145.49330   46.04020
 5841.50000   11.91100   78.98020  145.64350   48.45090
 5842.00000   11.87330   79.03280  145.41700   49.45210
 5842.50000   11.83590   79.03280  144.73800   49.98080
 5843.00000   11.82680   78.98350  144.48220   48.52600
 5843.50000   11.81770   79.02390  143.76000   47.88790
 5844.00000   11.79140   78.97600  143.65590   49.72640
 5844.50000   11.75050   78.79420  143.36960   50.95470
 5845.00000   11.72200   78.80040  143.01180   51.73740
 5845.50000   11.69890   78.14670  141.52850   49.29780
 5846.00000   11.50640   76.51970  139.25080   51.19100
 5846.50000   11.40640   75.69880  137.78400   52.27600
 5847.00000    9.79820   73.70430  138.23450   53.15690
 5847.50000   10.66680   71.27140  134.85320   52.96820
 5848.00000   10.77580   68.83840  130.93930   53.54930
 5848.50000   10.71170   66.62780  127.97210   52.22450
 5849.00000   10.72430   64.97580  121.58940   59.06320
 5849.50000   10.67590   64.34500  115.57190   66.77830
 5850.00000   10.58390   63.43100  111.64190   72.06990
 5850.50000   10.49370   61.94210  109.36430   71.61850
 5851.00000   10.41340   61.91200  108.47750   68.75980
 5851.50000   10.41340   62.00230  107.73750   65.44970
 5852.00000   10.35990   62.14420  107.59510   63.14260
 5852.50000   10.32980   62.25070  107.78740   61.02360
 5853.00000   10.29970   62.36430  108.86370   59.18580
 5853.50000   10.26960   62.21420  109.89260   60.03320
 5854.00000   10.23960   62.28010  109.98020   67.16310
 5854.50000   10.20480   62.21320  110.05040   76.33290
 5855.00000   10.17800   62.21090  109.95030   80.49560
 5855.50000   10.15120   61.94320  109.64990   75.07910
 5856.00000   10.12440   61.43320  109.24940   65.91810
 5856.50000   10.09760   61.49330  107.66230   58.20740
 5857.00000   10.07080   61.65550  107.21170   57.72160
 5857.50000   10.04410   61.73360  107.50720   65.44970
 5858.00000   10.01730   61.97300  108.29290   71.99160
 5858.50000    9.99050   62.00310  108.41320   75.91070
 5859.00000    9.98780   61.97390  108.69080   80.00610
 5859.50000    9.99110   62.03510  109.33220   84.83890
 5860.00000    9.99450   62.13290  109.84680   84.82260
 5860.50000    9.95520   62.14500  110.66590   84.10660
 5861.00000    9.92120   62.05500  111.42250   79.89380
 5861.50000    9.89180   61.97730  111.20090   75.68090
 5862.00000    9.90110   61.69030  110.38670   72.12470
 5862.50000    9.91650   62.02260  110.56290   71.46810
 5863.00000    9.93190   64.82230  110.34220   73.84060
 5863.50000    9.96200   65.61430  111.73580   70.76570
 5864.00000    9.99730   65.06760  114.92760   56.97300
 5864.50000   10.01220   66.29620  117.56180   50.17970
 5865.00000    9.96540   69.51300  119.78320   47.36450
 5865.50000    9.74920   70.83460  128.93990   48.44780
 5866.00000    8.76840   75.10270  137.25480   45.76960
 5866.50000    8.76840   75.94080  143.12910   43.36230
 5867.00000    8.95560   76.33610  143.51050   42.27900
 5867.50000   10.40000   76.84190  142.64280   50.70470
 5868.00000   10.71730   77.30010  145.29310   56.83590
 5868.50000   10.69430   77.53750  148.11130   60.69040
 5869.00000   10.70730   78.16350  150.31400   55.82030
 5869.50000   10.68420   79.31500  151.71570   51.30650
 5870.00000   10.73760   79.54500  153.12240   49.11020
 5870.50000   10.79100   79.97640  153.44270   49.12830
 5871.00000   10.84430   80.80660  153.20240   49.63040
 5871.50000   10.89770   82.01200  153.88410   48.75400
 5872.00000   10.95110   82.41380  154.94690   49.27840
 5872.50000   10.97510   82.55740  155.17010   49.65150
 5873.00000   10.82920   82.63890  155.92070   49.04960
 5873.50000   10.68330   82.57430  156.59280   47.77800
 5874.00000   10.67250   82.53350  156.44560   46.84410
 5874.50000   10.89820   82.39860  155.87060   46.64230
 5875.00000   11.00190   81.88800  156.03180   47.83440
 5875.50000   11.09550   81.10700  156.20620   51.30650
 5876.00000   11.17570   80.08520  154.82520   59.66780
 5876.50000   11.12220   79.42500  153.41770   62.29000
 5877.00000   10.58730   78.40370  152.33290   61.23680
 5877.50000    9.69120   77.02200  150.80830   57.32490
 5878.00000   10.19270   74.47400  147.35800   52.72320
 5878.50000   10.68090   73.29750  143.50960   50.40380
 5879.00000   10.70770   72.67700  138.56230   46.13930
 5879.50000   11.08210   71.69860  132.95340   44.27560
 5880.00000   11.16240   69.58130  128.09920   46.40610
 5880.50000   11.29610   67.17010  123.24490   49.50100
 5881.00000   11.37640   64.90960  118.88590   57.73330
 5881.50000   11.07320   63.50560  116.50800   67.29820
 5882.00000   10.65710   62.78460  114.18760   69.73780
 5882.50000   10.53760   61.28620  111.49170   69.36160
 5883.00000   10.55670   60.44190  109.66450   63.60660
 5883.50000   10.57190   60.00700  108.34600   61.83870
 5884.00000   10.59950   59.76890  107.83100   68.08170
 5884.50000   10.63410   59.90900  107.41180   78.38920
 5885.00000   10.66720   60.43900  107.41180   90.23120
 5885.50000   10.70370   60.86530  107.70610   91.68010
 5886.00000   10.76010   61.30090  108.22530   85.95770
 5886.50000   10.81640   61.42880  108.47740   83.20390
 5887.00000   10.87340   61.52050  108.54820   77.77870
 5887.50000   10.90890   60.82380  109.66450   75.53050
 5888.00000   10.97670   61.34900  110.85120   72.26800
 5888.50000   11.02440   61.57210  110.40060   69.37030
 5889.00000   11.14570   62.92570  113.59430   61.83870
 5889.50000   11.29130   66.05700  114.97100   54.31570
 5890.00000   11.40290   65.03580  117.92470   50.58580
 5890.50000   11.48190   68.73210  121.47900   50.78450
 5891.00000   11.56470   71.73570  127.98690   52.50990
 5891.50000   11.60630   73.11740  129.93930   54.91720
 5892.00000   11.74780   74.64610  132.94040   57.33680
 5892.50000   11.92150   75.50030  136.09670   60.08680
 5893.00000   12.10170   77.26120  140.28700   62.24020
 5893.50000   12.18280   78.19180  141.33830   62.20800
 5894.00000   12.26470   78.67240  144.26680   59.55240
 5894.50000   12.37940   79.05720  146.97750   54.91720
 5895.00000   12.46010   79.39500  147.51060   51.04170
 5895.50000   12.52040   79.51510  148.31890   50.08530
 5896.00000   12.55770   80.17640  150.61430   50.47580
 5896.50000   12.59670   80.88110  153.81820   50.05240
 5897.00000   12.67360   81.07700  154.95060   48.04350
 5897.50000   12.84750   81.13240  155.13770   46.71500
 5898.00000   12.74000   80.89710  155.15040   46.21880
 5898.50000   12.55270   80.36390  154.89450   48.89890
 5899.00000   12.67850   79.83870  153.91830   51.90810
 5899.50000   13.03370   79.43700  151.86580   58.82910
 5900.00000   13.19190   79.78830  149.21000   62.02980
 5900.50000   13.34240   80.08410  146.90490   65.96570
