~Version ---------------------------------------------------
VERS.   2.0 : CWLS log ASCII Standard -VERSION 2.0
WRAP.    NO : One line per depth step
DLM . SPACE : Column Data Section Delimiter
~Well ------------------------------------------------------
STRT .FT                4900.0 : START DEPTH
STOP .FT               11953.0 : STOP DEPTH
STEP .FT                   0.5 : STEP
NULL .                -9999.25 : NULL VALUE
COMP .                         : COMPANY
WELL .                         : WELL
FLD  .                         : FIELD
LOC  .                         : LOCATION
PROV .                         : PROVINCE
CNTY .                         : COUNTY
STAT .                         : STATE
CTRY .                         : COUNTRY
SRVC .                         : SERVICE COMPANY
DATE .                         : DATE
UWI  .                         : UNIQUE WELL ID
API  .                         : API NUMBER
SLAT .WGS84 1.6357003682451001 : SURFACE LATITUDE
SLON .WGS84  7.946482497978991 : SURFACE LONGITUDE
DATUM.F                    nan : DEPTH DATUM ELEV
~Curve Information -----------------------------------------
DEPT.FT    : 
CALS.IN    : CALIPER FROM SONIC LOG
DTCO.US/F  : DELTA-T COMPRESSIONAL
DTSM.US/F  : DELTA-T SHEAR
GRS .GAPI  : GAMMA RAY FROM SONIC LOG
~Params ----------------------------------------------------
~Other -----------------------------------------------------
~ASCII -----------------------------------------------------
# ...
 8618.00000    8.86240   57.54180  102.62200   18.78600
 8618.50000    8.92720   57.13790  103.04650   20.31190
 8619.00000    8.96780   57.88450  103.85750   22.00610
 8619.50000    8.91870   60.67270  104.68410   25.12660
 8620.00000    8.85860   62.76240  105.72710   30.78440
 8620.50000    8.82350   64.04640  107.06150   39.57070
 8621.00000    8.78850   65.96870  109.23080   47.09370
 8621.50000    8.78850   67.71080  111.86740   52.75390
 8622.00000    8.81030   73.35770  114.07000   57.18290
 8622.50000    8.91970   74.71740  116.97360   59.87690
 8623.00000    8.98170   75.56990  119.80050   66.65340
 8623.50000    8.94420   77.08220  123.28120   74.17630
 8624.00000    8.96650   80.32610  126.46670   83.19970
 8624.50000    8.95610   81.60410  128.68780   93.01440
 8625.00000    8.90600   82.08930  130.79030   90.97440
 8625.50000    8.84860   83.51000  133.41850   87.02370
 8626.00000    8.83770   85.13190  135.82770   81.13760
 8626.50000    8.95430   86.39350  137.19810   86.11330
 8627.00000    8.99410   87.02420  138.72990   91.61880
 8627.50000    9.01490   87.63640  139.30040   91.73710
 8628.00000    8.98560   88.34870  139.75270   86.06340
 8628.50000    8.95640   88.97660  139.75510   85.27160
 8629.00000    8.91070   89.51720  139.83480   92.17280
 8629.50000    8.90380   89.96540  140.90260   97.14150
 8630.00000    8.90740   89.88060  141.96120   94.94220
 8630.50000    8.95010   89.72800  143.27350   94.26780
 8631.00000    9.01890   89.60240  143.47560   96.44430
 8631.50000    9.10160   89.47670  143.27730  104.35410
 8632.00000    9.06320   89.34630  142.33430  106.19830
 8632.50000    9.01010   89.41140  141.58230  101.24400
 8633.00000    9.00940   89.73110  141.25490   94.93970
 8633.50000    8.91380   89.85080  141.79940   89.67360
 8634.00000    8.90960   89.79240  141.58530   88.11430
 8634.50000    8.93030   89.85300  142.03800   88.72070
 8635.00000    8.98200   90.00610  141.97200   94.48830
 8635.50000    9.02320   90.17470  141.86100   95.99290
 8636.00000    9.02320   90.26720  141.75000   97.57380
 8636.50000    9.02320   90.24820  142.06320   97.82850
 8637.00000    8.90950   90.09470  141.87730   94.03690
 8637.50000    8.81860   90.01120  141.79350   90.00880
 8638.00000    8.85800   89.68170  141.93390   89.02990
 8638.50000    8.92030   89.28720  141.08660   93.61930
 8639.00000    8.98260   88.83210  140.86030   95.34450
 8639.50000    8.98410   88.58980  140.57690   95.34380
 8640.00000    8.98530   88.28580  140.17150   90.76100
 8640.50000    8.93810   88.31490  140.70050   88.25930
 8641.00000    8.89100   88.13290  140.70610   88.86110
 8641.50000    8.86270   88.12660  140.35230   86.21310
 8642.00000    8.89940   88.56110  141.03960   82.21200
 8642.50000    8.97820   88.84630  141.36220   82.82560
 8643.00000    8.98040   89.29130  141.89390   88.92130
 8643.50000    8.97540   89.56340  142.53040   92.12200
 8644.00000    8.95950   89.90930  143.16000   93.55950
 8644.50000    8.91140   90.58360  144.10640   96.05740
 8645.00000    8.86870   90.84490  143.78730  101.36130
 8645.50000    8.88750   90.74640  144.05110   97.14930
 8646.00000    8.94680   90.68790  144.13640   95.24060
 8646.50000    9.00610   90.84720  144.11730   90.33400
 8647.00000    9.06530   90.77820  143.70600   94.93970
 8647.50000    9.07720   90.49490  143.16420   98.02620
 8648.00000    9.02770   90.11350  142.84990   99.32660
 8648.50000    8.95610   89.60740  143.48150   96.44430
 8649.00000    8.90620   89.78440  143.32260   94.28770
 8649.50000    8.84940   89.91910  142.70270   95.34510
 8650.00000    8.94280   90.25630  142.72080   99.92900
 8650.50000    9.02320   91.39950  142.85490  104.93660
 8651.00000    9.02820   91.52970  143.10520  107.39170
 8651.50000    8.99720   91.80060  144.18650  105.80640
 8652.00000    8.95710   92.43430  144.78260  103.59870
 8652.50000    8.94090   92.50860  145.02160   99.87470
 8653.00000    8.83140   91.13190  145.25830  100.88840
 8653.50000    8.79850   90.81630  145.42400  103.47820
 8654.00000    8.87280   91.16990  143.75250  109.18720
 8654.50000    8.95080   89.87770  143.11240  108.93670
 8655.00000    8.97930   89.15680  142.85490  100.97900
 8655.50000    9.02880   88.44330  141.60340   86.91340
 8656.00000    8.94440   87.59430  140.92960   81.18060
 8656.50000    8.94110   87.00110  140.55210   84.92550
 8657.00000    8.91350   86.03300  138.80070   88.26550
 8657.50000    8.86450   85.52380  137.08790   91.47520
 8658.00000    8.90670   85.52930  138.13280   95.97360
 8658.50000    8.97180   85.69680  136.96230   96.62660
 8659.00000    8.98650   86.16610  136.94200   88.62040
 8659.50000    8.99450   86.03300  138.73730   77.31190
 8660.00000    9.00250   85.78340  137.68610   77.01520
 8660.50000    8.98210   85.76270  136.88060   85.30980
 8661.00000    8.98150   86.10680  136.85190   89.99620
 8661.50000    8.96180   86.29440  138.11520   88.76470
 8662.00000    8.91340   85.46760  137.41430   78.62580
 8662.50000    8.87470   85.60350  138.05800   77.41210
 8663.00000    8.94720   85.58250  138.04670   82.04550
 8663.50000    9.03820   85.13990  136.78260   89.52260
 8664.00000    9.06240   84.38700  136.35680   96.14280
 8664.50000    9.04000   84.28190  137.02960   91.55740
 8665.00000    8.96630   84.26330  138.07480   79.30010
 8665.50000    8.92790   84.44020  139.00520   73.45370
 8666.00000    8.98820   85.76270  139.45080   78.53520
 8666.50000    8.99370   86.28480  140.01350   84.40700
 8667.00000    9.05920   87.05430  140.14160   91.02720
 8667.50000    9.25680   86.69950  139.49190   94.55780
 8668.00000    9.08050   86.24330  140.01750   96.59950
 8668.50000    9.13760   86.51360  138.96220   98.24920
 8669.00000    9.10330   87.12850  139.64750   91.32810
 8669.50000    8.94870   87.29060  140.53110   84.10610
 8670.00000    8.93140   87.16540  141.38310   72.56150
 8670.50000    8.92880   87.22710  139.89730   69.46190
 8671.00000    8.97880   87.32460  139.73280   78.69010
 8671.50000    9.00880   87.71510  140.55210   87.71770
 8672.00000    8.99880   88.55610  140.15780   97.00530
 8672.50000    8.98880   89.52740  140.13300   95.40180
 8673.00000    8.83830   89.64390  140.71830   85.61120
 8673.50000    8.83830   89.60740  139.46670   82.32310
 8674.00000    8.89570   90.31870  135.98560   84.00030
 8674.50000    8.94390   91.11610  131.99090   88.38180
 8675.00000    8.94390   76.57850  129.17610   90.73280
 8675.50000    8.94390   50.83730  124.62710   83.80570
 8676.00000    8.88160   52.63940  120.07800   64.74970
 8676.50000    8.83590   53.73790  115.99820   43.48260
 8677.00000    8.79020   53.63060  109.63670   30.54320
 8677.50000    8.82160   53.72080  102.10550   18.27110
 8678.00000    8.83300   53.78080   98.35510   14.72880
 8678.50000    8.86170   53.65070   97.59760   14.60530
 8679.00000    8.83930   53.63060   96.59010   15.94140
 8679.50000    8.82380   53.99770   96.21340   16.25240
 8680.00000    8.79880   54.33060   95.72750   17.10810
 8680.50000    8.79370   54.56880   95.72090   17.83260
 8681.00000    8.83640   54.20330   96.23130   19.25870
 8681.50000    8.88880   53.47340   97.44970   19.12500
 8682.00000    8.89080   54.43480   98.49690   16.55490
 8682.50000    8.90120   55.43380   99.62210   15.54320
 8683.00000    8.83380   57.25800  100.65360   15.04590
 8683.50000    8.76500   59.78800  103.06700   15.04590
 8684.00000    8.75200   90.03660  109.44360   15.94860
 8684.50000    8.78310   98.33630  115.61170   25.65320
 8685.00000    8.85660   98.24620  119.60800   49.25430
 8685.50000    8.91770   98.39640  122.63030   77.18550
 8686.00000    8.98140   90.07630  131.87430  102.64190
 8686.50000    8.97820   84.44200  138.09910  108.02970
 8687.00000    8.89050   85.44970  140.21590  105.14330
 8687.50000    8.85320   86.15020  141.55230  104.54630
 8688.00000    8.83830   86.70970  142.97100  102.18980
 8688.50000    8.84840   86.72130  144.01180  101.46680
 8689.00000    8.90180   86.07930  143.92600  100.35620
