~Version ---------------------------------------------------
VERS.   2.0 : CWLS log ASCII Standard -VERSION 2.0
WRAP.    NO : One line per depth step
DLM . SPACE : Column Data Section Delimiter
~Well ------------------------------------------------------
STRT .FT                4900.0 : START DEPTH
STOP .FT               11953.0 : STOP DEPTH
STEP .FT                   0.5 : STEP
NULL .                -9999.25 : NULL VALUE
COMP .                         : COMPANY
WELL .                         : WELL
FLD  .                         : FIELD
LOC  .                         : LOCATION
PROV .                         : PROVINCE
CNTY .                         : COUNTY
STAT .                         : STATE
CTRY .                         : COUNTRY
SRVC .                         : SERVICE COMPANY
DATE .                         : DATE
UWI  .                         : UNIQUE WELL ID
API  .                         : API NUMBER
SLAT .WGS84 1.6357003682451001 : SURFACE LATITUDE
SLON .WGS84  7.946482497978991 : SURFACE LONGITUDE
DATUM.F                    nan : DEPTH DATUM ELEV
~Curve Information -----------------------------------------
DEPT.FT    : 
CALS.IN    : CALIPER FROM SONIC LOG
DTCO.US/F  : DELTA-T COMPRESSIONAL
DTSM.US/F  : DELTA-T SHEAR
GRS .GAPI  : GAMMA RAY FROM SONIC LOG
~Params ----------------------------------------------------
~Other -----------------------------------------------------
~ASCII -----------------------------------------------------
# ...
 6759.00000    9.53070   65.54820  117.04270   65.75060
 6759.50000    9.55480   66.05880  118.75840   56.05240
 6760.00000    9.58490   66.05420  120.76090   56.08170
 6760.50000    9.61100   65.99560  122.76330   57.80450
 6761.00000    9.61100   65.93700  124.26520   62.46320
 6761.50000    9.62400   65.93700  123.65020   69.06070
 6762.00000    9.63480   65.78680  122.56310   75.31900
 6762.50000    9.67790   65.79860  121.71210   76.88460
 6763.00000    9.74470   65.77260  121.46180   73.21740
 6763.50000    9.77150   65.50360  121.31160   70.01980
 6764.00000    9.78340   65.04810  121.16140   72.88340
 6764.50000    9.81160   64.80490  118.65840   85.00940
 6765.00000    9.83950   64.81740  114.97890   89.86280
 6765.50000    9.87180   65.16560  111.23690   89.24150
 6766.00000    9.92190   65.64590  108.57740   77.93760
 6766.50000    9.94870   66.11890  107.79520   69.17520
 6767.00000    9.99400   66.19360  110.58610   66.40310
 6767.50000   10.03840   65.98520  114.48670   65.83460
 6768.00000   10.07520   65.69840  117.65720   68.71220
 6768.50000   10.08140   65.72850  115.02900   67.37630
 6769.00000   10.07940   65.69840  112.80130   71.46810
 6769.50000   10.11250   65.75630  115.95510   68.30840
 6770.00000   10.12300   65.86890  119.60950   65.46240
 6770.50000   10.14910   66.04010  126.56790   57.42700
 6771.00000   10.17530   66.21130  134.21720   55.06770
 6771.50000   10.20140   66.46650  136.37980   55.97040
 6772.00000   10.22760   66.82310  126.16110   64.74720
 6772.50000   10.23280   67.13840  119.95990   71.76520
 6773.00000   10.23280   67.13840  121.41160   70.22740
 6773.50000   10.23280   66.86800  120.26020   66.05110
 6774.00000   10.23280   65.81850  135.02810   58.64440
 6774.50000   10.23280   65.18780  134.82790   55.73010
 6775.00000   10.23280   64.01630  134.22720   55.49930
 6775.50000   10.23280   63.80050  101.88800   55.97040
 6776.00000   10.22620   63.65420  111.19930   54.98540
 6776.50000   10.21280   63.71420  129.77180   55.46750
 6777.00000   10.20720   64.01460  132.07460   61.23650
 6777.50000   10.20020   64.49520  136.79900   65.14840
 6778.00000   10.19320   66.03060  141.87640   68.82730
 6778.50000   10.18630   67.48820  150.54700   73.87500
 6779.00000   10.19510   68.69000  155.55300   82.70470
 6779.50000   10.07900   69.12500  158.70690   81.65360
 6780.00000   10.16530   69.56240  156.43410   75.98220
 6780.50000   10.21280   69.93180  148.82490   70.26400
 6781.00000   10.22690   69.93180  142.68740   67.55570
 6781.50000   10.23250   69.93180  143.88890   61.46860
 6782.00000   10.24430   69.12080  143.23810   55.25520
 6782.50000   10.31670   68.55150  135.24510   57.97350
 6783.00000   10.32750   67.58720  131.42380   63.57900
 6783.50000   10.24830   65.93870  137.88160   67.67010
 6784.00000   10.15480   65.32590  144.08910   64.54410
 6784.50000   10.10470   65.34140  150.29670   58.97960
 6785.00000   10.10470   65.09160  149.57080   55.82000
 6785.50000   10.12060   65.42740  148.19410   55.51080
 6786.00000   10.13660   65.97320  147.74360   58.92300
 6786.50000   10.15250   66.93510  151.40880   66.95390
 6787.00000   10.16850   67.68590  160.95270   70.33790
 6787.50000   10.17240   68.15960  122.82070   70.75870
 6788.00000   10.16620   68.87550  120.66070   68.64120
 6788.50000   10.16000   70.05190  127.06140   70.49530
 6789.00000   10.15380   70.98300  133.46220   67.66230
 6789.50000   10.16080   71.01310  136.32280   61.23650
 6790.00000   10.16480   70.68640  134.82110   52.01690
 6790.50000   10.16480   70.40490  135.82230   50.92920
 6791.00000   10.15480   70.05200  135.02130   54.66860
 6791.50000   10.15480   67.60920  133.56950   60.63460
 6792.00000   10.15480   65.93020  130.63600   67.06820
 6792.50000   10.10460   64.88740  126.16060   64.95060
 6793.00000   10.01590   64.06860  122.28090   54.91720
 6793.50000    9.94500   63.70120  118.40120   49.50460
 6794.00000    9.92680   63.60470  113.57030   47.32870
 6794.50000    9.90150   63.73700  110.29140   49.65120
 6795.00000    9.89180   64.07470  114.94700   52.55250
 6795.50000    9.91760   64.43660  120.04290   58.30570
 6796.00000    9.89400   64.99640  123.69360   60.18330
 6796.50000    9.83970   65.78850  119.48850   67.04980
 6797.00000    9.79000   67.00280  120.89020   67.80650
 6797.50000    9.76310   68.32760  122.75920   67.02170
 6798.00000    9.78720   68.22150  122.75920   67.94020
 6798.50000    9.73230   68.52570  122.42540   72.06950
 6799.00000    9.73330   68.63480  124.96180   78.39860
 6799.50000    9.69120   68.13140  125.16210   80.27440
 6800.00000    9.71800   67.72700  124.22750   77.63630
 6800.50000    9.67900   67.20190  123.76030   74.97820
 6801.00000    9.66660   66.53430  123.49330   76.08180
 6801.50000    9.63390   66.26010  122.02480   77.71770
 6802.00000    9.59480   66.18750  120.35620   77.45420
 6802.50000    9.55040   66.46450  119.42160   75.98120
 6803.00000    9.49940   66.98990  118.55400   75.22890
 6803.50000    9.46350   68.07130  121.49080   83.70470
 6804.00000    9.42430   69.46370  117.01870  107.42690
 6804.50000    9.41030   70.65440  117.61950  150.15700
 6805.00000    9.38250   71.76810  118.95450  194.68600
 6805.50000    9.36230   72.22710  119.06410  222.97210
 6806.00000    9.34220   72.29180  119.17670  241.70410
 6806.50000    9.33010   71.85580  118.88770  244.18660
 6807.00000    9.31990   71.43530  117.57430  229.52470
 6807.50000    9.34510   69.39090  116.06420  180.24200
 6808.00000    9.33510   65.91600  114.52100  150.60180
 6808.50000    9.34510   64.50870  112.97790   81.99950
 6809.00000    9.37020   63.61960  112.31360   66.35190
 6809.50000    9.35430   63.01440  113.69820   59.03120
 6810.00000    9.38220   62.32390  110.56750   57.78010
 6810.50000    9.39620   62.15830  108.44360   57.78340
 6811.00000    9.41030   62.04690  111.35860   60.63460
 6811.50000    9.43950   61.80900  114.21540   64.86470
 6812.00000    9.47600   61.79460   98.86350   66.77850
 6812.50000    9.51540   61.19820  103.60260   64.81220
 6813.00000    9.59480   59.95810   93.60200   60.63460
 6813.50000    9.69340   60.09910   88.83960   56.53330
 6814.00000    9.58470   61.31920   92.65600   53.57000
 6814.50000    9.54690   59.17880   90.45340   55.21100
 6815.00000    9.55080   59.17880  113.14750   56.32870
 6815.50000    9.55080   59.50490  118.95460   55.90350
 6816.00000    9.56260   59.80960  100.93510   53.86400
 6816.50000    9.57440   60.38020   93.32350   54.10030
 6817.00000    9.58620   60.89090  107.40720   56.42180
 6817.50000    9.59700   61.00770  103.66940   59.45240
 6818.00000    9.62100   61.16120  125.96300   60.27050
 6818.50000    9.63100   62.01050  134.47330   59.85160
 6819.00000    9.63500   62.72480  133.85590   58.02310
 6819.50000    9.64510   63.80610  133.63890   54.63820
 6820.00000    9.65510   64.34080  137.04310   54.62780
 6820.50000    9.66510   65.65270  133.16660   58.52820
 6821.00000    9.67430   65.64690  127.26200   66.05110
 6821.50000    9.69120   66.97820  121.35750   71.38220
 6822.00000    9.72230   67.58900  122.35870   74.56110
 6822.50000    9.70820   67.55890  121.95820   75.13000
 6823.00000    9.69400   67.97940  125.20660   72.50400
 6823.50000    9.70570   68.08160  128.89990   71.61810
 6824.00000    9.70810   68.30980  129.74850   70.26340
 6824.50000    9.70420   68.54880  130.30160   69.37670
 6825.00000    9.69120   68.64520  132.18000   68.98540
 6825.50000    9.66180   68.38710  138.90240   73.87500
 6826.00000    9.63240   67.90470  139.98000   96.59310
 6826.50000    9.65110   67.47350  135.64140  118.35040
 6827.00000    9.63540   67.10210  134.77370  133.45640
 6827.50000    9.63270   66.92200  132.98100  124.49340
 6828.00000    9.64400   66.64660  130.16810  104.33750
 6828.50000    9.65530   66.46790  128.81090   92.53180
 6829.00000    9.66660   66.23180  126.69720   85.30980
 6829.50000    9.67150   65.54820  123.69360   83.45270
 6830.00000    9.67310   64.85580  123.02610   79.14150
