~Version ---------------------------------------------------
VERS.   2.0 : CWLS log ASCII Standard -VERSION 2.0
WRAP.    NO : One line per depth step
DLM . SPACE : Column Data Section Delimiter
~Well ------------------------------------------------------
STRT .FT                4900.0 : START DEPTH
STOP .FT               11953.0 : STOP DEPTH
STEP .FT                   0.5 : STEP
NULL .                -9999.25 : NULL VALUE
COMP .                         : COMPANY
WELL .                         : WELL
FLD  .                         : FIELD
LOC  .                         : LOCATION
PROV .                         : PROVINCE
CNTY .                         : COUNTY
STAT .                         : STATE
CTRY .                         : COUNTRY
SRVC .                         : SERVICE COMPANY
DATE .                         : DATE
UWI  .                         : UNIQUE WELL ID
API  .                         : API NUMBER
SLAT .WGS84 1.6357003682451001 : SURFACE LATITUDE
SLON .WGS84  7.946482497978991 : SURFACE LONGITUDE
DATUM.F                    nan : DEPTH DATUM ELEV
~Curve Information -----------------------------------------
DEPT.FT    : 
CALS.IN    : CALIPER FROM SONIC LOG
DTCO.US/F  : DELTA-T COMPRESSIONAL
DTSM.US/F  : DELTA-T SHEAR
GRS .GAPI  : GAMMA RAY FROM SONIC LOG
~Params ----------------------------------------------------
~Other -----------------------------------------------------
~ASCII -----------------------------------------------------
# ...
 10964.00000    8.91770   85.29720  135.59610   92.15440
 10964.50000    8.91960   85.80710  135.80940   95.26380
 10965.00000    8.92150   86.04500  136.31550   96.69880
 10965.50000    8.92340   86.17170  137.29820   95.08960
 10966.00000    8.92530   86.69360  138.39950   95.51840
 10966.50000    8.92720   87.74290  138.63180   98.12880
 10967.00000    8.92910   87.37180  139.11640   97.11650
 10967.50000    8.93100   85.00750  138.51370   93.65340
 10968.00000    8.93300   83.79590  136.89770   88.65290
 10968.50000    8.93490   88.85910  135.18930   87.06780
 10969.00000    8.93680   78.59370  133.57680   87.80950
 10969.50000    8.93870   74.79940  132.04180   91.51390
 10970.00000    8.95040   72.61230  130.60010   85.79440
 10970.50000    8.94010   69.50250  128.11890   75.68090
 10971.00000    8.94070   67.05010  125.46800   65.91450
 10971.50000    8.94120   67.05010  121.77940   67.36700
 10972.00000    8.94180   68.08970  120.86180   77.72400
 10972.50000    8.94240   69.99360  119.94450   86.41370
 10973.00000    8.94300   71.97600  119.37650   85.31030
 10973.50000    8.94360   74.31880  120.88570   76.31280
 10974.00000    8.94410   76.31540  122.30190   70.41480
 10974.50000    8.94470   77.36750  125.30870   74.47720
 10975.00000    8.94530   77.89320  130.89040   95.30270
 10975.50000    8.98310   79.48510  132.89290  109.68470
 10976.00000    8.97970   82.07170  134.81810  122.80200
 10976.50000    8.97640   83.54000  135.07150  128.64250
 10977.00000    8.97300   84.39520  135.67840  120.36730
 10977.50000    8.96960   82.90540  136.01950  111.79110
 10978.00000    8.96620   82.32510  134.49630   99.18260
 10978.50000    8.96280   82.36860  133.09520   91.83090
 10979.00000    8.95940   81.76790  131.80820   87.70620
 10979.50000    8.95610   82.87930  130.55150   87.56100
 10980.00000    8.95270   81.10710  129.43870   86.39430
 10980.50000    8.94630   79.66530  128.28730   85.66430
 10981.00000    8.94000   73.74820  126.68530   86.21250
 10981.50000    8.94880   75.29930  124.74820   87.53850
 10982.00000    8.97010   75.86870  124.61750   87.46130
 10982.50000    8.98610   74.67930  123.86510   83.35380
 10983.00000    8.93760   75.12840  123.56220   72.40800
 10983.50000    8.93570   75.38800  123.90200   63.94470
 10984.00000    8.94720   75.89250  123.64710   68.30800
 10984.50000    8.98540   76.72170  123.84770   82.60150
 10985.00000    8.98620   77.71290  124.67320   89.98520
 10985.50000    8.98690   78.66460  125.64970   94.17400
 10986.00000    8.98770   79.71890  127.38620   92.26920
 10986.50000    8.98850   80.98690  130.66520   95.28770
 10987.00000    8.98860   82.18840  132.68060   96.14280
 10987.50000    8.98630   83.08950  134.59490  100.05470
 10988.00000    8.98400   83.57000  135.84640  103.76600
 10988.50000    8.98170   84.07120  137.52880  106.95430
 10989.00000    8.97950   84.87220  138.90010  110.60830
 10989.50000    8.97720   84.93190  140.14250  113.80060
 10990.00000    8.97490   85.04320  140.35270  114.88380
 10990.50000    8.97260   85.22250  140.51640  116.18450
 10991.00000    8.97030   85.34220  140.50080  114.69210
 10991.50000    8.96810   85.52240  139.74370  114.94260
 10992.00000    8.96580   85.80110  141.25800  113.38140
 10992.50000    8.96350   85.92660  141.33780  121.55890
 10993.00000    8.96120   85.88280  141.56890  139.17470
 10993.50000    8.95890   85.96390  141.35310  150.30840
 10994.00000    8.95660   86.43570  141.51830  149.84950
 10994.50000    8.95440   86.76590  142.10400  138.87380
 10995.00000    8.95210   86.64580  142.94800  124.59300
 10995.50000    8.94980   86.90410  142.64520  120.92340
 10996.00000    8.94750   86.79440  141.56010  130.58230
 10996.50000    8.94610   86.71740  141.25010  140.31820
 10997.00000    8.96620   86.66700  141.04980  138.73180
 10997.50000    8.96620   87.01360  141.50330  127.73980
 10998.00000    8.98850   87.41210  141.71010  114.44960
 10998.50000    8.98750   88.18740  142.49260  108.48100
 10999.00000    8.98650   88.21790  142.91580  120.53210
 10999.50000    8.91250   87.85470  143.35000  140.35400
 11000.00000    8.91760   87.98140  144.82440  158.08710
 11000.50000    8.96170   88.13700  145.70850  181.74670
 11001.00000    8.98630   88.34320  145.20310  159.98040
 11001.50000    8.98320   88.56180  145.45820  140.60350
 11002.00000    8.98660   88.57920  145.21800  119.79150
 11002.50000    8.97970   88.43600  143.84220  110.88800
 11003.00000    8.97280   86.92130  141.50340  103.65300
 11003.50000    8.96600   85.97300  140.00150  104.93750
 11004.00000    8.95910   88.58620  136.09680  110.41360
 11004.50000    8.93660   84.88800  131.38370  110.90520
 11005.00000    8.93650   71.20270  126.15540  103.06410
 11005.50000    8.92690   59.63720  120.92710   80.19440
 11006.00000    8.91080   53.63890  115.69890   60.37460
 11006.50000    8.88650   51.64150  110.47060   48.29720
 11007.00000    8.87660   53.54470  106.02290   38.06600
 11007.50000    8.86870   54.25470  101.73840   32.64950
 11008.00000    8.85140   55.96670   99.91910   27.68690
 11008.50000    8.85000   55.53760   98.76850   27.59330
 11009.00000    8.84860   55.57630   98.01070   29.82980
 11009.50000    8.86170   56.23710   99.09340   33.25130
 11010.00000    8.88100   58.18940  102.65570   38.13870
 11010.50000    8.88870   60.45210  105.98540   42.73010
 11011.00000    8.88870   64.21170  110.16540   49.17930
 11011.50000    8.88410   78.43820  114.12020   72.77530
 11012.00000    8.88320   87.65510  117.95480  107.60480
 11012.50000    8.90850   86.21330  122.48030  134.15860
 11013.00000    8.93580   87.68510  127.18600  142.18300
 11013.50000    8.94460   86.74470  130.38990  120.81790
 11014.00000    8.96310   85.76920  135.07840  108.36750
 11014.50000    8.98160   86.74280  137.38340  103.95090
 11015.00000    8.98750   87.63100  139.90140  104.24350
 11015.50000    8.98690   87.23120  141.10290  102.84740
 11016.00000    8.93850   86.60870  141.96990  103.90800
 11016.50000    8.93680   86.36340  140.86860  104.29520
 11017.00000    8.93680   86.32440  139.76720  100.95740
 11017.50000    8.93670   86.72180  140.01310   99.00150
 11018.00000    8.94260   86.84400  140.50630   98.50640
 11018.50000    8.98490   87.23450  140.97450  102.92530
 11019.00000    8.98350   87.72180  141.13380  111.48950
 11019.50000    8.98310   87.89140  141.56750  114.67860
 11020.00000    8.98500   88.08310  141.45330  113.06060
 11020.50000    8.98680   88.04550  141.31980  108.78130
 11021.00000    8.98870   87.89540  141.15290  104.56840
 11021.50000    8.94790   87.29460  141.04340  100.95740
 11022.00000    8.93670   86.24330  140.45450   95.23730
 11022.50000    8.93310   86.04740  139.96480   92.41480
 11023.00000    8.92890   85.87670  139.58600   91.64210
 11023.50000    8.92890   85.85280  139.30430   92.32200
 11024.00000    8.92090   85.73040  139.02260   99.03170
 11024.50000    8.93350   86.07740  138.91620  107.20500
 11025.00000    8.93290   86.33690  139.24180  112.69320
 11025.50000    8.93390   86.87120  139.50550  108.86730
 11026.00000    8.92100   87.49200  139.89710  104.93210
 11026.50000    8.91430   87.95880  140.75240  103.02950
 11027.00000    8.93570   88.46440  141.25300  102.08720
 11027.50000    8.93630   88.21950  141.31040  105.20500
 11028.00000    8.95270   87.99940  141.14640  111.88090
 11028.50000    8.94660   87.99860  140.90260  117.67260
 11029.00000    8.94050   88.23540  140.29580  116.07210
 11029.50000    8.91470   87.89530  140.76850  109.15680
 11030.00000    8.89350   86.38060  138.64740  101.43590
 11030.50000    8.87660   85.15520  136.94780  101.43840
 11031.00000    8.88870   83.66180  135.13560  108.60180
 11031.50000    8.88780   82.99510  134.09440  112.54270
 11032.00000    8.88690   82.12840  132.27970   99.71410
 11032.50000    8.88590   81.83870  131.62260   89.82350
 11033.00000    8.88730   81.71570  131.40560   85.08000
 11033.50000    8.88910   81.99300  131.76880   84.55750
 11034.00000    8.90730   82.22100  132.08740   84.55750
