~Version ---------------------------------------------------
VERS.   2.0 : CWLS log ASCII Standard -VERSION 2.0
WRAP.    NO : One line per depth step
DLM . SPACE : Column Data Section Delimiter
~Well ------------------------------------------------------
STRT .FT                5490.0 : START DEPTH
STOP .FT               11889.0 : STOP DEPTH
STEP .FT                   0.5 : STEP
NULL .                -9999.25 : NULL VALUE
COMP .                         : COMPANY
WELL .                         : WELL
FLD  .                         : FIELD
LOC  .                         : LOCATION
PROV .                         : PROVINCE
CNTY .                         : COUNTY
STAT .                         : STATE
CTRY .                         : COUNTRY
SRVC .                         : SERVICE COMPANY
DATE .                         : DATE
UWI  .                         : UNIQUE WELL ID
API  .                         : API NUMBER
SLAT .WGS84  2.609397356444198 : SURFACE LATITUDE
SLON .WGS84 6.5309549648460035 : SURFACE LONGITUDE
DATUM.F                    nan : DEPTH DATUM ELEV
~Curve Information -----------------------------------------
DEPT.FT    : 
DTCO.US/F  : DELTA-T COMPRESSIONAL
DTSM.US/F  : DELTA-T SHEAR
GRS .GAPI  : GAMMA RAY FROM SONIC LOG
~Params ----------------------------------------------------
~Other -----------------------------------------------------
~ASCII -----------------------------------------------------
# ...
 7181.00000   58.98530  105.79480   48.68000
 7181.50000   59.47960  106.30850   51.50840
 7182.00000   60.00760  106.74100   50.41080
 7182.50000   60.26640  107.11440   49.82470
 7183.00000   60.63910  107.48770   49.81310
 7183.50000   61.16820  107.86110   55.28200
 7184.00000   61.59130  108.23440   57.28380
 7184.50000   61.98420  108.38370   55.65110
 7185.00000   62.18560  107.78520   49.25670
 7185.50000   61.81790  106.89920   40.45120
 7186.00000   61.35360  106.01320   39.72970
 7186.50000   60.36850  105.10350   48.65420
 7187.00000   59.55660  103.68090   60.70470
 7187.50000   58.68460  102.69350   73.27780
 7188.00000   58.44450  101.82320   74.53210
 7188.50000   57.93290  101.30250   69.14020
 7189.00000   57.76060  100.78190   64.02650
 7189.50000   57.58300  100.26120   63.58700
 7190.00000   57.47630   99.88240   64.89800
 7190.50000   56.97260   99.65580   68.58780
 7191.00000   56.57460   99.37260   67.98670
 7191.50000   57.55680   99.14600   63.93650
 7192.00000   57.13300   99.14600   55.65040
 7192.50000   56.07350   99.42500   50.61240
 7193.00000   56.10930   98.65070   50.58000
 7193.50000   56.53990   97.61310   51.15170
 7194.00000   56.14220   97.50220   49.41800
 7194.50000   56.17850   97.98570   48.59630
 7195.00000   56.16960   98.27580   49.11310
 7195.50000   56.32470   97.80730   53.77570
 7196.00000   56.51620   98.35950   59.69270
 7196.50000   57.11310   98.02470   62.51230
 7197.00000   57.27590   98.02150   57.81150
 7197.50000   56.74010   98.82090   52.63100
 7198.00000   56.98710   98.53400   50.05070
 7198.50000   56.97620   98.61050   47.48260
 7199.00000   56.29700   98.77790   46.09340
 7199.50000   56.27440   98.60310   50.16050
 7200.00000   56.26200   97.89650   52.16870
 7200.50000   56.35760   97.71800   49.88470
 7201.00000   56.39150   98.20890   48.50320
 7201.50000   56.37400   98.20220   48.35260
 7202.00000   56.27540   97.96780   50.87180
 7202.50000   56.26450   97.88530   54.12750
 7203.00000   56.18010   97.94110   55.74460
 7203.50000   56.07900   97.99690   55.63710
 7204.00000   56.02780   98.25350   52.63570
 7204.50000   56.06890   98.64400   52.42520
 7205.00000   55.91850   98.67750   52.95310
 7205.50000   56.01970   98.89880   50.34990
 7206.00000   56.04200   98.71290   47.71410
 7206.50000   56.13550   98.94980   45.89230
 7207.00000   56.15120   99.15000   51.27710
 7207.50000   55.94860   98.76120   56.18540
 7208.00000   55.78620   98.81990   55.14540
 7208.50000   56.02140   98.91340   51.49440
 7209.00000   56.05820   98.93500   49.38920
 7209.50000   56.04120   98.36920   52.55570
 7210.00000   55.78200   98.27640   54.14980
 7210.50000   55.78060   98.33630   54.06520
 7211.00000   55.88760   98.21600   56.32120
 7211.50000   55.85840   98.70450   59.27180
 7212.00000   55.90140   98.83030   59.25220
 7212.50000   55.93430   99.12390   57.74270
 7213.00000   56.01520   99.34750   56.27800
 7213.50000   56.02730   99.39100   56.19690
 7214.00000   56.18030   99.43820   51.51890
 7214.50000   56.14410   99.31860   48.29760
 7215.00000   56.16400   99.31560   46.64540
 7215.50000   56.17020   99.11390   49.91920
 7216.00000   56.17640   98.79240   56.42240
 7216.50000   56.25780   98.54380   56.31100
 7217.00000   56.26810   98.95100   52.26900
 7217.50000   56.27830   99.07810   49.35450
 7218.00000   56.15800   98.72510   50.41920
 7218.50000   56.04830   98.24810   55.13100
 7219.00000   55.90350   98.81910   51.23370
 7219.50000   55.93960   98.91160   48.10160
 7220.00000   56.53960   99.19470   48.10160
 7220.50000   56.91050  100.07800   53.47410
 7221.00000   58.17340  101.52180   56.32970
 7221.50000   59.67690  102.56580   56.71310
 7222.00000   60.67300  103.40990   54.57700
 7222.50000   61.64760  105.64080   53.44210
 7223.00000   62.50340  108.94690   56.78800
 7223.50000   63.25510  110.52810   61.10040
 7224.00000   63.37540  111.12110   63.63630
 7224.50000   63.37540  111.94060   55.58290
 7225.00000   63.23590  112.93150   50.16020
 7225.50000   62.68380  112.85680   46.87170
 7226.00000   61.90990  111.96780   48.12430
 7226.50000   61.18040  111.57270   50.43600
 7227.00000   60.41890  111.17760   57.73550
 7227.50000   59.88190  110.71270   64.92210
 7228.00000   60.12250  110.28470   69.98270
 7228.50000   59.92200  110.01670   72.56200
 7229.00000   60.35710  109.71160   73.04470
 7229.50000   60.30370  109.30220   74.47610
 7230.00000   61.61100  108.64180   73.52620
 7230.50000   62.03660  108.53600   66.42880
 7231.00000   62.14960  109.18720   59.19840
 7231.50000   62.17210  110.03950   52.51970
 7232.00000   61.53760  110.59910   50.99270
 7232.50000   60.90780  110.92320   49.48260
 7233.00000   62.19180  111.37870   47.95870
 7233.50000   63.45240  111.90900   47.25440
 7234.00000   64.83440  113.62910   45.69570
 7234.50000   66.09720  115.72110   47.05960
 7235.00000   68.99880  119.71300   49.52630
 7235.50000   75.79440  123.59200   49.63830
 7236.00000   81.46440  126.79970   48.11400
 7236.50000   82.74040  130.00740   44.73770
 7237.00000   83.43190  134.73060   42.15900
 7237.50000   85.17590  139.01720   40.20420
 7238.00000   86.19340  141.55760   37.73300
 7238.50000   87.16050  143.12690   37.88880
 7239.00000   87.84790  145.06980   41.61920
 7239.50000   88.15280  146.21360   54.98070
 7240.00000   88.21740  146.70380   68.18670
 7240.50000   88.21680  146.77410   90.22870
 7241.00000   88.40750  146.81100  106.49700
 7241.50000   88.61640  147.02460  117.05300
 7242.00000   88.82080  147.22510  120.20450
 7242.50000   88.87450  147.22950  120.91580
 7243.00000   89.02480  147.38690  124.27160
 7243.50000   89.35560  147.62600  128.83820
 7244.00000   89.19310  147.42550  129.13810
 7244.50000   88.98330  147.43140  132.71180
 7245.00000   88.87450  147.61900  134.50020
 7245.50000   88.96470  147.50760  135.51120
 7246.00000   88.86000  147.46200  136.13280
 7246.50000   88.77030  147.37540  135.85290
 7247.00000   88.71140  147.47770  137.14030
 7247.50000   88.52790  147.21670  136.16680
 7248.00000   88.57390  147.05970  135.32940
 7248.50000   88.63400  146.97790  138.48190
 7249.00000   88.54330  146.77920  140.60870
 7249.50000   88.10810  146.46630  142.03370
 7250.00000   87.96970  146.10690  139.95330
 7250.50000   87.71520  145.74760  139.25860
 7251.00000   87.57010  145.38820  137.30040
 7251.50000   87.56400  145.02040  135.26690
 7252.00000   87.65680  144.86330  131.35520
 7252.50000   87.77860  144.83260  129.54290
 7253.00000   87.63880  145.07000  125.02400
 7253.50000   87.55840  145.61430  123.21640
 7254.00000   88.08710  145.60500  122.03160
 7254.50000   88.23540  145.97660  126.14950
 7255.00000   88.38160  146.36370  130.64900
 7255.50000   88.70640  146.75090  130.41090
 7256.00000   89.16380  147.13800  127.28960
 7256.50000   88.92390  147.42540  125.95790
 7257.00000   89.55530  147.35770  130.89860
 7257.50000   89.46990  147.65380  134.60930
 7258.00000   89.00250  147.25400  136.04160
 7258.50000   88.94870  146.97440  137.15270
 7259.00000   88.41080  146.20590  138.53470
 7259.50000   87.22070  144.41850  139.85910
 7260.00000   85.50800  141.90300  140.99300
 7260.50000   83.24960  140.67800  139.81680
 7261.00000   79.51940  137.06890  141.45660
 7261.50000   78.25470  133.07430  137.52720
 7262.00000   77.21410  131.06270  142.04940
 7262.50000   77.17510  129.15360  139.23860
 7263.00000   77.08840  128.05420  136.62590
 7263.50000   77.10950  127.47320  133.19800
 7264.00000   76.92830  126.61790  131.20780
 7264.50000   76.49310  126.40880  129.37850
 7265.00000   75.80530  126.93100  126.98290
 7265.50000   76.27190  126.83910  120.20450
 7266.00000   77.15580  127.74740  107.10590
 7266.50000   78.42380  129.54620   84.20340
 7267.00000   78.64370  130.00010   68.55850
 7267.50000   78.18140  130.10180   60.95580
 7268.00000   77.78860  130.11120   71.24650
 7268.50000   78.19280  130.15450   91.73500
 7269.00000   79.25000  131.29340  110.52100
 7269.50000   81.17270  132.53400  123.36780
