~Version ---------------------------------------------------
VERS.   2.0 : CWLS log ASCII Standard -VERSION 2.0
WRAP.    NO : One line per depth step
DLM . SPACE : Column Data Section Delimiter
~Well ------------------------------------------------------
STRT .FT                5490.0 : START DEPTH
STOP .FT               11889.0 : STOP DEPTH
STEP .FT                   0.5 : STEP
NULL .                -9999.25 : NULL VALUE
COMP .                         : COMPANY
WELL .                         : WELL
FLD  .                         : FIELD
LOC  .                         : LOCATION
PROV .                         : PROVINCE
CNTY .                         : COUNTY
STAT .                         : STATE
CTRY .                         : COUNTRY
SRVC .                         : SERVICE COMPANY
DATE .                         : DATE
UWI  .                         : UNIQUE WELL ID
API  .                         : API NUMBER
SLAT .WGS84  2.609397356444198 : SURFACE LATITUDE
SLON .WGS84 6.5309549648460035 : SURFACE LONGITUDE
DATUM.F                    nan : DEPTH DATUM ELEV
~Curve Information -----------------------------------------
DEPT.FT    : 
DTCO.US/F  : DELTA-T COMPRESSIONAL
DTSM.US/F  : DELTA-T SHEAR
GRS .GAPI  : GAMMA RAY FROM SONIC LOG
~Params ----------------------------------------------------
~Other -----------------------------------------------------
~ASCII -----------------------------------------------------
# ...
 9317.00000   76.19380  123.19570  138.27110
 9317.50000   76.17650  122.74600  137.29930
 9318.00000   76.75660  122.49690  132.39840
 9318.50000   77.83910  123.45360  124.67760
 9319.00000   78.68100  123.42020  115.85090
 9319.50000   79.76350  124.60950  115.85090
 9320.00000   81.27040  126.37690  117.85910
 9320.50000   82.07870  127.89680  112.28100
 9321.00000   83.08700  129.67150  100.45800
 9321.50000   83.57880  130.10390   95.04810
 9322.00000   83.09010  130.06230   98.98000
 9322.50000   82.78890  130.51010  109.37820
 9323.00000   82.68090  130.94310  126.17860
 9323.50000   82.43650  130.61350  134.81470
 9324.00000   82.13740  130.28390  141.89440
 9324.50000   81.75370  130.15210  149.39120
 9325.00000   81.73080  130.32470  159.48250
 9325.50000   81.88760  130.61230  158.61500
 9326.00000   82.01780  130.90000  160.95470
 9326.50000   82.74780  131.18770  160.96890
 9327.00000   83.91290  132.34030  154.06700
 9327.50000   84.24520  133.69340  139.18840
 9328.00000   84.70920  134.86740  126.11280
 9328.50000   85.16800  135.07910  121.25790
 9329.00000   85.35400  135.49360  116.25370
 9329.50000   84.89520  136.94110  112.23060
 9330.00000   84.09730  136.83040  116.53040
 9330.50000   83.37180  135.04680  123.66830
 9331.00000   80.74830  133.61770  135.11630
 9331.50000   79.05350  132.95880  139.55990
 9332.00000   77.55600  127.40610  140.38990
 9332.50000   76.69940  125.17430  141.44280
 9333.00000   76.17000  123.72650  146.56420
 9333.50000   76.36570  121.83330  150.19480
 9334.00000   76.43350  121.93350  155.89000
 9334.50000   77.11100  122.03380  148.25330
 9335.00000   77.88210  122.14500  135.71880
 9335.50000   77.57810  123.20790  122.16200
 9336.00000   78.80130  125.33960  117.71140
 9336.50000   80.19930  125.83050  113.88000
 9337.00000   80.42500  126.72770  112.99460
 9337.50000   80.38070  127.92060  113.79360
 9338.00000   80.51530  128.04760  115.91190
 9338.50000   80.30480  128.04760  116.93570
 9339.00000   80.09430  128.31480  113.69220
 9339.50000   80.09430  128.74920  111.41460
 9340.00000   80.28440  128.84940  112.77760
 9340.50000   80.49890  128.84940  115.68130
 9341.00000   80.53420  128.48880  120.22990
 9341.50000   80.76180  128.50000  122.07600
 9342.00000   80.21460  128.58200  125.35030
 9342.50000   79.34260  127.03360  120.95690
 9343.00000   78.01950  125.23960  113.72660
 9343.50000   75.79440  123.50450  108.71330
 9344.00000   74.70500  120.93120  106.21050
 9344.50000   75.02400  119.05330  107.18480
 9345.00000   72.31210  115.86170  113.12410
 9345.50000   68.49030  112.67020  120.05310
 9346.00000   64.66860  109.47870  131.18790
 9346.50000   60.80670  106.93660  136.92390
 9347.00000   61.06730  104.82750  131.06720
 9347.50000   62.65090  103.77510  128.18720
 9348.00000   68.63190  105.23640  120.37480
 9348.50000   75.55690  107.48360  116.43800
 9349.00000   84.09350  111.60290  112.07200
 9349.50000   89.31210  115.03190  110.82980
 9350.00000   89.11160  118.42460   95.58470
 9350.50000   84.91920  121.81740   73.40190
 9351.00000   82.23480  125.21010   53.17310
 9351.50000   83.75050  127.81850   38.35090
 9352.00000   83.81430  130.18100   34.79600
 9352.50000   82.16900  131.07750   39.09730
 9353.00000   79.52300  131.63900   54.46110
 9353.50000   76.34290  130.05440   83.60090
 9354.00000   73.04750  127.98570  107.15600
 9354.50000   72.03240  125.04730  117.29260
 9355.00000   70.23720  120.80420  127.33740
 9355.50000   66.71360  116.22810  123.22910
 9356.00000   65.89810  114.93650  117.95390
 9356.50000   67.27430  113.49470  114.32720
 9357.00000   67.93140  112.05290  114.94950
 9357.50000   68.24000  111.95060  117.81000
 9358.00000   68.69820  111.83370  120.13080
 9358.50000   69.02530  112.23160  121.10940
 9359.00000   69.49790  113.37920  113.72730
 9359.50000   70.05460  113.94140  101.07420
 9360.00000   69.77260  114.24190   87.78760
 9360.50000   69.32470  114.82380   68.23640
 9361.00000   69.16440  114.73490   56.90760
 9361.50000   68.78310  113.55390   50.10730
 9362.00000   68.49780  112.89640   54.97390
 9362.50000   68.63820  112.82860   73.65910
 9363.00000   69.66050  112.84690   92.63880
 9363.50000   70.29000  112.74930  106.00260
 9364.00000   71.05000  113.33240  108.21960
 9364.50000   71.25420  113.91550   97.76030
 9365.00000   71.10380  115.35750   89.32490
 9365.50000   70.97920  116.21050   84.28180
 9366.00000   71.46460  116.80530   82.64680
 9366.50000   72.02030  118.67630   84.50460
 9367.00000   72.29220  119.29880   87.66790
 9367.50000   72.60490  121.06510   88.16500
 9368.00000   72.52340  122.74220   87.50010
 9368.50000   72.67260  123.40780   89.02360
 9369.00000   73.38270  123.50100   94.52370
 9369.50000   73.93340  125.43690   98.60470
 9370.00000   73.93120  125.74410  105.08380
 9370.50000   72.99890  125.77560  107.87600
 9371.00000   72.42670  124.56400   99.11520
 9371.50000   71.84670  124.08050   86.20850
 9372.00000   72.88060  124.13860   75.68240
 9372.50000   73.84480  124.38920   76.88740
 9373.00000   74.41980  124.84020   90.73260
 9373.50000   74.92390  124.84020   96.30670
 9374.00000   75.64140  124.84020   81.44730
 9374.50000   76.33570  126.30610   65.97070
 9375.00000   78.32020  128.74920   64.05910
 9375.50000   79.56890  129.16670   70.65040
 9376.00000   80.62980  129.13450   74.96250
 9376.50000   81.65010  129.59030   66.30700
 9377.00000   82.10890  129.56220   58.94480
 9377.50000   82.18210  129.92480   56.40160
 9378.00000   82.64920  131.79360   67.31770
 9378.50000   83.38980  132.73630   79.68380
 9379.00000   83.49210  132.52600   93.84310
 9379.50000   83.88300  133.56750  106.79740
 9380.00000   84.11550  135.34700  112.18300
 9380.50000   84.10710  135.75520  112.06170
 9381.00000   83.67240  134.29480  116.12380
 9381.50000   83.04160  133.83960  115.47070
 9382.00000   82.43150  133.09200  115.10020
 9382.50000   82.08900  132.47060  113.12410
 9383.00000   81.98850  131.80820  113.95310
 9383.50000   81.71320  131.13750  112.29230
 9384.00000   81.25820  130.17800  108.54800
 9384.50000   80.75570  129.53540  107.09880
 9385.00000   80.63540  129.08290  110.71400
 9385.50000   80.86900  129.41880  113.43220
 9386.00000   81.17850  129.84080  111.93490
 9386.50000   81.40740  130.26290  105.59250
 9387.00000   81.71930  130.68490   96.43990
 9387.50000   81.89550  131.05410   94.14450
 9388.00000   82.07070  131.15440   97.46450
 9388.50000   81.98850  131.35480  101.14670
 9389.00000   81.38710  131.64300  101.08320
 9389.50000   80.82100  131.95620   98.80110
 9390.00000   80.11420  130.95580  102.83010
 9390.50000   79.38330  129.83070  107.15040
 9391.00000   78.84940  128.70550  108.53380
 9391.50000   78.70750  127.77730  110.56400
 9392.00000   78.59360  127.20160  112.01970
 9392.50000   78.85010  127.07820  113.57800
 9393.00000   79.17320  127.51170  110.73180
 9393.50000   79.32250  127.64570  110.01660
 9394.00000   79.47180  127.72180  113.71500
 9394.50000   79.70330  128.28100  117.41130
 9395.00000   80.78570  128.72210  117.42410
 9395.50000   81.35710  129.59160  113.38020
 9396.00000   81.63370  130.52700  106.36190
 9396.50000   82.00350  131.68430   99.26660
 9397.00000   82.77030  132.84160   95.46080
 9397.50000   84.15350  133.79370   98.81040
 9398.00000   84.89230  134.68950  106.21420
 9398.50000   85.39950  135.60760  114.97170
 9399.00000   85.83740  136.39960  119.66760
 9399.50000   86.33480  137.95320  116.18630
 9400.00000   87.28700  140.22140  113.87840
 9400.50000   87.20940  140.70960  111.44830
 9401.00000   86.07790  140.53150  113.84710
 9401.50000   84.09340  140.17460  111.76840
 9402.00000   81.02630  137.80040  117.60630
 9402.50000   78.59070  134.97400  122.46320
 9403.00000   77.61340  131.43820  128.34920
 9403.50000   77.10070  129.23890  129.76240
 9404.00000   76.65850  125.69250  127.85510
 9404.50000   76.64480  124.73690  125.47590
 9405.00000   76.99730  123.87780  128.01510
 9405.50000   77.00450  123.64580  131.19990
