~Version ---------------------------------------------------
VERS.   2.0 : CWLS log ASCII Standard -VERSION 2.0
WRAP.    NO : One line per depth step
DLM . SPACE : Column Data Section Delimiter
~Well ------------------------------------------------------
STRT .FT                5490.0 : START DEPTH
STOP .FT               11889.0 : STOP DEPTH
STEP .FT                   0.5 : STEP
NULL .                -9999.25 : NULL VALUE
COMP .                         : COMPANY
WELL .                         : WELL
FLD  .                         : FIELD
LOC  .                         : LOCATION
PROV .                         : PROVINCE
CNTY .                         : COUNTY
STAT .                         : STATE
CTRY .                         : COUNTRY
SRVC .                         : SERVICE COMPANY
DATE .                         : DATE
UWI  .                         : UNIQUE WELL ID
API  .                         : API NUMBER
SLAT .WGS84  2.609397356444198 : SURFACE LATITUDE
SLON .WGS84 6.5309549648460035 : SURFACE LONGITUDE
DATUM.F                    nan : DEPTH DATUM ELEV
~Curve Information -----------------------------------------
DEPT.FT    : 
DTCO.US/F  : DELTA-T COMPRESSIONAL
DTSM.US/F  : DELTA-T SHEAR
GRS .GAPI  : GAMMA RAY FROM SONIC LOG
~Params ----------------------------------------------------
~Other -----------------------------------------------------
~ASCII -----------------------------------------------------
# ...
 10115.50000   90.12460  153.34630  123.89320
 10116.00000   90.29310  153.80380  144.47080
 10116.50000   90.58830  153.99000  137.63190
 10117.00000   90.56190  154.25070  126.98220
 10117.50000   90.28760  154.25070  120.16900
 10118.00000   88.49270  153.57920  123.24860
 10118.50000   87.42600  150.96650  126.19420
 10119.00000   86.88980  149.83050  134.81500
 10119.50000   87.39590  148.49420  142.73010
 10120.00000   85.40640  146.87740  148.88930
 10120.50000   83.37150  143.45130  151.47150
 10121.00000   84.17100  138.31230  152.37530
 10121.50000   83.35440  133.62010  150.36680
 10122.00000   83.83030  130.39260  147.45180
 10122.50000   84.08730  125.50990  141.26820
 10123.00000   79.45700  120.62720  134.51370
 10123.50000   76.66570  118.45080  130.67250
 10124.00000   82.84550  117.55700  128.88550
 10124.50000   85.47660  119.79130  129.48550
 10125.00000   87.16510  124.25190  130.22400
 10125.50000   87.41030  129.73460  131.35050
 10126.00000   89.81590  134.55320  124.62890
 10126.50000   85.88680  137.58700  101.07360
 10127.00000   85.08340  140.18250   75.76750
 10127.50000   84.27390  140.76410   38.10970
 10128.00000   83.67820  141.11070   26.70690
 10128.50000   84.02080  140.57080   35.76340
 10129.00000   84.12470  139.49700   59.34870
 10129.50000   83.94310  140.86900   82.99780
 10130.00000   83.69750  138.82060  102.39310
 10130.50000   83.52200  138.23640  127.58470
 10131.00000   83.91290  138.40430  145.19700
 10131.50000   84.99590  138.60470  159.20390
 10132.00000   85.79460  139.65870  149.56350
 10132.50000   86.04790  141.39010  139.98540
 10133.00000   86.18700  141.73790  129.60850
 10133.50000   86.15560  141.81990  123.38240
 10134.00000   85.84320  142.43730  128.13570
 10134.50000   86.47440  142.77980  148.88930
 10135.00000   86.44830  142.65520  158.13270
 10135.50000   86.51610  143.68080  163.01990
 10136.00000   87.00130  143.89940  155.70350
 10136.50000   85.95760  144.13220  150.36680
 10137.00000   85.50450  144.44240  131.21530
 10137.50000   85.21380  144.58560  132.25430
 10138.00000   84.72850  145.45400  136.97490
 10138.50000   84.42550  146.32250  142.94910
 10139.00000   84.27600  146.81660  132.98280
 10139.50000   84.00110  146.80570  128.16520
 10140.00000   83.99820  146.82360  131.25260
 10140.50000   83.92610  147.38640  139.39610
 10141.00000   83.50040  148.05650  141.22450
 10141.50000   83.71260  147.62120  135.75770
 10142.00000   83.79210  147.37370  132.73330
 10142.50000   84.33390  147.15750  125.12770
 10143.00000   85.92880  147.51620  126.84670
 10143.50000   87.16210  148.73300  129.60320
 10144.00000   87.19290  149.66910  134.17220
 10144.50000   87.65660  149.50490  136.88790
 10145.00000   87.46950  148.67850  136.67010
 10145.50000   86.01780  147.13560  137.03220
 10146.00000   85.38650  146.23870  134.24050
 10146.50000   85.19920  146.03560  133.13690
 10147.00000   84.96790  146.28050  131.14900
 10147.50000   85.95760  146.72160  129.69350
 10148.00000   86.91990  146.67660  127.95740
 10148.50000   87.82460  147.22450  126.20190
 10149.00000   88.54360  147.94050  128.52070
 10149.50000   88.62100  148.19600  130.38620
 10150.00000   88.64030  148.16520  132.13770
 10150.50000   88.74200  148.22690  132.53520
 10151.00000   88.75410  148.77810  130.29970
 10151.50000   89.07580  150.39470  121.89550
 10152.00000   90.18690  151.78500  117.81390
 10152.50000   90.43220  150.00620  129.77750
 10153.00000   90.43700  149.93580  142.90750
 10153.50000   90.43580  150.23780  148.89020
 10154.00000   90.43460  150.01600  156.19130
 10154.50000   90.55670  150.20290  152.17440
 10155.00000   90.26530  150.10160  150.36690
 10155.50000   89.81360  149.93920  141.92250
 10156.00000   89.63000  149.77680  136.51520
 10156.50000   89.51780  148.84720  132.62200
 10157.00000   89.58850  148.12660  141.05740
 10157.50000   90.12950  148.66680  149.09110
 10158.00000   90.50840  149.11220  159.40480
 10158.50000   90.96870  150.03350  159.25420
 10159.00000   92.34230  151.40530  158.09930
 10159.50000   92.59070  152.33630  159.60560
 10160.00000   92.52940  152.72160  153.03020
 10160.50000   92.60290  152.82440  156.20370
 10161.00000   92.09180  152.51990  139.48250
 10161.50000   89.74640  151.93440  128.97920
 10162.00000   88.33310  150.25320  120.37590
 10162.50000   88.03240  149.73190  120.17640
 10163.00000   87.04330  148.29510  136.89960
 10163.50000   85.62690  146.02530  148.68850
 10164.00000   85.39170  145.66030  175.08210
 10164.50000   85.32620  145.20850  190.83140
 10165.00000   85.06900  144.00990  192.04630
 10165.50000   84.60380  142.73070  184.82740
 10166.00000   85.24530  142.83960  157.79430
 10166.50000   85.44570  143.29790  140.26020
 10167.00000   85.64620  143.75630  126.54790
 10167.50000   88.48350  146.26860  124.53710
 10168.00000   90.05850  147.91180  127.18600
 10168.50000   90.12430  148.01940  129.83490
 10169.00000   90.50170  147.60080  126.02050
 10169.50000   91.27350  148.37140  121.20170
 10170.00000   92.47020  152.04070  116.61400
 10170.50000   92.98880  152.89740  119.89140
 10171.00000   92.84510  153.53050  123.27970
 10171.50000   93.38400  153.38150  125.67220
 10172.00000   92.26150  152.76090  132.61980
 10172.50000   92.01310  152.14020  139.56740
 10173.00000   92.00580  151.98190  146.07850
 10173.50000   92.30150  152.25030  149.59320
 10174.00000   92.10110  152.41710  149.79400
 10174.50000   92.38890  152.40720  152.55770
 10175.00000   92.99390  152.24360  150.33780
 10175.50000   93.04650  151.98840  153.12980
 10176.00000   93.46860  152.28760  152.79490
 10176.50000   93.88570  152.76210  150.58210
 10177.00000   94.49730  153.01420  143.96960
 10177.50000   94.97840  153.33570  144.17040
 10178.00000   95.78050  153.93070  148.42160
 10178.50000   96.09030  154.05790  153.06660
 10179.00000   95.97070  154.84140  158.12180
 10179.50000   95.52680  155.39250  167.09350
 10180.00000   94.99310  154.44270  177.28200
 10180.50000   94.27640  153.87900  183.89200
 10181.00000   92.70350  153.01790  189.06370
 10181.50000   88.91260  151.07470  191.33830
 10182.00000   84.17390  147.35290  194.78950
 10182.50000   81.87800  144.57410  193.27090
 10183.00000   81.40570  142.49840  198.05130
 10183.50000   81.40300  142.83060  195.00860
 10184.00000   81.33860  139.95370  205.01320
 10184.50000   80.63540  136.17650  213.33950
 10185.00000   80.17000  137.47020  217.86040
 10185.50000   80.33420  136.97100  205.27720
 10186.00000   80.40910  137.18940  184.87630
 10186.50000   80.79850  137.54090  150.16600
 10187.00000   81.67940  138.15370  135.00260
 10187.50000   81.54520  139.42340  116.96460
 10188.00000   81.81140  140.06880  121.12520
 10188.50000   82.37520  140.60740  118.11040
 10189.00000   83.28150  142.19630  118.31400
 10189.50000   84.93530  144.96940  118.38180
 10190.00000   87.11090  146.65160  124.92330
 10190.50000   87.27830  147.07420  127.87400
 10191.00000   86.66850  147.87380  122.85390
 10191.50000   86.04790  148.88570  117.30740
 10192.00000   85.42970  147.74030  111.28600
 10192.50000   84.73810  146.17250  114.05200
 10193.00000   84.18360  145.69050  121.17860
 10193.50000   83.91290  145.78440  122.74930
 10194.00000   83.11000  144.01940  124.04240
 10194.50000   82.54900  142.46330  121.71660
 10195.00000   82.43010  141.38920  131.66830
 10195.50000   82.61840  142.01260  143.68830
 10196.00000   83.69530  141.91230  149.89450
 10196.50000   85.86740  143.24180  154.82120
 10197.00000   86.31850  144.66870  149.56350
 10197.50000   88.06250  146.10240  125.04050
 10198.00000   89.69540  149.66770  116.34580
 10198.50000   91.32830  151.76400  120.29820
 10199.00000   92.92450  152.50340  122.59750
 10199.50000   93.72510  152.80800  127.25340
 10200.00000   94.36320  153.97350  128.37860
 10200.50000   96.24130  156.25180  128.33860
 10201.00000   98.34620  157.54840  128.87480
 10201.50000   98.61680  158.11550  134.81580
 10202.00000   98.76510  158.32890  143.87330
