~Version ---------------------------------------------------
VERS.   2.0 : CWLS log ASCII Standard -VERSION 2.0
WRAP.    NO : One line per depth step
DLM . SPACE : Column Data Section Delimiter
~Well ------------------------------------------------------
STRT .FT                5490.0 : START DEPTH
STOP .FT               11889.0 : STOP DEPTH
STEP .FT                   0.5 : STEP
NULL .                -9999.25 : NULL VALUE
COMP .                         : COMPANY
WELL .                         : WELL
FLD  .                         : FIELD
LOC  .                         : LOCATION
PROV .                         : PROVINCE
CNTY .                         : COUNTY
STAT .                         : STATE
CTRY .                         : COUNTRY
SRVC .                         : SERVICE COMPANY
DATE .                         : DATE
UWI  .                         : UNIQUE WELL ID
API  .                         : API NUMBER
SLAT .WGS84  2.609397356444198 : SURFACE LATITUDE
SLON .WGS84 6.5309549648460035 : SURFACE LONGITUDE
DATUM.F                    nan : DEPTH DATUM ELEV
~Curve Information -----------------------------------------
DEPT.FT    : 
DTCO.US/F  : DELTA-T COMPRESSIONAL
DTSM.US/F  : DELTA-T SHEAR
GRS .GAPI  : GAMMA RAY FROM SONIC LOG
~Params ----------------------------------------------------
~Other -----------------------------------------------------
~ASCII -----------------------------------------------------
 5490.00000   67.47530  112.64390  107.09240
 5490.50000   67.75480  113.42180   91.34630
 5491.00000   68.63550  115.10480   75.60010
 5491.50000   67.16430  116.68850   69.77710
 5492.00000   69.63540  118.27210   75.10590
 5492.50000   71.37360  119.85580   74.94890
 5493.00000   72.83950  121.43950   66.42770
 5493.50000   72.23690  123.02320   56.61860
 5494.00000   73.63880  124.06840   58.34980
 5494.50000   73.75780  124.97890   70.85830
 5495.00000   74.19730  125.71140   84.11940
 5495.50000   73.83520  126.55910   98.50170
 5496.00000   73.98280  127.21560  102.78940
 5496.50000   74.13540  127.82700   98.89930
 5497.00000   74.54860  128.43850   94.98910
 5497.50000   76.05420  129.05000   91.22170
 5498.00000   76.42540  129.66150   89.09700
 5498.50000   76.54880  130.15020   91.00750
 5499.00000   76.78100  130.51270   90.61330
 5499.50000   76.89830  130.84450   90.91530
 5500.00000   76.88120  131.17620   84.64560
 5500.50000   77.00470  131.50800   78.25040
 5501.00000   77.02130  131.83980   79.28440
 5501.50000   77.14240  132.17150   81.33080
 5502.00000   77.49890  132.50330   78.34710
 5502.50000   77.40900  132.83500   75.41130
 5503.00000   77.36860  133.16680   75.11520
 5503.50000   77.38600  133.49860   74.73410
 5504.00000   77.50930  133.83030   76.42520
 5504.50000   77.42660  134.16210   76.70740
 5505.00000   77.11150  134.43430   82.69660
 5505.50000   77.02130  135.04500   84.70030
 5506.00000   77.27910  135.25890   84.82550
 5506.50000   77.82320  135.47270   84.64360
 5507.00000   77.86330  135.68650   84.10970
 5507.50000   77.22180  135.96190   82.96890
 5508.00000   77.84070  136.19220   78.75570
 5508.50000   77.31370  136.42250   76.43000
 5509.00000   77.28050  136.65280   72.70770
 5509.50000   77.29120  136.88310   73.43910
 5510.00000   77.30200  137.11340   77.45320
 5510.50000   77.25630  137.34370   82.74820
 5511.00000   77.16450  137.57400   83.41360
 5511.50000   77.47830  137.80430   82.25270
 5512.00000   77.74890  138.03460   81.68730
 5512.50000   77.85630  138.26490   82.75230
 5513.00000   77.91070  138.62430   83.85180
 5513.50000   78.01050  138.50660   84.61610
 5514.00000   78.09630  138.79040   82.77310
 5514.50000   78.16990  138.92600   80.45820
 5515.00000   78.16990  139.07570   79.99880
 5515.50000   78.16990  139.09770   78.85290
 5516.00000   78.16990  139.16940   79.42130
 5516.50000   78.16990  139.08880   75.45150
 5517.00000   78.16990  138.98990   74.42980
 5517.50000   78.01200  138.94980   74.26120
 5518.00000   77.74890  138.90970   76.15280
 5518.50000   77.53840  138.57880   76.46540
 5519.00000   77.27060  138.06680   76.46540
 5519.50000   77.28880  137.85330   76.46540
 5520.00000   77.43680  137.84330   78.91090
 5520.50000   77.62880  138.03730   81.04840
 5521.00000   77.91370  138.30450   79.16750
 5521.50000   78.12340  138.65320   80.40410
 5522.00000   78.77140  139.18420   79.94970
 5522.50000   79.11170  139.81850   79.27540
 5523.00000   79.38600  140.48340   78.72060
 5523.50000   79.53600  140.91050   76.82240
 5524.00000   79.55190  141.53400   74.50420
 5524.50000   79.24990  142.16720   72.65670
 5525.00000   78.80140  142.37590   69.44140
 5525.50000   78.31590  142.28370   67.22710
 5526.00000   78.00140  141.61210   67.30860
 5526.50000   77.74900  141.16930   67.21050
 5527.00000   77.62450  140.76550   65.82620
 5527.50000   77.40920  140.36160   62.96420
 5528.00000   77.34540  139.95780   62.51230
 5528.50000   77.77910  139.66260   60.81840
 5529.00000   78.27860  141.19950   58.72500
 5529.50000   78.56120  141.19950   57.19000
 5530.00000   79.00960  141.26630   59.95160
 5530.50000   79.53180  142.53980   59.52770
 5531.00000   80.25900  143.66660   57.44670
 5531.50000   80.48560  144.26340   54.66800
 5532.00000   80.49910  144.74080   55.35790
 5532.50000   80.18450  143.64300   59.20440
 5533.00000   79.24210  142.06790   60.48180
 5533.50000   78.56020  141.35200   60.45270
 5534.00000   78.38320  140.78360   60.00140
 5534.50000   78.59080  140.70980   60.00870
 5535.00000   78.26010  140.16690   60.11800
 5535.50000   77.77900  139.66510   57.87290
 5536.00000   77.51790  139.32600   60.40870
 5536.50000   77.36450  138.98680   64.07190
 5537.00000   77.26780  138.90570   62.15230
 5537.50000   77.36430  139.36340   62.43400
 5538.00000   77.35370  139.82110   64.50290
 5538.50000   77.07170  140.27110   71.00240
 5539.00000   76.62620  140.14330   71.92700
 5539.50000   76.36190  138.84920   67.33260
 5540.00000   76.32040  137.50410   63.34930
 5540.50000   76.30560  136.15900   59.48700
 5541.00000   76.29760  135.70860   55.25920
 5541.50000   76.28970  135.15000   56.79090
 5542.00000   76.17550  134.59050   54.03270
 5542.50000   75.99480  134.06960   55.81420
 5543.00000   75.49370  133.34290   56.38660
 5543.50000   75.14840  132.72590   57.39080
 5544.00000   74.68460  132.18520   59.92320
 5544.50000   74.35110  131.31100   59.50310
 5545.00000   73.85980  130.60140   59.05820
 5545.50000   73.54910  130.07160   58.05840
 5546.00000   73.43880  129.00610   56.93890
 5546.50000   73.43280  127.51150   55.73390
 5547.00000   73.42680  127.16060   54.52880
 5547.50000   73.44000  127.11520   51.69920
 5548.00000   73.53920  127.06980   50.73820
 5548.50000   73.32000  127.03340   49.35200
 5549.00000   72.85190  126.78230   55.21330
 5549.50000   72.46180  126.36360   54.96400
 5550.00000   72.00410  125.87100   57.06730
 5550.50000   71.71340  125.08220   57.66390
 5551.00000   71.31070  124.22230   56.35760
 5551.50000   71.01360  123.85930   55.77650
 5552.00000   70.90070  123.36010   54.33610
 5552.50000   70.95350  122.92310   56.97490
 5553.00000   71.03470  122.58400   58.98620
 5553.50000   71.34440  122.64650   57.77770
 5554.00000   71.79540  122.77660   55.20950
 5554.50000   72.06830  123.20310   55.69620
 5555.00000   72.19670  123.85240   57.88180
 5555.50000   72.21630  124.19830   60.01300
 5556.00000   72.49220  124.79710   59.86260
 5556.50000   72.90790  124.92640   57.39080
 5557.00000   73.36680  125.05560   55.36220
 5557.50000   73.77750  125.38600   55.39870
 5558.00000   73.76790  126.12120   56.77910
 5558.50000   73.86410  127.02870   56.81220
 5559.00000   73.89240  127.34520   54.52880
 5559.50000   73.77880  127.36970   54.28230
 5560.00000   73.68970  127.31920   53.21380
 5560.50000   73.79190  127.31530   52.64220
 5561.00000   73.80990  127.49690   52.05810
 5561.50000   73.42320  127.67840   51.14690
 5562.00000   73.18740  127.86000   50.16050
 5562.50000   72.88780  127.96890   49.49770
 5563.00000   72.69730  127.23310   50.91370
 5563.50000   72.83760  126.48040   54.67950
 5564.00000   72.93090  125.93760   59.03640
 5564.50000   72.91960  125.98820   63.11490
 5565.00000   72.71840  126.34260   68.23640
 5565.50000   72.84300  126.38310   71.55030
 5566.00000   73.05260  126.33240   75.94430
 5566.50000   73.29740  126.28180   77.90670
 5567.00000   73.71970  126.23120   73.54390
 5567.50000   73.93010  126.38760   71.78270
 5568.00000   74.42360  126.82920   73.41500
 5568.50000   74.82210  127.35310   76.67180
 5569.00000   75.38570  127.80630   77.42180
 5569.50000   75.85880  128.38150   78.67510
 5570.00000   76.28580  128.75250   82.95020
 5570.50000   76.53740  128.93940   87.89170
 5571.00000   76.37920  129.12620   93.44990
 5571.50000   76.12970  128.37870  104.38810
 5572.00000   75.52210  127.56470  113.71150
 5572.50000   74.77190  126.77150  119.45130
 5573.00000   73.79100  125.80100  121.26470
 5573.50000   72.96780  124.90820  121.11130
 5574.00000   72.03410  123.60770  118.54750
 5574.50000   71.40420  122.52290  118.29770
 5575.00000   70.74260  121.43810  120.02670
 5575.50000   70.41190  120.55240  123.69160
 5576.00000   70.41190  120.46300  128.77060
 5576.50000   70.70900  120.46300  132.48600
 5577.00000   71.16070  120.94150  133.37410
 5577.50000   71.59110  121.90130  120.35510
 5578.00000   72.18770  123.18730  107.48160
 5578.50000   72.80670  124.22160   87.51730
