~Version ---------------------------------------------------
VERS.   2.0 : CWLS log ASCII Standard -VERSION 2.0
WRAP.    NO : One line per depth step
DLM . SPACE : Column Data Section Delimiter
~Well ------------------------------------------------------
STRT .FT                5490.0 : START DEPTH
STOP .FT               11889.0 : STOP DEPTH
STEP .FT                   0.5 : STEP
NULL .                -9999.25 : NULL VALUE
COMP .                         : COMPANY
WELL .                         : WELL
FLD  .                         : FIELD
LOC  .                         : LOCATION
PROV .                         : PROVINCE
CNTY .                         : COUNTY
STAT .                         : STATE
CTRY .                         : COUNTRY
SRVC .                         : SERVICE COMPANY
DATE .                         : DATE
UWI  .                         : UNIQUE WELL ID
API  .                         : API NUMBER
SLAT .WGS84  2.609397356444198 : SURFACE LATITUDE
SLON .WGS84 6.5309549648460035 : SURFACE LONGITUDE
DATUM.F                    nan : DEPTH DATUM ELEV
~Curve Information -----------------------------------------
DEPT.FT    : 
DTCO.US/F  : DELTA-T COMPRESSIONAL
DTSM.US/F  : DELTA-T SHEAR
GRS .GAPI  : GAMMA RAY FROM SONIC LOG
~Params ----------------------------------------------------
~Other -----------------------------------------------------
~ASCII -----------------------------------------------------
# ...
 5935.00000   70.62210  116.50340   46.66720
 5935.50000   71.41630  117.20500   71.24900
 5936.00000   71.67760  117.95670   83.80400
 5936.50000   71.73470  118.30380   87.87260
 5937.00000   71.78700  119.00920   90.52990
 5937.50000   71.80620  119.53820   99.56790
 5938.00000   71.67460  119.96580  106.63040
 5938.50000   71.51920  119.98770  109.12940
 5939.00000   71.30650  120.42330   99.97090
 5939.50000   71.35400  120.86440   89.67700
 5940.00000   71.82640  120.93950   84.55530
 5940.50000   72.66720  121.12570   87.21800
 5941.00000   73.29520  121.60610   89.09230
 5941.50000   73.34940  123.08590   91.60090
 5942.00000   74.09120  124.71330   86.95150
 5942.50000   74.50510  126.02610   83.21130
 5943.00000   75.45990  126.92820   82.18010
 5943.50000   76.51610  128.19950   83.52750
 5944.00000   75.14490  129.28740   83.20860
 5944.50000   75.26760  130.14060   80.28690
 5945.00000   75.28320  130.14060   74.44330
 5945.50000   75.25320  130.14060   72.09360
 5946.00000   74.77350  130.07370   72.79030
 5946.50000   74.56160  129.21090   72.73860
 5947.00000   74.50730  128.65530   73.28250
 5947.50000   74.32060  128.87310   71.27020
 5948.00000   74.31820  128.78070   74.99540
 5948.50000   74.18360  128.68830   76.49100
 5949.00000   73.72810  128.61440   74.19880
 5949.50000   73.73600  127.82570   73.09730
 5950.00000   73.96440  127.03700   67.13210
 5950.50000   74.04360  126.57440   64.21320
 5951.00000   73.76370  126.41130   62.41260
 5951.50000   73.59740  126.24290   63.85900
 5952.00000   73.14800  125.86510   65.78450
 5952.50000   72.06550  125.17340   66.14860
 5953.00000   71.40390  124.77690   65.54610
 5953.50000   70.54800  123.31910   67.33820
 5954.00000   69.59980  121.40210   70.81430
 5954.50000   68.52140  120.55270   74.29040
 5955.00000   67.94600  118.74860   74.48420
 5955.50000   67.83250  117.25510   71.09790
 5956.00000   67.83900  116.66140   71.63890
 5956.50000   67.84540  116.74700   71.16580
 5957.00000   68.03620  116.55350   67.58250
 5957.50000   68.63760  116.97680   65.66420
 5958.00000   68.78790  117.40000   63.95550
 5958.50000   69.50960  118.00690   63.37880
 5959.00000   70.34870  118.90890   62.80220
 5959.50000   71.17690  120.01150   62.22550
 5960.00000   71.82490  120.73230   61.64890
 5960.50000   72.11520  121.28060   61.07220
 5961.00000   72.90720  122.36640   60.72620
 5961.50000   73.69810  123.45230   61.54660
 5962.00000   74.14000  124.04420   64.81720
 5962.50000   74.59110  124.77200   65.37430
 5963.00000   75.64710  126.19850   64.85480
 5963.50000   75.29560  127.49270   64.65510
 5964.00000   74.95250  128.78690   66.71410
 5964.50000   75.35490  130.08110   66.73110
 5965.00000   75.44580  130.47350   66.83490
 5965.50000   74.98200  130.05780   64.78470
 5966.00000   74.68310  129.53810   65.72260
 5966.50000   74.53740  129.01830   66.24880
 5967.00000   74.38860  128.53570   69.06100
 5967.50000   74.12650  128.26840   70.10980
 5968.00000   73.84120  126.51200   71.85150
 5968.50000   73.56870  124.51310   72.60470
 5969.00000   72.87930  124.23690   73.74650
 5969.50000   73.71330  123.45720   75.77220
 5970.00000   72.98030  122.67760   78.19960
 5970.50000   71.34810  122.63070   90.91960
 5971.00000   71.10410  122.23350  106.19570
 5971.50000   71.17850  121.71720  111.89150
 5972.00000   71.47440  121.84100  112.35050
 5972.50000   71.61440  122.09490  112.72310
 5973.00000   71.66590  122.34190  115.70420
 5973.50000   71.79340  123.01180  117.18410
 5974.00000   71.99350  123.65010  115.90210
 5974.50000   72.14780  124.01500  100.93790
 5975.00000   72.13210  123.74850   93.62690
 5975.50000   71.88990  124.19660   88.66560
 5976.00000   71.36150  124.86100   89.22040
 5976.50000   70.66790  124.57700   84.50460
 5977.00000   70.46030  123.15710   81.64260
 5977.50000   70.26720  121.73710   82.18770
 5978.00000   70.38750  121.18590   83.25870
 5978.50000   71.09480  121.03520   84.65530
 5979.00000   70.86270  121.29780   85.23670
 5979.50000   71.19190  121.59390   84.69820
 5980.00000   71.29430  121.83400   84.17680
 5980.50000   71.43300  122.11180   80.47670
 5981.00000   71.41180  122.38970   77.87680
 5981.50000   71.30850  122.47370   75.37840
 5982.00000   71.20200  122.01250   74.52290
 5982.50000   71.19070  121.76380   75.31590
 5983.00000   71.31790  121.59440   76.46210
 5983.50000   71.39280  121.07410   80.97980
 5984.00000   71.50730  120.50270   83.48120
 5984.50000   72.23290  120.50090   84.90600
 5985.00000   73.22360  120.69930   88.00390
 5985.50000   73.79070  121.69960   93.87410
 5986.00000   75.66270  122.69990   97.41800
 5986.50000   76.51270  124.34380   94.87110
 5987.00000   76.91010  125.64760   90.85270
 5987.50000   77.50860  125.95720   93.56560
 5988.00000   76.91190  126.09950   98.51810
 5988.50000   76.42310  125.38730  104.20090
 5989.00000   76.06270  124.54780  101.94130
 5989.50000   74.50300  123.48270   99.08730
 5990.00000   72.97990  120.63490  102.66920
 5990.50000   71.59530  118.40900  114.93170
 5991.00000   70.16590  116.60490  134.12310
 5991.50000   70.16590  115.91030  146.48530
 5992.00000   70.88560  116.03810  145.88280
 5992.50000   71.37440  116.58550  126.50160
 5993.00000   71.26190  116.97570  107.12030
 5993.50000   71.44490  117.45680  113.19300
 5994.00000   71.97000  118.57160  130.49340
 5994.50000   72.37100  119.30960  136.92380
 5995.00000   72.30660  120.04760  116.92000
 5995.50000   72.57440  120.78560  100.16980
 5996.00000   72.50960  121.52360   86.95570
 5996.50000   71.99310  122.26160   83.23150
 5997.00000   71.07110  122.75730   95.34960
 5997.50000   70.60700  122.75730  110.11150
 5998.00000   70.43950  122.59080  133.12930
 5998.50000   70.02440  122.09210  140.41220
 5999.00000   68.90180  121.63290  132.65770
 5999.50000   70.02440  121.46600  122.16200
 6000.00000   69.93910  121.69650  109.77560
 6000.50000   69.86380  122.27260  100.33470
 6001.00000   70.71150  122.91900   91.13190
 6001.50000   71.78820  123.89450   87.35060
 6002.00000   71.89300  124.78490   82.39530
 6002.50000   71.72890  125.67540   79.98520
 6003.00000   72.61620  126.75700   78.00900
 6003.50000   73.53920  128.12530   75.01440
 6004.00000   74.18800  129.49370   68.93110
 6004.50000   74.58880  130.90930   63.11450
 6005.00000   75.09780  132.80230   62.39160
 6005.50000   75.58390  133.55540   65.92910
 6006.00000   75.84680  133.95670   71.36890
 6006.50000   76.13950  134.36820   73.40760
 6007.00000   76.54610  134.78460   74.05160
 6007.50000   76.74010  136.12100   72.02290
 6008.00000   76.94620  136.88630   72.85330
 6008.50000   77.22730  136.97630   78.17760
 6009.00000   77.41060  137.06630   83.90160
 6009.50000   77.02730  137.08430   89.98310
 6010.00000   76.83400  136.79620   91.10180
 6010.50000   76.66670  136.29090   86.83050
 6011.00000   76.36010  135.74950   83.45020
 6011.50000   75.58420  134.55860   82.82950
 6012.00000   74.29120  132.43990   84.23350
 6012.50000   72.75420  129.17220   85.06640
 6013.00000   71.88140  127.33980   81.72440
 6013.50000   71.10400  125.38340   79.72230
 6014.00000   70.37760  123.42700   82.84600
 6014.50000   69.76700  121.47070   87.22260
 6015.00000   69.48450  120.46530   89.52710
 6015.50000   69.40440  119.40480   87.43840
 6016.00000   70.76520  119.16100   89.91000
 6016.50000   71.80560  119.38760   86.70270
 6017.00000   70.73950  120.25700   81.64260
 6017.50000   71.55500  121.41190   75.23960
 6018.00000   72.27730  122.83570   69.55640
 6018.50000   72.84790  124.25940   65.79140
 6019.00000   72.89560  125.36350   67.05060
 6019.50000   73.38920  125.86460   70.02940
 6020.00000   73.86060  126.36580   74.91400
 6020.50000   74.24520  127.49640   81.19010
 6021.00000   74.65180  128.62700   90.22790
 6021.50000   75.45250  129.63940   95.34940
 6022.00000   75.45460  129.77300  100.24190
 6022.50000   75.67190  129.72640   97.46400
 6023.00000   76.16150  129.70630   92.03550
 6023.50000   76.68640  129.56920   87.94040
