~Version ---------------------------------------------------
VERS.   2.0 : CWLS log ASCII Standard -VERSION 2.0
WRAP.    NO : One line per depth step
DLM . SPACE : Column Data Section Delimiter
~Well ------------------------------------------------------
STRT .FT                5490.0 : START DEPTH
STOP .FT               11889.0 : STOP DEPTH
STEP .FT                   0.5 : STEP
NULL .                -9999.25 : NULL VALUE
COMP .                         : COMPANY
WELL .                         : WELL
FLD  .                         : FIELD
LOC  .                         : LOCATION
PROV .                         : PROVINCE
CNTY .                         : COUNTY
STAT .                         : STATE
CTRY .                         : COUNTRY
SRVC .                         : SERVICE COMPANY
DATE .                         : DATE
UWI  .                         : UNIQUE WELL ID
API  .                         : API NUMBER
SLAT .WGS84  2.609397356444198 : SURFACE LATITUDE
SLON .WGS84 6.5309549648460035 : SURFACE LONGITUDE
DATUM.F                    nan : DEPTH DATUM ELEV
~Curve Information -----------------------------------------
DEPT.FT    : 
DTCO.US/F  : DELTA-T COMPRESSIONAL
DTSM.US/F  : DELTA-T SHEAR
GRS .GAPI  : GAMMA RAY FROM SONIC LOG
~Params ----------------------------------------------------
~Other -----------------------------------------------------
~ASCII -----------------------------------------------------
# ...
 6736.00000   73.63310  115.86440   23.67230
 6736.50000   72.71090  116.95570   22.97780
 6737.00000   58.43820  117.31590   26.36060
 6737.50000   58.50050  117.48380   29.67450
 6738.00000   59.16680  115.81000   35.81510
 6738.50000   59.98940  113.06030   56.18580
 6739.00000   60.18320  111.08120   86.31220
 6739.50000   59.33360  110.25810  113.42600
 6740.00000   58.74370  109.82600  135.05680
 6740.50000   58.18840  109.75390  136.85200
 6741.00000   58.31420  110.12100  125.47660
 6741.50000   58.50550  110.49270  104.68940
 6742.00000   58.63010  110.09280   79.42890
 6742.50000   58.63860  107.34980   65.37790
 6743.00000   58.52410  106.30510   53.85470
 6743.50000   58.40950  105.59820   53.44080
 6744.00000   58.31790  104.89140   57.46870
 6744.50000   58.46570  104.18450   59.19260
 6745.00000   58.78690  103.47770   61.00600
 6745.50000   59.67180  102.73850   65.17300
 6746.00000   59.46190  102.00320   64.05250
 6746.50000   59.57780  101.95590   60.75290
 6747.00000   60.03080  102.52220   57.08960
 6747.50000   59.90420  103.54960   58.63380
 6748.00000   60.03430  104.81740   59.48140
 6748.50000   60.04220  107.49500   59.78030
 6749.00000   59.92940  106.62620   59.46030
 6749.50000   59.78870  105.54020   58.75710
 6750.00000   59.74810  105.17680   59.40670
 6750.50000   59.76650  105.15200   59.96920
 6751.00000   59.76340  105.62060   60.18220
 6751.50000   59.53860  105.62580   58.84940
 6752.00000   59.39290  105.63860   60.86490
 6752.50000   59.27120  105.57690   63.14030
 6753.00000   59.06610  104.95270   65.70240
 6753.50000   58.70090  104.56860   63.92730
 6754.00000   58.47940  105.80320   62.99480
 6754.50000   58.30430  105.15920   59.85330
 6755.00000   58.09100  102.49460   57.86030
 6755.50000   58.19940  100.75160   56.00120
 6756.00000   58.17910   99.85150   54.99310
 6756.50000   58.09170   98.90140   56.73710
 6757.00000   58.25720   98.08700   61.09270
 6757.50000   58.44350   99.03820   64.57060
 6758.00000   58.86190  100.31720   60.52860
 6758.50000   59.58720  100.69090   56.48670
 6759.00000   59.81980  100.52460   48.37360
 6759.50000   60.08190  101.00620   45.93760
 6760.00000   60.39910  103.12090   48.07660
 6760.50000   60.68190  105.37880   51.16440
 6761.00000   60.95890  106.58150   52.64890
 6761.50000   61.07430  106.69090   52.81610
 6762.00000   61.08560  105.40380   54.45440
 6762.50000   61.07530  104.49860   58.64250
 6763.00000   60.99150  105.67990   60.41260
 6763.50000   60.94420  106.63160   58.56700
 6764.00000   60.94770  107.16780   56.38230
 6764.50000   61.18430  107.60600   57.02280
 6765.00000   61.45150  108.01130   59.80060
 6765.50000   61.81230  108.33550   62.94270
 6766.00000   62.03940  108.92490   63.15970
 6766.50000   62.33790  109.59740   62.14110
 6767.00000   62.54550  110.79120   60.99070
 6767.50000   62.65430  111.46410   60.51650
 6768.00000   62.46460  111.59180   60.40720
 6768.50000   62.28470  111.35680   59.96660
 6769.00000   62.14540  111.19870   60.45260
 6769.50000   61.59970  110.89410   60.47400
 6770.00000   61.20450  110.86850   60.49550
 6770.50000   63.29360  111.49800   60.51400
 6771.00000   64.18800  112.29500   61.46310
 6771.50000   65.69700  113.39750   63.86760
 6772.00000   68.25830  116.55540   67.44090
 6772.50000   70.92340  119.05490   71.85110
 6773.00000   75.91480  121.56620   70.85410
 6773.50000   78.30730  124.29220   69.69280
 6774.00000   80.20810  127.01830   69.95500
 6774.50000   82.40970  130.68100   68.53720
 6775.00000   84.45710  136.74580   59.19810
 6775.50000   85.03840  139.30680   54.30250
 6776.00000   86.32130  141.81650   53.12260
 6776.50000   85.76960  143.46630   70.04350
 6777.00000   86.61930  144.41850   91.65910
 6777.50000   86.68380  145.36740  107.34990
 6778.00000   86.48190  145.49650  108.55490
 6778.50000   86.45740  145.62130  118.05910
 6779.00000   86.36330  145.07000  132.10360
 6779.50000   86.36700  144.23450  140.84030
 6780.00000   85.28730  142.66430  148.92410
 6780.50000   84.11600  140.52810  153.77580
 6781.00000   82.34740  138.99810  159.50890
 6781.50000   81.66750  137.65280  163.22880
 6782.00000   81.30780  136.83730  157.36980
 6782.50000   81.53760  135.84360  153.21270
 6783.00000   81.67660  135.10590  149.79910
 6783.50000   82.11000  134.63820  149.32580
 6784.00000   82.25440  135.75150  159.67690
 6784.50000   82.71030  137.25190  161.11650
 6785.00000   84.57460  137.83820  156.17580
 6785.50000   85.50670  139.91400  143.71360
 6786.00000   85.51200  141.45950  136.84780
 6786.50000   86.86410  142.65010  129.39230
 6787.00000   87.42600  143.40900  121.86070
 6787.50000   86.90220  144.06960  113.66720
 6788.00000   86.91050  145.01540  116.60690
 6788.50000   86.31860  145.52820  127.46610
 6789.00000   86.59390  145.07840  140.53900
 6789.50000   86.61020  144.72410  149.72750
 6790.00000   86.24150  144.85290  153.01260
 6790.50000   86.69830  144.58250  157.26940
 6791.00000   87.49090  143.91720  160.71630
 6791.50000   87.44040  143.41600  167.88010
 6792.00000   86.68220  143.01890  176.31080
 6792.50000   86.07800  142.36650  173.75970
 6793.00000   85.61190  141.05070  174.55220
 6793.50000   84.92490  140.35900  177.38050
 6794.00000   84.97410  139.67630  182.26560
 6794.50000   85.29410  139.85870  169.19280
 6795.00000   84.06810  139.50510  153.16320
 6795.50000   83.01100  138.58160  142.29640
 6796.00000   82.15260  137.57220  148.72330
 6796.50000   81.95920  136.62110  146.71490
 6797.00000   81.97520  136.12640  148.72330
 6797.50000   82.70040  136.29290  146.71490
 6798.00000   83.45510  136.76020  153.81600
 6798.50000   83.18360  136.81590  150.20080
 6799.00000   83.79280  137.02750  136.19080
 6799.50000   84.06340  137.98370  125.69340
 6800.00000   84.21370  138.37530  122.51340
 6800.50000   83.77520  138.06750  127.34280
 6801.00000   76.76620  137.45020  139.66720
 6801.50000   69.41220  135.75900  149.52670
 6802.00000   67.18520  133.79930  153.51470
 6802.50000   64.95810  130.85490  152.32400
 6803.00000   62.80440  125.58210  150.60250
 6803.50000   62.47970  120.30930  153.78250
 6804.00000   65.15250  115.53100  161.64880
 6804.50000   64.00710  112.73030  164.05890
 6805.00000   62.86450  110.41190  169.82590
 6805.50000   62.22860  109.02300  164.51790
 6806.00000   61.70590  107.59290  153.17330
 6806.50000   61.69180  106.72870  135.58250
 6807.00000   61.37110  107.59300  123.04420
 6807.50000   60.75980  107.08880  110.13300
 6808.00000   60.72560  107.01680   88.59360
 6808.50000   60.72410  107.37690   72.45360
 6809.00000   60.67700  106.65670   61.61770
 6809.50000   60.49630  106.74930   56.48670
 6810.00000   60.59190  107.52090   57.87760
 6810.50000   60.72990  107.20930   62.86440
 6811.00000   60.95040  107.32590   66.27810
 6811.50000   60.96730  108.09750   66.50990
 6812.00000   60.86070  107.85450   64.51000
 6812.50000   61.00570  107.44940   61.18120
 6813.00000   61.64240  108.18590   58.89720
 6813.50000   61.32990  108.21530   55.76560
 6814.00000   60.63630  108.41180   53.44860
 6814.50000   59.73760  108.50560   51.59970
 6815.00000   58.23410  107.99460   60.10220
 6815.50000   57.95330  107.37730   65.22370
 6816.00000   57.64120  107.30530   71.75110
 6816.50000   57.32910  107.42540   75.21570
 6817.00000   57.40880  107.95350   70.62970
 6817.50000   58.64780  108.09040   63.95370
 6818.00000   59.42850  109.51290   58.17590
 6818.50000   60.36900  110.93540   58.23260
 6819.00000   62.50390  111.88930   58.86460
 6819.50000   66.93730  112.42480   58.66080
 6820.00000   71.36330  117.25370   55.21010
 6820.50000   76.41650  121.23830   49.55800
 6821.00000   79.73320  124.66020   41.82070
 6821.50000   80.66530  129.58040   39.31500
 6822.00000   82.89720  132.93200   49.69160
 6822.50000   84.21350  136.28370   63.71740
 6823.00000   85.68680  138.57160   76.97300
 6823.50000   87.43300  140.93980   86.93100
 6824.00000   88.03230  143.30810   84.27750
 6824.50000   87.84840  144.15080   81.82160
