~Version ---------------------------------------------------
VERS.   2.0 : CWLS log ASCII Standard -VERSION 2.0
WRAP.    NO : One line per depth step
DLM . SPACE : Column Data Section Delimiter
~Well ------------------------------------------------------
STRT .FT                5490.0 : START DEPTH
STOP .FT               11889.0 : STOP DEPTH
STEP .FT                   0.5 : STEP
NULL .                -9999.25 : NULL VALUE
COMP .                         : COMPANY
WELL .                         : WELL
FLD  .                         : FIELD
LOC  .                         : LOCATION
PROV .                         : PROVINCE
CNTY .                         : COUNTY
STAT .                         : STATE
CTRY .                         : COUNTRY
SRVC .                         : SERVICE COMPANY
DATE .                         : DATE
UWI  .                         : UNIQUE WELL ID
API  .                         : API NUMBER
SLAT .WGS84  2.609397356444198 : SURFACE LATITUDE
SLON .WGS84 6.5309549648460035 : SURFACE LONGITUDE
DATUM.F                    nan : DEPTH DATUM ELEV
~Curve Information -----------------------------------------
DEPT.FT    : 
DTCO.US/F  : DELTA-T COMPRESSIONAL
DTSM.US/F  : DELTA-T SHEAR
GRS .GAPI  : GAMMA RAY FROM SONIC LOG
~Params ----------------------------------------------------
~Other -----------------------------------------------------
~ASCII -----------------------------------------------------
# ...
 9673.00000   71.22370  119.52760   79.73600
 9673.50000   71.73280  120.83060   92.33700
 9674.00000   71.85520  121.18860  113.35000
 9674.50000   74.97610  122.47730  124.72450
 9675.00000   77.80890  123.23620  131.23970
 9675.50000   78.79840  126.10030  120.95690
 9676.00000   79.01400  127.46070  111.18320
 9676.50000   79.10020  129.44000  103.39870
 9677.00000   82.86890  134.44520  105.00540
 9677.50000   82.51400  136.29660  105.00540
 9678.00000   82.71020  135.96800   93.08190
 9678.50000   82.19470  135.45350   78.67970
 9679.00000   80.11500  135.48090   70.03830
 9679.50000   79.41450  134.04420   79.34760
 9680.00000   79.75280  133.80700   95.53790
 9680.50000   80.03770  134.34900  103.48370
 9681.00000   80.60550  134.84640  110.41270
 9681.50000   81.23880  136.28990  114.02790
 9682.00000   81.59770  137.48630  120.13270
 9682.50000   82.04880  138.55490  124.06500
 9683.00000   83.49210  140.40000  121.16280
 9683.50000   83.95930  141.51480  112.52160
 9684.00000   83.86960  142.13110  101.56090
 9684.50000   83.35010  142.76450   92.03570
 9685.00000   84.12790  144.04320   88.92960
 9685.50000   87.11870  145.13040   90.22810
 9686.00000   86.27400  145.62450   98.27530
 9686.50000   85.94400  144.80120  114.02790
 9687.00000   85.83750  144.51860  139.03270
 9687.50000   84.99610  144.45980  150.39630
 9688.00000   84.44490  143.66470  147.58390
 9688.50000   84.45090  142.86960  139.63520
 9689.00000   84.37980  142.12150  129.38360
 9689.50000   84.37770  141.40890  124.27080
 9690.00000   84.52030  140.82030  119.83500
 9690.50000   84.59770  140.49020  122.16270
 9691.00000   84.60460  140.10470  119.84590
 9691.50000   84.61160  140.43370  122.79770
 9692.00000   84.25980  141.25150  117.38440
 9692.50000   84.99390  141.59590  113.04260
 9693.00000   84.06380  141.63900  106.85020
 9693.50000   84.27290  142.54430  104.73630
 9694.00000   84.75660  143.66060  104.09480
 9694.50000   85.15510  143.78370  106.79820
 9695.00000   85.35800  143.18230  112.39310
 9695.50000   85.95480  143.46610  117.34250
 9696.00000   86.87730  144.13770  113.12820
 9696.50000   87.56220  144.09260  112.98530
 9697.00000   87.74390  144.44610  113.23740
 9697.50000   87.87450  144.64040  114.14310
 9698.00000   87.86670  144.30480  114.02630
 9698.50000   87.64270  144.15570  116.16320
 9699.00000   87.47960  144.57240  118.57310
 9699.50000   87.68000  145.16320  117.14110
 9700.00000   86.20160  144.94680  114.53180
 9700.50000   85.35120  144.06730  116.05060
 9701.00000   85.44510  143.11510  123.96950
 9701.50000   85.41870  143.12670  129.69350
 9702.00000   85.18530  143.13820  136.11240
 9702.50000   85.53670  143.14980  134.90110
 9703.00000   85.88150  143.59090  130.29610
 9703.50000   85.92520  144.03190  118.24560
 9704.00000   85.92760  144.38480  111.91660
 9704.50000   83.74760  143.98390  109.14930
 9705.00000   80.80580  140.24190  107.30460
 9705.50000   80.15430  136.49990  110.65080
 9706.00000   80.25890  136.32120  114.15290
 9706.50000   80.25100  136.24930  117.34180
 9707.00000   80.22650  136.16590  119.18920
 9707.50000   81.80810  135.46430  120.22730
 9708.00000   82.74020  136.76730  121.21980
 9708.50000   83.08540  137.36870  121.32060
 9709.00000   83.29300  137.66940  117.34180
 9709.50000   84.75490  140.16660  115.60990
 9710.00000   86.63110  143.06910  115.31200
 9710.50000   87.34530  147.57540  114.02860
 9711.00000   87.49060  148.60760  102.02100
 9711.50000   87.31910  148.53010  100.48000
 9712.00000   87.72000  148.19550  110.63380
 9712.50000   87.22050  147.93790  124.87410
 9713.00000   85.95760  147.37490  122.94680
 9713.50000   85.45910  144.56840  121.93680
 9714.00000   84.87350  143.51440  122.95100
 9714.50000   84.71770  143.31340  125.29590
 9715.00000   84.48710  142.40480  123.82020
 9715.50000   84.23860  141.58810  125.23920
 9716.00000   84.59470  141.49900  129.70510
 9716.50000   85.05560  141.49340  134.42920
 9717.00000   86.12730  142.48870  133.90030
 9717.50000   86.73940  143.64100  127.88670
 9718.00000   86.76950  144.75640  122.64650
 9718.50000   87.48100  145.47050  122.06950
 9719.00000   88.78300  147.62550  119.75260
 9719.50000   89.68460  153.24340  109.20830
 9720.00000   89.68960  153.69680  101.70970
 9720.50000   89.71460  153.73930   95.18020
 9721.00000   89.80480  154.09230  102.28660
 9721.50000   90.51050  156.29210  112.22030
 9722.00000   91.34240  161.02300  119.72740
 9722.50000   91.69080  161.42390  121.67990
 9723.00000   91.71670  161.73420  120.71420
 9723.50000   91.88970  162.25930  122.46580
 9724.00000   92.50260  163.17570  126.18500
 9724.50000   93.19630  164.22910  126.73460
 9725.00000   93.39770  165.08000  127.28340
 9725.50000   92.92660  165.36650  129.37770
 9726.00000   92.91150  164.98970  132.48870
 9726.50000   92.85640  164.20290  134.52920
 9727.00000   92.46970  163.10690  125.47590
 9727.50000   92.41380  162.15880  121.79660
 9728.00000   92.26320  161.60750  121.78020
 9728.50000   91.78080  160.73880  126.07840
 9729.00000   91.51240  160.19910  135.77900
 9729.50000   91.46020  159.55970  141.44280
 9730.00000   91.21300  158.92040  136.37610
 9730.50000   91.06310  158.10790  131.80210
 9731.00000   90.39670  157.95730  122.46300
 9731.50000   90.14420  157.28290  119.68710
 9732.00000   89.98280  157.22820  120.07850
 9732.50000   89.71340  156.98960  121.17800
 9733.00000   89.20160  154.43020  122.24520
 9733.50000   88.52280  152.79380  122.52690
 9734.00000   88.18710  152.39140  122.52930
 9734.50000   88.06790  151.83310  127.06370
 9735.00000   87.84250  151.52850  130.10150
 9735.50000   87.72890  150.14370  130.39910
 9736.00000   87.84830  149.92460  126.13090
 9736.50000   87.98440  149.94020  121.86050
 9737.00000   88.12390  150.25160  120.68240
 9737.50000   87.84960  150.24840  120.72730
 9738.00000   87.86990  149.75900  120.65810
 9738.50000   87.96530  149.51960  120.68590
 9739.00000   87.85790  149.60910  120.38330
 9739.50000   86.54200  150.13020  116.79840
 9740.00000   85.86760  147.16490  107.76460
 9740.50000   85.69140  145.77830  104.08110
 9741.00000   85.57060  146.09220  108.22710
 9741.50000   85.56800  146.05890  120.35510
 9742.00000   85.52180  145.05750  129.12100
 9742.50000   85.66430  144.96980  136.42540
 9743.00000   86.12110  145.13940  138.89050
 9743.50000   86.17370  145.28480  133.61080
 9744.00000   86.24840  145.63440  130.47600
 9744.50000   86.63370  146.31590  123.36100
 9745.00000   86.83850  146.35800  116.88210
 9745.50000   86.87770  146.54620  113.65530
 9746.00000   86.98940  146.51960  114.64650
 9746.50000   87.07870  146.83730  121.56020
 9747.00000   86.58570  147.09150  125.16400
 9747.50000   86.25010  145.55670  124.67760
 9748.00000   86.21540  145.60780  122.73570
 9748.50000   86.29000  145.72150  121.07290
 9749.00000   86.46540  145.74550  119.28220
 9749.50000   86.94280  145.39310  116.92030
 9750.00000   87.40360  145.75060  115.04820
 9750.50000   87.61150  146.10820  116.17220
 9751.00000   87.51230  146.32970  117.83690
 9751.50000   87.61580  146.71960  121.93280
 9752.00000   87.72520  147.21160  124.70980
 9752.50000   87.72610  147.80000  123.18070
 9753.00000   87.72700  148.12680  122.08100
 9753.50000   87.64490  148.32490  122.57590
 9754.00000   87.21880  148.07470  124.59840
 9754.50000   86.93660  147.56050  127.73530
 9755.00000   86.86600  147.46130  128.57580
 9755.50000   87.09520  147.36210  128.09560
 9756.00000   87.29770  147.14210  126.97500
 9756.50000   86.97410  146.70650  124.84310
 9757.00000   87.52360  146.34990  126.67790
 9757.50000   87.61260  146.49730  126.85280
 9758.00000   87.57110  146.39950  131.71940
 9758.50000   87.49740  146.44640  132.92240
 9759.00000   87.47260  145.87170  127.28340
 9759.50000   87.22290  144.89390  124.64110
 9760.00000   86.55600  143.77490  123.86660
 9760.50000   86.08930  142.56140  125.40890
 9761.00000   85.87840  142.30780  127.64850
 9761.50000   85.68080  142.33690  131.05870
