~Version ---------------------------------------------------
VERS.   2.0 : CWLS log ASCII Standard -VERSION 2.0
WRAP.    NO : One line per depth step
DLM . SPACE : Column Data Section Delimiter
~Well ------------------------------------------------------
STRT .FT                5490.0 : START DEPTH
STOP .FT               11889.0 : STOP DEPTH
STEP .FT                   0.5 : STEP
NULL .                -9999.25 : NULL VALUE
COMP .                         : COMPANY
WELL .                         : WELL
FLD  .                         : FIELD
LOC  .                         : LOCATION
PROV .                         : PROVINCE
CNTY .                         : COUNTY
STAT .                         : STATE
CTRY .                         : COUNTRY
SRVC .                         : SERVICE COMPANY
DATE .                         : DATE
UWI  .                         : UNIQUE WELL ID
API  .                         : API NUMBER
SLAT .WGS84  2.609397356444198 : SURFACE LATITUDE
SLON .WGS84 6.5309549648460035 : SURFACE LONGITUDE
DATUM.F                    nan : DEPTH DATUM ELEV
~Curve Information -----------------------------------------
DEPT.FT    : 
DTCO.US/F  : DELTA-T COMPRESSIONAL
DTSM.US/F  : DELTA-T SHEAR
GRS .GAPI  : GAMMA RAY FROM SONIC LOG
~Params ----------------------------------------------------
~Other -----------------------------------------------------
~ASCII -----------------------------------------------------
# ...
 7982.00000   74.01320  118.60330  129.24900
 7982.50000   73.55760  118.30800  134.15300
 7983.00000   73.80300  118.55860  122.76450
 7983.50000   74.01450  118.60490  116.93800
 7984.00000   73.77070  118.36500  114.62060
 7984.50000   73.76810  117.96600  123.06580
 7985.00000   73.71110  118.23070  131.19990
 7985.50000   74.23070  117.96250  133.38020
 7986.00000   73.13790  117.75860  134.48570
 7986.50000   72.46580  117.15970  138.75290
 7987.00000   73.74960  117.60380  148.97430
 7987.50000   72.24720  117.90790  144.10540
 7988.00000   72.27620  118.16510  136.52020
 7988.50000   72.23010  118.12190  129.90600
 7989.00000   71.86810  117.75680  125.34960
 7989.50000   71.59360  117.51350  123.61520
 7990.00000   71.98150  117.34310  127.95270
 7990.50000   71.54900  117.44980  134.98710
 7991.00000   71.97900  116.76920  138.75260
 7991.50000   72.12010  116.90560  131.50110
 7992.00000   72.17450  116.59870  125.73200
 7992.50000   71.91800  115.24300  119.19960
 7993.00000   71.04370  114.75910  118.04240
 7993.50000   69.96120  113.65290  119.02020
 7994.00000   68.79840  112.26780  119.32620
 7994.50000   66.17250  109.93820  120.65520
 7995.00000   64.56780  106.39020  117.50930
 7995.50000   63.43630  104.30170  116.44410
 7996.00000   62.69070  102.96280  112.89320
 7996.50000   61.66220  102.36030  112.28060
 7997.00000   60.93130  100.50870  125.76980
 7997.50000   60.78680  100.64510  134.83090
 7998.00000   61.15040  101.30300  132.54550
 7998.50000   61.96290  101.89100  122.16200
 7999.00000   62.80480  102.50200  104.68870
 7999.50000   64.02350  103.81410   94.45180
 8000.00000   64.35590  105.77430   73.65770
 8000.50000   64.87460  107.03300   63.41780
 8001.00000   65.32040  108.82010   57.54110
 8001.50000   65.87180  109.28810   68.22340
 8002.00000   66.32950  109.94220   78.90570
 8002.50000   66.92490  110.28480   80.58770
 8003.00000   67.38540  110.76520   77.23080
 8003.50000   67.70600  111.54330   74.05810
 8004.00000   67.54350  111.70190   76.15730
 8004.50000   67.34740  112.25790   83.90160
 8005.00000   67.33750  111.94420   92.93950
 8005.50000   67.32760  111.74490  103.48370
 8006.00000   67.20660  111.40650  105.65930
 8006.50000   66.95430  110.94890  103.84980
 8007.00000   65.99210  110.87280   99.73900
 8007.50000   65.51390  110.52740   99.25700
 8008.00000   65.00980  109.56850   98.50020
 8008.50000   64.64570  108.45360   98.43710
 8009.00000   64.28440  107.54110   99.63110
 8009.50000   63.99160  107.40570  102.70550
 8010.00000   64.08520  107.14610  106.21710
 8010.50000   64.09780  107.00520  106.94090
 8011.00000   64.11040  106.95970  106.35700
 8011.50000   64.20260  107.04190  106.31110
 8012.00000   64.44400  107.21840  105.42470
 8012.50000   64.54860  107.07060   98.66330
 8013.00000   65.98180  107.58380   83.60020
 8013.50000   67.40280  108.23950   74.09790
 8014.00000   67.46090  108.79130   70.99740
 8014.50000   67.68230  109.55660   80.01520
 8015.00000   67.89650  110.46010   91.03630
 8015.50000   68.00160  110.73540  101.94970
 8016.00000   67.15960  111.11510  108.61800
 8016.50000   67.66940  111.64310  109.38440
 8017.00000   67.25480  111.81690  101.37460
 8017.50000   66.52150  111.51650   94.40040
 8018.00000   65.80030  111.27740   88.29990
 8018.50000   65.05980  110.32210   85.45800
 8019.00000   64.93360  108.92030   92.03550
 8019.50000   64.94770  109.58840   96.70170
 8020.00000   66.08900  109.04020   97.08030
 8020.50000   66.92620  108.88200   96.97920
 8021.00000   65.15260  109.24330   98.24010
 8021.50000   66.09540  109.28090   98.47970
 8022.00000   67.03950  111.18610   97.89340
 8022.50000   67.03340  111.11770   92.19680
 8023.00000   67.66860  111.48390   79.38310
 8023.50000   68.18160  112.63480   64.85390
 8024.00000   68.30500  112.56790   60.95580
 8024.50000   68.03180  112.93250   71.35950
 8025.00000   68.26730  113.25670   84.80590
 8025.50000   68.29290  113.19200   93.24990
 8026.00000   68.46460  113.09480   95.44020
 8026.50000   69.01830  112.93860   94.95570
 8027.00000   69.48000  113.26220   93.95110
 8027.50000   68.97970  113.32110   94.27460
 8028.00000   69.49080  113.34400   94.92650
 8028.50000   69.60350  113.44720   96.55520
 8029.00000   69.59010  113.78760   93.32740
 8029.50000   69.64930  114.02350   84.50460
 8030.00000   70.03140  114.71070   76.61650
 8030.50000   70.04000  114.68400   68.47610
 8031.00000   70.04850  114.73290   66.89320
 8031.50000   70.15210  114.53960   70.94730
 8032.00000   70.14160  114.34630   77.35510
 8032.50000   69.59260  114.04900   81.47370
 8033.00000   70.78760  113.39750   83.42860
 8033.50000   70.07120  112.60230   83.60030
 8034.00000   67.82630  111.45900   81.59390
 8034.50000   66.95430  110.31560   79.41840
 8035.00000   65.09010  109.17230   79.27840
 8035.50000   64.01260  108.08850   86.29420
 8036.00000   64.52050  106.75990  101.95910
 8036.50000   63.45130  105.84170  118.24560
 8037.00000   63.32480  104.85180  129.58600
 8037.50000   63.48830  104.46920  131.50110
 8038.00000   64.09900  104.87080  127.76930
 8038.50000   64.48870  104.06760  123.96950
 8039.00000   65.45090  106.27010  108.00260
 8039.50000   67.32910  108.83560   93.49360
 8040.00000   67.60370  110.12540   84.21330
 8040.50000   67.80360  111.09190   74.86370
 8041.00000   68.02760  112.29460   69.02290
 8041.50000   68.45760  112.89890   64.00180
 8042.00000   68.78830  113.51790   67.21100
 8042.50000   68.88060  113.97790   73.95990
 8043.00000   69.28110  114.04870   80.58770
 8043.50000   69.22090  113.95010   86.64840
 8044.00000   69.20640  114.05130   88.37030
 8044.50000   69.13850  113.19670   87.76780
 8045.00000   68.78470  112.21390   90.27830
 8045.50000   68.48770  111.51090   91.66600
 8046.00000   68.33480  110.90290   92.88930
 8046.50000   68.33760  111.23870   91.48340
 8047.00000   68.62340  110.90830   99.56730
 8047.50000   68.21910  110.11870  104.38750
 8048.00000   67.84990  109.69040  111.48710
 8048.50000   67.65040  109.92800  115.85320
 8049.00000   67.65250  110.16560  117.64300
 8049.50000   67.65460  110.40320  113.72660
 8050.00000   68.14070  110.64080  105.77230
 8050.50000   68.25990  110.64670  100.56920
 8051.00000   67.89050  110.84130  101.52080
 8051.50000   68.02990  111.24220  107.66480
 8052.00000   68.62130  111.25670  108.35410
 8052.50000   69.08480  112.04410  102.30020
 8053.00000   69.04750  111.83220   95.34960
 8053.50000   68.94310  111.38540   92.78890
 8054.00000   68.66810  110.59790   89.76250
 8054.50000   67.85620  109.65900   89.02440
 8055.00000   65.21010  107.94800   91.14940
 8055.50000   63.52630  106.16690   92.78410
 8056.00000   62.41370  104.38580   94.35110
 8056.50000   61.96270  102.60480   90.60310
 8057.00000   60.82990  100.82370   89.87290
 8057.50000   60.47780  100.05100   97.30780
 8058.00000   61.36520   99.72250  108.75450
 8058.50000   61.80810   99.41510  113.91720
 8059.00000   61.88460   99.68660  117.09620
 8059.50000   62.62420  100.47840   99.53990
 8060.00000   64.39320  101.48720   84.68520
 8060.50000   65.91980  102.87300   69.14020
 8061.00000   66.71360  103.93400   63.11490
 8061.50000   67.71090  105.45880   59.42000
 8062.00000   67.94140  106.98360   59.96850
 8062.50000   68.10180  108.78660   64.35470
 8063.00000   69.79650  111.29230   70.94770
 8063.50000   70.13650  112.18740   74.83970
 8064.00000   70.37730  112.75670   76.15720
 8064.50000   70.45590  113.45920   77.42490
 8065.00000   70.33470  114.00750   79.68440
 8065.50000   70.52080  114.20470   82.39580
 8066.00000   70.69980  114.38110   85.22000
 8066.50000   70.69300  113.94440   85.52970
 8067.00000   70.40810  114.28040   87.18460
 8067.50000   70.12330  114.55300   95.04890
 8068.00000   70.09070  114.64410  104.27640
 8068.50000   70.12120  114.58460  118.54750
 8069.00000   70.15170  114.28680  126.96140
 8069.50000   70.23170  114.00570  131.65250
 8070.00000   70.13310  113.79090  125.96170
 8070.50000   70.24100  113.40970  118.84810
