~Version ---------------------------------------------------
VERS.   2.0 : CWLS log ASCII Standard -VERSION 2.0
WRAP.    NO : One line per depth step
DLM . SPACE : Column Data Section Delimiter
~Well ------------------------------------------------------
STRT .FT                5490.0 : START DEPTH
STOP .FT               11889.0 : STOP DEPTH
STEP .FT                   0.5 : STEP
NULL .                -9999.25 : NULL VALUE
COMP .                         : COMPANY
WELL .                         : WELL
FLD  .                         : FIELD
LOC  .                         : LOCATION
PROV .                         : PROVINCE
CNTY .                         : COUNTY
STAT .                         : STATE
CTRY .                         : COUNTRY
SRVC .                         : SERVICE COMPANY
DATE .                         : DATE
UWI  .                         : UNIQUE WELL ID
API  .                         : API NUMBER
SLAT .WGS84  2.609397356444198 : SURFACE LATITUDE
SLON .WGS84 6.5309549648460035 : SURFACE LONGITUDE
DATUM.F                    nan : DEPTH DATUM ELEV
~Curve Information -----------------------------------------
DEPT.FT    : 
DTCO.US/F  : DELTA-T COMPRESSIONAL
DTSM.US/F  : DELTA-T SHEAR
GRS .GAPI  : GAMMA RAY FROM SONIC LOG
~Params ----------------------------------------------------
~Other -----------------------------------------------------
~ASCII -----------------------------------------------------
# ...
 8427.00000   70.26150  113.23690   84.50410
 8427.50000   70.00870  115.00040   90.51900
 8428.00000   69.99600  114.40370   93.46570
 8428.50000   70.01420  114.24940   92.29640
 8429.00000   70.13110  114.15730   89.06720
 8429.50000   69.54350  112.81540   86.86400
 8430.00000   69.08860  113.10750   90.35310
 8430.50000   68.63380  112.99620   98.07140
 8431.00000   68.60690  112.41390  104.68870
 8431.50000   68.90360  112.52740  109.58210
 8432.00000   69.66210  113.34540  124.84530
 8432.50000   70.95330  113.77490  135.23400
 8433.00000   72.28010  114.38920  135.55060
 8433.50000   72.12300  115.25210  111.65830
 8434.00000   70.98040  115.30960  100.84330
 8434.50000   70.02620  115.19660   99.54680
 8435.00000   69.98610  114.71830  105.05970
 8435.50000   69.98610  113.79810  105.78840
 8436.00000   68.79780  111.88700  102.98930
 8436.50000   67.37510  110.65580  107.86650
 8437.00000   66.26260  109.92470  116.13670
 8437.50000   65.64140  108.03590  129.48780
 8438.00000   65.58600  105.60680  135.64390
 8438.50000   65.85660  105.26330  137.57900
 8439.00000   64.80920  105.24510  129.09100
 8439.50000   62.98500  105.22300  115.50170
 8440.00000   61.57980  105.03430  105.15090
 8440.50000   60.45710  105.05360   95.65090
 8441.00000   61.44710  104.92720  101.96300
 8441.50000   61.28400  104.63650  103.20480
 8442.00000   62.65320  104.64650   96.39230
 8442.50000   63.72650  104.67540   88.18100
 8443.00000   64.58910  106.13000   83.46260
 8443.50000   65.59180  106.88170   86.73140
 8444.00000   66.59440  108.48810   89.67580
 8444.50000   67.79590  109.68150   91.22100
 8445.00000   68.92970  110.49000   89.46380
 8445.50000   70.11060  112.07870   90.71320
 8446.00000   70.54720  113.28200   89.26410
 8446.50000   71.63430  114.41830   83.84140
 8447.00000   73.11380  115.78680   79.23200
 8447.50000   73.37050  117.15540   84.05220
 8448.00000   73.53590  118.22720   96.57970
 8448.50000   73.90420  118.71280  107.69420
 8449.00000   74.53140  118.85230  113.52080
 8449.50000   74.02660  118.30100  111.45210
 8450.00000   73.69950  117.53160  112.64980
 8450.50000   72.90740  116.76230  116.73990
 8451.00000   72.04540  116.00220  120.95760
 8451.50000   71.16340  114.59900  125.72150
 8452.00000   69.57570  112.18470  125.06170
 8452.50000   68.60750  111.10340  123.35320
 8453.00000   68.35940  110.20550  120.69630
 8453.50000   68.31940  109.63690  117.04120
 8454.00000   68.99840  110.25210  122.50360
 8454.50000   69.56440  110.51040  123.21540
 8455.00000   69.88210  110.94730  122.44930
 8455.50000   70.06590  112.11920  113.12480
 8456.00000   69.98570  113.11510  102.55190
 8456.50000   70.52030  114.11100   97.77540
 8457.00000   70.50690  114.51820   97.98540
 8457.50000   69.70500  115.18220  101.93070
 8458.00000   70.55800  115.81470  103.53450
 8458.50000   71.18250  115.97210  102.81460
 8459.00000   70.96710  115.42050  101.71220
 8459.50000   70.14440  115.23750  105.89440
 8460.00000   69.63480  114.15860  118.60810
 8460.50000   69.33680  112.83210  130.54710
 8461.00000   68.98200  112.51660  136.02010
 8461.50000   68.52570  111.62010  127.28340
 8462.00000   68.13110  111.08120  117.76390
 8462.50000   67.12500  110.27460  113.11620
 8463.00000   65.55950  106.38540  114.15310
 8463.50000   65.01930  105.93460  119.04890
 8464.00000   64.50950  105.32350  126.32940
 8464.50000   64.59580  104.51600  130.04500
 8465.00000   64.68270  103.73030  115.30710
 8465.50000   64.80040  103.57980   98.71880
 8466.00000   65.29860  103.74290   95.04830
 8466.50000   65.57790  104.16860   97.09080
 8467.00000   65.69550  104.44950   93.54200
 8467.50000   66.00900  105.01030   88.69710
 8468.00000   66.41360  106.07720   84.14560
 8468.50000   66.62230  106.34080   80.54690
 8469.00000   67.06800  107.00650   78.32640
 8469.50000   67.38760  108.50900   81.64950
 8470.00000   67.96230  109.41360   85.65950
 8470.50000   68.20220  110.01800   84.05270
 8471.00000   68.36280  110.20940   82.22010
 8471.50000   68.28220  110.40080   78.39110
 8472.00000   67.60410  110.19880   77.87080
 8472.50000   67.37520  109.73090   79.98570
 8473.00000   67.96520  109.48530   82.38120
 8473.50000   67.91700  109.47070   86.49650
 8474.00000   67.91560  109.40420   95.67730
 8474.50000   67.58880  109.51790  105.77390
 8475.00000   67.11440  109.07720  112.82350
 8475.50000   66.62340  108.70880  107.81960
 8476.00000   66.19140  108.26180  100.56380
 8476.50000   65.77190  107.60100   89.92740
 8477.00000   65.44580  106.73780   84.38470
 8477.50000   65.39370  106.29600   83.94070
 8478.00000   65.06100  106.06080   85.86030
 8478.50000   64.57920  105.27280   87.14440
 8479.00000   64.31400  105.17030   96.91440
 8479.50000   64.31320  104.94840  108.57520
 8480.00000   64.25530  104.36200  113.57670
 8480.50000   64.18050  104.22150  109.96080
 8481.00000   64.09060  104.21930   90.93740
 8481.50000   63.81930  103.71370   73.64610
 8482.00000   63.97280  104.18110   70.81440
 8482.50000   64.20130  104.40770   75.16500
 8483.00000   63.99430  104.64930   80.80690
 8483.50000   64.59580  104.91340   84.85560
 8484.00000   65.71930  106.39850   83.93170
 8484.50000   66.75730  107.94830   82.12420
 8485.00000   68.37930  109.13060   80.63790
 8485.50000   69.15910  110.87080   80.75270
 8486.00000   69.49560  112.39980   82.33070
 8486.50000   69.68190  113.20560   82.28770
 8487.00000   69.39720  113.75940   80.31460
 8487.50000   68.97160  113.65930   81.64840
 8488.00000   68.68680  113.32820   88.34050
 8488.50000   68.34810  113.14770   93.72400
 8489.00000   68.30560  112.71250   96.07550
 8489.50000   68.79270  112.40280   92.95010
 8490.00000   69.24650  112.08930   98.25730
 8490.50000   68.95150  111.77590  109.20770
 8491.00000   68.67160  111.65050  126.98220
 8491.50000   69.25920  112.11220  132.73860
 8492.00000   69.74570  112.67230  129.46900
 8492.50000   68.98400  112.09450  119.75190
 8493.00000   69.18710  110.89180  105.89380
 8493.50000   67.38230  110.30760   94.89770
 8494.00000   66.91790  109.19490   97.72830
 8494.50000   65.75860  108.08540  104.85190
 8495.00000   64.72920  106.08080  113.12410
 8495.50000   63.87730  105.24250  117.03120
 8496.00000   63.51530  104.78980  121.25070
 8496.50000   63.31600  104.11750  125.49740
 8497.00000   63.76700  103.32500  127.88600
 8497.50000   64.45860  103.32300  121.25820
 8498.00000   65.37570  104.20560  110.54970
 8498.50000   66.77890  104.88590  103.78490
 8499.00000   67.01150  105.40980   99.79650
 8499.50000   66.69880  105.47330   98.43430
 8500.00000   68.46260  108.21760   95.53090
 8500.50000   68.84850  109.07750   95.26220
 8501.00000   69.81710  110.51110   99.30020
 8501.50000   70.42710  111.09190  101.59030
 8502.00000   70.15980  110.78420   99.62290
 8502.50000   69.82570  110.78710   95.93370
 8503.00000   69.49160  111.61810  101.37460
 8503.50000   69.18000  110.93900  105.89360
 8504.00000   68.77340  110.69270  111.87620
 8504.50000   68.82020  110.96850  113.64450
 8505.00000   69.46070  111.03830  114.74470
 8505.50000   69.47990  110.63150  113.88130
 8506.00000   69.02890  110.12750  113.79000
 8506.50000   68.87860  109.62340  115.82060
 8507.00000   67.67580  109.89120  117.17490
 8507.50000   66.02200  109.55650  117.72490
 8508.00000   65.77170  108.66640  118.01940
 8508.50000   65.30560  107.18290  110.41250
 8509.00000   64.26750  106.02730  103.63410
 8509.50000   63.69200  104.97780  100.92270
 8510.00000   62.78240  103.86850  112.07900
 8510.50000   61.19620  102.34860  125.77320
 8511.00000   60.36400  101.34560  132.05420
 8511.50000   60.83770  101.08950  121.77540
 8512.00000   61.25630  101.39900  108.13770
 8512.50000   60.27600  101.70860   90.35780
 8513.00000   62.44550  102.01490   82.99830
 8513.50000   62.34350  102.01930   89.41100
 8514.00000   62.84820  102.07120   94.51490
 8514.50000   64.73360  102.62240  104.73960
 8515.00000   64.54220  103.37970   92.03630
 8515.50000   65.39060  104.32630   79.68440
