~Version ---------------------------------------------------
VERS.   2.0 : CWLS log ASCII Standard -VERSION 2.0
WRAP.    NO : One line per depth step
DLM . SPACE : Column Data Section Delimiter
~Well ------------------------------------------------------
STRT .FT                5490.0 : START DEPTH
STOP .FT               11889.0 : STOP DEPTH
STEP .FT                   0.5 : STEP
NULL .                -9999.25 : NULL VALUE
COMP .                         : COMPANY
WELL .                         : WELL
FLD  .                         : FIELD
LOC  .                         : LOCATION
PROV .                         : PROVINCE
CNTY .                         : COUNTY
STAT .                         : STATE
CTRY .                         : COUNTRY
SRVC .                         : SERVICE COMPANY
DATE .                         : DATE
UWI  .                         : UNIQUE WELL ID
API  .                         : API NUMBER
SLAT .WGS84  2.609397356444198 : SURFACE LATITUDE
SLON .WGS84 6.5309549648460035 : SURFACE LONGITUDE
DATUM.F                    nan : DEPTH DATUM ELEV
~Curve Information -----------------------------------------
DEPT.FT    : 
DTCO.US/F  : DELTA-T COMPRESSIONAL
DTSM.US/F  : DELTA-T SHEAR
GRS .GAPI  : GAMMA RAY FROM SONIC LOG
~Params ----------------------------------------------------
~Other -----------------------------------------------------
~ASCII -----------------------------------------------------
# ...
 8872.00000   69.45720  117.99110   98.89470
 8872.50000   68.93850  116.81350   96.78950
 8873.00000   68.39720  115.96560  105.59320
 8873.50000   67.84940  115.10060  118.24630
 8874.00000   66.80900  112.79530  128.33370
 8874.50000   65.99170  112.04660  131.45120
 8875.00000   65.90990  111.70470  129.84150
 8875.50000   66.13940  110.34740  124.87410
 8876.00000   66.25050  110.45480  114.62000
 8876.50000   66.37260  111.27780  103.17790
 8877.00000   65.90480  110.97050   92.94010
 8877.50000   66.35250  111.47550   95.09910
 8878.00000   67.04410  111.87990  101.01430
 8878.50000   67.73570  112.79530  104.32060
 8879.00000   68.99860  114.73630   97.77420
 8879.50000   69.84570  115.18470   90.23640
 8880.00000   70.40260  116.58490   82.69860
 8880.50000   70.41060  117.51860   81.79630
 8881.00000   70.56920  118.20190   85.23230
 8881.50000   70.67690  117.62380   89.12640
 8882.00000   70.09140  117.28930   93.54240
 8882.50000   69.73150  117.65450   95.56580
 8883.00000   69.56070  116.66100   93.93870
 8883.50000   69.50940  115.66740   90.15120
 8884.00000   68.82620  114.77710   91.72180
 8884.50000   68.61320  113.51000  105.29190
 8885.00000   68.25870  112.60220  115.23360
 8885.50000   67.69990  112.34190  126.18850
 8886.00000   67.55450  111.96490  126.71190
 8886.50000   67.79260  111.28770  122.46400
 8887.00000   68.35370  112.24820  107.14270
 8887.50000   68.86600  113.15510   93.54260
 8888.00000   69.15290  113.33450   85.01680
 8888.50000   69.46980  113.40860   76.67180
 8889.00000   69.41250  113.79750   83.02910
 8889.50000   68.72290  114.05250   90.52990
 8890.00000   68.34170  113.90830  103.63490
 8890.50000   68.27700  112.97870  108.39670
 8891.00000   67.73570  112.63500  109.62580
 8891.50000   67.46830  112.94570   98.96530
 8892.00000   67.40550  113.37490   86.46200
 8892.50000   67.34540  112.45940   79.67350
 8893.00000   67.55530  111.83020   84.33170
 8893.50000   68.63780  112.86130   95.48210
 8894.00000   69.66160  113.02510  105.00930
 8894.50000   70.60640  114.61230  107.54400
 8895.00000   71.10950  115.39610   99.18780
 8895.50000   70.42050  115.63340   90.00270
 8896.00000   70.00700  115.83760   81.34140
 8896.50000   69.95590  115.44970   78.56540
 8897.00000   69.43290  114.76950   85.68650
 8897.50000   67.55530  113.15730   93.10230
 8898.00000   65.93160  109.20390   97.56110
 8898.50000   65.78230  108.35180  102.27930
 8899.00000   65.46570  107.94300  108.00330
 8899.50000   65.94370  106.80800  109.35900
 8900.00000   65.53800  106.32920  109.18860
 8900.50000   65.36610  106.32350  110.50140
 8901.00000   64.51830  105.87940  111.17070
 8901.50000   64.19500  105.68850   94.73310
 8902.00000   64.04440  105.79600   77.89310
 8902.50000   64.66570  105.72670   65.90910
 8903.00000   65.20990  105.65230   60.58580
 8903.50000   64.33200  105.21180   71.92340
 8904.00000   64.65850  104.84380   86.75410
 8904.50000   65.06030  104.01200  101.63520
 8905.00000   65.75120  104.52050  109.11130
 8905.50000   67.01410  106.48080  107.51320
 8906.00000   68.24940  108.27300   96.31400
 8906.50000   69.13460  109.83850   79.00320
 8907.00000   69.62750  111.59260   64.71120
 8907.50000   69.39670  112.52000   61.24430
 8908.00000   69.70420  112.87890   65.14860
 8908.50000   70.08110  114.54940   65.84910
 8909.00000   71.18450  115.84130   68.51930
 8909.50000   71.40600  116.34040   75.11700
 8910.00000   71.69280  116.45680   83.29250
 8910.50000   72.24610  117.75360   86.76360
 8911.00000   72.51530  120.16660   84.85560
 8911.50000   72.63700  120.83060   86.56280
 8912.00000   72.50260  120.73040   87.96870
 8912.50000   72.15590  120.49650   88.57820
 8913.00000   72.15170  120.32950   89.57760
 8913.50000   71.40390  120.22920   91.55940
 8914.00000   70.13870  119.82830   91.70530
 8914.50000   69.76540  118.53370   94.43120
 8915.00000   70.59930  117.23900   97.00650
 8915.50000   68.57770  115.94440  113.12410
 8916.00000   68.33870  114.64970  120.05310
 8916.50000   68.14390  113.61400  117.47340
 8917.00000   67.46510  114.01490  110.41270
 8917.50000   67.43500  113.24010  106.21390
 8918.00000   67.65370  112.81480  107.66820
 8918.50000   67.86990  112.71060  109.05700
 8919.00000   68.21680  113.08200  107.85200
 8919.50000   68.56170  113.62830  102.88120
 8920.00000   68.50580  113.77720   97.80800
 8920.50000   68.65410  113.68680   91.13250
 8921.00000   68.76800  113.82860   86.45710
 8921.50000   69.11390  114.34490   86.92340
 8922.00000   69.31750  114.54160   93.72630
 8922.50000   69.52110  114.46360   94.13920
 8923.00000   69.72470  114.14850   87.16660
 8923.50000   69.76540  114.04820   82.43200
 8924.00000   69.76540  114.30080   85.41670
 8924.50000   69.76540  114.72180   93.73630
 8925.00000   69.77680  114.74420  101.02400
 8925.50000   69.83410  114.58570  101.11730
 8926.00000   69.89140  115.16730   93.57610
 8926.50000   69.84560  115.11310   88.38760
 8927.00000   69.58080  114.49920   85.13890
 8927.50000   69.25460  114.05420   85.55910
 8928.00000   68.65200  113.37400   87.25070
 8928.50000   68.35550  112.07830   93.24130
 8929.00000   68.11160  111.94340   95.69660
 8929.50000   67.63080  111.83960   93.77180
 8930.00000   67.52970  111.44220   91.09220
 8930.50000   67.65680  111.48940   86.97770
 8931.00000   68.10710  111.94420   86.81070
 8931.50000   68.47240  112.30680   89.05460
 8932.00000   68.84370  112.80460   92.47550
 8932.50000   68.72340  113.89370   96.71970
 8933.00000   71.00240  115.24760   99.08580
 8933.50000   71.85180  116.50320   95.41040
 8934.00000   72.20790  116.96330   90.05300
 8934.50000   72.12420  117.03960   85.32120
 8935.00000   72.01430  116.57490   85.50000
 8935.50000   71.55910  116.67120   84.82440
 8936.00000   71.62390  116.59840   83.93240
 8936.50000   71.77910  116.54770   85.59820
 8937.00000   71.68000  115.90330   88.72240
 8937.50000   71.27000  115.29550   92.33750
 8938.00000   70.43090  115.00130   98.27910
 8938.50000   71.24920  114.92590  101.77160
 8939.00000   70.31040  114.29960  108.30980
 8939.50000   69.66050  113.50980  114.65060
 8940.00000   69.44090  113.06880  116.70790
 8940.50000   69.54010  112.62780  107.38780
 8941.00000   69.20930  111.65720   92.75250
 8941.50000   69.13840  111.53590   90.05470
 8942.00000   69.51000  110.71220  102.47470
 8942.50000   69.87080  111.41620  114.27050
 8943.00000   71.15630  112.62230  119.02260
 8943.50000   71.00540  113.36420  110.93130
 8944.00000   69.80260  114.13940   99.17550
 8944.50000   69.57350  114.08700   85.98460
 8945.00000   69.76140  113.61460   82.89220
 8945.50000   69.56270  113.06310   86.76580
 8946.00000   68.96730  113.16640   87.25900
 8946.50000   68.35660  113.29690   84.63810
 8947.00000   68.07090  112.49510   89.52330
 8947.50000   68.21700  111.69330   99.41060
 8948.00000   68.73060  111.83620  117.05690
 8948.50000   69.41980  112.70040  130.72300
 8949.00000   71.04350  114.01110  137.55750
 8949.50000   72.39660  117.03010  121.90600
 8950.00000   72.98860  118.04280   92.05360
 8950.50000   73.53490  119.47870   79.57530
 8951.00000   73.59210  120.32070   67.93510
 8951.50000   72.96340  120.99420   78.79900
 8952.00000   72.43520  120.57710   90.48570
 8952.50000   72.28770  119.61100  108.46990
 8953.00000   72.04730  118.98670  114.41300
 8953.50000   71.91600  119.59040  108.20840
 8954.00000   71.46430  119.75400  103.55370
 8954.50000   70.43170  117.60640  111.86600
 8955.00000   69.63710  116.23160  121.29480
 8955.50000   68.93650  115.55100  120.92620
 8956.00000   68.22620  114.87030  117.62830
 8956.50000   67.83010  113.97550  115.59510
 8957.00000   67.84700  113.30720  117.35110
 8957.50000   68.24410  113.14790  119.49080
 8958.00000   69.30430  113.43000  115.73370
 8958.50000   70.12630  114.15030  111.20960
 8959.00000   69.64110  115.50160  105.29190
 8959.50000   69.85580  116.26170  110.07200
 8960.00000   70.94440  116.57750  110.46360
 8960.50000   71.68960  117.60590  100.77290
