~Version ---------------------------------------------------
VERS.   2.0 : CWLS log ASCII Standard -VERSION 2.0
WRAP.    NO : One line per depth step
DLM . SPACE : Column Data Section Delimiter
~Well ------------------------------------------------------
STRT .FT                5490.0 : START DEPTH
STOP .FT               11889.0 : STOP DEPTH
STEP .FT                   0.5 : STEP
NULL .                -9999.25 : NULL VALUE
COMP .                         : COMPANY
WELL .                         : WELL
FLD  .                         : FIELD
LOC  .                         : LOCATION
PROV .                         : PROVINCE
CNTY .                         : COUNTY
STAT .                         : STATE
CTRY .                         : COUNTRY
SRVC .                         : SERVICE COMPANY
DATE .                         : DATE
UWI  .                         : UNIQUE WELL ID
API  .                         : API NUMBER
SLAT .WGS84  2.609397356444198 : SURFACE LATITUDE
SLON .WGS84 6.5309549648460035 : SURFACE LONGITUDE
DATUM.F                    nan : DEPTH DATUM ELEV
~Curve Information -----------------------------------------
DEPT.FT    : 
DTCO.US/F  : DELTA-T COMPRESSIONAL
DTSM.US/F  : DELTA-T SHEAR
GRS .GAPI  : GAMMA RAY FROM SONIC LOG
~Params ----------------------------------------------------
~Other -----------------------------------------------------
~ASCII -----------------------------------------------------
# ...
 7626.00000   68.46840  112.70230  116.11330
 7626.50000   68.12660  112.10880  127.11380
 7627.00000   68.22980  111.58920  139.93730
 7627.50000   68.27540  111.82810  133.02760
 7628.00000   68.23720  110.74060  119.62560
 7628.50000   68.10840  110.65020  114.61280
 7629.00000   67.88610  110.39440  125.42640
 7629.50000   67.59050  109.80900  123.61880
 7630.00000   67.72940  109.24960   97.60960
 7630.50000   67.70780  108.68640   88.47130
 7631.00000   66.95410  107.68410   95.77700
 7631.50000   65.57100  107.32200  105.89440
 7632.00000   64.03230  106.13050  112.87660
 7632.50000   62.98500  105.97930  124.10520
 7633.00000   61.73610  105.02100  128.20520
 7633.50000   60.54940  102.86210  117.80210
 7634.00000   59.82780  102.11560   96.95770
 7634.50000   59.71900  101.08600   71.69130
 7635.00000   59.50370  100.15790   60.34590
 7635.50000   59.34740   99.66350   59.54990
 7636.00000   59.12680   99.43850   74.77920
 7636.50000   59.15330   99.55850   89.50240
 7637.00000   59.61730  100.30790   97.91090
 7637.50000   60.70470  100.76820   88.26020
 7638.00000   61.66200  101.48800   70.45910
 7638.50000   61.51170  102.01200   54.67950
 7639.00000   61.63190  102.24780   44.48670
 7639.50000   61.91690  102.77280   57.56710
 7640.00000   62.11280  103.23250   73.66650
 7640.50000   62.32330  103.50550   83.58740
 7641.00000   63.28550  103.95110   90.52940
 7641.50000   64.12390  104.43420   86.60230
 7642.00000   64.71010  104.85290   77.38850
 7642.50000   65.14980  105.27160   68.96040
 7643.00000   65.93160  106.19490   66.72960
 7643.50000   66.48030  107.83390   71.91310
 7644.00000   66.62220  108.57330   74.18980
 7644.50000   66.54730  108.42540   66.72960
 7645.00000   66.45590  108.39600   60.60680
 7645.50000   66.44280  108.23560   60.59680
 7646.00000   66.16710  108.13460   67.88250
 7646.50000   66.16590  108.20730   82.39530
 7647.00000   66.39130  108.48920   93.02560
 7647.50000   66.37740  108.38520  101.67610
 7648.00000   66.30090  107.85660   96.15140
 7648.50000   66.22450  107.84540   86.15940
 7649.00000   66.10000  108.02740   83.49010
 7649.50000   66.08490  108.12350   97.75970
 7650.00000   66.61870  108.04560  109.60870
 7650.50000   66.82880  107.64050  116.99030
 7651.00000   66.08190  107.15700   95.44280
 7651.50000   65.45050  106.67340   80.03540
 7652.00000   64.33790  105.53790   86.46230
 7652.50000   63.74770  104.22070   98.51290
 7653.00000   62.86450  103.81860  108.75580
 7653.50000   61.84220  103.05540  107.34990
 7654.00000   60.40080   99.95330   99.19300
 7654.50000   59.45370   99.47670   87.33650
 7655.00000   59.27670   98.93960   76.67130
 7655.50000   59.91770   98.75570   85.46650
 7656.00000   61.23750   99.17270   96.49840
 7656.50000   61.93240  100.03200  105.89380
 7657.00000   62.20300  101.87020   92.06920
 7657.50000   63.55610  103.40440   73.95990
 7658.00000   63.81420  104.29100   61.56330
 7658.50000   64.01650  105.09160   52.39810
 7659.00000   64.43830  105.90730   48.95510
 7659.50000   64.77670  106.72290   55.29860
 7660.00000   65.25590  107.38290   66.56960
 7660.50000   65.69100  107.72770   75.81290
 7661.00000   66.71160  108.28500   76.82240
 7661.50000   67.14790  108.87710   77.04790
 7662.00000   67.12930  109.35940   82.04940
 7662.50000   67.88900  110.02710   96.80330
 7663.00000   68.70970  110.69480  104.35600
 7663.50000   69.46770  110.96180   99.50700
 7664.00000   68.86630  110.81900   93.79440
 7664.50000   68.43460  110.64040   94.34800
 7665.00000   68.14170  110.56770  104.08680
 7665.50000   67.80090  110.82250  110.16300
 7666.00000   66.49390  109.78490  111.14870
 7666.50000   64.54940  107.88990  109.72600
 7667.00000   63.65140  106.48080  105.74380
 7667.50000   62.26900  104.97740  104.71920
 7668.00000   61.84250  104.64720  105.08990
 7668.50000   61.58080  104.19770  111.91970
 7669.00000   61.78690  103.57890  118.24630
 7669.50000   62.09210  103.14210  121.45380
 7670.00000   63.43800  103.95660  124.79080
 7670.50000   66.47300  105.71740  118.86650
 7671.00000   67.34580  108.13350  102.58050
 7671.50000   68.64130  110.44490   84.62940
 7672.00000   70.00070  111.44530   75.74940
 7672.50000   70.44210  112.44570   74.08390
 7673.00000   71.60170  113.50150   76.94600
 7673.50000   73.03310  115.40180   82.69710
 7674.00000   73.03310  116.75490   88.73960
 7674.50000   73.11330  117.63280   93.31540
 7675.00000   73.61450  118.34090  101.97800
 7675.50000   73.62190  117.20590  117.34250
 7676.00000   72.15610  116.55440  129.70610
 7676.50000   71.22390  116.31620  133.95720
 7677.00000   69.60020  114.83410  132.81470
 7677.50000   69.32850  113.09180  129.99560
 7678.00000   68.53990  111.63910  124.77520
 7678.50000   67.45330  110.25870  121.46360
 7679.00000   67.29010  110.33970  129.69430
 7679.50000   67.23280  110.76140  134.52090
 7680.00000   67.33900  109.08790  135.53760
 7680.50000   67.73650  109.59070  136.37710
 7681.00000   68.19240  110.19110  139.88560
 7681.50000   68.34240  110.38560  142.32760
 7682.00000   69.52510  110.87940  131.30970
 7682.50000   69.90600  111.69720  104.99000
 7683.00000   69.86580  112.15430   89.62560
 7683.50000   68.79050  111.50300   83.93510
 7684.00000   67.73950  110.55810  104.16880
 7684.50000   66.26260  108.57150  118.24560
 7685.00000   63.82700  106.18060  123.07720
 7685.50000   61.54170  104.30360  121.54180
 7686.00000   59.97830  102.89940  117.55130
 7686.50000   59.33170  101.55370  109.48630
 7687.00000   58.96140   99.45020  101.33180
 7687.50000   59.17340   98.77860   93.54200
 7688.00000   60.72640   99.22040  100.35740
 7688.50000   61.68710  100.62620  116.42140
 7689.00000   62.39910  102.13130  123.36700
 7689.50000   64.17930  103.44890  112.14480
 7690.00000   65.95950  104.91240   89.10650
 7690.50000   67.05440  107.10240   67.23290
 7691.00000   66.97460  109.29230   53.47410
 7691.50000   65.99170  109.46890   49.93420
 7692.00000   65.14550  109.13360   52.09670
 7692.50000   64.81900  109.15440   60.70440
 7693.00000   64.44300  107.07910   85.40790
 7693.50000   63.78040  106.30520  100.37060
 7694.00000   63.95270  105.16350  108.90640
 7694.50000   63.55850  105.05290  119.83790
 7695.00000   63.62500  105.50130  132.65590
 7695.50000   65.36030  106.06940  132.85680
 7696.00000   65.87210  106.91520  121.40250
 7696.50000   66.09340  107.73370  104.99000
 7697.00000   66.18860  108.54310   88.72180
 7697.50000   66.20110  108.62510   78.89610
 7698.00000   66.03010  108.70700   75.81770
 7698.50000   65.86360  108.13460   85.65900
 7699.00000   65.55640  107.25760   97.96050
 7699.50000   65.29450  107.30770  105.54230
 7700.00000   65.18700  107.39960   95.73450
 7700.50000   65.24210  107.28270   89.83340
 7701.00000   65.39890  106.95000   95.41430
 7701.50000   65.70260  106.80560  105.17280
 7702.00000   65.58080  107.17840  110.08720
 7702.50000   64.96940  107.08950   99.56790
 7703.00000   63.70650  106.36930   87.90460
 7703.50000   62.50370  105.72910   74.01060
 7704.00000   61.27120  104.74350   80.67190
 7704.50000   60.27860  103.49290   92.88980
 7705.00000   59.31640  101.36910  108.00330
 7705.50000   59.42660  100.27460  103.84300
 7706.00000   59.74860   99.76070   94.13900
 7706.50000   60.19620   99.72860   89.92740
 7707.00000   61.18060  100.73940  102.27930
 7707.50000   63.09020  102.80310  120.25130
 7708.00000   65.18710  104.78440  122.61460
 7708.50000   66.41270  106.18060  107.70200
 7709.00000   67.43500  107.88480   78.78060
 7709.50000   67.82150  109.25470   61.30730
 7710.00000   68.33430  110.35190   53.95250
 7710.50000   68.79570  111.73640   50.99610
 7711.00000   69.54200  112.37000   54.96360
 7711.50000   70.14790  112.74750   73.35790
 7712.00000   70.09990  112.79850   91.99660
 7712.50000   69.80680  112.84940  109.20830
 7713.00000   69.45520  113.02580  117.18020
 7713.50000   69.10360  112.58630  123.73870
 7714.00000   68.47490  111.53780  125.22110
 7714.50000   67.57380  110.60230  128.48930
