~Version ---------------------------------------------------
VERS.   2.0 : CWLS log ASCII Standard -VERSION 2.0
WRAP.    NO : One line per depth step
DLM . SPACE : Column Data Section Delimiter
~Well ------------------------------------------------------
STRT .FT                5490.0 : START DEPTH
STOP .FT               11889.0 : STOP DEPTH
STEP .FT                   0.5 : STEP
NULL .                -9999.25 : NULL VALUE
COMP .                         : COMPANY
WELL .                         : WELL
FLD  .                         : FIELD
LOC  .                         : LOCATION
PROV .                         : PROVINCE
CNTY .                         : COUNTY
STAT .                         : STATE
CTRY .                         : COUNTRY
SRVC .                         : SERVICE COMPANY
DATE .                         : DATE
UWI  .                         : UNIQUE WELL ID
API  .                         : API NUMBER
SLAT .WGS84  2.609397356444198 : SURFACE LATITUDE
SLON .WGS84 6.5309549648460035 : SURFACE LONGITUDE
DATUM.F                    nan : DEPTH DATUM ELEV
~Curve Information -----------------------------------------
DEPT.FT    : 
DTCO.US/F  : DELTA-T COMPRESSIONAL
DTSM.US/F  : DELTA-T SHEAR
GRS .GAPI  : GAMMA RAY FROM SONIC LOG
~Params ----------------------------------------------------
~Other -----------------------------------------------------
~ASCII -----------------------------------------------------
# ...
 10550.50000   69.84710  116.04880  126.46870
 10551.00000   69.79160  115.75210  120.80700
 10551.50000   67.31500  115.21840  105.64580
 10552.00000   66.00680  113.73630   98.54430
 10552.50000   66.31140  112.25420   91.86090
 10553.00000   66.44300  112.18500   85.94660
 10553.50000   67.28490  112.89330   81.57240
 10554.00000   69.35440  113.65780   85.62580
 10554.50000   71.04350  118.03410   93.75080
 10555.00000   73.16810  121.31260  100.25080
 10555.50000   75.34340  123.22510  100.04990
 10556.00000   77.43220  129.11250   83.85190
 10556.50000   80.51530  134.99990   73.95820
 10557.00000   84.15360  140.88730   76.02560
 10557.50000   87.39670  146.77470   81.22420
 10558.00000   87.90580  149.29530   82.50770
 10558.50000   86.84990  149.87490   75.39570
 10559.00000   85.27150  148.69920   70.52600
 10559.50000   89.56130  143.44050   89.95730
 10560.00000   65.06510  134.39220  114.24650
 10560.50000   57.33450  125.34390  138.53570
 10561.00000   58.88470  118.03850  165.99700
 10561.50000   57.76210  112.08820  184.82590
 10562.00000   61.33030  106.13800  203.88920
 10562.50000   60.18270  103.32830  223.30390
 10563.00000   57.85230  102.42220  242.71860
 10563.50000   56.51930  100.58120  254.76910
 10564.00000   56.27870   97.81500  223.29720
 10564.50000   55.67470   97.05980  171.17880
 10565.00000   54.05790   97.70040  100.65180
 10565.50000   52.55060   96.11400   59.83800
 10566.00000   51.74830   95.15430   57.22710
 10566.50000   52.15630   94.30950   61.23590
 10567.00000   50.47640   93.45150   69.74230
 10567.50000   51.06000   92.70380   77.10890
 10568.00000   51.21340   93.17080   82.13150
 10568.50000   51.05060   92.63560   82.13150
 10569.00000   50.71670   92.13770   77.80460
 10569.50000   51.64910   92.48530   74.56250
 10570.00000   52.47880   91.92830   62.94560
 10570.50000   53.15070   91.95600   45.34000
 10571.00000   53.30750   91.39310   32.98820
 10571.50000   53.54340   91.33090   25.15540
 10572.00000   53.20460   91.26880   22.59470
 10572.50000   52.94240   91.37430   22.98180
 10573.00000   52.72650   91.76290   26.02620
 10573.50000   52.61750   91.78580   30.87940
 10574.00000   52.58050   91.76450   35.00180
 10574.50000   52.44790   91.96360   42.62860
 10575.00000   51.82550   92.24010   47.44880
 10575.50000   51.78700   91.95630   55.88420
 10576.00000   52.06400   91.59830   60.05160
 10576.50000   52.95060   91.24030   61.42520
 10577.00000   53.24270   90.95400   54.98040
 10577.50000   52.52100   91.24460   41.42360
 10578.00000   51.52880   90.55490   30.12890
 10578.50000   51.51890   90.32790   24.25160
 10579.00000   51.50910   90.18930   21.41070
 10579.50000   51.37740   90.21190   21.39750
 10580.00000   51.10790   90.35220   27.00710
 10580.50000   50.81130   90.48560   40.82130
 10581.00000   51.07770   91.04590   56.78830
 10581.50000   51.81410   91.67390   69.15660
 10582.00000   52.08220   91.83140   64.99700
 10582.50000   52.73240   92.54930   56.78830
 10583.00000   52.64150   93.12680   63.89200
 10583.50000   52.26670   93.65190   86.91480
 10584.00000   52.17110   93.81890  121.60310
 10584.50000   52.08550   94.27220  140.84030
 10585.00000   52.64010   95.11530  133.26440
 10585.50000   52.36720   95.15220  104.38810
 10586.00000   52.51190   94.79160   75.79650
 10586.50000   52.25640   94.31040   54.18240
 10587.00000   51.89780   94.47650   47.42320
 10587.50000   52.13260   94.68610   72.69890
 10588.00000   52.22510   95.13500  100.56180
 10588.50000   53.21230   95.95930  130.97190
 10589.00000   53.57150   96.27150  128.52910
 10589.50000   53.57700   95.19890   90.22870
 10590.00000   53.58250   95.65230   51.88300
 10590.50000   53.58810   94.89020   31.61730
 10591.00000   53.66980   94.82330   34.36540
 10591.50000   53.33320   94.82330   43.53240
 10592.00000   52.66260   94.36510   51.47930
 10592.50000   54.26720   93.75420   54.44670
 10593.00000   53.53990   94.02230   54.05270
 10593.50000   53.57530   94.46910   55.03410
 10594.00000   54.20900   94.35260   52.00490
 10594.50000   55.30220   94.16500   52.18590
 10595.00000   55.61780   94.10230   56.99160
 10595.50000   55.41530   94.46020   59.06410
 10596.00000   55.11480   95.38130   54.72900
 10596.50000   55.94250   95.19170   44.90640
 10597.00000   55.60060   95.27630   40.49690
 10597.50000   56.10410   94.80400   45.90930
 10598.00000   56.13380   94.84820   58.95860
 10598.50000   56.10210   94.92190   81.49150
 10599.00000   56.01300   94.99560   95.66790
 10599.50000   55.67810   95.38200   97.07340
 10600.00000   56.13460   95.90110   81.75240
 10600.50000   56.34330   95.77580   71.85150
 10601.00000   55.99640   95.30340   66.27810
 10601.50000   55.69380   95.80680   65.00740
 10602.00000   56.09920   95.66500   61.57030
 10602.50000   56.23100   95.36580   66.87830
 10603.00000   56.44860   94.96490   75.16540
 10603.50000   56.48770   94.81910   89.62610
 10604.00000   56.45010   95.10000  103.30480
 10604.50000   56.57610   95.37760  109.59670
 10605.00000   56.57610   95.52400  100.71240
 10605.50000   56.45980   95.24830   79.98570
 10606.00000   56.45200   95.13800   69.20940
 10606.50000   56.59180   95.17520   64.31990
 10607.00000   56.76080   95.26840   63.54560
 10607.50000   56.80880   95.39930   60.70480
 10608.00000   56.85890   95.77820   58.60830
 10608.50000   56.68560   96.05450   57.26170
 10609.00000   56.34400   95.70360   55.69650
 10609.50000   56.36680   95.93490   59.49970
 10610.00000   56.40100   95.13800   64.27550
 10610.50000   56.34650   94.85070   66.42840
 10611.00000   56.45190   94.77390   65.34180
 10611.50000   56.43410   95.23990   62.59250
 10612.00000   56.26540   95.52580   61.30860
 10612.50000   56.12000   94.81400   61.12980
 10613.00000   56.15910   94.35910   59.95120
 10613.50000   56.11200   94.60480   58.94620
 10614.00000   56.09870   94.57770   57.19090
 10614.50000   55.97450   94.41420   58.66960
 10615.00000   55.52820   94.46990   61.59840
 10615.50000   54.75180   94.39170   63.23500
 10616.00000   54.57870   94.27000   60.10990
 10616.50000   54.33560   94.14820   57.50150
 10617.00000   53.76730   94.02650   58.14750
 10617.50000   53.78660   94.23250   61.26080
 10618.00000   53.98770   94.52780   62.34940
 10618.50000   53.72350   94.20760   61.87690
 10619.00000   53.63540   94.11690   61.72300
 10619.50000   53.80190   94.67820   62.56960
 10620.00000   53.93400   95.26610   64.14480
 10620.50000   54.06210   94.56340   61.65870
 10621.00000   54.49220   94.37070   57.30210
 10621.50000   55.07220   94.39230   52.57060
 10622.00000   54.16580   93.72990   52.17700
 10622.50000   53.47190   93.87480   53.48580
 10623.00000   53.75490   94.30950   53.86060
 10623.50000   53.33260   94.06110   52.91260
 10624.00000   53.34430   91.99120   56.70410
 10624.50000   53.42930   92.42850   58.65970
 10625.00000   53.44610   92.56350   60.98230
 10625.50000   53.56560   92.30860   62.51550
 10626.00000   54.13690   92.81920   67.00720
 10626.50000   54.68570   93.23150   76.06920
 10627.00000   55.12480   93.72650   82.93540
 10627.50000   55.77770   94.45310   82.73450
 10628.00000   55.66920   95.30460   66.42010
 10628.50000   55.47810   94.96640   54.67950
 10629.00000   54.95630   94.62290   44.10830
 10629.50000   54.54050   94.77600   44.27180
 10630.00000   53.84320   94.79740   55.50780
 10630.50000   53.24270   94.53240   67.03090
 10631.00000   52.52100   93.86170   79.38270
 10631.50000   51.38970   92.81390   81.12560
 10632.00000   50.31120   92.62440   86.64040
 10632.50000   50.51560   92.52080   90.28840
 10633.00000   51.06570   91.99810   94.11540
 10633.50000   50.78880   91.60600   91.17500
 10634.00000   50.56650   91.77300   87.31770
 10634.50000   51.65250   91.94010   83.90160
 10635.00000   52.66500   92.57900   73.65870
 10635.50000   53.58850   93.09720   63.41570
 10636.00000   53.83580   92.80410   49.81210
 10636.50000   53.86570   93.32450   43.37360
 10637.00000   53.57340   93.40130   41.96400
