~Version ---------------------------------------------------
VERS.   2.0 : CWLS log ASCII Standard -VERSION 2.0
WRAP.    NO : One line per depth step
DLM . SPACE : Column Data Section Delimiter
~Well ------------------------------------------------------
STRT .FT                5490.0 : START DEPTH
STOP .FT               11889.0 : STOP DEPTH
STEP .FT                   0.5 : STEP
NULL .                -9999.25 : NULL VALUE
COMP .                         : COMPANY
WELL .                         : WELL
FLD  .                         : FIELD
LOC  .                         : LOCATION
PROV .                         : PROVINCE
CNTY .                         : COUNTY
STAT .                         : STATE
CTRY .                         : COUNTRY
SRVC .                         : SERVICE COMPANY
DATE .                         : DATE
UWI  .                         : UNIQUE WELL ID
API  .                         : API NUMBER
SLAT .WGS84  2.609397356444198 : SURFACE LATITUDE
SLON .WGS84 6.5309549648460035 : SURFACE LONGITUDE
DATUM.F                    nan : DEPTH DATUM ELEV
~Curve Information -----------------------------------------
DEPT.FT    : 
DTCO.US/F  : DELTA-T COMPRESSIONAL
DTSM.US/F  : DELTA-T SHEAR
GRS .GAPI  : GAMMA RAY FROM SONIC LOG
~Params ----------------------------------------------------
~Other -----------------------------------------------------
~ASCII -----------------------------------------------------
# ...
 10985.50000   51.91970   87.68410   33.87340
 10986.00000   52.22670   87.72850   37.19000
 10986.50000   52.07600   87.60200   36.34570
 10987.00000   51.64990   88.38510   33.67660
 10987.50000   52.34840   88.87680   33.71170
 10988.00000   51.57490   89.87910   35.09640
 10988.50000   51.39930   88.77180   36.45270
 10989.00000   52.17310   87.87450   37.58750
 10989.50000   52.87630   87.87520   37.32720
 10990.00000   51.94120   87.66760   34.61550
 10990.50000   52.36060   87.14720   30.99280
 10991.00000   53.20190   86.89340   29.90280
 10991.50000   52.89350   87.44140   31.57970
 10992.00000   52.06150   87.52950   32.70580
 10992.50000   52.60280   87.73830   32.35040
 10993.00000   52.95530   87.94710   30.08490
 10993.50000   51.97980   88.42540   31.54760
 10994.00000   51.10780   89.95090   35.66770
 10994.50000   50.99770   91.34660   39.74160
 10995.00000   50.88520   92.73310   41.37810
 10995.50000   50.67080   93.97890   40.59260
 10996.00000   50.45650   97.09570   40.54610
 10996.50000   50.24210  103.94470   40.22640
 10997.00000   50.02530  108.48190   35.94340
 10997.50000   49.89140  112.44100   29.85410
 10998.00000   49.67800  116.40020   26.45460
 10998.50000   49.42390  119.02410   27.77500
 10999.00000   49.21570  119.68650   37.58480
 10999.50000   49.02480  119.56600   38.83950
 11000.00000   48.78690  117.06530   36.98410
 11000.50000   49.46520  113.59720   34.65030
 11001.00000   50.66970  109.16060   39.65330
 11001.50000   51.09200  105.02000   51.38320
 11002.00000   50.69270  100.41990   68.62100
 11002.50000   50.42120   95.73620   85.77420
 11003.00000   50.45880   93.76570   97.07040
 11003.50000   51.08810   91.17400   96.27820
 11004.00000   51.37670   89.84080   77.55160
 11004.50000   51.22380   89.38050   56.54080
 11005.00000   52.40070   88.98830   40.56560
 11005.50000   51.80320   88.83900   37.96410
 11006.00000   51.64420   88.69420   38.18520
 11006.50000   51.12570   88.18300   40.88040
 11007.00000   50.25820   87.58880   46.63010
 11007.50000   50.95790   88.31520   49.86960
 11008.00000   49.98220   87.99160   51.97780
 11008.50000   49.99240   87.74570   54.10710
 11009.00000   50.02300   87.92080   53.47160
 11009.50000   49.72740   87.42790   52.23730
 11010.00000   48.47080   87.18790   53.93820
 11010.50000   47.34790   87.07320   56.93450
 11011.00000   48.66170   87.07320   59.67770
 11011.50000   50.65700   85.60320   54.07660
 11012.00000   52.24360   88.43470   46.65850
 11012.50000   54.54780   93.15380   42.88100
 11013.00000   55.82890   97.87290   45.42860
 11013.50000   56.30600  102.17440   49.44690
 11014.00000   56.76100  103.77810   49.35840
 11014.50000   58.10980  105.38180   48.40330
 11015.00000   61.12100  106.98550   51.29760
 11015.50000   57.22240  107.72040   51.81710
 11016.00000   54.46610  106.18360   50.02600
 11016.50000   52.88060  104.14860   44.30150
 11017.00000   53.60220  101.32400   46.24810
 11017.50000   53.60220   98.49930   54.37790
 11018.00000   54.52430   99.71430   65.64530
 11018.50000   56.36850  101.23290   73.32670
 11019.00000   56.72940  102.21460   76.53140
 11019.50000   56.19970  102.83840   65.97180
 11020.00000   56.52740  103.46210   66.34390
 11020.50000   57.29850  103.79330   65.58390
 11021.00000   57.75170  103.53350   56.19790
 11021.50000   57.75510  103.49780   41.13600
 11022.00000   57.88050  103.97890   29.16860
 11022.50000   57.49160  103.96220   26.96660
 11023.00000   56.85350  103.86200   25.90290
 11023.50000   56.84520  103.27730   26.97560
 11024.00000   56.94050  102.69260   39.13840
 11024.50000   56.25000  102.10790   48.70820
 11025.00000   55.67870  100.88300   55.65470
 11025.50000   55.31430  100.48950   56.00740
 11026.00000   54.72500  100.11830   57.46280
 11026.50000   52.27940   98.36610   57.54690
 11027.00000   51.33380   95.96060   59.18200
 11027.50000   50.83110   95.14850   57.78210
 11028.00000   50.71060   94.01770   53.76320
 11028.50000   50.08590   92.88690   43.29050
 11029.00000   49.54470   91.75610   37.88940
 11029.50000   49.65970   90.62530   44.17590
 11030.00000   49.66330   89.88000   46.87490
 11030.50000   49.66690   90.14730   45.95630
 11031.00000   49.67060   90.28090   40.24290
 11031.50000   49.67350   89.47910   37.36580
 11032.00000   49.63340   89.94690   37.39550
 11032.50000   49.30420   90.61510   37.30940
 11033.00000   49.19040   90.24090   33.75950
 11033.50000   49.07600   90.14730   32.08750
 11034.00000   49.15570   89.92910   30.87630
 11034.50000   49.28790   89.67670   33.50020
 11035.00000   49.28880   89.42440   34.73280
 11035.50000   49.30900   89.17210   36.90490
 11036.00000   49.40090   89.04900   38.94600
 11036.50000   49.52110   89.42740   39.72740
 11037.00000   49.53230   89.49200   38.54630
 11037.50000   49.54350   89.66590   36.45670
 11038.00000   49.68260   90.01140   38.14340
 11038.50000   49.88200   90.21420   38.70540
 11039.00000   49.90670   90.21420   38.32900
 11039.50000   49.96570   89.68910   34.59520
 11040.00000   50.93270   89.41140   32.70720
 11040.50000   51.67750   89.45910   33.16030
 11041.00000   50.40970   89.39600   38.71210
 11041.50000   50.38660   89.31890   40.83990
 11042.00000   50.38870   89.24180   41.55820
 11042.50000   50.49160   89.14410   38.66190
 11043.00000   50.65140   88.80160   37.47260
 11043.50000   50.77550   88.34230   36.08230
 11044.00000   50.90630   88.69310   38.22750
 11044.50000   50.79780   87.80780   40.76620
 11045.00000   50.90040   89.81530   42.96000
 11045.50000   50.91400   89.76000   40.39020
 11046.00000   51.25250   89.01050   39.09830
 11046.50000   50.44630   89.29260   34.34380
 11047.00000   50.26590   89.99790   34.54470
 11047.50000   50.47630   90.54730   32.73710
 11048.00000   50.94740   90.81470   34.46640
 11048.50000   51.04770   94.25320   34.33330
 11049.00000   54.14480   96.72190   33.77070
 11049.50000   55.94890   99.16990   32.16000
 11050.00000   58.56800  101.61800   31.50420
 11050.50000   60.09860  104.22160   31.33830
 11051.00000   62.50410  109.17230   31.97250
 11051.50000   63.88200  113.33330   31.78320
 11052.00000   63.82310  114.26880   29.89610
 11052.50000   63.22710  113.40660   29.63990
 11053.00000   62.83490  112.36240   28.30100
 11053.50000   61.95890  109.84420   29.34960
 11054.00000   57.63300  104.92670   31.36890
 11054.50000   55.15620  100.00910   39.01350
 11055.00000   54.32600   95.09150   53.22730
 11055.50000   54.00100   94.89110   64.92210
 11056.00000   53.12110   93.84600   79.97080
 11056.50000   52.33900   92.62300   87.10770
 11057.00000   52.90460   92.10040   79.32560
 11057.50000   53.12270   91.69720   63.11450
 11058.00000   53.34520   91.74930   40.18620
 11058.50000   53.31590   92.34460   26.26000
 11059.00000   53.48880   92.94000   20.03390
 11059.50000   53.48310   93.56300   22.33640
 11060.00000   53.33480   93.92940   26.49830
 11060.50000   53.53040   95.00500   31.19100
 11061.00000   55.06110   96.34070   45.35790
 11061.50000   55.46780   96.61370   54.40470
 11062.00000   55.22080   96.39800   60.22450
 11062.50000   55.17290   96.42560   57.94910
 11063.00000   56.49010   98.45770   51.11780
 11063.50000   57.93340  101.85050   47.82750
 11064.00000   61.02660  106.02900   44.74160
 11064.50000   62.29440  108.98700   43.48300
 11065.00000   62.28990  111.09190   44.88120
 11065.50000   62.08300  112.32110   47.30780
 11066.00000   62.16570  112.29900   47.81090
 11066.50000   61.95370  112.09560   48.35170
 11067.00000   61.90260  111.35130   46.73710
 11067.50000   62.05290  111.38540   50.59610
 11068.00000   61.87870  110.39360   58.34950
 11068.50000   61.09070  109.23190   71.97840
 11069.00000   59.73760  107.56980   86.72080
 11069.50000   58.44440  105.61740   92.27600
 11070.00000   57.90090  104.44590   94.95340
 11070.50000   57.98560  104.64710   96.55460
 11071.00000   57.81590  104.44670   86.31170
 11071.50000   54.74660  101.25410   75.79620
 11072.00000   53.72430   98.30290   72.40340
