~Version ---------------------------------------------------
VERS.   2.0 : CWLS log ASCII Standard -VERSION 2.0
WRAP.    NO : One line per depth step
DLM . SPACE : Column Data Section Delimiter
~Well ------------------------------------------------------
STRT .FT                5490.0 : START DEPTH
STOP .FT               11889.0 : STOP DEPTH
STEP .FT                   0.5 : STEP
NULL .                -9999.25 : NULL VALUE
COMP .                         : COMPANY
WELL .                         : WELL
FLD  .                         : FIELD
LOC  .                         : LOCATION
PROV .                         : PROVINCE
CNTY .                         : COUNTY
STAT .                         : STATE
CTRY .                         : COUNTRY
SRVC .                         : SERVICE COMPANY
DATE .                         : DATE
UWI  .                         : UNIQUE WELL ID
API  .                         : API NUMBER
SLAT .WGS84  2.609397356444198 : SURFACE LATITUDE
SLON .WGS84 6.5309549648460035 : SURFACE LONGITUDE
DATUM.F                    nan : DEPTH DATUM ELEV
~Curve Information -----------------------------------------
DEPT.FT    : 
DTCO.US/F  : DELTA-T COMPRESSIONAL
DTSM.US/F  : DELTA-T SHEAR
GRS .GAPI  : GAMMA RAY FROM SONIC LOG
~Params ----------------------------------------------------
~Other -----------------------------------------------------
~ASCII -----------------------------------------------------
# ...
 11333.50000   51.33680   88.18930   32.67190
 11334.00000   51.54390   88.38980   42.30680
 11334.50000   51.32650   88.56160   50.38730
 11335.00000   51.42770   88.67900   55.88450
 11335.50000   51.97980   87.78840   50.46180
 11336.00000   52.25000   87.87380   41.70200
 11336.50000   52.24790   88.52010   34.97810
 11337.00000   52.20880   88.73430   31.19180
 11337.50000   52.21660   87.88060   36.00110
 11338.00000   52.34110   87.61220   49.72620
 11338.50000   52.03990   88.08210   67.78450
 11339.00000   51.78080   87.82380   86.44550
 11339.50000   51.98940   87.37590   94.18230
 11340.00000   52.27950   86.87090   84.40900
 11340.50000   52.36280   86.28500   67.62140
 11341.00000   52.13850   86.38520   49.18610
 11341.50000   51.80230   86.52820   39.86700
 11342.00000   52.10150   87.30570   45.18220
 11342.50000   51.79500   87.49440   52.74180
 11343.00000   51.62670   87.11600   57.88730
 11343.50000   51.55540   86.91630   54.78200
 11344.00000   51.02960   87.04680   49.58890
 11344.50000   51.22750   87.63810   50.28610
 11345.00000   50.85890   88.18230   62.21070
 11345.50000   50.83050   88.35140   71.97660
 11346.00000   51.36660   88.67310   81.39110
 11346.50000   51.17940   87.82750   73.99010
 11347.00000   51.06870   87.66370   58.29430
 11347.50000   51.16940   88.13710   49.90910
 11348.00000   51.41590   87.59370   51.10700
 11348.50000   51.28410   87.49470   57.09640
 11349.00000   51.11110   87.66100   64.37670
 11349.50000   51.40730   87.38930   64.62740
 11350.00000   51.42280   87.32670   53.86520
 11350.50000   51.42710   87.00660   44.37620
 11351.00000   51.30690   86.72660   41.25560
 11351.50000   50.89730   85.98430   45.10790
 11352.00000   51.15390   86.14840   53.97850
 11352.50000   51.41620   86.64210   66.18780
 11353.00000   51.39900   87.87030   69.74270
 11353.50000   51.00250   87.47600   58.29460
 11354.00000   51.28860   87.11880   47.72220
 11354.50000   51.41080   87.35350   48.52500
 11355.00000   51.41930   86.93640   54.07690
 11355.50000   51.42780   86.69290   62.87770
 11356.00000   51.55100   87.30000   64.66700
 11356.50000   51.57480   87.60360   61.34540
 11357.00000   51.91720   85.11980   54.64650
 11357.50000   52.71440   85.78210   50.76300
 11358.00000   53.01750   85.03180   46.34200
 11358.50000   51.94300   85.40850   44.98740
 11359.00000   51.57500   85.38760   44.73340
 11359.50000   51.21790   85.61690   47.14780
 11360.00000   50.94220   85.84410   47.88350
 11360.50000   50.67150   85.80060   48.64860
 11361.00000   50.56340   85.59680   51.03960
 11361.50000   50.23490   86.27830   50.90330
 11362.00000   49.49880   86.90240   51.35110
 11362.50000   49.25700   87.63870   51.85530
 11363.00000   49.59780   87.70160   55.30230
 11363.50000   50.47570   88.38210   56.83310
 11364.00000   51.52180   89.38880   56.23820
 11364.50000   52.18720   89.39690   53.73020
 11365.00000   52.37660   89.09330   46.19370
 11365.50000   52.88160   91.30120   39.11680
 11366.00000   53.57900   91.73400   35.38240
 11366.50000   53.65730   91.50550   38.91840
 11367.00000   53.69340   91.27770   43.45470
 11367.50000   53.12210   91.09540   41.68330
 11368.00000   52.46310   90.21340   38.72500
 11368.50000   51.97630   89.68140   41.00980
 11369.00000   51.89850   89.52830   50.79340
 11369.50000   52.10560   88.53950   70.81400
 11370.00000   51.50130   87.53750   98.81190
 11370.50000   51.26110   86.66820  150.19700
 11371.00000   52.03990   85.55230  187.12270
 11371.50000   52.19140   83.69570  149.77510
 11372.00000   52.72720   82.80150  123.78750
 11372.50000   53.69760   85.55210   51.84950
 11373.00000   53.78670   84.26510   40.40940
 11373.50000   53.43430   83.97970   27.46400
 11374.00000   53.48760   84.72140   20.86480
 11374.50000   53.79960   86.19620   19.70680
 11375.00000   53.86070   84.90240   23.53260
 11375.50000   53.63660   84.04340   26.67770
 11376.00000   53.98410   85.22300   27.44150
 11376.50000   53.59900   84.97020   25.34050
 11377.00000   52.89260   84.59640   23.89110
 11377.50000   52.38220   83.71700   21.17610
 11378.00000   52.31190   83.40750   19.57660
 11378.50000   52.58350   83.53460   18.86080
 11379.00000   52.60700   84.02980   17.76150
 11379.50000   52.49120   83.43310   18.27380
 11380.00000   52.37110   83.24670   18.78470
 11380.50000   52.09690   83.41640   19.98310
 11381.00000   52.01290   83.47990   23.15820
 11381.50000   52.08860   84.36640   26.05930
 11382.00000   51.81320   84.87140   29.32080
 11382.50000   51.60520   83.58310   29.82510
 11383.00000   51.64590   84.19380   29.10990
 11383.50000   51.63050   85.10820   27.48740
 11384.00000   52.47900   85.78270   27.21420
 11384.50000   53.10740   86.96890   25.18290
 11385.00000   54.03360   86.27890   23.15170
 11385.50000   55.46780   89.53160   20.41580
 11386.00000   56.52320   91.17530   18.20930
 11386.50000   56.91180   91.72950   16.44470
 11387.00000   56.78090   93.22440   16.62980
 11387.50000   57.65810   93.90970   20.93780
 11388.00000   56.95500   94.46770   27.18880
 11388.50000   56.15940   94.61390   30.57830
 11389.00000   55.73840   94.13560   33.89220
 11389.50000   55.67670   93.27140   42.32760
 11390.00000   54.73820   92.29780   56.30900
 11390.50000   53.77350   91.66000   79.08140
 11391.00000   53.50190   90.97130  102.88120
 11391.50000   53.33850   90.23750  119.00670
 11392.00000   53.14980   89.50360  124.22060
 11392.50000   52.84390   88.88430  115.77520
 11393.00000   52.29520   88.53460   95.95210
 11393.50000   51.84310   88.62470   76.58480
 11394.00000   51.59790   88.96820   70.33930
 11394.50000   51.64590   89.27420   73.13800
 11395.00000   51.78290   89.63790   72.63640
 11395.50000   51.23010   90.11340   64.89800
 11396.00000   51.27360   90.44680   57.58520
 11396.50000   51.55850   90.78870   56.53360
 11397.00000   51.02130   90.79370   61.75050
 11397.50000   50.76610   90.83920   64.75850
 11398.00000   50.93420   91.99750   63.27040
 11398.50000   50.68650   92.01750   66.91020
 11399.00000   50.68350   92.06770   70.04350
 11399.50000   50.56620   92.03260   61.25310
 11400.00000   50.37540   92.04200   51.95670
 11400.50000   50.17890   92.42060   37.65800
 11401.00000   49.93510   92.07840   41.77530
 11401.50000   50.08540   91.29650   58.34490
 11402.00000   50.20570   91.18440   71.60050
 11402.50000   50.21120   90.92270   64.62120
 11403.00000   50.21660   91.03040   44.73770
 11403.50000   50.22210   91.13870   35.39850
 11404.00000   50.32070   91.19200   30.56460
 11404.50000   50.54300   91.38510   30.25270
 11405.00000   50.65680   91.68740   37.50740
 11405.50000   50.56710   91.38100   42.87990
 11406.00000   50.68680   91.56030   42.27740
 11406.50000   50.67500   91.99810   33.03030
 11407.00000   50.66330   92.19150   27.00350
 11407.50000   50.51840   92.02310   26.70710
 11408.00000   50.32600   92.15500   29.60810
 11408.50000   50.34180   92.43830   33.61560
 11409.00000   50.43090   92.67250   38.71240
 11409.50000   50.44460   92.40300   41.86360
 11410.00000   50.49680   92.30980   41.28970
 11410.50000   50.44700   92.21660   39.91930
 11411.00000   50.44960   92.20510   38.87690
 11411.50000   50.45230   92.29320   38.07820
 11412.00000   50.45490   91.53450   36.45270
 11412.50000   50.45750   92.40840   36.53150
 11413.00000   50.55540   91.71510   37.01300
 11413.50000   50.58730   92.27310   34.17180
 11414.00000   50.57610   92.35000   30.68050
 11414.50000   50.45810   92.32690   30.49000
 11415.00000   50.34670   92.62390   35.09710
 11415.50000   50.33610   91.90980   40.21850
 11416.00000   50.58500   91.95500   41.51330
 11416.50000   51.10390   92.47150   42.39620
 11417.00000   51.47190   92.38860   40.22720
 11417.50000   51.77560   92.22430   34.76290
 11418.00000   51.88930   92.09770   30.87020
 11418.50000   51.94970   91.72550   32.06640
 11419.00000   52.20930   90.84480   35.12710
 11419.50000   52.35910   92.73610   33.07080
 11420.00000   52.23680   92.04090   31.97200
