~Version ---------------------------------------------------
VERS.   2.0 : CWLS log ASCII Standard -VERSION 2.0
WRAP.    NO : One line per depth step
DLM . SPACE : Column Data Section Delimiter
~Well ------------------------------------------------------
STRT .FT                5490.0 : START DEPTH
STOP .FT               11889.0 : STOP DEPTH
STEP .FT                   0.5 : STEP
NULL .                -9999.25 : NULL VALUE
COMP .                         : COMPANY
WELL .                         : WELL
FLD  .                         : FIELD
LOC  .                         : LOCATION
PROV .                         : PROVINCE
CNTY .                         : COUNTY
STAT .                         : STATE
CTRY .                         : COUNTRY
SRVC .                         : SERVICE COMPANY
DATE .                         : DATE
UWI  .                         : UNIQUE WELL ID
API  .                         : API NUMBER
SLAT .WGS84  2.609397356444198 : SURFACE LATITUDE
SLON .WGS84 6.5309549648460035 : SURFACE LONGITUDE
DATUM.F                    nan : DEPTH DATUM ELEV
~Curve Information -----------------------------------------
DEPT.FT    : 
DTCO.US/F  : DELTA-T COMPRESSIONAL
DTSM.US/F  : DELTA-T SHEAR
GRS .GAPI  : GAMMA RAY FROM SONIC LOG
~Params ----------------------------------------------------
~Other -----------------------------------------------------
~ASCII -----------------------------------------------------
# ...
 6291.00000   52.44110   93.57880   44.85580
 6291.50000   52.63660   93.57570   44.39820
 6292.00000   52.06770   93.78870   42.66610
 6292.50000   52.66060   93.78140   41.32590
 6293.00000   52.52850   93.76340   40.58700
 6293.50000   52.34940   93.76750   40.97170
 6294.00000   51.30710   94.12500   41.30170
 6294.50000   52.14900   94.03750   40.67040
 6295.00000   51.46800   93.78600   39.14710
 6295.50000   50.73500   93.51080   37.50720
 6296.00000   51.49900   93.25920   40.46160
 6296.50000   51.17600   92.90760   42.78590
 6297.00000   50.73940   92.76650   42.73390
 6297.50000   50.28720   92.62540   38.41160
 6298.00000   50.28120   92.59720   35.04680
 6298.50000   50.19260   92.04660   39.32930
 6299.00000   49.79740   91.49590   42.32740
 6299.50000   49.90290   91.16550   44.34830
 6300.00000   50.13500   92.29870   44.41910
 6300.50000   50.25440   92.93620   44.57390
 6301.00000   50.40720   92.60950   42.70390
 6301.50000   50.61520   93.28990   40.82100
 6302.00000   50.76880   93.25900   38.19570
 6302.50000   50.85820   93.30110   36.46050
 6303.00000   50.93580   93.20520   38.14300
 6303.50000   51.34410   93.10930   39.92660
 6304.00000   51.23350   92.97670   38.14000
 6304.50000   50.75540   93.10410   37.33070
 6305.00000   50.72340   93.30810   37.46900
 6305.50000   50.62810   93.48840   40.62810
 6306.00000   50.61750   93.28220   41.16750
 6306.50000   50.96450   92.95030   41.88180
 6307.00000   51.59220   93.61920   43.76630
 6307.50000   51.09800   93.32120   43.45750
 6308.00000   51.53250   93.31280   41.86490
 6308.50000   50.69240   93.30440   39.06420
 6309.00000   50.56650   93.47160   40.49280
 6309.50000   50.62190   93.55300   41.42360
 6310.00000   50.70500   93.15240   40.72290
 6310.50000   50.72080   92.80590   39.48680
 6311.00000   50.48500   93.38870   40.00480
 6311.50000   50.88770   93.84030   38.98360
 6312.00000   51.22740   93.91880   37.15590
 6312.50000   50.51880   93.80970   34.19350
 6313.00000   50.40040   93.65430   36.33590
 6313.50000   51.10720   93.73210   36.05130
 6314.00000   51.64770   93.97690   40.26900
 6314.50000   51.60760   93.45190   40.46980
 6315.00000   51.44720   93.88910   42.93010
 6315.50000   51.47260   93.89770   40.67070
 6316.00000   51.58300   94.17510   39.55500
 6316.50000   51.62230   94.55430   39.39260
 6317.00000   51.88620   94.73270   38.88420
 6317.50000   51.94700   94.91110   39.96270
 6318.00000   51.74910   94.83770   41.05820
 6318.50000   51.72340   94.65560   42.47820
 6319.00000   51.68500   94.56330   43.06520
 6319.50000   51.64340   94.33430   43.57790
 6320.00000   51.60180   94.32990   44.38220
 6320.50000   51.56020   94.31880   42.85550
 6321.00000   51.51850   94.30780   41.29220
 6321.50000   51.47690   94.48540   41.28160
 6322.00000   52.02760   94.78870   41.52420
 6322.50000   52.56960   94.98200   43.08080
 6323.00000   51.36680   94.71550   43.66220
 6323.50000   51.39590   94.58640   42.86320
 6324.00000   51.94260   95.06040   41.27320
 6324.50000   52.19750   94.76960   41.36600
 6325.00000   51.57250   94.23960   42.43130
 6325.50000   50.72530   94.00000   42.40770
 6326.00000   51.52710   94.40090   42.02630
 6326.50000   51.05380   93.88540   40.69180
 6327.00000   50.03210   93.19810   40.60500
 6327.50000   50.05460   93.73270   39.44800
 6328.00000   50.47630   93.07940   41.19820
 6328.50000   50.23350   92.34630   42.09850
 6329.00000   50.37220   91.78550   43.36560
 6329.50000   50.20290   92.59540   41.84990
 6330.00000   50.13360   92.59680   41.19450
 6330.50000   50.25340   92.59810   41.47400
 6331.00000   50.59660   92.59940   39.46560
 6331.50000   51.71690   93.10060   38.10990
 6332.00000   52.00980   93.47500   36.23930
 6332.50000   51.49530   93.90240   37.11290
 6333.00000   51.64460   94.24210   37.40430
 6333.50000   51.95120   94.50380   36.46880
 6334.00000   52.06400   94.43340   35.63520
 6334.50000   52.04230   94.40590   33.89220
 6335.00000   51.84050   94.66310   36.45300
 6335.50000   51.72860   94.83800   36.17680
 6336.00000   51.34050   94.49190   39.08310
 6336.50000   50.85150   94.10290   39.61620
 6337.00000   51.25530   93.65530   42.90590
 6337.50000   51.46860   93.29110   42.91870
 6338.00000   51.39290   93.65060   44.20880
 6338.50000   51.33910   93.89970   43.02050
 6339.00000   51.46860   93.53230   38.41120
 6339.50000   52.21410   93.69920   34.61790
 6340.00000   53.07080   93.86600   33.33920
 6340.50000   53.23080   94.03290   35.32310
 6341.00000   52.55890   94.19980   37.63230
 6341.50000   51.02550   94.46570   40.43840
 6342.00000   53.36080   94.79450   41.16880
 6342.50000   53.56710   95.12330   40.76510
 6343.00000   53.97830   95.45210   38.94140
 6343.50000   53.51240   95.78090   38.09580
 6344.00000   52.88980   96.10970   37.87590
 6344.50000   55.28630   96.43850   38.08030
 6345.00000   55.60540   96.55400   40.51980
 6345.50000   54.11090   97.59280   43.38180
 6346.00000   54.44560   97.95620   42.64670
 6346.50000   54.45440   97.83250   39.85480
 6347.00000   54.46320   98.15460   36.57330
 6347.50000   54.18180   98.57010   38.26030
 6348.00000   53.79570   98.38110   39.18990
 6348.50000   53.69930   97.43450   39.84820
 6349.00000   53.59300   96.49490   38.86280
 6349.50000   52.61620   96.29040   38.93820
 6350.00000   52.25590   95.84290   39.54270
 6350.50000   52.18380   95.14790   42.94470
 6351.00000   52.50390   94.62820   45.26490
 6351.50000   52.17010   94.21010   46.05620
 6352.00000   51.64900   94.20740   45.65730
 6352.50000   51.66220   94.20470   46.05620
 6353.00000   51.72020   94.25320   45.54880
 6353.50000   51.40700   94.20180   44.52720
 6354.00000   51.11690   94.14370   42.55540
 6354.50000   51.17290   94.47280   40.35140
 6355.00000   51.55800   95.00890   38.88420
 6355.50000   51.64550   94.53810   39.46560
 6356.00000   51.60770   94.26920   40.79120
 6356.50000   50.89730   94.61050   41.79750
 6357.00000   50.15560   94.54160   41.93340
 6357.50000   49.96520   94.40710   42.53570
 6358.00000   50.05410   95.04840   44.09880
 6358.50000   50.21720   95.40490   45.31690
 6359.00000   50.74170   95.43500   43.88590
 6359.50000   51.34830   95.79130   41.42380
 6360.00000   51.51490   96.13150   37.65780
 6360.50000   51.60940   96.47170   36.11610
 6361.00000   51.93980   96.81190   35.56190
 6361.50000   52.00420   97.17340   38.23920
 6362.00000   52.00470   97.46360   38.19230
 6362.50000   52.00520   97.40990   37.49000
 6363.00000   51.89400   97.43170   36.38770
 6363.50000   51.78810   97.86100   38.23880
 6364.00000   51.79150   97.32380   41.72810
 6364.50000   51.72370   96.81740   44.19750
 6365.00000   51.48870   96.76780   46.88040
 6365.50000   51.30560   96.71820   44.00210
 6366.00000   51.49800   96.40760   41.28530
 6366.50000   51.65420   96.40760   38.82320
 6367.00000   51.91930   96.75850   40.16690
 6367.50000   52.28250   97.40990   42.82230
 6368.00000   52.42110   97.20950   44.09300
 6368.50000   52.83420   97.20950   40.51980
 6369.00000   53.47840   97.27890   37.43600
 6369.50000   53.66580   97.47430   34.65810
 6370.00000   53.36920   97.42870   35.77150
 6370.50000   52.87330   97.22260   36.37610
 6371.00000   52.24450   96.67130   38.26050
 6371.50000   52.17420   96.60720   38.33610
 6372.00000   52.40080   96.24300   38.09750
 6372.50000   52.47470   95.52870   36.13370
 6373.00000   52.27150   95.13910   34.26280
 6373.50000   52.24360   94.82860   33.48770
 6374.00000   52.11430   94.76570   36.14810
 6374.50000   52.09650   94.57150   38.01880
 6375.00000   52.02180   94.68440   40.06040
 6375.50000   52.11080   95.13280   39.04810
 6376.00000   52.23430   95.58220   37.05550
 6376.50000   52.27150   95.77330   36.47410
 6377.00000   52.52820   96.24480   38.10990
 6377.50000   53.03470   96.67410   40.02680
 6378.00000   53.80100   97.46060   40.03180
 6378.50000   54.11830   99.02300   39.57500
 6379.00000   54.75470   99.96640   39.10750
 6379.50000   55.49790  101.22740   39.20570
