~Version ---------------------------------------------------
VERS.   2.0 : CWLS log ASCII Standard -VERSION 2.0
WRAP.    NO : One line per depth step
DLM . SPACE : Column Data Section Delimiter
~Well ------------------------------------------------------
STRT .FT                5490.0 : START DEPTH
STOP .FT               11889.0 : STOP DEPTH
STEP .FT                   0.5 : STEP
NULL .                -9999.25 : NULL VALUE
COMP .                         : COMPANY
WELL .                         : WELL
FLD  .                         : FIELD
LOC  .                         : LOCATION
PROV .                         : PROVINCE
CNTY .                         : COUNTY
STAT .                         : STATE
CTRY .                         : COUNTRY
SRVC .                         : SERVICE COMPANY
DATE .                         : DATE
UWI  .                         : UNIQUE WELL ID
API  .                         : API NUMBER
SLAT .WGS84  2.609397356444198 : SURFACE LATITUDE
SLON .WGS84 6.5309549648460035 : SURFACE LONGITUDE
DATUM.F                    nan : DEPTH DATUM ELEV
~Curve Information -----------------------------------------
DEPT.FT    : 
DTCO.US/F  : DELTA-T COMPRESSIONAL
DTSM.US/F  : DELTA-T SHEAR
GRS .GAPI  : GAMMA RAY FROM SONIC LOG
~Params ----------------------------------------------------
~Other -----------------------------------------------------
~ASCII -----------------------------------------------------
# ...
 11768.50000   47.67400   89.39840   28.12810
 11769.00000   47.65930   89.19160   28.81260
 11769.50000   47.56020   88.99070   27.67290
 11770.00000   47.45310   88.83830   26.23340
 11770.50000   47.42250   88.73770   25.15540
 11771.00000   47.31960   88.95280   25.12280
 11771.50000   47.40980   88.78950   25.04900
 11772.00000   47.99760   88.68550   25.42650
 11772.50000   47.83870   88.49520   26.81230
 11773.00000   47.34970   88.30500   27.56550
 11773.50000   47.80580   88.59810   26.67230
 11774.00000   48.07030   88.51510   26.31640
 11774.50000   47.31960   88.20880   27.71890
 11775.00000   47.32010   87.91670   30.27690
 11775.50000   47.32060   88.18370   31.43170
 11776.00000   47.43990   88.18600   30.37760
 11776.50000   47.45310   88.18840   27.11570
 11777.00000   47.53880   88.14010   24.03620
 11777.50000   47.54970   88.20430   23.86010
 11778.00000   47.55890   88.61520   24.21890
 11778.50000   47.85480   88.52000   25.09510
 11779.00000   48.31270   88.70170   24.48610
 11779.50000   47.80070   88.99130   24.40740
 11780.00000   47.78560   88.80760   24.80610
 11780.50000   47.79340   88.61380   25.52550
 11781.00000   47.80130   88.54040   24.89930
 11781.50000   48.08160   88.97200   23.17140
 11782.00000   48.44220   89.04300   22.57050
 11782.50000   48.04500   89.04410   24.02240
 11783.00000   48.04880   89.12600   25.40570
 11783.50000   48.05270   89.21880   28.66430
 11784.00000   48.15390   89.16030   29.16900
 11784.50000   48.51770   88.96610   29.99360
 11785.00000   48.53170   88.97670   31.12070
 11785.50000   48.61860   89.45990   31.24130
 11786.00000   48.52900   88.97480   30.37310
 11786.50000   48.16520   89.06610   29.82500
 11787.00000   48.25980   89.57070   30.57130
 11787.50000   48.51040   89.62840   31.54620
 11788.00000   48.76370   89.81060   33.70960
 11788.50000   48.76350   89.77080   39.01350
 11789.00000   48.64940   90.18120   44.51150
 11789.50000   48.86400   89.80640   48.30050
 11790.00000   49.21550   89.89650   42.50590
 11790.50000   49.48410   89.60840   32.93080
 11791.00000   49.36840   89.44180   28.26510
 11791.50000   49.37050   89.40690   27.64320
 11792.00000   49.40600   89.11650   29.35900
 11792.50000   49.40340   88.67800   29.51490
 11793.00000   49.25980   88.58320   31.90480
 11793.50000   49.55780   88.31110   34.79580
 11794.00000   50.19170   88.03900   34.19330
 11794.50000   51.01760   87.74830   32.83230
 11795.00000   50.54740   87.42390   32.81910
 11795.50000   50.32400   87.28580   32.23510
 11796.00000   50.16920   87.58250   30.97200
 11796.50000   49.96520   87.34780   31.34140
 11797.00000   49.65880   87.11450   35.26920
 11797.50000   48.94200   86.97610   34.64400
 11798.00000   47.78540   86.87320   33.39430
 11798.50000   47.91630   86.79310   31.85930
 11799.00000   47.50560   87.53780   35.98160
 11799.50000   47.69230   87.98710   37.14560
 11800.00000   47.73190   87.98770   36.32340
 11800.50000   47.44660   87.98830   35.36580
 11801.00000   47.73280   87.98890   35.11430
 11801.50000   47.91420   88.61530   36.44500
 11802.00000   47.80660   88.99120   35.66920
 11802.50000   47.80540   89.03110   36.43670
 11803.00000   47.80420   89.40200   36.98500
 11803.50000   47.80290   89.11410   36.48210
 11804.00000   47.80170   88.65780   34.21460
 11804.50000   47.80040   88.24370   32.35450
 11805.00000   47.64990   88.06190   30.19040
 11805.50000   47.28770   88.28960   30.82410
 11806.00000   47.00680   88.00140   31.55770
 11806.50000   46.96350   87.28100   31.07420
 11807.00000   47.07850   87.24810   27.99310
 11807.50000   47.51050   87.58440   26.32790
 11808.00000   47.91370   87.48310   26.35010
 11808.50000   48.16100   87.25850   27.39370
 11809.00000   48.28130   87.06600   28.44970
 11809.50000   48.32030   86.55770   30.86820
 11810.00000   48.51870   86.85970   32.33500
 11810.50000   48.47470   87.37870   32.39730
 11811.00000   48.09730   86.97190   31.00070
 11811.50000   47.71000   86.56510   31.00270
 11812.00000   47.31860   86.17190   30.86900
 11812.50000   47.19880   85.98720   30.22090
 11813.00000   46.97100   85.99010   30.15340
 11813.50000   46.70010   86.18470   30.12490
 11814.00000   48.12410   86.43890   30.12240
 11814.50000   49.55140   86.85920   30.11990
 11815.00000   50.14200   86.64950   28.48320
 11815.50000   50.59660   86.27890   26.50380
 11816.00000   51.43190   87.10680   25.07480
 11816.50000   51.79380   87.68640   24.97740
 11817.00000   52.07070   88.40950   24.52050
 11817.50000   52.40080   89.04300   24.29690
 11818.00000   51.02590   89.95000   23.12390
 11818.50000   50.00280   89.38000   23.19320
 11819.00000   49.83760   89.09140   23.18280
 11819.50000   50.11620   87.40850   23.17240
 11820.00000   49.26910   86.42030   22.80590
 11820.50000   48.02270   86.20390   22.57350
 11821.00000   47.02000   85.96510   21.84150
 11821.50000   46.36390   85.71070   23.57380
 11822.00000   46.35690   85.79030   24.69220
 11822.50000   46.27530   85.57030   26.00830
 11823.00000   46.08560   85.34950   30.27690
 11823.50000   46.08700   85.20160   35.39830
 11824.00000   46.32410   85.38730   41.48880
 11824.50000   46.59460   85.40920   46.28030
 11825.00000   46.57980   85.56260   44.47060
 11825.50000   46.47720   85.73670   38.10970
 11826.00000   46.93810   85.99300   32.32440
 11826.50000   47.63650   86.16090   29.70140
 11827.00000   47.89690   86.42810   28.80660
 11827.50000   47.92880   86.71660   28.18330
 11828.00000   48.03950   86.99070   25.64680
 11828.50000   48.20500   87.41730   24.03820
 11829.00000   48.58920   87.58800   20.90870
 11829.50000   49.07430   87.68820   22.58940
 11830.00000   49.15030   88.10580   22.80770
 11830.50000   49.09950   88.18930   22.75680
 11831.00000   49.10620   88.18930   21.74120
 11831.50000   48.95820   88.11060   21.99230
 11832.00000   48.61650   88.07130   22.32310
 11832.50000   48.42260   87.83850   24.33540
 11833.00000   48.34140   87.39400   27.01330
 11833.50000   48.17830   86.92530   31.12800
 11834.00000   47.90870   87.70100   32.68220
 11834.50000   47.78840   88.55270   31.65390
 11835.00000   47.68470   85.83670   31.78340
 11835.50000   47.42430   85.37730   32.30700
 11836.00000   47.24690   84.25630   32.88780
 11836.50000   46.99590   83.68600   32.19650
 11837.00000   46.71770   83.85230   31.88330
 11837.50000   46.56900   83.75980   33.27060
 11838.00000   46.32840   83.66730   35.55130
 11838.50000   46.34020   83.57490   38.06030
 11839.00000   46.48870   83.48240   39.31500
 11839.50000   46.58580   83.46390   -9999.25
 11840.00000   46.60060   83.71620   -9999.25
 11840.50000   46.61550   83.78620   -9999.25
 11841.00000   46.70260   84.06140   -9999.25
 11841.50000   46.71680   84.51260   -9999.25
 11842.00000   46.86020   85.20350   -9999.25
 11842.50000   46.94330   85.70530   -9999.25
 11843.00000   46.88960   85.97550   -9999.25
 11843.50000   46.83590   86.09250   -9999.25
 11844.00000   46.78220   86.20960   -9999.25
 11844.50000   46.72850   86.32660   -9999.25
 11845.00000   46.71560   86.54640   -9999.25
 11845.50000   46.66960   86.88750   -9999.25
 11846.00000   46.47720   87.32570   -9999.25
 11846.50000   46.46540   87.18970   -9999.25
 11847.00000   46.45360   86.55620   -9999.25
 11847.50000   46.35690   86.43970   -9999.25
 11848.00000   46.77610   86.58570   -9999.25
 11848.50000   47.65440   87.18270   -9999.25
 11849.00000   46.80580   87.83850   -9999.25
 11849.50000   47.89460   88.42390   -9999.25
 11850.00000   48.30290   88.36000   -9999.25
 11850.50000   48.39930   88.63960   -9999.25
 11851.00000   48.39700   89.18870   -9999.25
 11851.50000   48.32650   89.47500   -9999.25
 11852.00000   48.55260   89.80850   -9999.25
 11852.50000   48.77400   90.17440   -9999.25
 11853.00000   48.64710   90.54040   -9999.25
 11853.50000   48.68240   91.06930   -9999.25
 11854.00000   48.87740   91.08410   -9999.25
 11854.50000   48.66030   90.14320   -9999.25
 11855.00000   48.66280   89.84790   -9999.25
