~Version ---------------------------------------------------
VERS.   2.0 : CWLS log ASCII Standard -VERSION 2.0
WRAP.    NO : One line per depth step
DLM . SPACE : Column Data Section Delimiter
~Well ------------------------------------------------------
STRT .F                4992.0 : START DEPTH
STOP .F               15597.0 : STOP DEPTH
STEP .F                   0.5 : STEP
NULL .               -9999.25 : NULL VALUE
COMP .                        : COMPANY
WELL .                        : WELL
FLD  .                        : FIELD
LOC  .                        : LOCATION
PROV .                        : PROVINCE
CNTY .                        : COUNTY
STAT .                        : STATE
CTRY .                        : COUNTRY
SRVC .                        : SERVICE COMPANY
DATE .                        : DATE
UWI  .                        : UNIQUE WELL ID
API  .                        : API NUMBER
SLAT .WGS84 5.850703098332204 : SURFACE LATITUDE
SLON .WGS84 4.156075836548197 : SURFACE LONGITUDE
DATUM.F               1885.27 : DEPTH DATUM ELEV
~Curve Information -----------------------------------------
DEPT.F     : 
SPR .MV    : SPONTANEOUS POTENTIAL
ILD .OHMM  : INDUCTION LOG DEEP
ILM .OHMM  : INDUCTION LOG MEDIUM
SFLU.OHMM  : SPHERICALLY FOCUSED LOG UNAVERAGED RESISTIVITY
NPHI.DEC   : NEUTRON POROSITY LIMESTONE
CALD.IN    : CALIPER FROM DENSITY LOG
DRHO.G/C3  : DENSITY CORRECTION
GRS .GAPI  : GAMMA RAY FROM SONIC LOG
DTCO.US/F  : COMPRESSIONAL-WAVE INTERVAL TRANSIT TIME ACOUSTIC SLOWNESS
DTSM.US/F  : SHEAR-WAVE INTERVAL TRANSIT TIME DELTA-T
RHOB.G/C3  : BULK DENSITY
DPHI.DEC   : DENSITY POROSITY LIMESTONE
~Params ----------------------------------------------------
~Other -----------------------------------------------------
~ASCII -----------------------------------------------------
# ...
 15576.00000    9.75450    2.23690    2.28340    3.12250   -9999.25    6.71420   -0.04410  103.17600   90.57840  183.39470    2.59010    0.07640
 15576.50000    9.15770    2.26870    2.25200    3.21110   -9999.25    6.68520   -0.04250   99.91350   89.67970  181.77870    2.58480    0.07580
 15577.00000    9.16290    2.26920    2.25210    3.25650   -9999.25    6.68670   -0.04090   97.73600   88.78110  180.12730    2.58170    0.07340
 15577.50000    9.76790    2.26970    2.22110    3.30260   -9999.25    6.68810   -0.03790   97.37720   87.58530  179.82920    2.58260    0.07160
 15578.00000    9.77240    2.27010    2.19050    3.30310   -9999.25    6.68940   -0.03480   98.18210   86.98370  178.34410    2.59080    0.06910
 15578.50000   10.37750    2.27060    2.22140    3.30350   -9999.25    6.69080   -0.03020   99.59620   87.01490  177.15570    2.59540    0.06610
 15579.00000   10.38200    2.27110    2.25270    3.21330   -9999.25    6.64740   -0.02100  101.80590   88.05680  177.84510    2.59990    0.06000
 15579.50000   10.98700    2.30340    2.28450    3.16940   -9999.25    6.60290   -0.00210  102.68820   89.61530  179.82350    2.60750    0.03940
 15580.00000   11.59210    2.30390    2.31670    3.16980   -9999.25    6.60450    0.01990  102.76820   91.35220  177.70590    2.64210    0.01350
 15580.50000   11.59660    2.40280    2.31690    3.17020   -9999.25    6.57540    0.03940  100.43470   92.44120  171.75920    2.68120    0.00450
 15581.00000   11.60110    2.40330    2.34950    3.21510   -9999.25    6.54650    0.05010   98.19190   93.17980  170.57940    2.70990    0.00140
 15581.50000   11.60550    2.30530    2.34970    3.26060   -9999.25    6.51770    0.02810   98.70770   93.17120  170.58660    2.70990    0.01350
 15582.00000   11.61000    2.27390    2.34890    3.30670   -9999.25    6.51910    0.02450  100.56940   91.67820  170.89060    2.67810    0.02070
 15582.50000   11.61450    2.24290    2.31750    3.30720   -9999.25    6.52050    0.02730  102.17780   90.77960  171.78800    2.67390    0.01890
 15583.00000   11.01800    2.24340    2.28400    3.21690   -9999.25    6.52180    0.03220  102.61360   91.36680  174.47540    2.67570    0.01710
 15583.50000   11.02280    2.24390    2.25410    3.12900   -9999.25    6.52310    0.03680  102.38820   91.96240  175.66020    2.67880    0.02010
 15584.00000   10.42640    2.24430    2.25220    3.04360   -9999.25    6.55470    0.03660  101.44030   92.57620  175.29230    2.68000    0.02490
 15584.50000   10.43120    2.24480    2.22330    3.04400   -9999.25    6.58630    0.02630   -9999.25   -9999.25   -9999.25    2.66520    0.02970
 15585.00000   10.43560    2.24530    2.22340    3.04440   -9999.25    6.58760    0.01880   -9999.25   -9999.25   -9999.25    2.64740    0.03630
 15585.50000   10.44010    2.24570    2.25480    3.04490   -9999.25    6.59690    0.00830   -9999.25   -9999.25   -9999.25    2.64400    0.04370
 15586.00000   11.04520    2.24620    2.25490    3.04750   -9999.25    6.62050    0.00080   -9999.25   -9999.25   -9999.25    2.63070    0.05800
 15586.50000   11.04970    2.21550    2.25860    3.13160   -9999.25    6.62190   -0.00370   -9999.25   -9999.25   -9999.25    2.60790    0.05920
 15587.00000   11.65470    2.18530    2.31900    3.17930   -9999.25    6.62330   -0.00670   -9999.25   -9999.25   -9999.25    2.60810    0.06090
 15587.50000   11.65920    2.18580    2.32320    3.22090   -9999.25    6.62460   -0.00810   -9999.25   -9999.25   -9999.25    2.60510    0.06330
 15588.00000   11.66370    2.18630    2.35180    3.22140   -9999.25    6.62570   -0.00650   -9999.25   -9999.25   -9999.25    2.59460    0.06760
 15588.50000   11.66820    2.21740    2.35200    3.26690   -9999.25    6.62610   -0.00350   -9999.25   -9999.25   -9999.25    2.59010    0.07120
 15589.00000   11.67270    2.24900    2.31960    3.26230   -9999.25    6.62640   -0.00160   -9999.25   -9999.25   -9999.25    2.59620    0.06330
 15589.50000   11.67720    2.28100    2.31980    3.22270   -9999.25    6.62680    0.00120   -9999.25   -9999.25   -9999.25    2.60670    0.05840
 15590.00000   12.28230    2.28150    2.28780    3.17860   -9999.25    6.62720   -0.00070   -9999.25   -9999.25   -9999.25    2.60980    0.05600
 15590.50000   12.28680    2.31400    2.28800    3.13510   -9999.25    6.62760   -0.00180   -9999.25   -9999.25   -9999.25    2.61280    0.05540
 15591.00000   12.29130    2.31450    2.28820    3.09220   -9999.25    6.62790   -0.00170   -9999.25   -9999.25   -9999.25    2.61440    0.05600
 15591.50000   12.29580    2.31500    2.32040    3.09270   -9999.25    6.62830   -0.00010   -9999.25   -9999.25   -9999.25    2.61440    0.05660
 15592.00000   12.30030    2.31540    2.31420    3.13640   -9999.25    6.48290    0.00140   -9999.25   -9999.25   -9999.25    2.61440    0.05660
 15592.50000   12.30480    2.31590    2.28860    3.14480   -9999.25    6.29550    0.00150   -9999.25   -9999.25   -9999.25    2.61480    0.05650
 15593.00000   12.30930    2.28440    2.25710    3.24340   -9999.25    6.18850    0.00560   -9999.25   -9999.25   -9999.25    2.62160    0.05590
 15593.50000   12.31380    2.28480    2.25730    3.37340   -9999.25    6.14500    0.01220   -9999.25   -9999.25   -9999.25    2.63140    0.05230
 15594.00000   12.31830    2.28530    2.25740    3.41140   -9999.25    6.11480    0.01980   -9999.25   -9999.25   -9999.25    2.64680    0.04620
 15594.50000   -9999.25   -9999.25   -9999.25   -9999.25   -9999.25    6.11480    0.02740   -9999.25   -9999.25   -9999.25    2.65920    0.03780
 15595.00000   -9999.25   -9999.25   -9999.25   -9999.25   -9999.25    6.08460    0.03040   -9999.25   -9999.25   -9999.25    2.66870    0.02930
 15595.50000   -9999.25   -9999.25   -9999.25   -9999.25   -9999.25    6.11480    0.02600   -9999.25   -9999.25   -9999.25    2.67410    0.02200
 15596.00000   -9999.25   -9999.25   -9999.25   -9999.25   -9999.25    6.11480    0.02150   -9999.25   -9999.25   -9999.25    2.67020    0.02740
 15596.50000   -9999.25   -9999.25   -9999.25   -9999.25   -9999.25    6.14500    0.02150   -9999.25   -9999.25   -9999.25    2.65690    0.03410
 15597.00000   -9999.25   -9999.25   -9999.25   -9999.25   -9999.25    6.14500    0.02160   -9999.25   -9999.25   -9999.25    2.64890    0.03650
