~Version ---------------------------------------------------
VERS.   2.0 : CWLS log ASCII Standard -VERSION 2.0
WRAP.    NO : One line per depth step
DLM . SPACE : Column Data Section Delimiter
~Well ------------------------------------------------------
STRT .F                4992.0 : START DEPTH
STOP .F               15597.0 : STOP DEPTH
STEP .F                   0.5 : STEP
NULL .               -9999.25 : NULL VALUE
COMP .                        : COMPANY
WELL .                        : WELL
FLD  .                        : FIELD
LOC  .                        : LOCATION
PROV .                        : PROVINCE
CNTY .                        : COUNTY
STAT .                        : STATE
CTRY .                        : COUNTRY
SRVC .                        : SERVICE COMPANY
DATE .                        : DATE
UWI  .                        : UNIQUE WELL ID
API  .                        : API NUMBER
SLAT .WGS84 5.850703098332204 : SURFACE LATITUDE
SLON .WGS84 4.156075836548197 : SURFACE LONGITUDE
DATUM.F               1885.27 : DEPTH DATUM ELEV
~Curve Information -----------------------------------------
DEPT.F     : 
SPR .MV    : SPONTANEOUS POTENTIAL
ILD .OHMM  : INDUCTION LOG DEEP
ILM .OHMM  : INDUCTION LOG MEDIUM
SFLU.OHMM  : SPHERICALLY FOCUSED LOG UNAVERAGED RESISTIVITY
NPHI.DEC   : NEUTRON POROSITY LIMESTONE
CALD.IN    : CALIPER FROM DENSITY LOG
DRHO.G/C3  : DENSITY CORRECTION
GRS .GAPI  : GAMMA RAY FROM SONIC LOG
DTCO.US/F  : COMPRESSIONAL-WAVE INTERVAL TRANSIT TIME ACOUSTIC SLOWNESS
DTSM.US/F  : SHEAR-WAVE INTERVAL TRANSIT TIME DELTA-T
RHOB.G/C3  : BULK DENSITY
DPHI.DEC   : DENSITY POROSITY LIMESTONE
~Params ----------------------------------------------------
~Other -----------------------------------------------------
~ASCII -----------------------------------------------------
# ...
 11936.00000    1.11050    7.73560    8.09680    9.45340    0.30130   12.50610    0.02110  123.20560  106.89920  188.61280    2.42240    0.16710
 11936.50000    1.12240    8.02030    8.29960    9.99660    0.30330   12.51950    0.01710  122.77080  107.33630  188.77330    2.42030    0.17050
 11937.00000    1.13440    8.08290    8.50660   10.28050    0.31580   12.53990    0.01490  123.71040  107.33290  188.77470    2.41870    0.16810
 11937.50000    1.14630    8.31360    8.47820   10.28190    0.32840   12.55660    0.01270  128.08340  107.33010  188.77610    2.42190    0.16430
 11938.00000    1.15820    8.43260    8.36140   10.14110    0.34290   12.62050    0.01420  135.90110  107.03230  189.07420    2.42710    0.16180
 11938.50000    0.56780    8.55330    8.21790   10.00160    0.33380   12.66600    0.01580  153.08240  105.25960  189.38210    2.43320    0.15880
 11939.00000    0.57970    8.43730    7.82620    9.71920    0.32360   12.66760    0.01880  153.98370  101.82800  189.71080    2.44080    0.15640
 11939.50000    0.59170    7.70460    6.92660    8.65420    0.31510   12.75990    0.02340  153.47310   97.71890  190.33490    2.44690    0.17140
 11940.00000    0.60360    5.95910    5.46460    6.71460    0.31090   12.97300    0.03400  151.15920   91.85910  190.86050    2.39880    0.20320
 11940.50000    0.61550    3.92430    4.38380    4.90930    0.32910   13.36730    0.02950  142.00090   90.79400  191.15880    2.33270    0.22180
 11941.00000    0.62750    3.66100    3.80080    3.63760    0.34590   13.38830    0.02950  131.77410   93.09990  191.16020    2.32670    0.22840
 11941.50000    1.24180    3.66220    3.63580    3.23220    0.35400   12.79650    0.03270  106.85890   96.18440  189.67830    2.34620    0.22470
 11942.00000    1.25380    3.71460    3.63640    3.14950    0.34240   12.64710    0.03560   94.85170   99.92870  178.99720    2.40340    0.20850
 11942.50000    1.26570    3.98370    3.65130    3.20990    0.31740   12.61570    0.03780   92.12310  101.69580  167.72270    2.47750    0.15760
 11943.00000    1.27760    4.51730    3.92580    3.47380    0.29250   12.58990    0.04440   90.27330   99.33310  158.52530    2.65260    0.08770
 11943.50000    1.89200    5.12220    4.43420    4.00040    0.26940   12.62190    0.04780   88.53550   87.82590  149.82370    2.67830    0.02640
 11944.00000    1.90390    5.49330    4.93840    4.76960    0.23020   12.62360    0.03350   87.77260   78.93970  144.85530    2.68800    0.02100
 11944.50000    2.51830    5.97400    5.34820    5.91650    0.20480   12.62520    0.02170   87.78560   77.46050  141.04170    2.67720    0.02760
 11945.00000    2.53020    6.40680    5.70530    6.59680    0.18980   12.62690    0.01540   88.04120   77.19760  139.44110    2.66100    0.03240
 11945.50000    2.54220    6.68210    6.23910    6.62590    0.18130   12.62860    0.01000   89.59020   77.10280  139.24480    2.65510    0.03590
 11946.00000    2.56610    6.87280    6.57020    6.69130    0.17460   12.63020    0.00420   90.04590   76.77710  138.77200    2.65820    0.03350
 11946.50000    3.16840    7.06900    6.75740    6.72490    0.16800   12.63190   -0.00030   87.38590   75.71270  136.57740    2.66270    0.02990
 11947.00000    2.57800    7.27080    6.94990    6.99140    0.15920   12.60330   -0.00170   82.05530   73.94040  133.31470    2.66580    0.02750
 11947.50000    2.59040    7.27280    7.01750    7.86750    0.15140   12.60520   -0.00470   76.26870   72.75770  131.23900    2.66890    0.02560
 11948.00000    2.60240    7.27480    7.05010    8.87790    0.15560   12.57660   -0.00470   75.34790   71.57490  130.05350    2.66890    0.02860
 11948.50000    2.61450    7.27680    7.11810    9.11530    0.16160   12.57820   -0.00310   74.52040   71.27710  129.75810    2.65700    0.03460
 11949.00000    2.62650    7.27880    7.11910    8.29090    0.16100   12.57990   -0.00160   77.14150   71.27430  131.81250    2.64040    0.04180
 11949.50000    2.63850    7.28080    7.12010    7.23360    0.15910   12.58150    0.00000   81.13640   70.97640  136.40850    2.63450    0.04800
 11950.00000    2.65060    7.28280    7.08830    7.28310    0.15730   12.58310    0.00050   82.78840   70.97350  139.45760    2.63310    0.05020
 11950.50000    2.66270    7.28490    6.99070    7.70720    0.15810   12.58470    0.00530   83.02510   70.97050  140.14990    2.63350    0.04590
 11951.00000    2.67470    7.27130    6.58080    7.86060    0.16750   12.58640    0.01110   83.03580   70.96760  140.44810    2.63860    0.04170
 11951.50000    2.55340    6.49910    6.10880    7.42110    0.19670   12.58810    0.01990   83.49150   70.96460  143.12040    2.64840    0.03870
 11952.00000    2.09500    5.80290    5.48990    6.61980    0.23350   12.58970    0.03080   84.83740   72.03560  148.46310    2.64970    0.04460
 11952.50000    2.10840    4.97300    4.28940    5.28970    0.27030   12.60050    0.04020   88.40890   76.85790  153.21230    2.60810    0.06260
 11953.00000    1.95380    4.39600    3.80130    4.53860    0.29990   12.63410    0.04720   91.65970   79.21500  157.66470    2.54670    0.08020
 11953.50000    1.52840    4.09800    3.56230    3.94890    0.31660   12.68530    0.05620   96.44470   82.16200  165.65370    2.47710    0.10210
 11954.00000    2.14460    3.82800    3.46430    3.68360    0.30860   12.71720    0.06680  102.14000   85.69900  178.94720    2.44260    0.12410
 11954.50000    2.15660    3.72180    3.36900    3.53330    0.29580   12.71890    0.07890  104.03190   89.26620  185.83960    2.43060    0.14600
 11955.00000    2.16870    3.57830    3.29300    3.43670    0.28450   12.69030    0.08950  103.39810   91.69770  187.64090    2.43970    0.16280
 11955.50000    2.18070    3.48000    3.26440    3.34270    0.27900   12.63180    0.09710  102.47540   92.77020  187.64240    2.47430    0.15620
 11956.00000    2.79520    3.38440    3.24810    3.39000    0.27370   12.60300    0.08500  100.50640   90.72500  187.34720    2.49400    0.14300
 11956.50000    2.80720    3.33760    3.22010    3.53520    0.27180   12.60490    0.08510  100.96210   89.81470  187.64570    2.49850    0.13030
 11957.00000    2.81930    3.29130    3.15920    3.73840    0.27720   12.69710    0.08660  101.86290   90.98870  188.24050    2.48740    0.12670
 11957.50000    2.83130    3.25920    3.13230    3.74800    0.28560   12.81960    0.08580  101.87350   92.46260  191.20930    2.44170    0.13030
 11958.00000    2.84340    3.21500    3.08930    3.48780    0.28730   12.82240    0.07160  100.08560   93.34470  191.50750    2.42860    0.14650
 11958.50000    2.25300    3.26120    3.08990    3.29910    0.28130   12.70070    0.06020   99.66930   93.63690  190.90570    2.42020    0.17050
 11959.00000    2.26510    3.27860    3.09030    3.20890    0.27470   12.61070    0.05660  102.18560   93.92920  190.62010    2.41760    0.17280
 11959.50000    2.27710    3.30880    3.25850    3.39330    0.27110   12.57590    0.06450  106.87740   94.22120  190.69100    2.44900    0.15720
 11960.00000    2.28910    3.35610    3.30540    3.79400    0.27100   12.51960    0.07100  110.83090   93.27530  191.31510    2.53310    0.13310
 11960.50000    2.30120    3.35710    3.35300    3.85030    0.28120   12.49690    0.06650  107.95790   91.02970  191.64380    2.53870    0.10970
 11961.00000    1.96940    3.35800    3.35420    3.53960    0.30660   12.49880    0.06130  101.50810   87.48460  191.81310    2.50810    0.11210
 11961.50000    1.72290    3.35900    3.35530    3.30190    0.32530   12.54220    0.05980   96.62260   84.26780  190.92460    2.49460    0.12170
 11962.00000    1.73730    3.33760    3.31000    3.44820    0.36330   12.61930    0.05680   97.96850   83.16030  189.44230    2.49020    0.12890
 11962.50000    1.74920    3.31430    3.31110    4.01910    0.36450   12.80590    0.05990   99.75960   82.69910  188.25680    2.48720    0.13540
 11963.00000    1.15660    3.29140    3.26630    4.07110    0.35210   13.03960    0.06440  102.44080   82.69570  189.44520    2.49180    0.13360
 11963.50000    0.56830    3.27030    3.26750    3.78860    0.34460   13.20230    0.07050  106.18700   82.98780  189.14980    2.49940    0.12940
