~Version ---------------------------------------------------
VERS.   2.0 : CWLS log ASCII Standard -VERSION 2.0
WRAP.    NO : One line per depth step
DLM . SPACE : Column Data Section Delimiter
~Well ------------------------------------------------------
STRT .F                4992.0 : START DEPTH
STOP .F               15597.0 : STOP DEPTH
STEP .F                   0.5 : STEP
NULL .               -9999.25 : NULL VALUE
COMP .                        : COMPANY
WELL .                        : WELL
FLD  .                        : FIELD
LOC  .                        : LOCATION
PROV .                        : PROVINCE
CNTY .                        : COUNTY
STAT .                        : STATE
CTRY .                        : COUNTRY
SRVC .                        : SERVICE COMPANY
DATE .                        : DATE
UWI  .                        : UNIQUE WELL ID
API  .                        : API NUMBER
SLAT .WGS84 5.850703098332204 : SURFACE LATITUDE
SLON .WGS84 4.156075836548197 : SURFACE LONGITUDE
DATUM.F               1885.27 : DEPTH DATUM ELEV
~Curve Information -----------------------------------------
DEPT.F     : 
SPR .MV    : SPONTANEOUS POTENTIAL
ILD .OHMM  : INDUCTION LOG DEEP
ILM .OHMM  : INDUCTION LOG MEDIUM
SFLU.OHMM  : SPHERICALLY FOCUSED LOG UNAVERAGED RESISTIVITY
NPHI.DEC   : NEUTRON POROSITY LIMESTONE
CALD.IN    : CALIPER FROM DENSITY LOG
DRHO.G/C3  : DENSITY CORRECTION
GRS .GAPI  : GAMMA RAY FROM SONIC LOG
DTCO.US/F  : COMPRESSIONAL-WAVE INTERVAL TRANSIT TIME ACOUSTIC SLOWNESS
DTSM.US/F  : SHEAR-WAVE INTERVAL TRANSIT TIME DELTA-T
RHOB.G/C3  : BULK DENSITY
DPHI.DEC   : DENSITY POROSITY LIMESTONE
~Params ----------------------------------------------------
~Other -----------------------------------------------------
~ASCII -----------------------------------------------------
# ...
 5020.00000  -38.79150    2.47240    1.84180    1.71460    0.35720   20.90080   -0.00530   75.10540   85.69810  159.12940    2.00180   -9999.25
 5020.50000  -38.78250    2.54390    2.08070    1.79400    0.30720   16.54850   -0.00050   76.64870   83.21000  160.14580    2.00540   -9999.25
 5021.00000  -38.68840    2.78270    2.82060    2.03690    0.29390   15.10300    0.00350   71.50590   81.43390  150.27680    2.02940   -9999.25
 5021.50000  -37.55590    3.21850    4.97170    3.18290    0.23100   14.25990    0.00420   60.65420   79.36100  138.41160    2.09690    0.26760
 5022.00000  -37.54680    4.42980    6.35820    4.85200    0.17950   13.79870    0.00430   54.12930   77.28810  128.92030    2.33020    0.19310
 5022.50000  -36.32930    6.11880    6.74960    6.42720    0.11410   13.43090    0.00280   51.06680   74.91850  126.84750    2.49260    0.10500
 5023.00000  -35.62380    6.46340    6.56420    7.20730    0.09230   13.20150   -0.00020   47.94460   72.53210  128.03870    2.53890    0.09470
 5023.50000  -34.40390    5.39100    6.12730    6.56480    0.08510   13.14670   -0.00320   45.69710   70.68980  136.40230    2.55180    0.10620
 5024.00000  -33.78820    4.27240    5.88090    4.65250    0.17170   13.26010   -0.00770   44.79300   69.24250  144.30060    2.49100    0.14110
 5024.50000  -33.17380    4.02540    5.80340    3.45640    0.25180   13.65450   -0.01220   48.36650   70.56880  154.71720    2.26560    0.29910
 5025.00000  -31.95390    3.99570    5.76690    3.06300    0.40640   14.13900   -0.01670   61.34290   74.14940  157.35860    2.00630    0.30000
 5025.50000  -31.44110    4.13510    5.77050    3.01150    0.50440   14.36840   -0.01970   68.49850   74.94420  158.62460    2.00230    0.29970
 5026.00000  -31.53710    4.40000    5.77410    3.12350    0.38720   14.07460   -0.01290   72.51970   71.69630  158.09110    2.00390    0.29910
 5026.50000  -32.13360    5.00770    5.89910    3.33160    0.28780   13.47990   -0.00260   63.79730   67.99880  152.78910    2.00540    0.29840
 5027.00000  -32.73110    5.80530    6.41600    4.17680    0.23770   12.96810    0.00050   51.18460   63.68320  142.31090    2.07990    0.29540
 5027.50000  -33.93290    6.79200    7.02730    5.49110    0.16120   13.05880    0.00330   46.41790   60.42340  125.11200    2.25020    0.25230
 5028.00000  -35.73770    8.07060    7.69750    7.11580    0.07890   13.23980    0.00070   44.10120   58.64730  119.47830    2.42060    0.11740
 5028.50000  -36.33520    9.28130    8.20170    8.09550    0.05590   13.39070   -0.00120   44.02590   57.76140  116.51530    2.59510    0.05340
 5029.00000  -36.81660   10.12720    8.49930    8.47640    0.04680   13.33070   -0.00270   45.43350   57.17220  114.73910    2.64830    0.03960
 5029.50000  -36.80660   10.65720    8.80910    8.34760    0.04130   13.21050   -0.00260   52.75360   56.55170  112.96300    2.65930    0.03930
 5030.00000  -36.67700   10.90920    8.81470    7.82590    0.04190   13.18070   -0.00110   63.49120   55.32110  111.14600    2.64170    0.05660
 5030.50000  -36.06130   10.86210    8.64240    6.51710    0.07880   13.21110    0.00510   72.43790   54.21760  109.01490    2.60920    0.06970
 5031.00000  -35.44590   10.37440    8.35740    5.60870    0.11230   13.25100    0.01120   78.25010   54.39710  109.81150    2.59440    0.07290
 5031.50000  -34.22700    9.41580    8.12290    5.39900    0.12190   13.33880    0.01430   84.06240   55.74690  115.69480    2.58720    0.07480
 5032.00000  -33.61130    8.08780    7.60330    5.59840    0.12510   13.43980    0.01280   83.59330   56.60530  117.73290    2.58490    0.10720
 5032.50000  -32.39140    6.72290    6.55470    5.59230    0.13240   13.60460    0.00680   81.23540   56.45150  116.38550    2.55130    0.14760
 5033.00000  -31.17270    5.79950    5.14710    5.28460    0.15510   13.94870   -0.00230   78.13860   55.13140  113.13640    2.39150    0.18870
 5033.50000  -29.95280    5.05050    4.08910    4.52380    0.20200   14.64810   -0.01300   77.75930   54.83830  108.74670    2.21770    0.30000
 5034.00000  -28.73290    4.37930    3.33300    3.13020    0.29410   15.26780   -0.02060   79.53120   56.32690  107.95300    2.01220    0.30000
 5034.50000  -28.25680    3.72490    2.97760    2.32460    0.43760   15.71360   -0.02350   81.50400   65.82670  131.99910   -9999.25    0.30000
 5035.00000  -28.24770    3.27130    2.72470    2.12820    0.58410   16.37660   -0.01850   80.66360   85.41560  159.59980   -9999.25    0.30000
 5035.50000  -28.23870    3.05390    2.48800    2.02930    0.59350   18.51540   -0.01380   77.41390   97.30620  178.29840   -9999.25    0.30000
 5036.00000  -28.22960    2.86300    2.34970    1.96220    0.55970   19.29880   -0.00870   77.10400   96.88610  185.42440   -9999.25    0.30000
 5036.50000  -28.22050    2.75940    2.28670    1.93610    0.51740   19.23890   -0.00390   78.15100   94.57580  185.42880   -9999.25    0.30000
 5037.00000  -27.60730    2.72330    2.20740    1.92260    0.49820   18.99820   -0.00040   79.48570   94.85820  185.43320   -9999.25    0.30000
 5037.50000  -27.59820    2.69830    2.19600    1.89710    0.47550   18.51660    0.00110   79.92540   97.89990  185.37570   -9999.25    0.30000
 5038.00000  -26.98490    2.70050    2.17960    1.88610    0.45020   17.02340    0.00030   79.91620   96.76880  185.14480   -9999.25    0.30000
 5038.50000  -26.37160    2.71300    2.18090    1.88710    0.43420   15.86660   -0.00030   78.06180   95.98250  185.44660   -9999.25    0.30000
 5039.00000  -26.36250    2.75280    2.19480    1.88820    0.42240   16.49520   -0.00180   74.37820   97.87540  185.45100   -9999.25    0.30000
 5039.50000  -25.74920    2.83240    2.22680    1.90340    0.49060   17.24810   -0.00480   71.12870  101.77670  185.75220   -9999.25    0.30000
 5040.00000  -25.74020    2.96620    2.29110    1.91680    0.55720   17.60040   -0.00470   69.13430  104.74830  183.08690   -9999.25    0.30000
 5040.50000  -25.73110    3.16170    2.39030    1.95930    0.49820   17.44520   -0.00160   69.27980  106.82980  171.51850   -9999.25    0.30000
 5041.00000  -25.55650    3.48720    2.52170    2.03080    0.46120   16.56740    0.00150   69.56420  107.72430  165.58810   -9999.25    0.30000
 5041.50000  -24.94200    3.88580    2.86860    2.19480    0.38940   15.45060    0.00910   68.21010  105.65140  164.10870   -9999.25    0.30000
 5042.00000  -24.32640    4.40980    3.49940    2.58590    0.30220   14.70470    0.02160   65.70440   97.87990  162.92600   -9999.25    0.29460
 5042.50000  -23.88220    5.23220    4.32460    3.49310    0.29630   14.31100    0.03400   64.16270   85.91280  161.74330    2.11930    0.26420
 5043.00000  -23.26890    6.35890    5.12720    4.23090    0.26180   14.27290    0.04340   63.70630   77.68830  159.52320    2.27890    0.23800
 5043.50000  -23.25980    6.82590    5.53410    4.41030    0.18610   14.30340    0.05130   63.69770   73.81220  154.76360    2.30590    0.23070
 5044.00000  -23.25080    6.71490    5.66410    4.50450    0.18130   14.39400    0.05690   63.68910   68.10310  144.84630    2.32300    0.23990
 5044.50000  -23.24170    6.42570    5.74720    4.47470    0.17940   14.48470    0.05450   63.68050   68.52950  139.20850    2.32630    0.25700
 5045.00000  -23.23260    6.10040    5.72160    4.20440    0.18180   14.63560    0.04710   63.71710   69.93550  138.98690    2.28000    0.28520
 5045.50000  -23.40680    5.85500    5.54030    3.92350    0.18910   14.87680    0.04290   65.51090   68.89250  137.16440    2.18190   -9999.25
 5046.00000  -23.82010    5.60380    5.26990    3.66200    0.20900   15.11860    0.04290   66.97330   67.41310  135.79840    2.10700   -9999.25
 5046.50000  -24.41530    5.39380    5.03270    3.53910    0.24040   15.26900    0.04630   70.29570   66.52720  134.95930    2.08500   -9999.25
 5047.00000  -25.01050    5.17690    4.76330    3.49220    0.25690   15.16340    0.05220   73.56850   66.82820  143.08970    2.08110   -9999.25
 5047.50000  -25.19160    5.03850    4.57170    3.44580    0.25590   14.87930    0.05520   78.54920   70.09660  153.18300    2.08710   -9999.25
