~Version ---------------------------------------------------
VERS.   2.0 : CWLS log ASCII Standard -VERSION 2.0
WRAP.    NO : One line per depth step
DLM . SPACE : Column Data Section Delimiter
~Well ------------------------------------------------------
STRT .F                4992.0 : START DEPTH
STOP .F               15597.0 : STOP DEPTH
STEP .F                   0.5 : STEP
NULL .               -9999.25 : NULL VALUE
COMP .                        : COMPANY
WELL .                        : WELL
FLD  .                        : FIELD
LOC  .                        : LOCATION
PROV .                        : PROVINCE
CNTY .                        : COUNTY
STAT .                        : STATE
CTRY .                        : COUNTRY
SRVC .                        : SERVICE COMPANY
DATE .                        : DATE
UWI  .                        : UNIQUE WELL ID
API  .                        : API NUMBER
SLAT .WGS84 5.850703098332204 : SURFACE LATITUDE
SLON .WGS84 4.156075836548197 : SURFACE LONGITUDE
DATUM.F               1885.27 : DEPTH DATUM ELEV
~Curve Information -----------------------------------------
DEPT.F     : 
SPR .MV    : SPONTANEOUS POTENTIAL
ILD .OHMM  : INDUCTION LOG DEEP
ILM .OHMM  : INDUCTION LOG MEDIUM
SFLU.OHMM  : SPHERICALLY FOCUSED LOG UNAVERAGED RESISTIVITY
NPHI.DEC   : NEUTRON POROSITY LIMESTONE
CALD.IN    : CALIPER FROM DENSITY LOG
DRHO.G/C3  : DENSITY CORRECTION
GRS .GAPI  : GAMMA RAY FROM SONIC LOG
DTCO.US/F  : COMPRESSIONAL-WAVE INTERVAL TRANSIT TIME ACOUSTIC SLOWNESS
DTSM.US/F  : SHEAR-WAVE INTERVAL TRANSIT TIME DELTA-T
RHOB.G/C3  : BULK DENSITY
DPHI.DEC   : DENSITY POROSITY LIMESTONE
~Params ----------------------------------------------------
~Other -----------------------------------------------------
~ASCII -----------------------------------------------------
# ...
 14876.00000   21.78980    2.09330    2.08980    2.77500    0.26940    6.93440   -0.01590  130.82140   92.50350  153.88720    2.53280    0.11230
 14876.50000   21.80630    1.89900    1.97250    2.81470    0.29430    6.96640   -0.01870  126.58470   93.08790  151.86940    2.47610    0.13280
 14877.00000   21.82280    1.79630    1.83510    2.59000    0.32700    7.02850   -0.01860  123.16400   93.07790  151.97200    2.44760    0.15330
 14877.50000   21.83930    1.69920    1.68280    2.45050    0.34900    7.03030   -0.02050  122.36490   92.47360  152.16620    2.40850    0.17380
 14878.00000   21.85580    1.56310    1.55070    2.28590    0.36250    7.03210   -0.02460  122.37500   91.57210  151.86940    2.39050    0.18220
 14878.50000   21.87240    1.43790    1.42560    1.93090    0.37090    7.03380   -0.03430  121.93750   91.26450  149.49550    2.38300    0.19180
 14879.00000   21.88890    1.34130    1.33280    1.50010    0.36900    7.03560   -0.04780  120.06960   91.25410  145.93470    2.37860    0.19540
 14879.50000   22.23990    1.28660    1.27780    1.25620    0.35130    7.03750   -0.04850  115.70690   90.87250  130.50450    2.37110    0.19880
 14880.00000   22.52250    1.25140    1.21250    1.18920    0.32300    7.03320   -0.04240  116.16190   87.36150  125.16320    2.36500    0.19960
 14880.50000   22.53900    1.18370    1.16730    1.17420    0.30440    7.01060   -0.03030  120.18830   75.79870  119.52520    2.36630    0.18270
 14881.00000   22.55560    1.25180    1.27340    1.24690    0.23610    6.98220   -0.01810  125.55390   74.57060  116.83040    2.40440    0.16160
 14881.50000   22.57540    1.39960    1.45230    1.38220    0.16280    6.98430   -0.01200  128.69110   76.93550  118.72100    2.50930    0.10460
 14882.00000   21.98800    1.54370    1.62570    1.67640    0.15680    6.98610   -0.01180  130.03570   77.62060  135.07300    2.63840    0.04750
 14882.50000   22.00760    1.68020    1.83600    3.16520    0.15080    6.98790   -0.01340  127.68500   76.61840  153.20590    2.65880    0.02940
 14883.00000   21.42040    1.88200    2.07730    5.93440    0.13630    6.98970   -0.01790  112.02880   74.52810  154.54010    2.65610    0.03780
 14883.50000   21.43990    2.22930    2.41230    9.05390    0.12430    6.99190   -0.01780   85.99180   72.43790  151.93700    2.62820    0.06190
 14884.00000   20.85570    2.63680    2.72160    8.88860    0.11700    6.99360   -0.01470   66.60200   70.64490  146.98120    2.57790    0.09590
 14884.50000   20.87210    3.06510    2.98540    5.46720    0.12630    6.99540   -0.01150   66.27950   69.69220  137.62610    2.51140    0.12160
 14885.00000   20.88860    3.23740    3.20360    4.41390    0.16910    7.02740   -0.00500   79.64440   68.74200  131.39470    2.50240    0.11950
 14885.50000   20.90500    3.27800    3.37400    4.99990    0.19820    7.02910    0.00170   84.56370   67.86510  128.13060    2.50550    0.11850
 14886.00000   20.92140    2.94910    3.06110    5.63410    0.22290    7.03090    0.00960   89.92940   68.02770  124.56970    2.49950    0.12450
 14886.50000   21.53840    2.59900    2.62510    4.73920    0.24760    7.03260    0.00380   94.84860   69.18160  123.38280    2.48900    0.13050
 14887.00000   21.55490    2.29070    2.31260    2.87490    0.27510    7.03440   -0.00450  100.66070   71.62260  124.86890    2.48450    0.13350
 14887.50000   21.57130    2.03050    2.09770    2.40110    0.28110    7.03630   -0.00530  108.06760   76.51350  136.93570    2.48490    0.12870
 14888.00000   21.58770    1.91970    1.98320    2.33130    0.27210    7.03810   -0.00440  114.46320   82.44710  143.28810    2.50200    0.11900
 14888.50000   22.20480    1.82120    1.87500    2.48790    0.26060    7.00940   -0.00060  117.76840   90.46090  165.14260    2.51580    0.11410
 14889.00000   22.22120    1.79570    1.78750    2.58350    0.25390    7.01150    0.00400  118.55210   98.47470  195.95590    2.53090    0.10930
 14889.50000   22.23760    1.77760    1.75300    2.60810    0.25020    7.00210    0.00590  117.91830  100.84210  200.83090    2.53440    0.10500
 14890.00000   22.25400    1.77790    1.80280    2.64530    0.24720    6.98490   -0.00200  116.99430  103.20950  200.83090    2.52980    0.10500
 14890.50000   22.26880    1.80300    1.90640    2.64610    0.24620    6.98670   -0.00490  116.34980  104.09100  200.53410    2.52480    0.10740
 14891.00000   22.28690    1.80330    1.96060    2.64680    0.24630    6.98850   -0.00490  115.46550  103.63390  200.53410    2.52180    0.11100
 14891.50000   22.30330    1.79470    1.90700    2.61100    0.25660    6.99070   -0.00630  115.02680  101.32400  200.83090    2.51380    0.11640
 14892.00000   22.31830    1.73630    1.85480    2.61170    0.27430    6.99240   -0.01390  115.03620   98.01680  201.12760    2.47900    0.13730
 14892.50000   22.33620    1.69700    1.77910    2.57630    0.28320    6.99420   -0.02140  115.49110   95.82470  202.02860    2.47150    0.14310
 14893.00000   22.35260    1.67330    1.73050    2.50960    0.28280    6.99590   -0.02280  116.42560   94.52900  202.31450    2.47760    0.14050
 14893.50000   22.36900    1.63690    1.70670    2.39110    0.25870    6.99770   -0.01900  116.84820   96.00240  200.34960    2.49420    0.12900
 14894.00000   22.38540    1.62700    1.68330    2.08590    0.24540    7.02970   -0.01160  115.84580   98.07260  198.10820    2.51530    0.11200
 14894.50000   21.80130    1.61470    1.68360    1.78030    0.24300    7.06160   -0.01050  111.78480  101.33160  196.15450    2.53030    0.10780
 14895.00000   21.81770    1.63750    1.68380    1.91470    0.24600    7.09370   -0.01470  111.84400  105.77930  195.48960    2.51980    0.10420
 14895.50000   21.83410    1.67240    1.70770    2.07280    0.25080    7.09550   -0.01860  114.67370  108.44390  195.48960    2.51390    0.11140
 14896.00000   21.85050    1.69660    1.75620    2.34500    0.25450    7.09730   -0.01710  116.89450  109.62260  195.78630    2.52020    0.11260
 14896.50000   21.86700    1.74520    1.85710    2.40850    0.25420    7.09910   -0.01300  117.79590  104.88770  196.08310    2.52510    0.10830
 14897.00000   21.28280    1.79530    1.90990    2.40920    0.25110    7.06170   -0.01620  116.91160   98.50560  196.67660    2.53100    0.10650
 14897.50000   21.29930    1.84680    2.01960    2.60580    0.24880    7.04200   -0.02220  115.13440   94.43300  197.27000    2.53210    0.10520
 14898.00000   21.31570    1.89960    2.10610    2.97010    0.24830    7.01390   -0.02360  110.23220   91.94850  197.86350    2.53150    0.10520
 14898.50000   20.73120    1.93750    2.13600    3.09760    0.24950    7.00110   -0.02210  102.93350   91.74000  197.86350    2.53000    0.10580
 14899.00000   20.74790    1.99250    2.19660    3.11410    0.25280    6.91060   -0.01600   96.95740   91.87820  197.56680    2.52690    0.10640
 14899.50000   20.76440    2.02080    2.13660    2.69670    0.25730    6.77800   -0.01560   93.74000   92.48630  197.56680    2.51420    0.11500
 14900.00000   20.78080    1.99310    2.02100    2.44720    0.25610    6.67360   -0.02190   94.04880   93.49020  193.11570    2.49620    0.12680
 14900.50000   20.79730    1.96580    1.93800    2.41400    0.25190    6.62960   -0.02150  100.01490   93.48440  181.31630    2.49590    0.12560
 14901.00000   20.81380    1.91200    1.88460    2.41470    0.25000    6.75490   -0.00830  100.02760   93.32540  172.32800    2.52490    0.11110
 14901.50000   20.83030    1.88580    1.83260    2.41540    0.25060    6.78310    0.02190  100.05120   93.17100  168.77000    2.59860    0.09800
 14902.00000   20.84690    1.80890    1.80880    2.41600    0.25780    6.78430    0.05690  100.01870   91.97510  168.76560    2.62120    0.07120
 14902.50000   20.86340    1.78410    1.80910    2.45050    0.26570    6.78550    0.02270   99.00940   89.59060  168.46440    2.59720    0.06280
 14903.00000   20.87990    1.75960    1.80930    2.44240    0.26740    6.75630    0.00360   95.55020   89.88070  163.41460    2.56100    0.08020
 14903.50000   20.89640    1.73550    1.80960    2.41790    0.25860    6.72730    0.00980   91.80630   90.76510  158.95930    2.56550    0.09170
