~Version ---------------------------------------------------
VERS.   2.0 : CWLS log ASCII Standard -VERSION 2.0
WRAP.    NO : One line per depth step
DLM . SPACE : Column Data Section Delimiter
~Well ------------------------------------------------------
STRT .F                4992.0 : START DEPTH
STOP .F               15597.0 : STOP DEPTH
STEP .F                   0.5 : STEP
NULL .               -9999.25 : NULL VALUE
COMP .                        : COMPANY
WELL .                        : WELL
FLD  .                        : FIELD
LOC  .                        : LOCATION
PROV .                        : PROVINCE
CNTY .                        : COUNTY
STAT .                        : STATE
CTRY .                        : COUNTRY
SRVC .                        : SERVICE COMPANY
DATE .                        : DATE
UWI  .                        : UNIQUE WELL ID
API  .                        : API NUMBER
SLAT .WGS84 5.850703098332204 : SURFACE LATITUDE
SLON .WGS84 4.156075836548197 : SURFACE LONGITUDE
DATUM.F               1885.27 : DEPTH DATUM ELEV
~Curve Information -----------------------------------------
DEPT.F     : 
SPR .MV    : SPONTANEOUS POTENTIAL
ILD .OHMM  : INDUCTION LOG DEEP
ILM .OHMM  : INDUCTION LOG MEDIUM
SFLU.OHMM  : SPHERICALLY FOCUSED LOG UNAVERAGED RESISTIVITY
NPHI.DEC   : NEUTRON POROSITY LIMESTONE
CALD.IN    : CALIPER FROM DENSITY LOG
DRHO.G/C3  : DENSITY CORRECTION
GRS .GAPI  : GAMMA RAY FROM SONIC LOG
DTCO.US/F  : COMPRESSIONAL-WAVE INTERVAL TRANSIT TIME ACOUSTIC SLOWNESS
DTSM.US/F  : SHEAR-WAVE INTERVAL TRANSIT TIME DELTA-T
RHOB.G/C3  : BULK DENSITY
DPHI.DEC   : DENSITY POROSITY LIMESTONE
~Params ----------------------------------------------------
~Other -----------------------------------------------------
~ASCII -----------------------------------------------------
# ...
 9164.00000  -12.73780    8.61950    8.27580    7.65910    0.25600   13.11690    0.06110  106.72810   76.87880  155.14160    2.49910    0.11950
 9164.50000  -12.74380    8.52350    8.16030    7.44980    0.24250   13.14800    0.06420  107.62150   77.17830  155.13710    2.50670    0.12370
 9165.00000  -12.14560    8.52480    8.06820    7.37960    0.23220   13.21080    0.07040  108.96270   77.47790  152.93860    2.54130    0.12060
 9165.50000  -12.15150    8.52590    8.06770    7.65900    0.22920   13.24050    0.07660  108.87200   77.48070  150.27370    2.57140    0.10620
 9166.00000  -12.15750    8.55250    8.06710    7.95180    0.22790   13.24160    0.08100  107.07720   77.48370  147.01520    2.58650    0.08170
 9166.50000  -12.16350    8.76930    8.17980    8.29380    0.22600   13.24260    0.06260  105.68770   77.18960  144.64700    2.58470    0.07550
 9167.00000  -12.16950    8.92200    8.29400    8.57100    0.22270   13.24370    0.03810  105.37160   76.80980  142.20080    2.57900    0.08120
 9167.50000  -12.17550    9.17590    8.43700    8.89740    0.21540   13.24470    0.02750  105.81720   76.30510  140.40470    2.57990    0.07540
 9168.00000  -12.18140    9.57040    8.55610    9.10680    0.21100   13.24580    0.02450  106.26230   75.71510  139.54110    2.58910    0.06690
 9168.50000  -11.58310    9.84290    8.79790    9.28210    0.21100   13.24680    0.02200  106.26010   75.12520  138.92320    2.59750    0.06450
 9169.00000  -11.58920   10.15930    9.04650    9.54710    0.21010   13.24790    0.02050  105.81020   74.53450  138.46460    2.60210    0.06330
 9169.50000  -10.99090   10.59740    9.43330    9.95730    0.20680   13.20330    0.01830  105.36030   74.83410  137.52050    2.60580    0.06350
 9170.00000  -10.99700   11.05280    9.87320   10.29460    0.20120   13.14260    0.01600  103.11940   75.13370  135.78730    2.60980    0.06140
 9170.50000  -11.00300   11.64530   10.44070   10.83180    0.19630   13.04040    0.01600   99.58480   74.83850  134.90270    2.61440    0.05780
 9171.00000  -11.00910   12.02390   10.88680   11.29700    0.19140   13.01130    0.01450   91.65560   73.89150  134.01820    2.61600    0.05420
 9171.50000  -11.07480   12.71770   11.35320   12.01300    0.18400   12.98220    0.01310   90.57570   72.58540  133.72710    2.61680    0.05420
 9172.00000  -11.62540   13.45150   11.79050   12.70560    0.18550   13.01340    0.01010   95.14030   71.58410  134.38840    2.60930    0.06190
 9172.50000  -11.71710   13.83510   12.29360   13.43870    0.19670   13.04450    0.00860   96.61570   71.70920  135.22250    2.60030    0.06550
 9173.00000  -12.24170   14.10920   12.69630   14.13480    0.19500   13.04550    0.00410   97.01600   72.63270  133.94140    2.59730    0.06730
 9173.50000  -12.24770   14.11120   12.99930   14.53760    0.18240   13.04660    0.00260   95.49150   72.78100  131.56410    2.59880    0.06730
 9174.00000  -12.37800   14.11310   13.30730   14.66240    0.17760   13.01750    0.00110   94.14610   71.89360  130.65070    2.60940    0.06470
 9174.50000  -12.86410   13.91950   13.30630   14.66540    0.17640   13.01950   -0.00190   93.69620   71.00620  130.49850    2.62140    0.05740
 9175.00000  -13.47430   13.60330   13.12120   14.75410    0.17700   13.04970   -0.00190   94.14180   70.41540  130.40590    2.63050    0.04620
 9175.50000  -13.48040   13.10710   13.12030   15.17550    0.18240   13.02060   -0.00340   96.91460   70.12160  131.99470    2.63800    0.04550
 9176.00000  -13.48640   12.74710   12.34510   15.51580    0.19440   13.02170   -0.00490   98.16740   70.12460  134.07750    2.62900    0.04790
 9176.50000  -13.49240   12.39760   11.51580   15.42640    0.20530   13.02270   -0.00640   97.31530   70.42430  135.27010    2.62590    0.04850
 9177.00000  -13.49850   12.46010   11.25350   14.70770    0.20700   13.02380   -0.00630   95.56420   70.52380  135.27600    2.62300    0.04970
 9177.50000  -13.50450   12.46190   11.46940   13.82820    0.19670   13.02480   -0.00600   94.13060   71.69990  135.23200    2.62300    0.05030
 9178.00000  -13.51060   12.46360   11.79380   13.23960    0.17430   13.02590   -0.00200   93.23240   73.41760  134.69360    2.62280    0.05020
 9178.50000  -13.51660   12.46540   11.89620   13.14040    0.16490   13.02700    0.00780   97.70790   73.62340  134.91920    2.62160    0.05140
 9179.00000  -12.91840   12.46710   11.73060   13.32760    0.16330   13.02800    0.01810   99.94460   71.62650  136.60580    2.61980    0.05320
 9179.50000  -12.65570   12.29600   11.50450   13.33040    0.16480   13.05920    0.02740  100.83800   71.03580  138.48340    2.60900    0.06040
 9180.00000  -12.32630   12.12750   11.12510   13.24740    0.17030   13.18090    0.03750  101.73130   70.44510  140.06030    2.59460    0.07360
 9180.50000  -12.33230   11.82810   10.46130   12.88460    0.17810   13.27230    0.04600  101.77480   70.74480  140.95610    2.57690    0.07840
 9181.00000  -11.73410   11.34300    9.61850   12.53240    0.19000   13.42390    0.05620  102.62260   71.08590  142.14870    2.56680    0.08320
 9181.50000  -11.74020   10.72790    9.07220   12.18990    0.21090   13.51530    0.08000  103.51600   71.71180  143.04460    2.56230    0.09380
 9182.00000  -11.74620    9.94790    8.99830   11.45290    0.23570   13.63680    0.09510  104.13990   72.83820  144.00270    2.54810    0.10220
 9182.50000  -11.75230    9.51910    8.99770   10.76030    0.23980   13.66800    0.09820  103.28730   74.28350  145.77690    2.52550    0.11320
 9183.00000  -11.75950    9.31470    8.87260    9.96520    0.23950   13.72930    0.09670  103.95630   75.21070  146.32640    2.51350    0.11490
 9183.50000  -11.76550    9.25840    8.74920    9.62410    0.22470   13.76040    0.09520  105.29780   75.21410  145.81670    2.51160    0.11250
 9184.00000  -12.37570    9.00440    8.57340    9.36100    0.20850   13.70080    0.09820  106.19080   75.51370  144.57730    2.52110    0.10050
 9184.50000  -11.77640    8.88010    8.33640    9.23240    0.20130   13.60800    0.11330  106.18870   75.51650  143.50450    2.54220    0.09140
 9185.00000  -11.78340    8.51700    8.05400    9.04480    0.20420   13.51210    0.09980  106.18660   75.22250  143.68050    2.55570    0.09100
 9185.50000  -11.78940    8.28340    7.77290    8.92150    0.22710   13.38800    0.08320  106.18430   75.20970  147.24690    2.55120    0.10220
 9186.00000  -11.79540    8.05600    7.45340    8.73570    0.22650   13.31370    0.08330  106.18210   74.93150  149.03300    2.53020    0.10700
 9186.50000  -12.40560    7.88820    7.24750    8.43490    0.22460   13.41350    0.08940  106.31440   75.01130  149.63210    2.51960    0.10940
 9187.00000  -13.01580    7.88930    7.19510    7.97800    0.22890   13.46660    0.09380  106.62580   75.44690  149.93450    2.51670    0.11060
 9187.50000  -13.62600    7.89040    7.19460    7.70950    0.23930   13.45630    0.09180  107.07090   76.96650  149.54660    2.51670    0.11170
 9188.00000  -13.63200    7.89150    7.24510    7.49870    0.24400   13.42570    0.08780  107.96380   79.46280  147.92900    2.51960    0.11170
 9188.50000  -13.63800    7.89260    7.34710    7.45270    0.24260   13.35060    0.08630  108.85710   78.80460  145.66200    2.54270    0.10270
 9189.00000  -13.64390    8.00440    7.55500    7.51250    0.23190   13.30420    0.08790  108.40720   76.73030  141.75930    2.58070    0.05850
 9189.50000  -13.04570    8.06460    7.76840    7.78810    0.20760   13.21330    0.08940  107.06180   75.24950  136.19780    2.62190    0.03040
 9190.00000  -13.05170    8.18000    8.10060    8.05900    0.19720   13.11160    0.08040  104.37310   73.76860  132.16710    2.66110    0.02220
 9190.50000  -13.05760    8.59620    8.57650    8.47290    0.19350   13.14280    0.06860  102.08790   73.45520  133.95320    2.67300    0.02080
 9191.00000  -13.06360    9.09120    9.12550    8.96240    0.19060   13.20410    0.06300  101.68210   72.88400  135.73930    2.67350    0.02430
 9191.50000  -13.06960    9.61620    9.65040    9.47910    0.19210   13.29540    0.06460  101.67990   72.88720  135.15140    2.65970    0.03270
