~Version ---------------------------------------------------
VERS.   2.0 : CWLS log ASCII Standard -VERSION 2.0
WRAP.    NO : One line per depth step
DLM . SPACE : Column Data Section Delimiter
~Well ------------------------------------------------------
STRT .F                4992.0 : START DEPTH
STOP .F               15597.0 : STOP DEPTH
STEP .F                   0.5 : STEP
NULL .               -9999.25 : NULL VALUE
COMP .                        : COMPANY
WELL .                        : WELL
FLD  .                        : FIELD
LOC  .                        : LOCATION
PROV .                        : PROVINCE
CNTY .                        : COUNTY
STAT .                        : STATE
CTRY .                        : COUNTRY
SRVC .                        : SERVICE COMPANY
DATE .                        : DATE
UWI  .                        : UNIQUE WELL ID
API  .                        : API NUMBER
SLAT .WGS84 5.850703098332204 : SURFACE LATITUDE
SLON .WGS84 4.156075836548197 : SURFACE LONGITUDE
DATUM.F               1885.27 : DEPTH DATUM ELEV
~Curve Information -----------------------------------------
DEPT.F     : 
SPR .MV    : SPONTANEOUS POTENTIAL
ILD .OHMM  : INDUCTION LOG DEEP
ILM .OHMM  : INDUCTION LOG MEDIUM
SFLU.OHMM  : SPHERICALLY FOCUSED LOG UNAVERAGED RESISTIVITY
NPHI.DEC   : NEUTRON POROSITY LIMESTONE
CALD.IN    : CALIPER FROM DENSITY LOG
DRHO.G/C3  : DENSITY CORRECTION
GRS .GAPI  : GAMMA RAY FROM SONIC LOG
DTCO.US/F  : COMPRESSIONAL-WAVE INTERVAL TRANSIT TIME ACOUSTIC SLOWNESS
DTSM.US/F  : SHEAR-WAVE INTERVAL TRANSIT TIME DELTA-T
RHOB.G/C3  : BULK DENSITY
DPHI.DEC   : DENSITY POROSITY LIMESTONE
~Params ----------------------------------------------------
~Other -----------------------------------------------------
~ASCII -----------------------------------------------------
# ...
 12664.00000   14.24750    5.54030    4.96570    5.65990   -9999.25   -9999.25   -9999.25   57.11690   84.42390  128.04260   -9999.25   -9999.25
 12664.50000   13.67070    6.11300    5.47350    6.98810   -9999.25   -9999.25   -9999.25   56.23670   77.92010  128.45310   -9999.25   -9999.25
 12665.00000   13.69450    6.70670    6.03330    8.38900   -9999.25   -9999.25   -9999.25   55.35640   75.82630  130.96870   -9999.25   -9999.25
 12665.50000   13.71830    7.66780    6.83740    9.65440   -9999.25   -9999.25   -9999.25   55.06960   75.23600  133.34960   -9999.25   -9999.25
 12666.00000   13.74200    8.56910    7.64190   11.03020   -9999.25   -9999.25   -9999.25   55.40820   74.86120  136.92460   -9999.25   -9999.25
 12666.50000   13.76580    9.31480    8.42340   11.91280   -9999.25   -9999.25   -9999.25   56.03860   74.14170  140.49950   -9999.25   -9999.25
 12667.00000   14.39040    9.98620    9.16210   12.68320   -9999.25   -9999.25   -9999.25   56.58460   72.48650  143.47740   -9999.25   -9999.25
 12667.50000   15.01500   10.12890    9.69620   13.23550   -9999.25   -9999.25   -9999.25   55.67450   69.77010  143.35000   -9999.25   -9999.25
 12668.00000   15.03910   10.13240   10.23730   13.96110   -9999.25   -9999.25   -9999.25   54.39380   65.02800  137.24520   -9999.25   -9999.25
 12668.50000   15.06310   10.13580   10.38300   14.56030   -9999.25   -9999.25   -9999.25   54.40170   63.34560  133.90370   -9999.25   -9999.25
 12669.00000   15.08710    9.99950   10.24280   14.76980   -9999.25   -9999.25   -9999.25   55.14430   67.75620  151.73290   -9999.25   -9999.25
 12669.50000   15.11110    9.59610   10.08100   13.78580   -9999.25   -9999.25   -9999.25   55.45100   79.54150  182.55570   -9999.25   -9999.25
 12670.00000   15.13510    8.83400    9.61590   10.45030   -9999.25   -9999.25   -9999.25   55.16420   81.91790  180.57210   -9999.25   -9999.25
 12670.50000   15.15920    8.24570    8.81290    9.35650   -9999.25   -9999.25   -9999.25   53.69050   80.10310  174.37140   -9999.25   -9999.25
 12671.00000   15.18320    7.59080    7.90470    9.89440   -9999.25   -9999.25   -9999.25   52.51350   78.57280  170.58080   -9999.25   -9999.25
 12671.50000   15.20720    6.89180    7.29390   10.75760   -9999.25   -9999.25   -9999.25   53.11720   77.71390  169.08110   -9999.25   -9999.25
 12672.00000   15.23120    6.52260    6.77210   10.46750   -9999.25   -9999.25   -9999.25   53.46780   78.06510  170.86500   -9999.25   -9999.25
 12672.50000   15.25520    6.17310    6.40100    8.27210   -9999.25   -9999.25   -9999.25   54.09820   79.54300  176.82800   -9999.25   -9999.25
 12673.00000   15.27930    5.84250    5.99710    6.91000   -9999.25   -9999.25   -9999.25   55.21220   82.28100  185.17910   -9999.25   -9999.25
 12673.50000   15.30330    5.52830    5.56100    6.18680   -9999.25   -9999.25   -9999.25   56.66510   84.58340  192.25660   -9999.25   -9999.25
 12674.00000   15.32730    5.22570    5.18330    5.77460   -9999.25   -9999.25   -9999.25   57.32340   86.24130  196.80650   -9999.25   -9999.25
 12674.50000   15.35130    4.80610    4.93030    5.24240   -9999.25   -9999.25   -9999.25   57.16180   85.88260  194.42260   -9999.25   -9999.25
 12675.00000   15.37540    4.41510    4.66170    4.82580   -9999.25   -9999.25   -9999.25   56.15890   85.86840  190.22140   -9999.25   -9999.25
 12675.50000   16.00000    3.94830    4.31560    4.63100   -9999.25   -9999.25   -9999.25   54.68520   86.14930  186.23150   -9999.25   -9999.25
 12676.00000   16.02400    3.64910    4.05320    4.44410   -9999.25   -9999.25   -9999.25   53.80500   87.02010  180.33990   -9999.25   -9999.25
 12676.50000   16.64860    3.60670    3.77960    4.26470   -9999.25   -9999.25   -9999.25   52.92470   88.78060  178.13980   -9999.25   -9999.25
 12677.00000   16.67270    3.67710    3.58550    4.14950   -9999.25   -9999.25   -9999.25   52.33760   92.85970  183.32720   -9999.25   -9999.25
 12677.50000   16.69670    3.94480    3.53690    4.09420   -9999.25   -9999.25   -9999.25   51.72800  100.48580  187.79770   -9999.25   -9999.25
 12678.00000   16.99370    4.16040    3.89880    4.46340   -9999.25   -9999.25   -9999.25   51.47090  113.04510  189.28310   -9999.25   -9999.25
 12678.50000   17.34540    4.20620    4.17990    4.98540   -9999.25   -9999.25   -9999.25   52.15770  120.90630  185.99230   -9999.25   -9999.25
 12679.00000   17.66610    4.19120    4.23950    5.51400   -9999.25   -9999.25   -9999.25   53.48620  122.79390  182.97810   -9999.25   -9999.25
 12679.50000   17.99400    4.05960    4.24060    6.04740   -9999.25   -9999.25   -9999.25   55.29780  122.01220  181.50040   -9999.25   -9999.25
 12680.00000   18.01800    3.87530    4.18320    6.02770   -9999.25   -9999.25   -9999.25   57.17060  122.29810  184.11940   -9999.25   -9999.25
 12680.50000   18.04210    3.63130    4.01390    5.52280   -9999.25   -9999.25   -9999.25   56.27340  122.87390  190.35500   -9999.25   -9999.25
 12681.00000   18.06610    3.38720    3.59330    4.78220   -9999.25   -9999.25   -9999.25   55.39320  124.33470  195.99040   -9999.25   -9999.25
 12681.50000   18.09010    3.22150    3.40030    3.91260   -9999.25   -9999.25   -9999.25   54.21620  126.09040  197.56640   -9999.25   -9999.25
 12682.00000   18.11870    3.07200    3.21770    3.27210   -9999.25   -9999.25   -9999.25   53.63260  127.84620  198.34170   -9999.25   -9999.25
 12682.50000   17.53750    2.94600    3.04480    3.11510   -9999.25   -9999.25   -9999.25   55.42300  130.50120  198.47020   -9999.25   -9999.25
 12683.00000   17.56570    2.84390    2.96230    3.12810   -9999.25   -9999.25   -9999.25   56.65150  131.35770  197.26770   -9999.25   -9999.25
 12683.50000   17.58950    2.76630    2.88180    3.27640   -9999.25   -9999.25   -9999.25   58.62210  131.34220  196.66350   -9999.25   -9999.25
 12684.00000   17.61330    2.71060    2.80090    3.45200   -9999.25   -9999.25   -9999.25   61.22710  131.03240  195.46230   -9999.25   -9999.25
 12684.50000   17.63710    2.67420    2.68780    3.58480   -9999.25   -9999.25   -9999.25   60.91590  130.90980  194.26110   -9999.25   -9999.25
 12685.00000   17.66080    2.63830    2.58150    3.51980   -9999.25   -9999.25   -9999.25   59.39270  126.54220  193.04020   -9999.25   -9999.25
 12685.50000   17.68460    2.56730    2.54210    3.34270   -9999.25   -9999.25   -9999.25   57.72150  116.41110  194.38150   -9999.25   -9999.25
 12686.00000   17.70840    2.56820    2.47220    3.17750   -9999.25   -9999.25   -9999.25   56.04560  109.14190  195.13520   -9999.25   -9999.25
 12686.50000   17.73220    2.53360    2.44410    3.08260   -9999.25   -9999.25   -9999.25   54.61740  107.65280  193.64400   -9999.25   -9999.25
 12687.00000   17.75600    2.49960    2.44490    3.08390   -9999.25   -9999.25   -9999.25   53.73720  107.63860  189.90340   -9999.25   -9999.25
 12687.50000   17.77980    2.46610    2.44560    3.10500   -9999.25   -9999.25   -9999.25   53.15360  107.62450  186.45400   -9999.25   -9999.25
 12688.00000   17.80360    2.43300    2.49000    3.15050   -9999.25   -9999.25   -9999.25   52.57010  107.90530  186.32400   -9999.25   -9999.25
 12688.50000   17.82740    2.43390    2.51580    3.21900   -9999.25   -9999.25   -9999.25   51.68750  108.18620  186.73760   -9999.25   -9999.25
 12689.00000   18.45170    2.43480    2.55160    3.24380   -9999.25   -9999.25   -9999.25   51.07910  108.46700  188.22300   -9999.25   -9999.25
 12689.50000   18.47550    2.43560    2.58780    3.26660   -9999.25   -9999.25   -9999.25   50.46950  108.09280  190.00690   -9999.25   -9999.25
 12690.00000   18.49930    2.43640    2.55290    3.22300   -9999.25   -9999.25   -9999.25   49.93930  106.99300  192.68630   -9999.25   -9999.25
 12690.50000   18.52310    2.43730    2.53860    3.22430   -9999.25   -9999.25   -9999.25   49.54890  104.65420  197.51000   -9999.25   -9999.25
 12691.00000   18.54680    2.43810    2.50330    3.18150   -9999.25   -9999.25   -9999.25   49.62850  104.13820  200.13470   -9999.25   -9999.25
 12691.50000   18.57060    2.43890    2.45100    3.13900   -9999.25   -9999.25   -9999.25   50.87890  103.80450  199.82840   -9999.25   -9999.25
