~Version ---------------------------------------------------
VERS.   2.0 : CWLS log ASCII Standard -VERSION 2.0
WRAP.    NO : One line per depth step
DLM . SPACE : Column Data Section Delimiter
~Well ------------------------------------------------------
STRT .F                4992.0 : START DEPTH
STOP .F               15597.0 : STOP DEPTH
STEP .F                   0.5 : STEP
NULL .               -9999.25 : NULL VALUE
COMP .                        : COMPANY
WELL .                        : WELL
FLD  .                        : FIELD
LOC  .                        : LOCATION
PROV .                        : PROVINCE
CNTY .                        : COUNTY
STAT .                        : STATE
CTRY .                        : COUNTRY
SRVC .                        : SERVICE COMPANY
DATE .                        : DATE
UWI  .                        : UNIQUE WELL ID
API  .                        : API NUMBER
SLAT .WGS84 5.850703098332204 : SURFACE LATITUDE
SLON .WGS84 4.156075836548197 : SURFACE LONGITUDE
DATUM.F               1885.27 : DEPTH DATUM ELEV
~Curve Information -----------------------------------------
DEPT.F     : 
SPR .MV    : SPONTANEOUS POTENTIAL
ILD .OHMM  : INDUCTION LOG DEEP
ILM .OHMM  : INDUCTION LOG MEDIUM
SFLU.OHMM  : SPHERICALLY FOCUSED LOG UNAVERAGED RESISTIVITY
NPHI.DEC   : NEUTRON POROSITY LIMESTONE
CALD.IN    : CALIPER FROM DENSITY LOG
DRHO.G/C3  : DENSITY CORRECTION
GRS .GAPI  : GAMMA RAY FROM SONIC LOG
DTCO.US/F  : COMPRESSIONAL-WAVE INTERVAL TRANSIT TIME ACOUSTIC SLOWNESS
DTSM.US/F  : SHEAR-WAVE INTERVAL TRANSIT TIME DELTA-T
RHOB.G/C3  : BULK DENSITY
DPHI.DEC   : DENSITY POROSITY LIMESTONE
~Params ----------------------------------------------------
~Other -----------------------------------------------------
~ASCII -----------------------------------------------------
# ...
 7792.00000  -11.09110    7.83940    7.06710    6.17850    0.26230   17.74470    0.06840  112.94640   81.12430  176.15460    2.32510    0.21210
 7792.50000  -11.07020    7.84430    7.22220    6.08830    0.26530   17.74630    0.07780  111.60710   81.42010  176.45420    2.38590    0.16330
 7793.00000  -10.44490    7.95930    7.27720    6.01700    0.26950   17.62740    0.08570  110.26790   81.71600  172.89620    2.43530    0.16020
 7793.50000  -10.42390    8.07600    7.38470    6.02140    0.26710   17.38350    0.09430  108.92860   82.01180  168.94910    2.44690    0.16020
 7794.00000  -10.40290    8.19440    7.49380    6.03860    0.27610   17.16860    0.10480  108.90470   82.01180  168.74750    2.44150    0.16800
 7794.50000  -10.38200    8.31460    7.65320    6.11440    0.28280   16.95330    0.10340  107.89240   82.01180  169.64060    2.39430    0.18620
 7795.00000   -9.75670    8.43650    7.82490    6.20450    0.27450   16.77410    0.09280  106.90450   81.92800  164.83790    2.36580    0.20870
 7795.50000   -9.73570    8.68030    7.87830    6.31350    0.25770   16.63480    0.09290  105.02460   81.60150  161.24600    2.35110    0.20560
 7796.00000   -9.71480    8.93120    7.99330    6.49770    0.24080   16.69880    0.09600  103.35740   80.97850  158.00660    2.35330    0.18270
 7796.50000   -9.69380    9.06210    7.99770    6.78130    0.22370   16.86530    0.09910  101.78570   78.46150  156.00340    2.44840    0.16770
 7797.00000   -9.67280    8.94230    8.00220    6.95550    0.21600   17.03830    0.09760  101.78570   76.09470  155.11610    2.47710    0.15090
 7797.50000   -9.65180    8.94790    7.89590    7.08360    0.20910   16.89830    0.09300  101.78570   75.20710  155.07380    2.51780    0.11410
 7798.00000  -10.23500    8.82960    7.68310    7.16210    0.21300   16.69770    0.08860  102.23210   76.98220  156.01190    2.54800    0.09590
 7798.50000  -10.81830    8.71280    7.47690    7.16710    0.22940   16.47090    0.08870  103.57690   78.49430  157.52400    2.56460    0.08250
 7799.00000  -10.79730    8.71820    7.37680    7.14180    0.24120   16.53700    0.08910  105.49530   81.23360  158.68840    2.57520    0.08950
 7799.50000  -10.77630    8.60290    7.38160    7.04660    0.24010   16.68540    0.09420  106.82000   82.51000  158.55150    2.56620    0.10100
 7800.00000  -11.35950    8.48920    7.38570    6.88720    0.23160   16.62590    0.10500  107.10530   83.51560  156.32140    2.52710    0.12500
 7800.50000  -11.34150    8.49450    7.49350    6.61140    0.22490   16.34800    0.13070  105.97930   83.67060  156.32710    2.51620    0.13650
 7801.00000  -11.92760    8.34360    7.70950    6.61600    0.23280   16.07010    0.14190  104.85330   83.94130  155.73930    2.50520    0.13810
 7801.50000  -10.69810    8.27060    7.82200    6.71350    0.24550   15.81760    0.14730  103.72730   83.78700  154.26130    2.49420    0.14510
 7802.00000  -10.07580    8.27660    7.71750    7.00500    0.26360   15.99280    0.12850  104.77610   83.12140  152.48650    2.48330    0.14930
 7802.50000  -10.05780    8.30110    7.61490    7.30910    0.26740   16.09190    0.13390  107.01490   82.61890  155.39990    2.47020    0.13470
 7803.00000   -9.43550    8.40330    7.51370    7.62650    0.26780   16.13500    0.14150  108.35820   83.10420  159.63170    2.49890    0.12380
 7803.50000   -9.41750    8.40860    7.51840    7.52620    0.26780   16.12500    0.14910  106.56720   84.84960  163.47090    2.52000    0.10740
 7804.00000   -9.39940    8.41380    7.52260    7.42720    0.26600   16.11130    0.14460  104.24430   85.15200  165.34100    2.53660    0.09580
 7804.50000   -9.98790    8.53720    7.52680    7.32860    0.26140   16.08070    0.10240  102.98510   84.56420  166.01230    2.55020    0.09130
 7805.00000  -10.57180    8.54260    7.63660    7.23320    0.25420   15.97920    0.09790  103.23780   83.38290  160.83200    2.55930    0.08640
 7805.50000  -10.55370    8.66790    7.85680    7.33980    0.24690   15.86020    0.09630  104.77610   81.86500  157.27680    2.57750    0.07330
 7806.00000  -11.14200    8.79500    8.08330    7.55250    0.23370   15.71100    0.08510  105.67160   80.34360  155.79880    2.61670    0.04970
 7806.50000  -11.72610    8.92400    8.43300    7.66380    0.22220   15.50160    0.06540  106.56720   79.10670  155.50740    2.64550    0.04090
 7807.00000  -11.70800    9.05400    8.43770    7.88590    0.21680   15.44290    0.06030  107.46270   77.77160  155.81020    2.65660    0.03500
 7807.50000  -11.69000    8.93430    8.56080    8.00210    0.21430   15.41420    0.06030  107.46270   76.03840  155.18370    2.67040    0.02350
 7808.00000  -11.67190    8.94080    8.44670    8.00770    0.21970   15.50640    0.06040  107.46270   74.50420  153.21140    2.67770    0.01740
 7808.50000  -11.65390    8.82170    8.45170    8.01330    0.22940   15.60250    0.06040  107.46270   73.33640  150.55760    2.68210    0.02040
 7809.00000  -11.63580    8.82820    8.33910    8.13140    0.24090   15.76260    0.06050  107.91040   72.74860  149.10050    2.68330    0.02340
 7809.50000  -11.01350    8.71060    8.22830    8.13710    0.25420   15.92050    0.05810  106.32180   74.53470  150.61620    2.67320    0.03000
 7810.00000  -10.99550    8.55670    8.11900    8.02900    0.26020   16.13870    0.05150  103.56740   76.91420  156.67760    2.65570    0.04030
 7810.50000  -10.97740    8.44350    8.03530    7.96810    0.26080   16.26660    0.05460  102.08960   77.21780  154.07230    2.64010    0.04840
 7811.00000  -10.95940    8.25390    7.94700    7.75510    0.26010   16.26810    0.06070  102.46860   76.92560  152.29750    2.63390    0.04700
 7811.50000  -10.33710    8.10810    7.85870    7.54740    0.26040   16.31350    0.06680  103.66500   76.93170  151.11630    2.63780    0.04650
 7812.00000  -10.31900    8.00090    7.81700    7.34560    0.26960   16.40840    0.06830  104.77610   76.93770  156.75990    2.63100    0.05050
 7812.50000  -10.30100    7.93090    7.50170    7.24920    0.28080   16.56630    0.07290  105.67160   76.83200  164.18400    2.61150    0.06260
 7813.00000   -9.67870    7.82600    7.30010    7.11240    0.28650   16.81650    0.07900  105.75950   76.94950  169.34610    2.58140    0.07780
 7813.50000   -9.66070    7.83180    7.10390    7.01880    0.28780   16.93850    0.08510  102.98510   77.45980  171.42790    2.56190    0.08830
 7814.00000   -9.64260    7.72740    7.01000    7.02370    0.28840   17.09050    0.08190   99.40300   79.92970  172.59350    2.53780    0.10390
 7814.50000   -9.02030    7.73310    6.91740    6.93140    0.28810   17.09680    0.07910   97.61190   83.79300  173.22080    2.52430    0.10790
 7815.00000   -9.00230    7.73790    6.92170    6.93620    0.28600   17.00310    0.07760   97.77530   85.87580  173.70920    2.53950    0.10260
 7815.50000   -8.98420    7.74280    6.92600    6.94100    0.28290   16.88410    0.07570  100.79660   86.77170  173.38260    2.56060    0.09470
 7816.00000   -8.96620    7.74760    6.93040    6.94590    0.27930   16.79440    0.07320  103.15210   84.66390  167.49060    2.58200    0.08560
 7816.50000   -9.55290    7.86130    6.93470    6.95070    0.27440   16.73640    0.07110  104.30000   83.14230  165.41910    2.59740    0.06730
 7817.00000   -9.53430    7.86620    7.03650    6.95550    0.27350   16.70320    0.06280  104.77610   81.90440  166.61170    2.59990    0.07220
 7817.50000  -10.12050    7.98160    7.13970    6.96040    0.29310   16.61880    0.05050  104.77610   80.96390  166.02390    2.55990    0.08670
 7818.00000  -10.10240    7.98660    7.24440    7.06300    0.29690   16.58190    0.05380  102.98510   80.56970  162.45310    2.54020    0.09580
 7818.50000  -10.08440    8.10370    7.35060    7.06790    0.28640   16.53140    0.06590  101.19400   81.18730  162.17770    2.53840    0.10120
 7819.00000  -10.06630    8.14680    7.45850    7.12640    0.27160   16.76850    0.08250   99.85070   83.84680  166.67740    2.55850    0.09430
 7819.50000  -10.04830    8.26620    7.56780    7.23110    0.25970   16.82170    0.09770   99.40300   84.44590  172.32260    2.59170    0.08090
