~Version ---------------------------------------------------
VERS.   2.0 : CWLS log ASCII Standard -VERSION 2.0
WRAP.    NO : One line per depth step
DLM . SPACE : Column Data Section Delimiter
~Well ------------------------------------------------------
STRT .F                4992.0 : START DEPTH
STOP .F               15597.0 : STOP DEPTH
STEP .F                   0.5 : STEP
NULL .               -9999.25 : NULL VALUE
COMP .                        : COMPANY
WELL .                        : WELL
FLD  .                        : FIELD
LOC  .                        : LOCATION
PROV .                        : PROVINCE
CNTY .                        : COUNTY
STAT .                        : STATE
CTRY .                        : COUNTRY
SRVC .                        : SERVICE COMPANY
DATE .                        : DATE
UWI  .                        : UNIQUE WELL ID
API  .                        : API NUMBER
SLAT .WGS84 5.850703098332204 : SURFACE LATITUDE
SLON .WGS84 4.156075836548197 : SURFACE LONGITUDE
DATUM.F               1885.27 : DEPTH DATUM ELEV
~Curve Information -----------------------------------------
DEPT.F     : 
SPR .MV    : SPONTANEOUS POTENTIAL
ILD .OHMM  : INDUCTION LOG DEEP
ILM .OHMM  : INDUCTION LOG MEDIUM
SFLU.OHMM  : SPHERICALLY FOCUSED LOG UNAVERAGED RESISTIVITY
NPHI.DEC   : NEUTRON POROSITY LIMESTONE
CALD.IN    : CALIPER FROM DENSITY LOG
DRHO.G/C3  : DENSITY CORRECTION
GRS .GAPI  : GAMMA RAY FROM SONIC LOG
DTCO.US/F  : COMPRESSIONAL-WAVE INTERVAL TRANSIT TIME ACOUSTIC SLOWNESS
DTSM.US/F  : SHEAR-WAVE INTERVAL TRANSIT TIME DELTA-T
RHOB.G/C3  : BULK DENSITY
DPHI.DEC   : DENSITY POROSITY LIMESTONE
~Params ----------------------------------------------------
~Other -----------------------------------------------------
~ASCII -----------------------------------------------------
# ...
 6392.00000  -84.20540  118.65210   87.52240  101.91500    0.02620   12.95510    0.00600   47.28570   48.55830   96.01250    2.67400    0.01790
 6392.50000  -84.33950  118.72660   82.81810   99.16940    0.02740   12.91390    0.00910   46.80420   49.15460   96.90700    2.66560    0.01970
 6393.00000  -84.77010  115.46310   80.58130   95.16240    0.02860   12.89850    0.01220   45.80210   49.75090   98.69170    2.66180    0.02220
 6393.50000  -84.74620  109.27530   81.75180   88.80770    0.03100   12.93030    0.01830   44.39020   50.64400  101.66330    2.66190    0.02400
 6394.00000  -84.12080  104.81960   86.47990   82.87730    0.03280   12.96240    0.02750   42.53270   51.83380  104.36240    2.66190    0.02640
 6394.50000  -84.09970  102.11120   99.45830   77.34290    0.03480   12.75310    0.03820   41.30740   52.43030  106.48020    2.64840    0.03010
 6395.00000  -84.07860  106.58770  122.63780   69.22320    0.03990   12.48360    0.04750   40.82590   52.78430  107.36880    2.62140    0.04060
 6395.50000  -83.27820  108.09970  159.88710   65.50700    0.05020   12.24430    0.05850   41.94460   53.40540  107.61570    2.60040    0.04990
 6396.00000  -82.65130  106.59730  166.79380   61.99040    0.06210   12.09530    0.06640   42.83960   53.92280  107.62020    2.58390    0.06610
 6396.50000  -82.20240  102.30290  155.64470   60.32030    0.06870   12.00650    0.07500   43.73460   54.22260  107.49740    2.57040    0.07980
 6397.00000  -81.57700   96.82810  129.92040   60.35400    0.07040   11.94790    0.08410   44.62960   54.07410  105.83660    2.56590    0.07340
 6397.50000  -80.76600   91.64130  108.44770   62.09420    0.07080   12.01080    0.09020   44.63180   52.74540  103.77680    2.58760    0.06310
 6398.00000  -80.13710   86.74160   67.55910   63.88460    0.06990   12.13470    0.09320   43.74110   51.56130  102.89090    2.60930    0.05320
 6398.50000  -79.70090   83.25810   52.59800   64.81720    0.06770   12.22860    0.08660   41.47400   50.67390  102.00500    2.62900    0.04680
 6399.00000  -79.48380   83.33540   49.77090   63.95590    0.06350   12.26860    0.07580   40.62040   50.67680  101.96060    2.64110    0.03970
 6399.50000  -79.05440   86.93770   51.92080   63.10610    0.05670   12.34750    0.06460   41.73880   51.56980  102.90370    2.65810    0.03070
 6400.00000  -79.03320   90.70070   57.26820   61.40610    0.05070   12.25610    0.05320   46.06860   52.16620  104.09500    2.65910    0.03010
 6400.50000  -79.00600   93.32260   70.61500   58.92490    0.04460   12.23960    0.04910   45.18050   52.49310  106.51030    2.64460    0.03760
 6401.00000  -78.97880   92.08900   75.74710   57.33750    0.04100   12.19280    0.05200   43.84730   52.76560  107.43870    2.63500    0.04510
 6401.50000  -78.95170   88.37440   75.78430   55.94730    0.03790   12.03910    0.05740   43.40430   52.76850  108.24930    2.62280    0.05290
 6402.00000  -78.92450   84.80950   70.51550   55.06110    0.03430   11.93590    0.06640   42.96130   52.77150  106.55600    2.61060    0.05770
 6402.50000  -78.89730   78.05650   61.27990   58.30890    0.03240   11.97690    0.06800   42.96360   52.63860  105.44750    2.60110    0.06110
 6403.00000  -79.53500   72.84920   50.56160   61.73990    0.03060   12.12160    0.06350   42.96590   52.02070  104.98520    2.60260    0.06130
 6403.50000  -80.72590   69.91060   47.30200   66.16210    0.02940   12.26130    0.05900   42.96810   51.00050  104.98520    2.60870    0.05990
 6404.00000  -81.91760   70.93610   47.99340   68.08190    0.03000   12.49490    0.05150   42.97030   50.70620  106.17210    2.61480    0.05700
 6404.50000  -83.10850   74.01070   48.75560   69.02920    0.03060   12.79130    0.04850   42.97250   50.70940  107.35900    2.61930    0.05400
 6405.00000  -83.59740   78.30200   51.01780   69.07110    0.03250   13.01100    0.04710   42.81910   51.00900  107.95250    2.62390    0.05090
 6405.50000  -82.85290   81.69580   55.43330   66.15400    0.03590   12.70430    0.05180   42.17360   51.60780  107.95250    2.62240    0.04730
 6406.00000  -82.21220   81.74710   57.74950   62.66230    0.04500   12.37500    0.05790   42.04790   51.93480  107.35900    2.61490    0.04910
 6406.50000  -81.57010   78.44960   57.47940   60.90150    0.06050   12.13610    0.06280   42.98600   52.55840  107.35900    2.60730    0.05630
 6407.00000  -80.32370   75.28520   53.62370   57.69800    0.06810   11.95740    0.06720   44.41950   52.88540  106.99210    2.60120    0.06120
 6407.50000  -79.68280   73.26210   50.83620   55.36460    0.06910   11.98960    0.07230   46.56550   53.10090  106.66890    2.59850    0.06460
 6408.00000  -78.59820   75.37980   49.56800   53.87360    0.06350   11.99170    0.07850   49.20220   53.10390  106.04920    2.60190    0.06600
 6408.50000  -77.96680   80.86950   49.83700   53.23760    0.05810   12.05400    0.08480   51.69550   53.10680  105.72760    2.60650    0.06470
 6409.00000  -77.75760   89.21090   55.57050   52.44880    0.05570   12.05600    0.08800   53.35840   53.11030  106.46880    2.61320    0.06050
 6409.50000  -78.10310   91.78960   68.96720   51.83920    0.05510   12.02570    0.08870   54.12280   53.11310  107.06230    2.61460    0.05590
 6410.00000  -78.89220   89.32300   70.38020   52.70010    0.05500   11.99990    0.08210   55.01510   53.11600  108.24930    2.60790    0.05400
 6410.50000  -80.48660   86.92270   68.09290   54.22790    0.05440   11.97180    0.08060   55.01720   53.41550  110.02970    2.59940    0.06190
 6411.00000  -80.02650   84.58690   64.22840   55.80120    0.05380   11.94370    0.08520   54.12910   53.42330  110.32640    2.59900    0.06400
 6411.50000  -78.78090   83.46680   60.28960   56.50060    0.05380   11.91570    0.08820   53.65740   53.71810  109.71360    2.60480    0.06180
 6412.00000  -77.17220   83.52130   57.84690   55.75360    0.05310   11.91810    0.09130   52.15820   53.72110  108.17780    2.60780    0.05950
 6412.50000  -76.54080   87.14140   56.28070   56.05420    0.05310   11.92020    0.09280   49.29450   53.42690  107.00050    2.61240    0.05950
 6413.00000  -76.25190   93.48760   55.52420   59.46110    0.05310   11.92230    0.09280   46.49260   53.43030  106.17210    2.61390    0.06030
 6413.50000  -75.61050   98.90840   55.96810   61.74020    0.05240   11.92440    0.09280   46.12830   53.13650  106.28660    2.60490    0.06150
 6414.00000  -74.36410  104.64330   57.81640   63.36460    0.05240   11.92650    0.08970   46.13060   53.13950  106.76560    2.59890    0.06390
 6414.50000  -73.41090   93.65960   61.18220   62.52330    0.05180   11.92900    0.08660   46.28040   52.84620  106.76560    2.59450    0.06810
 6415.00000  -72.47730   92.42120   63.57820   61.53000    0.05120   11.96120    0.08350   46.58010   52.55230  105.87540    2.59460    0.06930
 6415.50000  -71.83520   93.77870   64.23030   59.70000    0.05050   11.99330    0.08200   46.38860   52.55510  104.98520    2.59970    0.06870
 6416.00000  -70.59000   95.15420   63.10140   57.44990    0.04960   12.02550    0.08100   45.92290   51.96450  104.39170    2.60900    0.06320
 6416.50000  -69.34490   96.98720   61.39300   55.90150    0.04870   12.02750    0.08110   45.21720   51.66280  103.79820    2.61930    0.05850
 6417.00000  -68.09850  103.93210   59.73140   55.32680    0.04740   12.08980    0.08190   44.28310   51.04500  103.20480    2.62900    0.04880
 6417.50000  -66.85290  109.78990   57.58270   55.36540    0.04440   12.24250    0.08870   43.34940   50.72450  103.17750    2.64120    0.03540
 6418.00000  -65.20470  115.05610   56.81740   55.40020    0.04070   12.52170    0.10080   41.79880   50.40340  102.85420    2.65870    0.02670
 6418.50000  -63.95830  123.22210   56.85470   55.43490    0.03770   12.89660    0.10980   39.92920   50.08230  102.57140    2.67350    0.02090
 6419.00000  -62.71350  127.98000   57.18980   55.46970    0.03340   13.24480    0.11740   39.03160   49.76180  102.31450    2.68360    0.01720
 6419.50000  -61.46710  130.19800   59.67290   57.28150    0.02980   13.68730    0.11440   38.58860   49.61130  102.57800    2.68520    0.01660
