~Version ---------------------------------------------------
VERS.   2.0 : CWLS log ASCII Standard -VERSION 2.0
WRAP.    NO : One line per depth step
DLM . SPACE : Column Data Section Delimiter
~Well ------------------------------------------------------
STRT .F                4992.0 : START DEPTH
STOP .F               15597.0 : STOP DEPTH
STEP .F                   0.5 : STEP
NULL .               -9999.25 : NULL VALUE
COMP .                        : COMPANY
WELL .                        : WELL
FLD  .                        : FIELD
LOC  .                        : LOCATION
PROV .                        : PROVINCE
CNTY .                        : COUNTY
STAT .                        : STATE
CTRY .                        : COUNTRY
SRVC .                        : SERVICE COMPANY
DATE .                        : DATE
UWI  .                        : UNIQUE WELL ID
API  .                        : API NUMBER
SLAT .WGS84 5.850703098332204 : SURFACE LATITUDE
SLON .WGS84 4.156075836548197 : SURFACE LONGITUDE
DATUM.F               1885.27 : DEPTH DATUM ELEV
~Curve Information -----------------------------------------
DEPT.F     : 
SPR .MV    : SPONTANEOUS POTENTIAL
ILD .OHMM  : INDUCTION LOG DEEP
ILM .OHMM  : INDUCTION LOG MEDIUM
SFLU.OHMM  : SPHERICALLY FOCUSED LOG UNAVERAGED RESISTIVITY
NPHI.DEC   : NEUTRON POROSITY LIMESTONE
CALD.IN    : CALIPER FROM DENSITY LOG
DRHO.G/C3  : DENSITY CORRECTION
GRS .GAPI  : GAMMA RAY FROM SONIC LOG
DTCO.US/F  : COMPRESSIONAL-WAVE INTERVAL TRANSIT TIME ACOUSTIC SLOWNESS
DTSM.US/F  : SHEAR-WAVE INTERVAL TRANSIT TIME DELTA-T
RHOB.G/C3  : BULK DENSITY
DPHI.DEC   : DENSITY POROSITY LIMESTONE
~Params ----------------------------------------------------
~Other -----------------------------------------------------
~ASCII -----------------------------------------------------
# ...
 8464.00000  -14.91000    7.08010    7.14220    7.39020    0.23980   14.00720   -0.00440   93.08540   74.33780  144.48370    2.66350    0.02960
 8464.50000  -14.28180    6.89000    6.94930    7.19260    0.24950   14.00890   -0.00440   97.58450   75.22520  148.60530    2.65750    0.03920
 8465.00000  -14.25780    6.70510    6.76120    7.00020    0.25080   14.02210   -0.00290   99.77540   76.40930  150.97920    2.63650    0.05490
 8465.50000  -14.23380    6.44260    6.57880    6.71880    0.24260   14.04230   -0.00280  100.70880   77.29660  152.16620    2.61850    0.06570
 8466.00000  -14.20990    6.34960    6.41870    6.63090    0.22870   14.04400   -0.00130  100.45040   78.77740  152.46290    2.60620    0.06990
 8466.50000  -14.18590    6.18830    6.31500    6.45360    0.22630   14.06180    0.00020  100.00050   79.66480  153.05640    2.59430    0.06890
 8467.00000  -14.16200    6.09770    6.23080    6.28100    0.22570   14.10790    0.00330   99.99830   78.72210  153.37130    2.59300    0.06320
 8467.50000  -14.13800    5.94400    6.06210    6.02850    0.22630   14.16970    0.00660   99.99620   77.80450  153.99140    2.59730    0.05880
 8468.00000  -14.11400    5.85570    5.89850    5.94960    0.23110   14.20150    0.01310  101.79240   76.49060  154.54010    2.60930    0.06000
 8468.50000  -14.09000    5.77850    5.65960    5.79050    0.24130   14.29340    0.02240  102.76970   75.37500  155.32970    2.61420    0.07640
 8469.00000  -14.06610    5.62340    5.50640    5.63570    0.25950   14.38540    0.02990  103.57180   75.19880  156.57000    2.57820    0.09330
 8469.50000  -14.04210    5.48400    5.35780    5.48500    0.26590   14.41710    0.03810  102.99740   75.49200  157.66490    2.55450    0.10530
 8470.00000  -14.01810    5.40000    5.21270    5.26440    0.26940   14.44890    0.04740  101.61230   76.37930  160.17800    2.52600    0.12220
 8470.50000  -13.38970    5.32900    5.14310    5.19500    0.27130   14.45050    0.05830  100.87840   77.56340  165.22250    2.50900    0.12230
 8471.00000  -13.36560    5.25850    5.09660    5.12760    0.27040   14.42200    0.06320  101.11920   82.01160  167.89320    2.50520    0.11970
 8471.50000  -13.34140    5.20260    5.10030    5.13150    0.26600   14.35830    0.06400  100.87350   84.67940  165.81600    2.50310    0.11010
 8472.00000  -13.27680    5.20690    5.12820    5.20750    0.23580   14.14450    0.05830   98.18480   86.16020  163.73890    2.52270    0.09840
 8472.50000  -12.68880    5.21090    5.27760    5.28460    0.21880   14.03530    0.04440   97.20140   84.60090  162.84870    2.55130    0.08770
 8473.00000  -12.66470    5.28810    5.45930    5.36290    0.21150   14.10990    0.03840   98.62830   83.03860  162.17280    2.56340    0.08110
 8473.50000  -12.64050    5.38350    5.63700    5.44230    0.21330   14.19720    0.03390   99.07390   80.95910  160.50020    2.57400    0.07380
 8474.00000  -12.61630    5.54050    5.75120    5.67890    0.22720   14.26060    0.03240   98.62390   79.71910  158.31650    2.59050    0.06120
 8474.50000  -12.59220    5.72130    5.77110    5.76300    0.23620   14.31310    0.03090   99.73560   78.60350  156.49610    2.60710    0.05330
 8475.00000  -12.46770    5.86840    5.72680    5.84830    0.23760   14.32730    0.03100  102.08820   77.98220  157.21070    2.61770    0.05330
 8475.50000  -11.82970    6.03950    5.69650    5.77180    0.22590   14.34650    0.03100  103.84590   77.53350  163.73890    2.62370    0.05630
 8476.00000  -11.31120    6.10680    5.54250    5.61750    0.22040   14.34820    0.03260  104.69250   78.12460  165.51930    2.61890    0.05330
 8476.50000  -11.28700    6.19720    5.39260    5.39160    0.22050   14.39720    0.04050  104.20330   78.41840  163.44210    2.61600    0.05330
 8477.00000  -11.26290    6.09220    5.24690    5.24750    0.22590   14.41210    0.04940  103.98320   78.41520  161.06830    2.61700    0.05320
 8477.50000  -11.23870    5.92840    5.21090    5.23470    0.24010   14.44380    0.05230  104.87650   78.11560  158.39760    2.62090    0.05480
 8478.00000  -11.21450    5.85050    5.21420    5.25550    0.26350   14.47550    0.04850  106.21770   76.92580  155.99950    2.62240    0.07730
 8478.50000  -11.19030    5.69330    5.18150    5.18630    0.28680   14.50730    0.04480  108.00660   75.09180  155.13350    2.61870    0.09050
 8479.00000  -10.98460    5.54030    5.00580    5.11890    0.29820   14.53900    0.04480  110.24320   73.90310  155.43030    2.59120    0.11340
 8479.50000  -10.53780    5.39160    4.73610    4.98200    0.31690   14.63100    0.04610  111.15670   73.57890  155.33820    2.56260    0.12300
 8480.00000   -9.90940    5.24690    4.57710    4.58590    0.34010   15.02420    0.05160  111.58220   73.25420  155.01480    2.51120    0.13880
 8480.50000   -9.88520    5.10600    4.48730    4.34060    0.33790   15.17640    0.05630  111.03200   73.59720  154.98210    2.43530    0.15760
 8481.00000   -9.86100    4.96890    4.39380    4.16610    0.32870   15.02200    0.06090  108.92380   75.86940  157.99310    2.40460    0.18620
 8481.50000   -9.83690    4.83540    4.27520    3.99860    0.32140   14.68180    0.06760  105.48580   79.87180  163.44210    2.38810    0.19100
 8482.00000   -9.81270    4.70580    4.19320    3.94600    0.32770   14.42820    0.08430  102.41320   82.53960  169.37690    2.38210    0.19280
 8482.50000   -9.78850    4.57920    4.13770    3.89440    0.33520   14.43000    0.11150  101.01470   84.61390  169.97030    2.37910    0.19460
 8483.00000   -9.76430    4.54230    4.14090    3.89760    0.34050   14.46910    0.12360  100.82200   84.01760  169.97030    2.37620    0.19580
 8483.50000  -10.01140    4.48290    4.14340    4.01080    0.34200   14.56270    0.12210  100.81990   83.71800  171.19120    2.37470    0.19700
 8484.00000   -9.71600    4.48700    4.14600    4.07020    0.33790   14.66670    0.11610  101.71330   83.41840  174.34260    2.37620    0.19400
 8484.50000   -9.69180    4.55340    4.14860    4.01700    0.33030   14.79190    0.11160  101.71110   83.71230  178.29710    2.38080    0.18910
 8485.00000   -9.66770    4.55690    4.15120    3.90960    0.32480   14.84340    0.10710  102.16580   83.75870  181.12880    2.38710    0.18730
 8485.50000   -9.64350    4.58770    4.21210    3.85840    0.32060   14.81640    0.10560  103.09730   84.07780  181.83980    2.39340    0.18370
 8486.00000   -9.61930    4.62790    4.27380    3.80770    0.31750   14.70940    0.10560  104.47690   84.98910  178.75130    2.40120    0.17780
 8486.50000   -8.99090    4.63150    4.33650    3.91850    0.32470   14.65410    0.10620  105.53650   86.79190  176.92240    2.40870    0.17640
 8487.00000   -8.96680    4.63500    4.40010    4.08890    0.34400   14.68610    0.11060  106.17800   86.07120  175.90500    2.41100    0.18560
 8487.50000   -8.94260    4.63860    4.46460    4.14950    0.34400   14.77810    0.11610  103.97330   83.39700  176.49850    2.39710    0.19700
 8488.00000   -8.91360    4.64210    4.53010    4.15270    0.34580   14.90020    0.12550  101.65350   81.91050  177.98220    2.36610    0.20950
 8488.50000   -8.88970    4.58140    4.53290    4.04160    0.35120   15.02230    0.13000   99.45410   81.01740  179.16910    2.34240    0.21730
 8489.00000   -9.46990    4.52150    4.41110    3.98870    0.34730   15.08410    0.12710   98.10870   82.20150  179.47800    2.31950    0.23410
 8489.50000   -9.44600    4.49430    4.29250    3.93640    0.33140   14.72430    0.12320   96.31550   84.57260  180.38880    2.30520    0.23410
 8490.00000   -9.42200    4.46580    4.23580    3.93960    0.31740   14.36450    0.12100   95.41780   86.94360  180.65280    2.32110    0.22990
 8490.50000  -10.00600    4.46920    4.23840    3.94260    0.30860   14.45710    0.11950   94.52010   87.23750  181.03560    2.34820    0.21060
 8491.00000   -9.97830    4.53540    4.24100    3.94560    0.29980   14.55060    0.11960   94.58400   86.88820  181.24630    2.37080    0.19970
 8491.50000   -9.95430    4.53880    4.24370    4.00400    0.29140   14.58020    0.12110   96.97840   85.67300  180.37430    2.39940    0.17800
