~Version ---------------------------------------------------
VERS.   2.0 : CWLS log ASCII Standard -VERSION 2.0
WRAP.    NO : One line per depth step
DLM . SPACE : Column Data Section Delimiter
~Well ------------------------------------------------------
STRT .F                4992.0 : START DEPTH
STOP .F               15597.0 : STOP DEPTH
STEP .F                   0.5 : STEP
NULL .               -9999.25 : NULL VALUE
COMP .                        : COMPANY
WELL .                        : WELL
FLD  .                        : FIELD
LOC  .                        : LOCATION
PROV .                        : PROVINCE
CNTY .                        : COUNTY
STAT .                        : STATE
CTRY .                        : COUNTRY
SRVC .                        : SERVICE COMPANY
DATE .                        : DATE
UWI  .                        : UNIQUE WELL ID
API  .                        : API NUMBER
SLAT .WGS84 5.850703098332204 : SURFACE LATITUDE
SLON .WGS84 4.156075836548197 : SURFACE LONGITUDE
DATUM.F               1885.27 : DEPTH DATUM ELEV
~Curve Information -----------------------------------------
DEPT.F     : 
SPR .MV    : SPONTANEOUS POTENTIAL
ILD .OHMM  : INDUCTION LOG DEEP
ILM .OHMM  : INDUCTION LOG MEDIUM
SFLU.OHMM  : SPHERICALLY FOCUSED LOG UNAVERAGED RESISTIVITY
NPHI.DEC   : NEUTRON POROSITY LIMESTONE
CALD.IN    : CALIPER FROM DENSITY LOG
DRHO.G/C3  : DENSITY CORRECTION
GRS .GAPI  : GAMMA RAY FROM SONIC LOG
DTCO.US/F  : COMPRESSIONAL-WAVE INTERVAL TRANSIT TIME ACOUSTIC SLOWNESS
DTSM.US/F  : SHEAR-WAVE INTERVAL TRANSIT TIME DELTA-T
RHOB.G/C3  : BULK DENSITY
DPHI.DEC   : DENSITY POROSITY LIMESTONE
~Params ----------------------------------------------------
~Other -----------------------------------------------------
~ASCII -----------------------------------------------------
# ...
 13364.00000   18.12690    6.16770    5.89420    6.70150    0.33570    2.01920    0.02340   49.99560   76.57600  142.36010    2.71980    0.01390
 13364.50000   18.14950    6.08450    5.82470    7.25940    0.34160    2.01940    0.01940   48.52190   77.76040  142.04780    2.62980    0.05650
 13365.00000   18.17220    5.75820    5.47240    7.53770    0.34660    2.01950    0.01950   48.53190   77.75620  144.99950    2.59970    0.06370
 13365.50000   18.19490    5.44930    4.96130    7.42480    0.34540    2.01970    0.02460   48.54190   78.04910  151.51200    2.61480    0.05100
 13366.00000   18.21780    5.30190    4.85790    6.68090    0.33940    2.01980    0.02930   48.55190   78.34200  151.46310    2.62840    0.04730
 13366.50000   18.24020    5.01750    5.03370    5.36640    0.33390    2.02000    0.03240   47.91820   78.33730  150.41820    2.62850    0.05640
 13367.00000   18.26280    5.09000    5.13720    4.56590    0.32970    2.02010    0.02820   47.04080   77.95230  149.38790    2.60450    0.06900
 13367.50000   18.28550    5.16420    5.06770    4.30990    0.33030    2.02030    0.02050   46.43450   77.73480  158.14430    2.57890    0.08160
 13368.00000   18.31130    5.30770    4.86220    4.76270    0.33390    2.02040    0.01840   45.92120   79.45680  159.44210    2.55170    0.09300
 13368.50000   18.33080    5.00380    4.60070    5.47460    0.33810    2.02060    0.02000   47.41210   80.99410  159.12910    2.55040    0.09000
 13369.00000   18.35620    4.60160    4.35330    6.07740    0.33930    2.02070    0.02150   50.35500   81.28600  160.29680    2.55500    0.09300
 13369.50000   18.98280    4.36730    4.29420    5.85120    0.33680    2.02090    0.02310   53.43730   83.65910  165.32560    2.54910    0.10300
 13370.00000   19.00300    4.30700    4.29510    5.31050    0.33500    2.02100    0.02020   53.78810   84.30910  171.83820    2.52860    0.11480
 13370.50000   19.02570    4.25850    4.35590    4.75340    0.33570    2.02120    0.00510   52.80120   84.54210  173.60300    2.49470    0.13100
 13371.00000   19.04830    4.28570    4.54200    4.19610    0.33700    2.02130   -0.00550   52.51330   84.53780  172.40040    2.47270    0.14220
 13371.50000   19.07260    4.41050    4.73590    4.12270    0.33880    2.02150   -0.01600   53.11790   84.84870  169.55080    2.45370    0.15350
 13372.00000   19.09500    4.66610    4.80310    4.49870    0.34030    2.02160   -0.03430   53.12790   83.96980  164.64430    2.43670    0.16480
 13372.50000   19.11740    4.82930    4.73790    5.09760    0.33700    2.02180   -0.05730   53.43460   80.24640  161.09630    2.41240    0.17610
 13373.00000   19.13990    4.80970    4.60920    5.69660    0.33020    2.02190   -0.07050   52.46120   78.48190  160.46840    2.39430    0.18730
 13373.50000   19.16230    4.74320    4.42220    6.36600    0.31840    2.02210   -0.07360   50.73160   78.27490  161.63970    2.38540    0.19090
 13374.00000   19.18470    4.61330    4.30210    6.19270    0.30290    2.02220   -0.07630   50.49720   78.27040  161.47420    2.38840    0.18910
 13374.50000   19.81140    4.51100    4.30300    5.39130    0.29600    2.02240   -0.07000   52.38940   78.56310  160.83840    2.40050    0.17400
 13375.00000   19.83380    4.48660    4.36400    4.69370    0.28760    2.02250   -0.05740   53.31360   79.15230  160.10130    2.41870    0.16260
 13375.50000   20.46070    4.39040    4.42890    4.50300    0.27380    2.02270   -0.04490   53.94030   80.33680  159.19540    2.43680    0.15530
 13376.00000   20.48340    4.39160    4.61850    4.63030    0.26940    2.02280   -0.03440   54.39760   84.79010  159.47650    2.45070    0.15410
 13376.50000   20.50600    4.57860    4.75630    4.82770    0.27060    2.02300   -0.03500   55.00320   87.16330  165.69230    2.45500    0.15600
 13377.00000   20.52870    4.84400    5.09520    5.18330    0.27180    2.02310   -0.03800   55.90340   88.95170  167.75380    2.44700    0.15710
 13377.50000   20.55140    5.19640    5.40890    5.80160    0.27320    2.02330   -0.03490   57.10040   89.82930  167.05670    2.44310    0.15310
 13378.00000   20.57400    5.57430    5.87370    6.48580    0.27440    2.02340   -0.03330   58.59400   89.06290  164.38190    2.45040    0.14230
 13378.50000   20.59670    5.94720    6.21430    7.05910    0.27620    2.02360   -0.02870   60.97790   86.57900  154.83900    2.46590    0.13650
 13379.00000   20.26890    6.30610    6.48460    7.56130    0.28160    2.02370   -0.02560   60.92210   81.74590  146.25440    2.48040    0.13830
 13379.50000   20.03780    6.66710    6.67300    7.98040    0.28820    2.02390   -0.02700   57.58970   78.15130  142.21550    2.47390    0.16270
 13380.00000   19.69810    6.85630    6.81650    8.30050    0.29420    2.02400   -0.06330   55.90430   76.27500  140.79090    2.38740    0.19920
 13380.50000   19.47640    6.85810    6.64350    8.41760    0.29240    2.02420   -0.08140   55.37990   76.13140  140.04010    2.32150    0.23030
 13381.00000   19.50150    6.76570    6.33430    8.41870    0.29170    2.02430   -0.08900   57.19380   75.83000  139.13420    2.30490    0.23650
 13381.50000   19.44550    6.40280    6.18940    8.41990    0.29180    2.02450   -0.10740   58.49800   75.23140  137.93160    2.30350    0.22910
 13382.00000   18.93950    6.14390    6.22310    8.30490    0.29390    2.02460   -0.13300   57.77790   74.33550  137.02580    2.31590    0.22890
 13382.50000   18.78210    6.14560    6.31380    8.07780    0.29860    2.02480   -0.13570   56.90860   72.84540  137.30690    2.31110    0.23150
 13383.00000   18.38010    6.23300    6.36770    6.60510    0.30120    2.02490   -0.13360   56.62020   73.15400  138.50930    2.30820    0.23380
 13383.50000   18.40640    6.32160    6.36900    5.71300    0.30250    2.02510   -0.12350   57.22530   74.19020  139.73070    2.30980    0.23380
 13384.00000   18.42900    6.41150    6.45930    6.26250    0.30120    1.99520   -0.11050   57.82880   76.53350  140.82080    2.32370    0.21620
 13384.50000   18.45160    6.50270    6.46070    7.21880    0.29940    1.99540   -0.09750   58.43220   77.67590  141.10190    2.34700    0.20580
 13385.00000   18.47430    6.50450    6.46200    7.86070    0.29880    1.99550   -0.08870   57.55200   77.34120  141.08310    2.36530    0.19850
 13385.50000   18.49700    6.41680    6.32520    7.97430    0.30270    1.99570   -0.08390   56.61780   75.79900  141.06680    2.37540    0.19440
 13386.00000   18.51960    6.33030    6.06650    7.47570    0.30580    1.99580   -0.07990   55.11470   74.55240  140.87970    2.38320    0.19190
 13386.50000   18.54230    6.07430    5.78710    6.30960    0.30720    1.99590   -0.07670   53.89250   74.49140  140.73470    2.38890    0.19020
 13387.00000   18.56490    5.82710    5.70840    5.78290    0.30720    1.99610   -0.07600   52.75760   75.18220  140.12560    2.39210    0.18900
 13387.50000   18.58760    5.66760    5.70980    7.34180    0.30840    1.99620   -0.07750   51.44720   75.77230  141.59370    2.38880    0.18860
 13388.00000   18.61030    5.51760    5.71090    8.09150    0.31300    1.99640   -0.07890   50.78930   76.36240  149.29310    2.37110    0.19100
 13388.50000   18.63290    5.51910    5.71210    7.44630    0.32100    1.99650   -0.07880   51.25380   77.25080  150.76360    2.36200    0.20100
 13389.00000   18.65560    5.52070    5.71330    5.88290    0.32910    2.00080   -0.08030   52.59250   77.89530  152.01530    2.36010    0.20500
 13389.50000   18.67820    5.51140    5.71440    5.12170    0.33940    2.02690   -0.08020   53.49270   78.72700  155.20720    2.36620    0.20050
 13390.00000   18.70090    5.43530    5.63690    6.13460    0.34970    2.02700   -0.08170   54.68960   79.09820  159.27510    2.37080    0.20170
 13390.50000   18.72780    5.37420    5.48380    7.24660    0.34970    2.02720   -0.08460   54.99630   79.31280  164.65330    2.36180    0.20530
 13391.00000   18.74620    5.22880    5.18890    7.14770    0.34310    2.02730   -0.08610   53.81940   79.43800  168.94690    2.34980    0.21070
 13391.50000   18.76890    5.03760    5.04790    6.76290    0.33770    2.02750   -0.08780   52.93920   79.75680  167.99860    2.35290    0.21010
