~Version ---------------------------------------------------
VERS.   2.0 : CWLS log ASCII Standard -VERSION 2.0
WRAP.    NO : One line per depth step
DLM . SPACE : Column Data Section Delimiter
~Well ------------------------------------------------------
STRT .F                4992.0 : START DEPTH
STOP .F               15597.0 : STOP DEPTH
STEP .F                   0.5 : STEP
NULL .               -9999.25 : NULL VALUE
COMP .                        : COMPANY
WELL .                        : WELL
FLD  .                        : FIELD
LOC  .                        : LOCATION
PROV .                        : PROVINCE
CNTY .                        : COUNTY
STAT .                        : STATE
CTRY .                        : COUNTRY
SRVC .                        : SERVICE COMPANY
DATE .                        : DATE
UWI  .                        : UNIQUE WELL ID
API  .                        : API NUMBER
SLAT .WGS84 5.850703098332204 : SURFACE LATITUDE
SLON .WGS84 4.156075836548197 : SURFACE LONGITUDE
DATUM.F               1885.27 : DEPTH DATUM ELEV
~Curve Information -----------------------------------------
DEPT.F     : 
SPR .MV    : SPONTANEOUS POTENTIAL
ILD .OHMM  : INDUCTION LOG DEEP
ILM .OHMM  : INDUCTION LOG MEDIUM
SFLU.OHMM  : SPHERICALLY FOCUSED LOG UNAVERAGED RESISTIVITY
NPHI.DEC   : NEUTRON POROSITY LIMESTONE
CALD.IN    : CALIPER FROM DENSITY LOG
DRHO.G/C3  : DENSITY CORRECTION
GRS .GAPI  : GAMMA RAY FROM SONIC LOG
DTCO.US/F  : COMPRESSIONAL-WAVE INTERVAL TRANSIT TIME ACOUSTIC SLOWNESS
DTSM.US/F  : SHEAR-WAVE INTERVAL TRANSIT TIME DELTA-T
RHOB.G/C3  : BULK DENSITY
DPHI.DEC   : DENSITY POROSITY LIMESTONE
~Params ----------------------------------------------------
~Other -----------------------------------------------------
~ASCII -----------------------------------------------------
# ...
 14064.00000   14.68200    5.12570    4.99040   10.50200    0.22280    8.64430    0.00430   44.54620   81.53540  148.43880    2.66540    0.02680
 14064.50000   14.72360    4.86310    4.73830   10.28920    0.22640    8.60640    0.00440   44.55790   77.40160  140.12450    2.66400    0.02700
 14065.00000   14.76530    4.26170    4.02180    9.16330    0.22760    8.57610    0.00590   44.91110   72.94360  138.33840    2.66400    0.02740
 14065.50000   14.80120    3.60550    3.48230    6.73900    0.22820    8.55840    0.00750   47.22810   72.11740  144.11570    2.66560    0.02690
 14066.00000   14.84340    3.15740    2.99200    4.24740    0.22750    8.55980    0.00760   51.99370   72.95850  145.15190    2.67020    0.02500
 14066.50000   14.89040    2.88480    2.68180    3.16230    0.22750    8.56110    0.00910   56.25190   75.25500  141.66820    2.67170    0.02430
 14067.00000   14.93200    2.71130    2.46290    3.06080    0.22830    8.56270    0.00910   56.78340   78.92260  137.66760    2.67020    0.02430
 14067.50000   14.97370    2.63650    2.37920    3.49740    0.22890    8.56400    0.01070   56.20410   81.88580  137.25730    2.67030    0.02430
 14068.00000   15.01540    2.53620    2.33090    4.09000    0.23070    8.53510    0.01070   55.62200   85.74060  145.25480    2.67220    0.02300
 14068.50000   15.05710    2.50220    2.29930    4.32860    0.23280    8.53660    0.01230   55.63340   89.00100  156.69340    2.67540    0.02120
 14069.00000   14.49400    2.46880    2.26810    4.53900    0.23460    8.53800    0.01230   55.94150   87.50660  155.50080    2.67910    0.01880
 14069.50000   14.53800    2.46960    2.26860    4.64680    0.23620    8.53930    0.01090   55.95280   85.01120  151.63750    2.68400    0.01640
 14070.00000   14.57970    2.47050    2.26910    4.47580    0.23640    8.54060    0.01090   55.66750   82.63460  150.14820    2.68930    0.01390
 14070.50000   14.62140    2.47130    2.28190    4.01210    0.23390    8.54190    0.00940   55.67950   81.83470  150.51180    2.68690    0.01450
 14071.00000   14.66300    2.47220    2.33390    3.20760    0.22850    8.54320    0.00950   55.33290   84.52610  156.63060    2.68260    0.01700
 14071.50000   14.70480    2.47300    2.41450    2.86860    0.22130    8.54460    0.00950   55.02050   88.21290  162.13320    2.68120    0.01870
 14072.00000   14.74700    2.54340    2.48370    2.82430    0.21400    8.54590    0.00960   54.11690   90.88100  168.19040    2.67970    0.01920
 14072.50000   14.78910    2.68920    2.59060    3.02410    0.20730    8.54730    0.00810   53.07090   89.82010  168.51740    2.67970    0.01920
 14073.00000   14.83130    2.84330    2.75900    3.95450    0.19950    8.54860    0.00660   50.74890   88.62290  167.62020    2.67830    0.01860
 14073.50000   14.87350    3.09070    3.00300    4.97170    0.19440    8.55000    0.00370   48.33430   86.23690  167.44710    2.67830    0.01860
 14074.00000   14.98710    3.35970    3.28860    6.01550    0.18690    8.56300    0.00370   47.15880   83.55380  166.71710    2.67840    0.01830
 14074.50000   15.56020    3.65210    3.70810    6.60330    0.17740    8.58270    0.00220   45.38970   81.46500  164.63430    2.67850    0.01760
 14075.00000   15.60240    3.96990    4.18420    6.79470    0.16770    8.56910    0.00230   43.91740   80.26740  159.88080    2.68160    0.01570
 14075.50000   16.24700    4.43660    4.94550    7.79000    0.15780    8.50860    0.00230   43.33530   79.80790  156.90780    2.68520    0.01370
 14076.00000   16.28920    5.16850    5.37580    9.33190    0.15110    8.40690    0.00080   43.34720   77.55550  149.44010    2.69210    0.01180
 14076.50000   16.18850    5.85660    5.68370   10.42990    0.15050    8.34810    0.00090   43.35910   74.76170  143.45180    2.68380    0.01360
 14077.00000   15.76570    6.10720    5.92640   11.65710    0.15390    8.31920    0.00250   43.45090   72.20800  142.35070    2.66220    0.02080
 14077.50000   15.81320    6.01950    5.92760   12.32560    0.15900    8.31410    0.00250   44.08280   72.81780  145.38670    2.65460    0.02860
 14078.00000   15.24660    5.52920    5.60890   11.18810    0.16580    8.38210    0.00250   44.84560   74.56600  149.98070    2.65980    0.03160
 14078.50000   15.29510    4.80920    4.95160    7.91180    0.17240    8.44350    0.00260   46.09890   76.63780  157.49480    2.66740    0.03150
 14079.00000   14.72760    4.37520    4.19320    5.91410    0.18170    8.53490    0.00420   47.87160   78.41230  162.26830    2.67530    0.02770
 14079.50000   14.16680    4.20900    4.07920    5.67460    0.19060    8.56620    0.00420   49.36660   80.18680  164.87140    2.68340    0.01960
 14080.00000   14.21680    4.22640    4.06880    5.91730    0.20890    8.56760    0.00500   49.97150   81.66420  161.00810    2.69250    0.01300
 14080.50000   14.25900    4.40010    4.25440    6.34400    0.23410    8.56890    0.00670   48.49910   82.60040  160.40900    2.70010    0.00910
 14081.00000   14.30120    4.68860    4.62460    7.49500    0.25390    8.57030    0.00890   46.43340   82.26500  159.21640    2.70610    0.00660
 14081.50000   13.74090    5.15970    5.16840    9.36010    0.26170    8.56450    0.00890   43.43900   78.55210  154.74150    2.70770    0.00470
 14082.00000   13.63430    5.69170    5.69660   11.68920    0.26170    8.54280    0.01050   42.21300   75.44020  144.06150    2.70170    0.00460
 14082.50000   13.22290    6.19400    6.27870   13.80990    0.26110    8.54430    0.01050   41.71970   73.59580  139.39620    2.69720    0.00580
 14083.00000   13.26510    6.62110    6.73100   14.60180    0.26020    8.54560    0.01210   42.32280   73.58690  137.82870    2.69580    0.00760
 14083.50000   13.30720    6.85360    7.01850   14.40470    0.25980    8.54700    0.01520   44.02420   73.87370  138.92770    2.69430    0.00910
 14084.00000   13.34940    6.67710    6.73380   11.70200    0.25920    8.51830    0.01520   46.51170   74.45950  140.59320    2.69430    0.01020
 14084.50000   13.39970    6.11460    6.19730    7.93790    0.25920    8.53690    0.01070   50.37620   75.93690  143.85180    2.69290    0.01020
 14085.00000   13.43370    5.46840    5.54400    6.17550    0.25920    8.55130    0.00910   54.24510   77.71140  148.78230    2.69440    0.00960
 14085.50000   13.47590    5.05340    5.09740    5.31180    0.25840    8.55260    0.00610   57.81730   79.49070  149.96360    2.69600    0.00900
 14086.00000   13.51810    4.80370    4.76060    5.72610    0.25600    8.55390    0.00480   60.20260   80.69600  150.84810    2.69750    0.00830
 14086.50000   14.16880    4.69820    4.56610    6.81990    0.24520    8.55520    0.00480   61.99440   81.30810  152.02940    2.70040    0.00650
 14087.00000   14.20480    4.50720    4.50290    8.68940    0.22940    8.55650    0.00490   63.21460   81.24220  153.50740    2.70000    0.00590
 14087.50000   14.25220    4.35130    4.44030    9.39090    0.21190    8.55790    0.00640   64.13250   80.82450  155.33280    2.69770    0.00850
 14088.00000   14.29380    4.23390    4.31850    8.27790    0.19690    8.55920    0.00860   64.40240   80.90660  156.61550    2.70070    0.01070
 14088.50000   14.33550    4.11990    4.19020    6.06190    0.19080    8.59050    0.01110   63.13890   82.43930  157.72180    2.70230    0.00810
 14089.00000   14.73890    3.92500    3.89820    4.73380    0.19270    8.59190    0.01340   62.30170   83.28680  158.73890    2.69630    0.00760
 14089.50000   15.01810    3.70930    3.62380    4.20520    0.19630    8.59750    0.01500   60.74810   83.27680  160.53190    2.66770    0.01050
 14090.00000   15.06030    3.48630    3.29580    5.19400    0.19870    8.66070    0.01580   58.43910   83.31870  163.61920    2.63770    0.02110
 14090.50000   15.10470    3.32440    3.08340    6.80650    0.19740    8.72380    0.01580   55.56280   82.66540  167.11470    2.61810    0.03280
 14091.00000   15.14640    3.12860    2.92700    8.17280    0.19440    8.81690    0.01280   54.38720   82.06240  165.03180    2.60760    0.04310
 14091.50000   15.18670    2.88010    2.84670    8.54070    0.19260    8.89110    0.00830   54.69530   82.41400  159.68490    2.61530    0.06040
