~Version ---------------------------------------------------
VERS.   2.0 : CWLS log ASCII Standard -VERSION 2.0
WRAP.    NO : One line per depth step
DLM . SPACE : Column Data Section Delimiter
~Well ------------------------------------------------------
STRT .F                4992.0 : START DEPTH
STOP .F               15597.0 : STOP DEPTH
STEP .F                   0.5 : STEP
NULL .               -9999.25 : NULL VALUE
COMP .                        : COMPANY
WELL .                        : WELL
FLD  .                        : FIELD
LOC  .                        : LOCATION
PROV .                        : PROVINCE
CNTY .                        : COUNTY
STAT .                        : STATE
CTRY .                        : COUNTRY
SRVC .                        : SERVICE COMPANY
DATE .                        : DATE
UWI  .                        : UNIQUE WELL ID
API  .                        : API NUMBER
SLAT .WGS84 5.850703098332204 : SURFACE LATITUDE
SLON .WGS84 4.156075836548197 : SURFACE LONGITUDE
DATUM.F               1885.27 : DEPTH DATUM ELEV
~Curve Information -----------------------------------------
DEPT.F     : 
SPR .MV    : SPONTANEOUS POTENTIAL
ILD .OHMM  : INDUCTION LOG DEEP
ILM .OHMM  : INDUCTION LOG MEDIUM
SFLU.OHMM  : SPHERICALLY FOCUSED LOG UNAVERAGED RESISTIVITY
NPHI.DEC   : NEUTRON POROSITY LIMESTONE
CALD.IN    : CALIPER FROM DENSITY LOG
DRHO.G/C3  : DENSITY CORRECTION
GRS .GAPI  : GAMMA RAY FROM SONIC LOG
DTCO.US/F  : COMPRESSIONAL-WAVE INTERVAL TRANSIT TIME ACOUSTIC SLOWNESS
DTSM.US/F  : SHEAR-WAVE INTERVAL TRANSIT TIME DELTA-T
RHOB.G/C3  : BULK DENSITY
DPHI.DEC   : DENSITY POROSITY LIMESTONE
~Params ----------------------------------------------------
~Other -----------------------------------------------------
~ASCII -----------------------------------------------------
# ...
 11236.00000   -2.85040    5.04970    5.31820    5.99880    0.26030   12.65830    0.11790  101.36690   79.66580  159.50190    2.44700    0.15940
 11236.50000   -2.84140    4.98060    5.17290    5.82870    0.25550   12.72170    0.11490  102.78980   79.34050  159.80150    2.44180    0.16360
 11237.00000   -2.83240    4.84440    5.03160    5.40970    0.25610   12.79210    0.10440  104.38160   79.19980  162.47500    2.43650    0.16250
 11237.50000   -2.82350    4.64670    4.96290    4.90580    0.26510   12.87010    0.09840  105.93340   79.19550  166.63210    2.45940    0.15270
 11238.00000   -2.81450    4.51960    4.89510    4.58310    0.26320   12.90150    0.09990  107.50410   79.48630  171.49860    2.50090    0.11900
 11238.50000   -2.80550    4.45770    4.82830    4.41950    0.26260   12.89020    0.10600  109.14200   79.77730  175.62000    2.52000    0.11180
 11239.00000   -2.79650    4.39660    4.82930    4.35920    0.26480   12.81460    0.10420  110.24690   80.36280  176.43290    2.52780    0.10760
 11239.50000   -2.78750    4.45900    4.83030    4.36030    0.26800   12.67530    0.08170  111.13820   81.27230  174.78300    2.54790    0.10100
 11240.00000   -2.77860    4.52220    4.83130    4.42240    0.26920   12.63440    0.06390  111.58170   82.49590  170.80120    2.57960    0.08950
 11240.50000   -2.76960    4.58620    4.90020    4.51100    0.26180   12.63580    0.06620  110.68190   83.00490  166.21990    2.60660    0.06610
 11241.00000   -2.76060    4.71650    4.90130    4.82650    0.25500   12.60660    0.07300  110.67760   82.52510  164.23170    2.62320    0.05710
 11241.50000   -2.63200    4.85050    5.04100    5.20750    0.25230   12.60800    0.08590  111.15580   81.70120  165.46930    2.63380    0.05110
 11242.00000   -2.49190    4.98820    5.18480    5.59710    0.25230   12.54870    0.09780  112.16910   81.08160  166.65910    2.62630    0.05220
 11242.50000   -2.35180    5.05890    5.33270    5.92020    0.25230   12.51970    0.10570  113.58830   81.21680  165.17830    2.61880    0.05580
 11243.00000   -2.89910    5.13060    5.48470    6.01640    0.25040   12.49070    0.09960  115.29880   80.91660  162.51050    2.62670    0.05700
 11243.50000   -3.04290    5.35040    5.48590    5.89860    0.24740   12.46080    0.10050  116.23120   80.91240  160.13460    2.63920    0.05220
 11244.00000   -3.64720    5.50240    5.64230    5.85350    0.23870   12.40240    0.10110  116.67530   80.31820  159.15780    2.66140    0.03360
 11244.50000   -4.24910    5.65860    5.72280    6.13450    0.22430   12.40360    0.08250  115.57090   80.01900  157.60070    2.68090    0.02210
 11245.00000   -4.68380    5.73880    5.80440    6.76610    0.20990   12.40480    0.04030  116.01440   79.42470  156.04010    2.67820    0.02040
 11245.50000   -4.67570    5.90180    5.88720    7.25700    0.19730   12.43630    0.02820  116.90560   78.80990  154.47940    2.67100    0.02410
 11246.00000   -4.66870    5.98550    6.14020    7.52840    0.19180   12.43750    0.01770  118.69240   78.48540  152.78410    2.66100    0.03050
 11246.50000   -4.66160    6.07030    6.40410    7.48180    0.19240   12.45080    0.01020  118.68810   77.79690  149.82240    2.64620    0.04070
 11247.00000   -4.65460    6.41910    6.77310    7.42730    0.19540   12.47010    0.00570  118.58820   76.65630  145.91740    2.63460    0.05030
 11247.50000   -4.64750    6.78800    7.06420    7.58350    0.19410   12.50150    0.00740  115.54480   75.62160  144.43660    2.62810    0.05440
 11248.00000   -4.64050    7.38090    7.47130    8.47600    0.18920   12.50270    0.01050  110.98410   74.09330  144.14240    2.62360    0.05320
 11248.50000   -4.63340    7.80510    7.90180    9.95400    0.18870   12.53430    0.01540  108.81940   73.61810  145.92600    2.61760    0.05440
 11249.00000   -4.62640    8.36940    8.59370   11.44660    0.19610   12.56570    0.02290  109.02960   73.78400  148.89620    2.58600    0.06040
 11249.50000   -4.61930    8.37150    9.34620   11.29590    0.20770   12.62730    0.02220  109.70600   74.07470  151.95850    2.51240    0.09550
 11250.00000   -4.00810    7.80830   10.16460   10.60960    0.21820   12.59830    0.01510  110.59630   74.66040  153.69950    2.48230    0.13120
 11250.50000   -4.00100    8.26070   10.75280   10.84350    0.21440   12.50880    0.01060  111.04030   75.24610  153.94960    2.48690    0.13660
 11251.00000   -3.99400    9.23670   11.21230   11.70310    0.20980   12.41940    0.01880  111.48330   76.12800  153.95250    2.50720    0.13000
 11251.50000   -3.73100   10.04680   11.05930   11.53980    0.21100   12.36010    0.02810  111.47900   76.41760  153.95550    2.56790    0.11080
 11252.00000   -3.37560    9.86550   10.75710   11.06850    0.21480   12.36130    0.03410  111.47460   76.36140  153.95850    2.62110    0.06390
 11252.50000   -3.36860    8.03110   10.75940   10.47000    0.21940   12.36680    0.01540  109.95070   76.03770  153.66470    2.63580    0.04950
 11253.00000   -3.36150    8.27190   10.76160   10.25900    0.22060   12.39400    0.01090  106.57870   75.41800  150.99750    2.63440    0.04880
 11253.50000   -3.35450    8.86560   10.76390   10.33790    0.21570   12.39520    0.00940  102.97380   74.67190  148.62640    2.63590    0.04880
 11254.00000   -3.34740    9.23970   10.76610   10.63320    0.20850   12.40620    0.01100  101.42060   72.98500  148.33240    2.63780    0.04640
 11254.50000   -3.34040    9.24510   10.76840   11.02160    0.20420   12.42780    0.01110  100.92620   72.43730  148.63210    2.64560    0.04220
 11255.00000   -2.72910    9.37200   10.77070   11.40700    0.20840   12.42900    0.00200  101.59620   73.73090  149.57250    2.64940    0.03980
 11255.50000   -2.72210    9.36370   10.76230   11.80520    0.21700   12.41480    0.00050  104.27850   74.90660  151.85240    2.63600    0.04210
 11256.00000   -2.40220    9.21380   10.32160   12.06720    0.22810   12.40120    0.00670  107.85630   76.08230  155.14370    2.61800    0.04930
 11256.50000   -2.10370    8.48440    9.73980   12.14390    0.23890   12.40260    0.01140  110.98630   77.25800  157.13910    2.61050    0.05830
 11257.00000   -2.09670    8.03420    9.08250   11.81260    0.25090   12.40380    0.01600  113.66860   78.14470  158.26110    2.60600    0.06450
 11257.50000   -2.08960    7.70550    8.48190   11.06390    0.25720   12.40500    0.01950  115.06620   79.08180  158.44210    2.60450    0.06490
 11258.00000   -2.08260    7.49440    8.14550    9.74220    0.25980   12.40610    0.02500  116.41780   79.90010  157.97640    2.61210    0.06130
 11258.50000   -2.07550    7.30010    7.93490    8.61040    0.26080   12.43750    0.03740  116.90290   78.04300  157.26110    2.61810    0.06000
 11259.00000   -2.06850    7.30110    7.93660    8.46200    0.26020   12.43870    0.04830  117.68130   77.82600  155.78080    2.62130    0.05940
 11259.50000   -2.06140    7.31500    7.93830    8.46380    0.25330   12.43990    0.05300  118.12390   77.68910  154.29990    2.62950    0.05460
 11260.00000   -2.05300    7.41950    8.05150    8.46590    0.24090   12.44110    0.05390  116.95600   76.75590  151.33540    2.64450    0.04800
 11260.50000   -2.04600    7.63070    8.18260    8.70700    0.23720   12.44230    0.05090  112.29320   75.74700  148.03180    2.64530    0.04200
 11261.00000   -2.03900    7.95840    8.41640    8.95490    0.23480   12.44350    0.04540  110.05010   76.62770  144.08880    2.63840    0.04370
 11261.50000   -2.03190    8.31900    8.63880    9.20990    0.23240   12.44470    0.03290  109.15030   77.21340  141.67130    2.63380    0.04670
 11262.00000   -2.02490    8.81850    8.90480    9.60500    0.23120   12.45540    0.02240  108.69830   77.20920  140.57990    2.63030    0.04970
 11262.50000   -2.01790    9.54580    9.13860   10.01720    0.23300   12.51890    0.01190  108.69400   77.20490  141.92970    2.63040    0.04790
 11263.00000   -2.61510    9.95530    9.39920   11.35790    0.24020   12.59940    0.00590  107.79400   76.89240  145.21570    2.63120    0.04670
 11263.50000   -2.60810   10.23910    9.53330   12.35090    0.24140   12.58560    0.00290  107.25920   76.56890  148.01930    2.63940    0.04610
