~Version ---------------------------------------------------
VERS.   2.0 : CWLS log ASCII Standard -VERSION 2.0
WRAP.    NO : One line per depth step
DLM . SPACE : Column Data Section Delimiter
~Well ------------------------------------------------------
STRT .F                4992.0 : START DEPTH
STOP .F               15597.0 : STOP DEPTH
STEP .F                   0.5 : STEP
NULL .               -9999.25 : NULL VALUE
COMP .                        : COMPANY
WELL .                        : WELL
FLD  .                        : FIELD
LOC  .                        : LOCATION
PROV .                        : PROVINCE
CNTY .                        : COUNTY
STAT .                        : STATE
CTRY .                        : COUNTRY
SRVC .                        : SERVICE COMPANY
DATE .                        : DATE
UWI  .                        : UNIQUE WELL ID
API  .                        : API NUMBER
SLAT .WGS84 5.850703098332204 : SURFACE LATITUDE
SLON .WGS84 4.156075836548197 : SURFACE LONGITUDE
DATUM.F               1885.27 : DEPTH DATUM ELEV
~Curve Information -----------------------------------------
DEPT.F     : 
SPR .MV    : SPONTANEOUS POTENTIAL
ILD .OHMM  : INDUCTION LOG DEEP
ILM .OHMM  : INDUCTION LOG MEDIUM
SFLU.OHMM  : SPHERICALLY FOCUSED LOG UNAVERAGED RESISTIVITY
NPHI.DEC   : NEUTRON POROSITY LIMESTONE
CALD.IN    : CALIPER FROM DENSITY LOG
DRHO.G/C3  : DENSITY CORRECTION
GRS .GAPI  : GAMMA RAY FROM SONIC LOG
DTCO.US/F  : COMPRESSIONAL-WAVE INTERVAL TRANSIT TIME ACOUSTIC SLOWNESS
DTSM.US/F  : SHEAR-WAVE INTERVAL TRANSIT TIME DELTA-T
RHOB.G/C3  : BULK DENSITY
DPHI.DEC   : DENSITY POROSITY LIMESTONE
~Params ----------------------------------------------------
~Other -----------------------------------------------------
~ASCII -----------------------------------------------------
# ...
 5720.00000  -14.98470   13.96740   14.28240   17.18340    0.05620   14.26530    0.00260   48.26870   57.98340  116.93370    2.65780    0.03920
 5720.50000  -14.61330   13.59170   14.42360   16.72040    0.06200   14.26650    0.00720   48.71420   56.20620  118.85510    2.65620    0.03610
 5721.00000  -14.34080   13.13700   13.97050   15.60380    0.07120   14.29780    0.00880   49.15970   55.91390  120.44890    2.66170    0.03370
 5721.50000  -13.99090   12.08900   13.52750   14.16160    0.08130   14.35920    0.01030   50.50040   55.62240  118.82720    2.66400    0.03240
 5722.00000  -13.98190   11.20100   12.56020   11.98770    0.09400   14.39050    0.01190   52.73710   55.62670  117.64460    2.60530    0.03960
 5722.50000  -13.36860   10.37990   11.12630   10.14750    0.11520   14.42180    0.01040   55.86930   55.57860  118.83580    2.54850    0.09480
 5723.00000  -12.75530    9.68580    9.35680    6.32200    0.13700   14.48320    0.01080   59.44920   55.93190  125.66490    2.49370    0.16010
 5723.50000  -12.74620    8.84610    7.17090    5.27750    0.16520   14.51450    0.01760   66.20700   58.60680  137.53860    2.43090    0.16610
 5724.00000  -12.13290    7.67930    6.04300    5.06420    0.20800   14.54900    0.03320   71.78500   67.17910  151.67250    2.44450    0.16810
 5724.50000  -12.72810    6.73950    5.60770    4.99650    0.20750   14.61060    0.04490   75.56210   73.05490  162.85120    2.50330    0.14370
 5725.00000  -12.71900    6.63700    5.32280    5.28630    0.18430   14.64360    0.05070   74.44080   75.38480  166.70650    2.53350    0.10240
 5725.50000  -12.70820    6.73640    5.35830    5.28920    0.17090   14.67660    0.05230   73.31870   76.62700  165.43260    2.55320    0.09120
 5726.00000  -12.69920    6.78050    5.43790    4.93600    0.17570   14.73970    0.05550   74.12930   75.48500  161.03210    2.56980    0.08740
 5726.50000  -12.08600    6.69180    5.48470    4.54260    0.18600   14.77280    0.06010   75.98710   71.53400  153.80990    2.56380    0.09180
 5727.00000  -10.26430    6.60420    5.45440    4.48200    0.20410   14.86610    0.07190   77.84600   68.72790  149.44000    2.52010    0.11830
 5727.50000   -9.04690    6.33870    5.30760    4.42270    0.21320   14.91260    0.08690   79.57800   69.02890  150.63120    2.47900    0.13570
 5728.00000   -8.43370    5.99960    5.13160    4.42510    0.21800   15.02250    0.09450   79.57580   69.03320  154.19630    2.45260    0.14770
 5728.50000   -7.82050    5.60010    4.92370    4.30590    0.22340   15.11580    0.10060   80.46920   69.92760  158.05810    2.42430    0.17540
 5729.00000   -7.64940    5.45030    4.72170    4.18990    0.22520   15.25080    0.10680   81.36260   71.11880  160.43620    2.40590    0.19040
 5729.50000   -7.80360    5.23120    4.69290    4.02060    0.22710   15.46280    0.10530   82.70370   72.02180  161.37580    2.38790    0.19880
 5730.00000   -8.39880    5.09130    4.63060    3.91230    0.22970   15.73510    0.09470   84.49260   72.96720  161.97850    2.36600    0.20800
 5730.50000   -8.38880    4.95510    4.50600    3.86010    0.23430   15.97720    0.08860   83.54480   73.50590  161.93270    2.33380    0.22170
 5731.00000   -8.37980    4.88980    4.44620    3.80900    0.24320   16.06880    0.07650   82.61160   73.43060  162.23440    2.29740    0.23970
 5731.50000   -7.76660    4.96270    4.38720    3.81110    0.25560   16.00970    0.06580   81.79930   72.92060  162.53560    2.24770    0.26980
 5732.00000   -7.75760    4.96650    4.30090    3.70840    0.28020   15.86030    0.05510   81.19450   72.92580  163.29160    2.22450    0.29360
 5732.50000   -7.74860    4.90100    4.21250    3.65900    0.30600   15.55930    0.05040   80.45150   73.67970  164.91920    2.18920    0.30000
 5733.00000   -7.13540    4.83740    4.15660    3.56050    0.32550   15.50120    0.04780   80.00150   74.41920  166.70390    2.16390    0.30000
 5733.50000   -7.12640    4.77410    4.04470    3.51320    0.33440   15.63470    0.05010   79.99930   75.90720  168.78530    2.13750    0.30000
 5734.00000   -6.51320    4.71120    3.96700    3.41850    0.35140   15.76150    0.05530   79.99670   76.80170  170.27320    2.11460    0.30000
 5734.50000   -7.10880    4.58560    3.91480    3.37300    0.37250   15.87360    0.06480   80.89000   77.69610  170.87090    2.11410    0.30000
 5735.00000   -7.09950    4.52560    3.86330    3.32820    0.37510   15.96680    0.07330   80.88790   77.71540  171.17210    2.12070    0.30000
 5735.50000   -7.69470    4.52900    3.86600    3.28400    0.37010   16.06020    0.07920   81.78120   76.20050  171.17660    2.12270    0.30000
 5736.00000   -7.68570    4.53250    3.81520    3.28590    0.35920   16.09840    0.07700   81.77910   75.33510  167.30830    2.11180    0.30000
 5736.50000   -8.88520    4.47320    3.81830    3.28770    0.34340   15.99340    0.07010   82.22470   77.24230  148.82100    2.09530    0.30000
 5737.00000   -9.48050    4.47660    3.76760    3.28950    0.33430   15.84060    0.06190   81.65840   78.31160  137.60420    2.08330    0.30000
 5737.50000   -9.47130    4.54290    3.71860    3.24580    0.33000   15.73540    0.05430   79.88780   78.09360  132.86700    2.08340    0.30000
 5738.00000   -9.46220    4.54630    3.66970    3.20270    0.33210   15.66390    0.04680   79.08360   76.86040  129.65660    2.06840    0.30000
 5738.50000   -9.45320    4.54980    3.67220    3.16010    0.35640   15.60500    0.03770   79.24520   75.62710  129.49670    2.04130    0.30000
 5739.00000   -9.44410    4.55330    3.62350    3.07500    0.36810   15.54590    0.02860   79.97460   75.06530  131.74220    2.02150    0.30000
 5739.50000   -8.83080    4.49350    3.62640    2.99210    0.36450   15.42660    0.02410   80.20580   77.14750  134.12040    2.00930    0.30000
 5740.00000   -8.82180    4.49710    3.57830    2.95230    0.35310   15.36750    0.02720   80.86570   81.00930  136.79520    2.00090    0.30000
 5740.50000   -8.81270    4.50050    3.58120    2.91310    0.34190   15.24820    0.03180   80.86310   83.38750  138.98590    2.02250    0.30000
 5741.00000   -9.40860    4.56720    3.63400    2.91470    0.33210   15.15900    0.03500   80.41320   84.87540  141.47320    2.06120    0.30000
 5741.50000   -9.51300    4.57060    3.68750    2.95730    0.32740   15.12900    0.03960   79.96330   85.19290  143.28400    2.08440    0.30000
 5742.00000  -10.11880    4.70340    3.79440    3.00050    0.32400   15.03820    0.04300   79.51330   85.77420  144.74540    2.10030    0.30000
 5742.50000  -11.19440    4.70700    3.85030    3.04430    0.32550   15.01200    0.04720   78.16790   85.05130  146.28820    2.10820    0.30000
 5743.00000  -11.93510    4.71060    3.79930    3.09090    0.33090   15.18880    0.04760   75.89510   83.43060  145.63480    2.10820    0.30000
 5743.50000  -12.38490    4.64800    3.74970    3.13380    0.34060   15.40760    0.04930   75.47700   80.86780  140.38800    2.09110    0.30000
 5744.00000  -12.37460    4.58640    3.59860    3.13550    0.36110   15.66620    0.05090   76.57220   77.95750  135.94120    2.05780    0.30000
 5744.50000  -12.36560    4.39890    3.22130    3.04790    0.36290   15.92450    0.05190   78.87920   74.86770  137.13240    2.03170    0.30000
 5745.00000  -12.35650    4.10220    2.96500    2.96210    0.36530   16.11150    0.05200   80.11940   72.15210  140.69750    2.00560    0.30000
 5745.50000  -11.74320    3.77120    2.84560    2.84170    0.37680   16.25360    0.05040   79.97910   74.23350  142.48700    2.00010    0.30000
 5746.00000  -11.12990    3.48280    2.76930    2.68850    0.42210   16.36220    0.04340   77.66810   79.28230  143.46590    2.00020    0.30000
 5746.50000  -11.12080    3.43720    2.73260    2.58320    0.44090   16.40750    0.02930   74.11970   82.25390  144.97880    2.00030    0.30000
 5747.00000  -11.95150    3.48820    2.77310    2.51330    0.28580   16.37830    0.01870   70.98330   84.33530  146.30890    2.00040    0.30000
 5747.50000  -12.55790    3.60050    2.89350    2.48380    0.18640   16.28930    0.01270   65.60800   82.69960  147.54370    2.00000    0.30000
