~Version ---------------------------------------------------
VERS.   2.0 : CWLS log ASCII Standard -VERSION 2.0
WRAP.    NO : One line per depth step
DLM . SPACE : Column Data Section Delimiter
~Well ------------------------------------------------------
STRT .F                4992.0 : START DEPTH
STOP .F               15597.0 : STOP DEPTH
STEP .F                   0.5 : STEP
NULL .               -9999.25 : NULL VALUE
COMP .                        : COMPANY
WELL .                        : WELL
FLD  .                        : FIELD
LOC  .                        : LOCATION
PROV .                        : PROVINCE
CNTY .                        : COUNTY
STAT .                        : STATE
CTRY .                        : COUNTRY
SRVC .                        : SERVICE COMPANY
DATE .                        : DATE
UWI  .                        : UNIQUE WELL ID
API  .                        : API NUMBER
SLAT .WGS84 5.850703098332204 : SURFACE LATITUDE
SLON .WGS84 4.156075836548197 : SURFACE LONGITUDE
DATUM.F               1885.27 : DEPTH DATUM ELEV
~Curve Information -----------------------------------------
DEPT.F     : 
SPR .MV    : SPONTANEOUS POTENTIAL
ILD .OHMM  : INDUCTION LOG DEEP
ILM .OHMM  : INDUCTION LOG MEDIUM
SFLU.OHMM  : SPHERICALLY FOCUSED LOG UNAVERAGED RESISTIVITY
NPHI.DEC   : NEUTRON POROSITY LIMESTONE
CALD.IN    : CALIPER FROM DENSITY LOG
DRHO.G/C3  : DENSITY CORRECTION
GRS .GAPI  : GAMMA RAY FROM SONIC LOG
DTCO.US/F  : COMPRESSIONAL-WAVE INTERVAL TRANSIT TIME ACOUSTIC SLOWNESS
DTSM.US/F  : SHEAR-WAVE INTERVAL TRANSIT TIME DELTA-T
RHOB.G/C3  : BULK DENSITY
DPHI.DEC   : DENSITY POROSITY LIMESTONE
~Params ----------------------------------------------------
~Other -----------------------------------------------------
~ASCII -----------------------------------------------------
# ...
 7092.00000  -14.42890    8.56530    8.21030    6.67640    0.24340   14.70740    0.09110   93.16970   76.17800  146.20780    2.50420    0.12450
 7092.50000  -14.42600    8.44690    7.98750    6.72390    0.23990   14.70880    0.08960   94.95860   76.17950  144.42390    2.52240    0.11400
 7093.00000  -14.42300    8.33900    7.66310    6.82070    0.23770   14.74020    0.08970   96.74750   76.21670  143.54000    2.52680    0.11340
 7093.50000  -14.41990    8.34150    7.55970    6.86930    0.23640   14.74150    0.09000   98.53640   76.47920  144.54200    2.52080    0.11090
 7094.00000  -14.44920    8.22820    7.45740    7.01870    0.23610   14.77300    0.09490  100.32530   76.56790  145.02650    2.56020    0.10120
 7094.50000  -15.62250    8.34610    7.35680    7.06640    0.24330   14.77430    0.10340  101.26060   76.77870  143.03260    2.58690    0.07500
 7095.00000  -16.22370    8.46560    7.56750    7.16710    0.24270   14.77560    0.11350  102.11210   76.34530  142.65580    2.59840    0.07140
 7095.50000  -16.22050    8.60690    7.89330    7.11280    0.24150   14.77700    0.11930  102.55770   75.56410  143.73040    2.58660    0.07380
 7096.00000  -15.61330    8.73250    7.89600    7.07090    0.24150   14.77870    0.12190  100.49000   72.33260  145.03290    2.53950    0.08830
 7096.50000  -15.61030    8.95830    7.78950    7.07230    0.24450   14.80980    0.11990   97.99510   70.85010  146.22130    2.50640    0.10890
 7097.00000  -15.49050    8.98880    7.57800    6.91830    0.25230   14.78100    0.11620   95.40390   74.70930  146.81620    2.48920    0.13140
 7097.50000  -14.86980    9.08870    7.58060    6.69200    0.25590   14.78240    0.11450   92.83270   77.08460  147.41110    2.47220    0.13930
 7098.00000  -14.39270    8.96550    7.58320    6.60080    0.25460   14.78370    0.11530   89.56080   78.27300  147.70920    2.48330    0.13680
 7098.50000  -14.38970    8.81010    7.58590    6.69480    0.25410   14.78510    0.12000   85.97660   79.75810  148.02800    2.50100    0.12830
 7099.00000  -14.38670    8.56810    7.69500    6.69620    0.25420   14.75620    0.12310   89.55650   78.22880  148.60240    2.51250    0.12360
 7099.50000  -14.38370    8.48650    7.91520    6.79150    0.25560   14.75770    0.12690   93.13650   77.98050  149.19730    2.51810    0.11470
 7100.00000  -15.18670    8.37130    8.25590    6.98490    0.25890   14.78960    0.12310   94.92540   80.19160  149.05120    2.50470    0.12580
 7100.50000  -14.38070    8.37410    8.37460    6.94200    0.26520   14.97720    0.11150   93.94560   78.74880  148.90650    2.48680    0.13870
 7101.00000  -15.80680    8.49390    8.37750    6.89090    0.26510   15.06790    0.10770   93.13430   77.30600  148.91130    2.46690    0.14430
 7101.50000  -16.19340    8.49630    8.14510    6.89240    0.25540   15.05630    0.11340   93.70750   76.51190  149.21230    2.46400    0.13790
 7102.00000  -15.58910    8.54710    8.04010    6.89380    0.24860   14.92770    0.11190   94.64480   76.21170  149.54130    2.48060    0.13050
 7102.50000  -14.74270    8.79340    8.04300    6.89520    0.25750   14.79940    0.10740   94.92540   75.92710  150.74660    2.49570    0.12240
 7103.00000  -14.38070    9.04670    8.16880    6.89670    0.27020   14.83190    0.10440   95.17580   75.63460  151.00540    2.50630    0.12120
 7103.50000  -14.38070    9.30740    8.39220    6.89810    0.26890   14.87610    0.10140   94.92540   75.63950  147.94650    2.51080    0.12690
 7104.00000  -15.25080    9.37980    8.51290    6.89960    0.26880   14.94020    0.10000   94.92540   75.75840  146.43730    2.49090    0.13770
 7104.50000  -15.86330    9.38240    8.39780    6.90100    0.27790   14.92800    0.10000   95.37310   76.08620  147.17450    2.44320    0.15230
 7105.00000  -16.19340    9.25520    8.26750    6.90240    0.27970   14.85340    0.09990   96.71640   76.71080  149.54090    2.42490    0.17110
 7105.50000  -16.50740    9.12970    7.91220    6.89860    0.27280   14.75250    0.09860   96.71640   77.43840  152.21570    2.40830    0.17960
 7106.00000  -16.19340    9.00580    7.37910    6.80970    0.26730   14.78470    0.09870   96.71640   76.84920  154.29710    2.39760    0.18500
 7106.50000  -15.88710    8.93720    7.07340    6.80510    0.26890   14.84700    0.09720   94.54450   75.96330  155.48830    2.39660    0.18250
 7107.00000  -15.58910    8.81370    6.97740    6.71180    0.27300   14.84900    0.09770   91.51630   75.67060  156.67950    2.40950    0.17910
 7107.50000  -14.98490    8.64480    7.02130    6.61980    0.27270   14.76070    0.09940   91.70040   76.27340  154.79430    2.41970    0.17540
 7108.00000  -14.98490    8.64720    7.21090    6.53640    0.27060   14.67240    0.10320   93.79780   76.89800  151.71980    2.43050    0.16750
 7108.50000  -14.38070    8.64960    7.62830    6.53780    0.28090   14.64430    0.10860   96.26870   77.52250  149.70050    2.43980    0.16270
 7109.00000  -14.38070    8.65160    8.01830    6.53920    0.29410   14.76810    0.11420   97.61190   77.76560  148.75890    2.44500    0.15690
 7109.50000  -14.38070    8.77580    8.03080    6.54930    0.29560   14.88950    0.11960   98.05970   77.47250  148.39320    2.43300    0.16170
 7110.00000  -14.38070    8.77830    7.86290    6.63370    0.28240   14.98590    0.12490   98.50750   77.47770  148.39760    2.41490    0.17570
 7110.50000  -14.98490    9.02880    7.91790    6.64490    0.28230   15.01420    0.13110  101.19400   77.48220  149.58970    2.40440    0.18010
 7111.00000  -15.58910    9.15800    8.08710    6.73990    0.28360   14.93370    0.13420  102.08960   77.78410  151.37440    2.40290    0.18010
 7111.50000  -16.19340    9.55160    8.49510    6.83650    0.28180   14.75000    0.13570   98.24380   77.78840  152.26890    2.40900    0.17760
 7112.00000  -16.19340    9.68830    9.17730    7.04350    0.27260   14.65870    0.11300   94.94370   78.08940  150.19600    2.42560    0.16950
 7112.50000  -16.19340    9.69100    9.31020    7.43680    0.23690   14.72890    0.10240   92.53730   80.76430  146.56650    2.44970    0.15740
 7113.00000  -16.19340    9.69370    9.05680    7.63500    0.22300   14.87250    0.10400   91.98190   79.27580  143.85130    2.47100    0.13490
 7113.50000  -16.19340    9.69630    8.44840    7.51700    0.21810   14.92230    0.11160   92.47180   76.44790  142.08260    2.50200    0.11850
 7114.00000  -16.19340    9.56460    7.93800    7.31150    0.21440   14.99880    0.11320   93.58210   72.89660  138.74350    2.53400    0.10140
 7114.50000  -16.19340    9.43490    7.83590    7.12560    0.21440   14.97110    0.10250   96.26870   71.33600  139.50530    2.54780    0.10690
 7115.00000  -15.58910    9.17830    7.89040    6.93120    0.22470   14.94280    0.09660   97.61190   70.29160  149.98770    2.51720    0.12280
 7115.50000  -15.58910    9.05380    7.83410    6.72780    0.24690   14.97520    0.10000   97.61190   70.54070  155.27230    2.50000    0.12970
 7116.00000  -15.58910    8.68550    7.72780    6.52940    0.27640   15.00740    0.10830   97.61190   72.08330  156.76030    2.49120    0.13170
 7116.50000  -15.58910    8.33220    7.41320    6.27680    0.28180   15.03960    0.12230   98.54320   73.97560  157.65470    2.48770    0.13560
 7117.00000  -15.58910    7.99330    7.15580    6.10510    0.28740   15.07180    0.13020   99.55860   75.16680  157.95570    2.48390    0.14560
 7117.50000  -15.58910    7.74430    7.01490    6.03600    0.29670   15.13410    0.11870  100.86550   76.35800  157.96000    2.43600    0.16620
 7118.00000  -15.58910    7.67000    6.87840    5.95370    0.30440   15.16630    0.11360  101.35520   77.54920  157.61550    2.39540    0.19670
 7118.50000  -15.58910    7.67240    6.78560    5.95510    0.29810   15.13240    0.11370  101.19400   78.44360  156.32320    2.36840    0.20750
 7119.00000  -15.58910    7.67460    6.69410    5.95630    0.28710   15.04080    0.11590  101.19400   78.77090  154.75970    2.35540    0.20960
 7119.50000  -15.58910    7.71180    6.69640    5.95760    0.27460   14.93140    0.11910  101.19400   79.04600  152.19470    2.35990    0.20560
