~Version ---------------------------------------------------
VERS.   2.0 : CWLS log ASCII Standard -VERSION 2.0
WRAP.    NO : One line per depth step
DLM . SPACE : Column Data Section Delimiter
~Well ------------------------------------------------------
STRT .F                4992.0 : START DEPTH
STOP .F               15597.0 : STOP DEPTH
STEP .F                   0.5 : STEP
NULL .               -9999.25 : NULL VALUE
COMP .                        : COMPANY
WELL .                        : WELL
FLD  .                        : FIELD
LOC  .                        : LOCATION
PROV .                        : PROVINCE
CNTY .                        : COUNTY
STAT .                        : STATE
CTRY .                        : COUNTRY
SRVC .                        : SERVICE COMPANY
DATE .                        : DATE
UWI  .                        : UNIQUE WELL ID
API  .                        : API NUMBER
SLAT .WGS84 5.850703098332204 : SURFACE LATITUDE
SLON .WGS84 4.156075836548197 : SURFACE LONGITUDE
DATUM.F               1885.27 : DEPTH DATUM ELEV
~Curve Information -----------------------------------------
DEPT.F     : 
SPR .MV    : SPONTANEOUS POTENTIAL
ILD .OHMM  : INDUCTION LOG DEEP
ILM .OHMM  : INDUCTION LOG MEDIUM
SFLU.OHMM  : SPHERICALLY FOCUSED LOG UNAVERAGED RESISTIVITY
NPHI.DEC   : NEUTRON POROSITY LIMESTONE
CALD.IN    : CALIPER FROM DENSITY LOG
DRHO.G/C3  : DENSITY CORRECTION
GRS .GAPI  : GAMMA RAY FROM SONIC LOG
DTCO.US/F  : COMPRESSIONAL-WAVE INTERVAL TRANSIT TIME ACOUSTIC SLOWNESS
DTSM.US/F  : SHEAR-WAVE INTERVAL TRANSIT TIME DELTA-T
RHOB.G/C3  : BULK DENSITY
DPHI.DEC   : DENSITY POROSITY LIMESTONE
~Params ----------------------------------------------------
~Other -----------------------------------------------------
~ASCII -----------------------------------------------------
# ...
 9864.00000  -10.97230    6.43520    6.58460    6.58480    0.31350   13.61810    0.01610   98.50750   75.79820  144.51470    2.63450    0.04830
 9864.50000  -10.36510    6.35020    6.49690    6.58890    0.31820   13.61950    0.01760   97.61190   76.09640  145.29910    2.63400    0.04830
 9865.00000  -10.36210    6.26580    6.50160    6.59300    0.32620   13.62070    0.01770   94.92540   76.26570  145.13400    2.63550    0.04700
 9865.50000  -10.35910    6.18250    6.41560    6.50510    0.32960   13.62180    0.01620   96.71640   76.39640  145.13680    2.64600    0.04520
 9866.00000  -10.35610    6.18600    6.33080    6.41980    0.32830   13.62300    0.01480   99.40300   76.99130  145.43640    2.64910    0.04160
 9866.50000  -10.95770    6.18940    6.33470    6.42380    0.32590   13.62420    0.01030  101.19400   76.99270  145.43920    2.65060    0.03680
 9867.00000  -10.35010    6.19280    6.33860    6.33820    0.32170   13.62530    0.00890  100.27100   76.99410  145.44210    2.64160    0.03830
 9867.50000  -10.34710    6.28320    6.34260    6.34280    0.31620   13.62650    0.00740   98.22240   76.39720  145.39520    2.63560    0.04030
 9868.00000  -10.34410    6.28670    6.34650    6.34680    0.30840   13.65780    0.00750   95.25940   76.19110  144.85420    2.63250    0.04810
 9868.50000  -10.34120    6.29010    6.43960    6.35080    0.29150   13.69500    0.00900   93.71790   75.92380  144.65490    2.62970    0.04810
 9869.00000   -9.73390    6.29360    6.44360    6.35470    0.28960   13.86870    0.01060   92.48840   75.41540  144.34620    2.62970    0.04810
 9869.50000   -9.73090    6.38550    6.53810    6.35870    0.29350   14.21750    0.01070   91.54980   75.22110  144.03730    2.63010    0.04630
 9870.00000   -9.72790    6.38900    6.54220    6.36270    0.29840   14.47590    0.01040   89.55220   75.22260  143.91020    2.63430    0.04260
 9870.50000  -10.32930    6.48220    6.63810    6.45600    0.30400   14.42750    0.00880   89.55220   75.22430  143.68280    2.63630    0.04140
 9871.00000  -10.32620    6.57680    6.73540    6.55060    0.30880   14.34630    0.00580   91.79100   74.92880  143.68570    2.64040    0.04080
 9871.50000  -10.92750    6.67280    6.73960    6.64670    0.31360   14.24230    0.00430   93.58210   74.93040  143.68850    2.64190    0.03960
 9872.00000  -10.92440    6.67650    6.74380    6.74420    0.30870   14.13460    0.00270   94.93640   74.93180  143.69140    2.64570    0.03900
 9872.50000  -10.92140    6.68020    6.74800    6.84310    0.30510   13.99700    0.00120   95.82090   74.93320  143.99110    2.64800    0.03830
 9873.00000  -11.52270    6.68390    6.75230    6.84730    0.30110   13.88100    0.00130   92.76880   74.96860  143.99410    2.64800    0.03890
 9873.50000  -11.51960    6.68760    6.75650    6.85160    0.29060   13.82170    0.00210   90.44780   75.23290  143.99700    2.64500    0.03890
 9874.00000  -11.51660    6.69130    6.76070    6.76060    0.28880   13.88330    0.00370   92.14340   75.23440  143.86140    2.64200    0.03950
 9874.50000  -11.51360    6.60240    6.67120    6.76520    0.29090   13.94470    0.00520   94.23720   75.23590  143.70620    2.63910    0.04130
 9875.00000  -11.51060    6.60600    6.67540    6.76950    0.29590   14.03620    0.00680   95.82090   75.23740  143.70970    2.63880    0.04290
 9875.50000  -11.50760    6.51820    6.67960    6.67990    0.29430   14.09770    0.00840   94.47760   75.53590  143.71250    2.64060    0.04430
 9876.00000  -11.50450    6.52190    6.59130    6.68410    0.28970   14.15910    0.00840   93.13430   75.53730  144.01210    2.64370    0.04140
 9876.50000  -11.50150    6.43520    6.59550    6.68830    0.28330   14.25070    0.00700   93.13430   75.53870  144.01490    2.64670    0.03820
 9877.00000  -11.49850    6.43880    6.59960    6.59960    0.27970   14.28560    0.00550   95.82090   75.54010  144.01780    2.64050    0.04120
 9877.50000  -11.49550    6.44240    6.51220    6.51240    0.27860   14.40360    0.00410   97.66330   75.24480  144.02080    2.63460    0.04360
 9878.00000  -11.49240    6.35670    6.42610    6.51670    0.27830   14.47040    0.00420   98.50750   75.24630  144.10310    2.63330    0.04600
 9878.50000  -10.88520    6.36030    6.42190    6.43050    0.28070   14.53340    0.00570   98.50750   75.54450  144.32340    2.63330    0.04660
 9879.00000  -10.88220    6.36390    6.34510    6.43450    0.28430   14.62670    0.00600   98.50750   75.62750  144.32640    2.63290    0.04650
 9879.50000  -10.87920    6.36740    6.34930    6.43850    0.28850   14.67000    0.00770   98.50750   76.14090  144.32940    2.63180    0.04650
 9880.00000  -10.87610    6.37700    6.44240    6.53290    0.29020   14.75300    0.01040   98.74600   76.28110  144.33280    2.63130    0.04650
 9880.50000  -10.87310    6.46400    6.53690    6.53700    0.29080   14.78610    0.01100   98.95520   76.44070  143.14870    2.62840    0.04710
 9881.00000  -10.26590    6.48220    6.63280    6.63290    0.28840   14.77280    0.01210   98.50750   76.14540  141.96460    2.62140    0.04830
 9881.50000  -10.26280    6.65410    6.73010    6.82460    0.28170   14.61990    0.01430   94.47760   75.25690  139.89020    2.61840    0.05370
 9882.00000  -10.25980    6.76880    6.82880    7.02180    0.27690   14.47490    0.01670   89.55220   74.07130  137.18120    2.61850    0.05430
 9882.50000  -10.25680    7.06320    7.02620    7.12480    0.27920   14.38570    0.01830   89.55220   73.77600  136.03830    2.62300    0.05360
 9883.00000  -11.46180    7.26800    7.15050    7.33070    0.28690   14.38690    0.02220   89.59810   73.46620  136.12090    2.62600    0.05280
 9883.50000  -11.45880    7.37540    7.35850    7.43820    0.29080   14.44830    0.02290   90.00000   72.88860  136.34120    2.63360    0.05140
 9884.00000  -10.85160    7.35580    7.44230    7.33990    0.28740   14.50970    0.01850   90.00000   72.89020  137.07630    2.63540    0.04940
 9884.50000  -10.84860    7.36040    7.31890    7.34440    0.27670   14.54100    0.01700   91.24420   73.09110  138.63470    2.62610    0.04570
 9885.00000  -10.84560    7.33720    7.24680    7.24730    0.28200   14.57230    0.01410   93.56740   73.48660  139.11930    2.62170    0.04810
 9885.50000  -10.23840    7.36860    7.45690    7.25630    0.28750   14.57350    0.01560   95.44290   72.73720  137.24370    2.61710    0.05050
 9886.00000  -10.23540    7.53790    7.59730    7.46730    0.29210   14.57470    0.01870   98.05970   72.00620  135.46610    2.61410    0.05290
 9886.50000  -10.23240    7.86730    7.85250    7.68400    0.28390   14.54570    0.02180   98.50750   71.41410  133.09500    2.61250    0.05690
 9887.00000  -10.22940    8.13710    8.19560    7.91500    0.27120   14.51100    0.02490   94.92540   70.52530  132.20760    2.60560    0.06230
 9887.50000  -10.22640    8.14160    8.51420    8.25110    0.26150   14.42020    0.02950   91.34330   70.52680  132.55610    2.59170    0.06770
 9888.00000  -10.82780    8.14620    8.59780    8.47970    0.25790   14.32940    0.03100   92.31040   71.72240  133.47960    2.56990    0.07450
 9888.50000  -10.82460    8.11030    8.32620    8.48510    0.26270   14.26860    0.03090   96.53290   72.60680  134.51020    2.55580    0.08290
 9889.00000  -10.82160    8.00080    8.10060    8.35970    0.27110   14.20780    0.02750   99.61950   72.60830  136.48940    2.53280    0.08960
 9889.50000  -10.81870    7.78400    7.92300    8.24830    0.27650   14.16140    0.02520  101.49740   72.60980  138.06730    2.53460    0.09920
 9890.00000  -10.21140    7.57280    7.77600    7.91430    0.28510   14.16270    0.02520  102.08960   72.61130  139.64440    2.54930    0.10280
 9890.50000  -10.20840    7.36740    7.56560    7.70080    0.29030   14.16410    0.02730  101.61610   72.61280  140.53740    2.57690    0.09250
 9891.00000   -9.60120    7.16770    7.30210    7.49260    0.28930   14.19540    0.03050  101.02520   72.91130  140.24330    2.60100    0.08050
 9891.50000   -9.59820    7.07090    7.20560    7.29010    0.28490   14.19660    0.02990  102.53730   73.20940  139.94960    2.60700    0.06700
