~Version ---------------------------------------------------
VERS.   2.0 : CWLS log ASCII Standard -VERSION 2.0
WRAP.    NO : One line per depth step
DLM . SPACE : Column Data Section Delimiter
~Well ------------------------------------------------------
STRT .F                4992.0 : START DEPTH
STOP .F               15597.0 : STOP DEPTH
STEP .F                   0.5 : STEP
NULL .               -9999.25 : NULL VALUE
COMP .                        : COMPANY
WELL .                        : WELL
FLD  .                        : FIELD
LOC  .                        : LOCATION
PROV .                        : PROVINCE
CNTY .                        : COUNTY
STAT .                        : STATE
CTRY .                        : COUNTRY
SRVC .                        : SERVICE COMPANY
DATE .                        : DATE
UWI  .                        : UNIQUE WELL ID
API  .                        : API NUMBER
SLAT .WGS84 5.850703098332204 : SURFACE LATITUDE
SLON .WGS84 4.156075836548197 : SURFACE LONGITUDE
DATUM.F               1885.27 : DEPTH DATUM ELEV
~Curve Information -----------------------------------------
DEPT.F     : 
SPR .MV    : SPONTANEOUS POTENTIAL
ILD .OHMM  : INDUCTION LOG DEEP
ILM .OHMM  : INDUCTION LOG MEDIUM
SFLU.OHMM  : SPHERICALLY FOCUSED LOG UNAVERAGED RESISTIVITY
NPHI.DEC   : NEUTRON POROSITY LIMESTONE
CALD.IN    : CALIPER FROM DENSITY LOG
DRHO.G/C3  : DENSITY CORRECTION
GRS .GAPI  : GAMMA RAY FROM SONIC LOG
DTCO.US/F  : COMPRESSIONAL-WAVE INTERVAL TRANSIT TIME ACOUSTIC SLOWNESS
DTSM.US/F  : SHEAR-WAVE INTERVAL TRANSIT TIME DELTA-T
RHOB.G/C3  : BULK DENSITY
DPHI.DEC   : DENSITY POROSITY LIMESTONE
~Params ----------------------------------------------------
~Other -----------------------------------------------------
~ASCII -----------------------------------------------------
# ...
 10536.00000   -8.12080    3.50810    3.57290    3.48960    0.27450   12.94620    0.08460   98.05970   90.26140  172.87930    2.31360    0.23120
 10536.50000   -8.11780    3.50860    3.57350    3.50460    0.25300   12.91710    0.06660   98.72040   91.32320  167.54520    2.36170    0.18060
 10537.00000   -8.11480    3.55840    3.67520    3.62000    0.23180   12.88790    0.04700  101.03810   91.74340  163.39800    2.48220    0.15290
 10537.50000   -8.11180    3.61420    3.77980    3.77640    0.22930   12.82600    0.03040  103.88060   90.55170  160.14110    2.54420    0.12760
 10538.00000   -8.71340    3.77480    3.88740    3.99490    0.22480   12.79540    0.01380  105.22390   89.36180  158.02300    2.58040    0.09440
 10538.50000   -8.71000    3.99170    3.99800    4.24490    0.21640   12.77010    0.00030  105.22390   87.58200  154.29830    2.60040    0.06190
 10539.00000   -8.70690    4.23500    4.22820    4.53330    0.20550   12.74100   -0.00880  102.53730   85.80220  150.39630    2.61000    0.05940
 10539.50000   -8.86850    4.59770    4.59810    4.88560    0.19160   12.74210   -0.01170   99.40300   82.50390  147.18030    2.62000    0.05700
 10540.00000   -9.30550    4.99200    5.00050    5.26640    0.19010   12.77340   -0.01160   98.05970   80.35640  145.34000    2.62830    0.05180
 10540.50000   -9.30210    5.42820    5.59200    5.86370    0.18940   12.77450   -0.01010   98.54020   78.85720  143.20420    2.63130    0.04850
 10541.00000   -9.29910    5.82140    5.99700    6.34740    0.18780   12.77550   -0.00810   98.95520   78.00150  141.36460    2.62690    0.05010
 10541.50000   -9.29610    6.23210    6.34230    6.68150    0.18130   12.77660   -0.00540   98.05970   77.37680  139.22810    2.62470    0.05390
 10542.00000   -9.29310    6.42050    6.70740    6.96910    0.17690   12.77760   -0.00540   97.07320   76.61150  136.76690    2.62170    0.05510
 10542.50000   -9.29000    6.78960    6.99520    7.26910    0.17420   12.77870   -0.00740   93.19260   75.07570  135.29040    2.61860    0.05570
 10543.00000   -9.28700    7.17990    7.39800    7.51600    0.17340   12.77990   -0.00900   89.84410   74.50860  134.70400    2.61660    0.05810
 10543.50000   -9.28400    7.46200    7.82390    7.90860    0.17600   12.78100   -0.00980   89.10450   75.08860  134.66850    2.61510    0.05930
 10544.00000   -9.28100    7.43750    7.60970    7.97920    0.18080   12.81220   -0.00970   89.10450   76.55360  137.98240    2.61220    0.05990
 10544.50000   -9.14390    6.80610    6.99960    6.95210    0.18620   12.81330   -0.00960   89.55220   78.31370  141.28010    2.61070    0.05920
 10545.00000   -8.67070    6.12060    6.34910    6.22660    0.20550   12.81430   -0.00960   93.13430   81.25360  146.47450    2.60920    0.05860
 10545.50000   -8.66770    5.97450    6.08970    5.92010    0.21330   12.78500   -0.00950   96.71640   82.75920  150.45290    2.61080    0.05860
 10546.00000   -8.66470    6.05930    6.00630    6.02080    0.21630   12.78610   -0.00800  101.64180   83.34350  152.55110    2.61090    0.05860
 10546.50000   -8.66160    6.24340    6.09300    6.36970    0.21150   12.75690   -0.00790  104.32840   83.58380  151.78330    2.61390    0.05860
 10547.00000   -8.65860    6.33210    6.35660    6.60560    0.20840   12.72680   -0.00640  106.11940   83.57230  150.85480    2.61560    0.05850
 10547.50000   -8.65560    6.60340    6.63090    6.66100    0.20720   12.69860   -0.00480  104.99820   83.56190  149.76730    2.62020    0.05730
 10548.00000   -8.65260    6.77800    6.91350    6.79610    0.20720   12.69970   -0.00470  101.73280   83.25660  149.00150    2.62500    0.05010
 10548.50000   -8.64950    6.88780    7.01290    6.99020    0.20720   12.67040   -0.00320   98.70870   83.07530  147.24920    2.63270    0.04760
 10549.00000   -8.64650    6.97170    7.10780    7.09020    0.20700   12.66450   -0.00310   97.45490   82.64440  145.47590    2.64010    0.04460
 10549.50000   -8.64350    7.07060    7.10890    7.14760    0.20570   12.63400   -0.00460   96.52610   82.04450  143.99940    2.64280    0.04180
 10550.00000   -8.64050    7.07170    7.10270    7.14870    0.20290   12.61310   -0.00600   95.14930   80.85460  143.41310    2.64190    0.04040
 10550.50000   -8.53870    7.07280    7.01250    7.14980    0.20000   12.61440   -0.00750   94.66800   80.25480  143.42020    2.62740    0.05240
 10551.00000   -8.03020    7.07390    7.01370    7.15090    0.19860   12.61540   -0.00900   95.37310   80.54100  144.31760    2.60580    0.05540
 10551.50000   -8.02720    7.07500    7.01480    7.15200    0.19800   12.61650   -0.00940   97.61190   81.22500  147.35980    2.59350    0.06320
 10552.00000   -8.02420    7.07610    7.01590    7.15310    0.19890   12.61750   -0.01040  100.29850   82.98220  149.71320    2.58510    0.07160
 10552.50000   -8.10810    7.07720    7.12740    7.25490    0.20240   12.61860   -0.01180  101.64180   83.75500  149.97700    2.58150    0.07460
 10553.00000   -8.62260    7.17760    7.21670    7.30490    0.21240   12.58960   -0.01180  102.53730   83.44840  149.22350    2.58150    0.07520
 10553.50000   -8.61930    7.29590    7.31920    7.56490    0.21900   12.59060   -0.01320  103.43280   83.56450  148.29510    2.58310    0.07520
 10554.00000   -8.61630    7.39940    7.33530    7.89320    0.21960   12.59170   -0.01320  102.44990   83.72270  147.62610    2.58160    0.07520
 10554.50000   -8.61330    7.50470    7.45730    8.11820    0.21950   12.56240   -0.01310  100.58740   84.00740  147.33680    2.58020    0.07570
 10555.00000   -8.61030    7.59370    7.65340    8.17640    0.22070   12.56350   -0.01150   97.94730   84.58550  147.34420    2.57270    0.07630
 10555.50000   -8.60730    7.59490    7.85300    8.17700    0.22850   12.56460   -0.01150   97.61190   85.75550  148.83650    2.56370    0.08350
 10556.00000   -8.60420    7.72120    7.89590    8.12200    0.23790   12.56560   -0.00990   99.04590   86.92550  150.62410    2.55480    0.08710
 10556.50000   -8.93400    7.83080    8.10010    8.12330    0.24490   12.56660   -0.00840  100.51060   88.39060  152.70840    2.54430    0.09310
 10557.00000   -9.20260    7.94230    8.21610    8.18440    0.25000   12.59790   -0.00830  101.64180   88.38050  155.68290    2.54130    0.09730
 10557.50000   -9.18530    8.03520    8.30890    8.48100    0.25000   12.59890   -0.00680  100.29850   88.04390  152.12920    2.53990    0.09850
 10558.00000   -8.88100    8.14920    8.16970    8.78090    0.24570   12.60000   -0.00370   99.40300   87.35980  149.76250    2.53840    0.10030
 10558.50000   -8.58910    8.13020    7.81030    8.95480    0.23950   12.60110   -0.00360   98.95520   86.79220  149.77000    2.53670    0.10030
 10559.00000   -8.58610    7.88790    7.43460    8.22740    0.23300   12.60210   -0.00210   98.50750   86.57110  150.23640    2.53370    0.10210
 10559.50000   -8.58310    7.60420    7.43590    7.73740    0.23020   12.60320   -0.00200   99.40300   88.13630  152.46630    2.53260    0.10330
 10560.00000   -8.58010    7.50010    7.43700    7.63070    0.23190   12.61430   -0.00200   99.85070   89.22270  154.73950    2.53510    0.10270
 10560.50000   -8.57700    7.60670    7.43820    7.69110    0.23370   12.64710   -0.00190   99.85070   89.48820  156.03120    2.54290    0.10080
 10561.00000   -8.57400    7.60790    7.43940    7.81580    0.23070   12.71020   -0.00140   99.71610   89.18140  155.89500    2.55270    0.09660
 10561.50000   -8.57100    7.71580    7.44050    8.26740    0.22890   12.72820   -0.00030   98.40730   88.87650  155.12090    2.56130    0.08850
 10562.00000   -8.56800    7.82530    7.57770    8.55460    0.22940   12.77570    0.00190   98.05970   88.86660  153.97760    2.56740    0.08270
 10562.50000   -8.56500    7.82650    7.68640    8.53680    0.24270   12.82100    0.00350  100.24590   89.74170  154.28150    2.55950    0.08430
 10563.00000   -8.56190    7.95930    7.79640    8.48820    0.25530   12.82220    0.00440  104.43890   93.00280  154.88210    2.54200    0.09110
 10563.50000   -8.55890    8.09530    7.94480    8.44170    0.25830   12.82330    0.00680  109.31930   93.55670  160.52720    2.52700    0.09770
