~Version ---------------------------------------------------
VERS.   2.0 : CWLS log ASCII Standard -VERSION 2.0
WRAP.    NO : One line per depth step
DLM . SPACE : Column Data Section Delimiter
~Well ------------------------------------------------------
STRT .F                4570.0 : START DEPTH
STOP .F               12750.0 : STOP DEPTH
STEP .F                   0.5 : STEP
NULL .               -9999.25 : NULL VALUE
COMP .                        : COMPANY
WELL .                        : WELL
FLD  .                        : FIELD
LOC  .                        : LOCATION
PROV .                        : PROVINCE
CNTY .                        : COUNTY
STAT .                        : STATE
CTRY .                        : COUNTRY
SRVC .                        : SERVICE COMPANY
DATE .                        : DATE
UWI  .                        : UNIQUE WELL ID
API  .                        : API NUMBER
SLAT .WGS84 5.969062416871402 : SURFACE LATITUDE
SLON .WGS84 4.150158925939607 : SURFACE LONGITUDE
DATUM.F               2071.38 : DEPTH DATUM ELEV
~Curve Information -----------------------------------------
DEPT.F     : 
SPR .MV    : SPONTANEOUS POTENTIAL
TENR.LBS   : TENSION FROM RESISTIVITY
ILD .OHMM  : DEEP INDUCTION RESISTIVITY
ILM .OHMM  : INDUCTION LOG MEDIUM RESISTIVITY
SFL .OHMM  : SHALLOW FOCUSED LOG RESISTIVITY
GRR .GAPI  : GAMMA RAY FROM RESISTIVITY
TENS.LBS   : TENSION
DTSM.US/F  : SHEAR-WAVE INTERVAL TRANSIT TIME DELTA-T
DTCO.US/F  : ACOUSTIC TRANSIT TIME SLOWNESS, DELTA T
NPHS.DEC   : NEUTRON POROSITY LIMESTONE FROM SONIC/NEUTRON LOG
TEND.LBS   : TENSION FROM DENSITY LOG
CALD.IN    : CALIPER FROM DENSITY LOG
PE  .B/E   : PHOTOELECTRIC FACTOR
DCOR.G/C3  : DENSITY CORRECTION
RHOB.G/C3  : BULK DENSITY
NPHI.DEC   : NEUTRON POROSITY LIMESTONE
~Params ----------------------------------------------------
~Other -----------------------------------------------------
~ASCII -----------------------------------------------------
# ...
 8827.00000  -66.52600 3267.32690   19.48100   17.28500   27.73500  106.11400   -9999.25   -9999.25   -9999.25   -9999.25 3306.93090    9.66800    3.43000    0.00700    2.64200    0.19500
 8827.50000  -66.25500 3267.32690   19.81000   17.28500   22.10600  112.68300   -9999.25   -9999.25   -9999.25   -9999.25 3306.93090    9.68300    3.37800    0.00500    2.63500    0.18400
 8828.00000  -65.98800 3267.32690   20.13800   16.97200   17.60300  110.97600   -9999.25   -9999.25   -9999.25   -9999.25 3305.40500    9.70000    3.34500    0.00400    2.63200    0.16600
 8828.50000  -65.73400 3269.34010   20.46700   17.28500   22.12100  107.11500   -9999.25   -9999.25   -9999.25   -9999.25 3303.93700    9.70700    3.36600    0.00300    2.63300    0.14500
 8829.00000  -65.42000 3271.01900   20.79600   18.13300   25.88700  102.99400   -9999.25   -9999.25   -9999.25   -9999.25 3302.46900    9.72200    3.38100    0.00400    2.63100    0.14000
 8829.50000  -65.97000 3272.69700   21.12500   18.98200   29.65200  100.47400   -9999.25   -9999.25   -9999.25   -9999.25 3301.00200    9.72500    3.40000    0.00400    2.62800    0.13500
 8830.00000  -66.85300 3274.37500   21.12500   20.00000   33.41700   99.49900   -9999.25   -9999.25   -9999.25   -9999.25 3299.53390    9.67100    3.41600    0.00500    2.62700    0.13700
 8830.50000  -67.80500 3276.05300   21.92400   20.36800   37.18200   99.15900   -9999.25   -9999.25   -9999.25   -9999.25 3298.06590    9.67800    3.43600    0.00500    2.62800    0.14300
 8831.00000  -67.79200 3277.73100   22.72400   20.25300   37.18200   99.95600   -9999.25   -9999.25   -9999.25   -9999.25 3296.59910    9.68100    3.44900    0.00600    2.63300    0.14900
 8831.50000  -67.74800 3279.40890   22.72400   20.13800   35.20300  100.24900   -9999.25   -9999.25   -9999.25   -9999.25 3295.13110    9.68900    3.50200    0.00700    2.64100    0.15500
 8832.00000  -67.64700 3281.08690   22.31300   20.00000   32.20900  100.08100   -9999.25   -9999.25   -9999.25   -9999.25 3293.66310    9.69400    3.65400    0.00700    2.64200    0.16100
 8832.50000  -67.58000 3282.76610   21.54200   19.63900   29.21600   98.72400   -9999.25   -9999.25   -9999.25   -9999.25 3292.19600    9.70000    3.81100    0.00700    2.64000    0.16700
 8833.00000  -67.50300 3284.44410   20.89900   19.29900   26.22300   98.64700   -9999.25   -9999.25   -9999.25   -9999.25 3290.72800    9.70600    3.82300    0.00700    2.63500    0.17300
 8833.50000  -67.42400 3286.12210   20.25700   18.73400   23.23000  101.19000   -9999.25   -9999.25   -9999.25   -9999.25 3289.26000    9.71000    3.80700    0.00600    2.63500    0.17400
 8834.00000  -67.34800 3287.80000   19.64200   18.16800   19.63900  103.05500   -9999.25   -9999.25   -9999.25   -9999.25 3287.79300    9.70500    3.72700    0.00600    2.63500    0.17500
 8834.50000  -67.27100 3289.47800   18.93500   17.60300   21.69500  106.30200   -9999.25   -9999.25   -9999.25   -9999.25 3286.32500    9.69800    3.65700    0.00700    2.63900    0.17000
 8835.00000  -67.19400 3291.15600   18.93500   17.28500   23.55300  108.28900   -9999.25   -9999.25   -9999.25   -9999.25 3284.85690    9.69200    3.66900    0.01000    2.64400    0.16300
 8835.50000  -67.11800 3292.83400   19.07400   17.83300   24.93400  108.54300   -9999.25   -9999.25   -9999.25   -9999.25 3283.38990    9.68400    3.65100    0.01500    2.64300    0.15600
 8836.00000  -67.04100 3294.51290   19.42200   18.40900   26.31600  107.70000   -9999.25   -9999.25   -9999.25   -9999.25 3281.92210    9.67900    3.62500    0.01900    2.64500    0.14800
 8836.50000  -66.96500 3296.19090   19.77000   18.98600   27.69800  100.92500   -9999.25   -9999.25   -9999.25   -9999.25 3280.45410    9.66900    3.59500    0.02300    2.65000    0.14400
 8837.00000  -66.88800 3297.86890   20.11700   19.56200   28.80400   94.31600   -9999.25   -9999.25   -9999.25   -9999.25 3278.98710    9.69800    3.57700    0.02500    2.65600    0.14400
 8837.50000  -66.81200 3299.54710   20.46500   20.36800   30.18000   88.32700   -9999.25   -9999.25   -9999.25   -9999.25 3277.51900    9.74100    3.53600    0.02300    2.65600    0.15000
 8838.00000  -66.73500 3301.22510   20.74300   20.20200   29.35300   87.87400   -9999.25   -9999.25   -9999.25   -9999.25 3276.05100    9.79800    3.49200    0.01900    2.65000    0.15700
 8838.50000  -66.65800 3302.90310   20.49400   19.92600   28.45500   94.55700   -9999.25   -9999.25   -9999.25   -9999.25 3274.58400    9.84100    3.44600    0.01300    2.64800    0.16000
 8839.00000  -66.58200 3304.58110   20.28700   19.64900   25.81800   99.17600   -9999.25   -9999.25   -9999.25   -9999.25 3273.11600    9.87100    3.42300    0.00800    2.65100    0.16000
 8839.50000  -66.50500 3306.25900   20.08000   19.37300   25.81800  103.07200   -9999.25   -9999.25   -9999.25   -9999.25 3271.64790    9.86800    3.43700    0.00700    2.65200    0.15900
 8840.00000  -66.42900 3305.01390   19.87300   19.09600   25.81800  103.84200   -9999.25   -9999.25   -9999.25   -9999.25 3270.18090    9.87000    3.47300    0.00500    2.65200    0.15800
 8840.50000  -66.35200 3301.82100   19.66600   18.82000   25.26300  103.30700   -9999.25   -9999.25   -9999.25   -9999.25 3268.71290    9.86900    3.50700    0.00400    2.64500    0.16300
 8841.00000  -66.27600 3298.62700   19.45800   18.54300   24.89300  103.44300   -9999.25   -9999.25   -9999.25   -9999.25 3267.32690    9.86900    3.54400    0.00500    2.64300    0.16700
 8841.50000  -66.19900 3295.43310   19.25100   18.26700   23.14200  102.70800   -9999.25   -9999.25   -9999.25   -9999.25 3272.46610    9.86900    3.57900    0.00700    2.64900    0.16700
 8842.00000  -66.12300 3292.23900   19.04400   17.99000   23.51000  100.14300   -9999.25   -9999.25   -9999.25   -9999.25 3277.33400    9.86200    3.61300    0.00900    2.65700    0.16600
 8842.50000  -66.04600 3289.04490   18.83700   17.71400   24.12400   94.10600   -9999.25   -9999.25   -9999.25   -9999.25 3282.20190    9.85400    3.57900    0.01100    2.65800    0.16400
 8843.00000  -65.96900 3285.85110   18.63000   17.28500   24.73800   91.71000   -9999.25   -9999.25   -9999.25   -9999.25 3287.07100    9.84700    3.50300    0.01300    2.65700    0.16300
 8843.50000  -65.89200 3282.65700   18.42300   17.28500   25.35100   91.69900   -9999.25   -9999.25   -9999.25   -9999.25 3291.93900    9.83900    3.46100    0.01300    2.65100    0.17100
 8844.00000  -65.81600 3279.46290   18.25700   17.28500   24.89300   95.92000   -9999.25   -9999.25   -9999.25   -9999.25 3296.80810    9.83100    3.47500    0.01300    2.64500    0.17800
 8844.50000  -65.73800 3276.27000   18.50100   17.28500   21.12500  101.98000   -9999.25   -9999.25   -9999.25   -9999.25 3301.67600    9.82400    3.50900    0.01200    2.64300    0.18800
 8845.00000  -65.66300 3273.07590   18.70400   17.43600   21.27100  105.30600   -9999.25   -9999.25   -9999.25   -9999.25 3306.54390    9.81600    3.48700    0.01200    2.64700    0.18500
 8845.50000  -65.58700 3269.88210   18.90700   17.68700   21.51400  108.76400   -9999.25   -9999.25   -9999.25   -9999.25 3311.41310    9.80800    3.45300    0.01100    2.65100    0.18100
 8846.00000  -65.50000 3267.32690   19.11000   17.93900   23.70700  111.17700   -9999.25   -9999.25   -9999.25   -9999.25 3316.28100    9.80100    3.42000    0.01100    2.65600    0.17600
 8846.50000  -65.50600 3297.03000   19.31300   18.19000   25.90000  111.60400   -9999.25   -9999.25   -9999.25   -9999.25 3321.14890    9.79300    3.38900    0.01200    2.65900    0.17100
 8847.00000  -65.65500 3334.15800   19.51700   18.59300   27.79000  110.91200   -9999.25   -9999.25   -9999.25   -9999.25 3326.01810    9.78500    3.38600    0.01200    2.65800    0.16600
 8847.50000  -65.79100 3371.28710   19.63900   18.44400   28.98000  107.57200   -9999.25   -9999.25   -9999.25   -9999.25 3330.88600    9.77800    3.38800    0.00900    2.65500    0.16400
 8848.00000  -65.93100 3405.94090   19.10900   18.07200   29.33400  105.29900   -9999.25   -9999.25   -9999.25   -9999.25 3335.75490    9.76900    3.41900    0.00700    2.65200    0.16600
