~Version ---------------------------------------------------
VERS.   2.0 : CWLS log ASCII Standard -VERSION 2.0
WRAP.    NO : One line per depth step
DLM . SPACE : Column Data Section Delimiter
~Well ------------------------------------------------------
STRT .F                4570.0 : START DEPTH
STOP .F               12750.0 : STOP DEPTH
STEP .F                   0.5 : STEP
NULL .               -9999.25 : NULL VALUE
COMP .                        : COMPANY
WELL .                        : WELL
FLD  .                        : FIELD
LOC  .                        : LOCATION
PROV .                        : PROVINCE
CNTY .                        : COUNTY
STAT .                        : STATE
CTRY .                        : COUNTRY
SRVC .                        : SERVICE COMPANY
DATE .                        : DATE
UWI  .                        : UNIQUE WELL ID
API  .                        : API NUMBER
SLAT .WGS84 5.969062416871402 : SURFACE LATITUDE
SLON .WGS84 4.150158925939607 : SURFACE LONGITUDE
DATUM.F               2071.38 : DEPTH DATUM ELEV
~Curve Information -----------------------------------------
DEPT.F     : 
SPR .MV    : SPONTANEOUS POTENTIAL
TENR.LBS   : TENSION FROM RESISTIVITY
ILD .OHMM  : DEEP INDUCTION RESISTIVITY
ILM .OHMM  : INDUCTION LOG MEDIUM RESISTIVITY
SFL .OHMM  : SHALLOW FOCUSED LOG RESISTIVITY
GRR .GAPI  : GAMMA RAY FROM RESISTIVITY
TENS.LBS   : TENSION
DTSM.US/F  : SHEAR-WAVE INTERVAL TRANSIT TIME DELTA-T
DTCO.US/F  : ACOUSTIC TRANSIT TIME SLOWNESS, DELTA T
NPHS.DEC   : NEUTRON POROSITY LIMESTONE FROM SONIC/NEUTRON LOG
TEND.LBS   : TENSION FROM DENSITY LOG
CALD.IN    : CALIPER FROM DENSITY LOG
PE  .B/E   : PHOTOELECTRIC FACTOR
DCOR.G/C3  : DENSITY CORRECTION
RHOB.G/C3  : BULK DENSITY
NPHI.DEC   : NEUTRON POROSITY LIMESTONE
~Params ----------------------------------------------------
~Other -----------------------------------------------------
~ASCII -----------------------------------------------------
# ...
 8117.50000  -72.68800 3137.95410    7.94100    7.42100    9.22600  105.52800   -9999.25   -9999.25   -9999.25   -9999.25 3016.79390   10.43900    6.09600    0.07700    2.54400    0.28500
 8118.00000  -72.69100 3126.77710    7.96500    7.39300    9.12800  108.43400   -9999.25   -9999.25   -9999.25   -9999.25 3015.47610   10.45100    6.22300    0.07800    2.54600    0.28500
 8118.50000  -72.69400 3115.60010    7.98900    7.36500    9.15500  109.92100   -9999.25   -9999.25   -9999.25   -9999.25 3014.15700   10.21400    6.50600    0.07800    2.53800    0.28500
 8119.00000  -72.69100 3104.42210    8.01300    7.33500    9.31600  106.72300   -9999.25   -9999.25   -9999.25   -9999.25 3012.83910   10.10000    6.60900    0.07900    2.51300    0.28300
 8119.50000  -72.69200 3093.24510    8.03700    7.33100    9.29000  103.55900   -9999.25   -9999.25   -9999.25   -9999.25 3011.52000   10.11000    6.48500    0.07900    2.49400    0.28000
 8120.00000  -72.69100 3082.06810    8.06100    7.32800    9.30200  103.51600   -9999.25   -9999.25   -9999.25   -9999.25 3010.20190   10.09500    6.36000    0.08000    2.48200    0.28300
 8120.50000  -72.69100 3070.89110    8.08500    7.46200    9.30000  103.65600   -9999.25   -9999.25   -9999.25   -9999.25 3008.88400   10.08300    6.23500    0.07900    2.47400    0.28600
 8121.00000  -72.69000 3059.71410    8.10900    7.59800    9.29900  100.33000   -9999.25   -9999.25   -9999.25   -9999.25 3007.56490   10.06700    6.10000    0.07900    2.46900    0.29300
 8121.50000  -72.69200 3048.53710    8.13300    7.74700    9.29900   97.06900   -9999.25   -9999.25   -9999.25   -9999.25 3006.24710   10.05500    6.07900    0.08200    2.46600    0.29600
 8122.00000  -72.69000 3037.36010    8.15700    7.89600    9.29700   92.55100   -9999.25   -9999.25   -9999.25   -9999.25 3004.92800   10.03900    6.15200    0.08400    2.47300    0.29700
 8122.50000  -72.68400 3032.58300    8.18300    8.04500    9.29700   93.82000   -9999.25   -9999.25   -9999.25   -9999.25 3003.61010   10.02600    6.21500    0.08600    2.48400    0.28200
 8123.00000  -72.58700 3041.72800    8.40600    8.19400    9.29700   96.68100   -9999.25   -9999.25   -9999.25   -9999.25 3001.98800    9.92100    6.24000    0.08600    2.50300    0.27100
 8123.50000  -72.49700 3050.87300    8.64800    8.34300    9.29700   99.42000   -9999.25   -9999.25   -9999.25   -9999.25 2999.32790    9.74700    6.05300    0.08600    2.52000    0.25100
 8124.00000  -72.40200 3060.01810    8.89000    8.49200    9.29700  101.06600   -9999.25   -9999.25   -9999.25   -9999.25 2995.87300    9.57000    5.85700    0.08500    2.53800    0.24400
 8124.50000  -72.31000 3069.16310    9.13300    8.64300   10.32200  100.84200   -9999.25   -9999.25   -9999.25   -9999.25 2992.41800    9.43300    5.65100    0.08400    2.56600    0.22500
 8125.00000  -72.21500 3078.30810    9.37500    9.01100   11.42900  101.38800   -9999.25   -9999.25   -9999.25   -9999.25 2988.96290    9.39600    5.48000    0.08800    2.57900    0.20600
 8125.50000  -72.12300 3087.45290    9.61700    9.38500   12.53600  101.18100   -9999.25   -9999.25   -9999.25   -9999.25 2985.50810    9.36300    5.48300    0.09100    2.59300    0.19800
 8126.00000  -72.03100 3096.59790    9.85900    9.82000   13.36200  100.56200   -9999.25   -9999.25   -9999.25   -9999.25 2982.05300    9.33400    5.57400    0.09600    2.59300    0.20300
 8126.50000  -71.92800 3105.74290   10.10100    9.82000   13.24100   98.03900   -9999.25   -9999.25   -9999.25   -9999.25 2978.59690    9.30000    5.66500    0.09200    2.58600    0.20900
 8127.00000  -71.92300 3114.88700   10.18500    9.92800   13.12100   95.85200   -9999.25   -9999.25   -9999.25   -9999.25 2975.14210    9.27200    5.60800    0.08100    2.57300    0.21500
 8127.50000  -72.02600 3124.03200   10.18500   10.03100   13.00000   98.11700   -9999.25   -9999.25   -9999.25   -9999.25 2971.68700    9.24100    5.57800    0.07800    2.56300    0.21900
 8128.00000  -72.11700 3133.17700   10.18500   10.13400   12.87900  101.17700   -9999.25   -9999.25   -9999.25   -9999.25 2968.23190    9.35700    5.59300    0.08300    2.55300    0.22100
 8128.50000  -72.21000 3142.32200   10.18500   10.23700   12.75900  107.96500   -9999.25   -9999.25   -9999.25   -9999.25 2964.77710    9.47000    5.83200    0.08700    2.53600    0.22500
 8129.00000  -72.30400 3148.51490   10.18500   10.34000   12.58300  106.90400   -9999.25   -9999.25   -9999.25   -9999.25 2962.22710    9.47100    6.07200    0.09200    2.52500    0.23400
 8129.50000  -72.39800 3135.05000   10.35000   10.44300   11.87300  106.79300   -9999.25   -9999.25   -9999.25   -9999.25 3001.98800    9.47300    6.25200    0.09700    2.52500    0.24400
 8130.00000  -72.49200 3109.90090   10.52700   10.54600   10.75800  104.78100   -9999.25   -9999.25   -9999.25   -9999.25 3001.98800    9.47100    6.12800    0.09200    2.53900    0.25500
 8130.50000  -72.58000 3084.75200   10.70500   10.64900   11.08300  101.87100   -9999.25   -9999.25   -9999.25   -9999.25 3011.28000    9.47400    5.80800    0.07900    2.55200    0.25800
 8131.00000  -72.69600 3069.30690   10.88200   10.75200   11.72000   99.25900   -9999.25   -9999.25   -9999.25   -9999.25 3021.82690    9.46200    5.73300    0.06800    2.56200    0.24500
 8131.50000  -72.55900 3109.43900   11.06000   10.85500   12.44300   99.84800   -9999.25   -9999.25   -9999.25   -9999.25 3032.37400    9.43600    5.67800    0.05800    2.56900    0.23000
 8132.00000  -72.23300 3148.51490   11.23700   10.95600   13.14800  102.27000   -9999.25   -9999.25   -9999.25   -9999.25 3042.92090    9.41200    5.53800    0.05800    2.57900    0.21500
 8132.50000  -71.91900 3139.46290   11.41500   11.08800   14.57000  105.80400   -9999.25   -9999.25   -9999.25   -9999.25 3053.46900    9.38300    5.36900    0.05800    2.58600    0.19800
 8133.00000  -71.60500 3125.09200   11.59200   11.21700   15.27500  105.66200   -9999.25   -9999.25   -9999.25   -9999.25 3064.01610    9.34100    5.19100    0.06100    2.59200    0.19800
 8133.50000  -71.28700 3108.91090   11.77000   11.36300   16.06900  105.62600   -9999.25   -9999.25   -9999.25   -9999.25 3074.56300    9.31500    5.17500    0.06700    2.57700    0.20600
 8134.00000  -70.97300 3108.91090   11.94700   11.36300   16.06900  104.47700   -9999.25   -9999.25   -9999.25   -9999.25 3064.41410    9.32100    5.33000    0.07200    2.55500    0.20600
 8134.50000  -70.65400 3227.72290   12.00200   11.31200   15.40400  102.27300   -9999.25   -9999.25   -9999.25   -9999.25 3036.52390    9.33600    5.48500    0.07600    2.54100    0.20700
 8135.00000  -70.34400 3216.88400   12.00200   11.14300   14.79300   99.38600   -9999.25   -9999.25   -9999.25   -9999.25 3026.98100    9.34100    5.54700    0.08500    2.53100    0.20700
 8135.50000  -70.02400 3195.70610   11.85200   10.97400   14.14300   97.21000   -9999.25   -9999.25   -9999.25   -9999.25 3017.43800    9.38400    5.46200    0.08200    2.54300    0.20800
 8136.00000  -69.69500 3174.52810   11.64500   10.80400   14.24600   97.28600   -9999.25   -9999.25   -9999.25   -9999.25 3007.89500    9.35200    5.33500    0.07400    2.56100    0.21300
 8136.50000  -69.65300 3153.35110   11.43800   10.63500   14.35600   96.33800   -9999.25   -9999.25   -9999.25   -9999.25 2998.35300    9.42800    5.26000    0.06900    2.57600    0.22200
 8137.00000  -70.34500 3132.17310   11.23100   10.46600   14.66800   97.30500   -9999.25   -9999.25   -9999.25   -9999.25 2988.81010    9.59400    5.29300    0.07700    2.56800    0.23100
 8137.50000  -71.01100 3110.99510   11.02400   10.29700   14.40300   96.72500   -9999.25   -9999.25   -9999.25   -9999.25 2979.26710    9.67100    5.65500    0.08400    2.54400    0.24000
 8138.00000  -71.69400 3089.81810   10.81700   10.12700   13.61200   99.37700   -9999.25   -9999.25   -9999.25   -9999.25 2969.72510    9.64200    6.02100    0.08700    2.53400    0.24800
 8138.50000  -72.40500 3069.30690   10.61000    9.95800   12.82100  102.18300   -9999.25   -9999.25   -9999.25   -9999.25 2962.22710    9.62600    6.13500    0.08100    2.53600    0.25400
