~Version ---------------------------------------------------
VERS.   2.0 : CWLS log ASCII Standard -VERSION 2.0
WRAP.    NO : One line per depth step
DLM . SPACE : Column Data Section Delimiter
~Well ------------------------------------------------------
STRT .F                4570.0 : START DEPTH
STOP .F               12750.0 : STOP DEPTH
STEP .F                   0.5 : STEP
NULL .               -9999.25 : NULL VALUE
COMP .                        : COMPANY
WELL .                        : WELL
FLD  .                        : FIELD
LOC  .                        : LOCATION
PROV .                        : PROVINCE
CNTY .                        : COUNTY
STAT .                        : STATE
CTRY .                        : COUNTRY
SRVC .                        : SERVICE COMPANY
DATE .                        : DATE
UWI  .                        : UNIQUE WELL ID
API  .                        : API NUMBER
SLAT .WGS84 5.969062416871402 : SURFACE LATITUDE
SLON .WGS84 4.150158925939607 : SURFACE LONGITUDE
DATUM.F               2071.38 : DEPTH DATUM ELEV
~Curve Information -----------------------------------------
DEPT.F     : 
SPR .MV    : SPONTANEOUS POTENTIAL
TENR.LBS   : TENSION FROM RESISTIVITY
ILD .OHMM  : DEEP INDUCTION RESISTIVITY
ILM .OHMM  : INDUCTION LOG MEDIUM RESISTIVITY
SFL .OHMM  : SHALLOW FOCUSED LOG RESISTIVITY
GRR .GAPI  : GAMMA RAY FROM RESISTIVITY
TENS.LBS   : TENSION
DTSM.US/F  : SHEAR-WAVE INTERVAL TRANSIT TIME DELTA-T
DTCO.US/F  : ACOUSTIC TRANSIT TIME SLOWNESS, DELTA T
NPHS.DEC   : NEUTRON POROSITY LIMESTONE FROM SONIC/NEUTRON LOG
TEND.LBS   : TENSION FROM DENSITY LOG
CALD.IN    : CALIPER FROM DENSITY LOG
PE  .B/E   : PHOTOELECTRIC FACTOR
DCOR.G/C3  : DENSITY CORRECTION
RHOB.G/C3  : BULK DENSITY
NPHI.DEC   : NEUTRON POROSITY LIMESTONE
~Params ----------------------------------------------------
~Other -----------------------------------------------------
~ASCII -----------------------------------------------------
# ...
 12245.50000   -7.78500 4432.07910   11.65100   11.20000   14.81700   93.60200 3702.45700  133.00000   71.30300    0.17100 4378.13090   10.18000    3.90200    0.00700    2.66000    0.19300
 12246.00000   -7.66500 4425.96290   11.70600   11.25700   15.21300   94.14200 3701.90310  131.55100   70.96500    0.17200 4374.41990   10.18600    3.82200    0.00600    2.65500    0.19100
 12246.50000   -7.54600 4370.51710   11.76000   11.31400   14.81900   93.49100 3701.34910  128.64200   70.62800    0.16800 4291.91500   10.19200    3.77800    0.00500    2.65200    0.18800
 12247.00000   -7.42600 4315.07180   11.78500   11.36300   13.66300   92.30000 3700.79590  125.73200   70.29100    0.16300 4194.83110   10.19700    3.78500    0.00500    2.65100    0.18200
 12247.50000   -7.30700 4257.42580   11.78500   11.57200   12.50600   88.90400 3700.24190  123.40000   70.27300    0.15700 4194.83110   10.20300    3.79900    0.00500    2.64900    0.17600
 12248.00000   -7.18800 4279.92090   11.78500   11.25500   11.80200   85.20700 3700.62600  123.40000   70.49000    0.15200 4228.49610   10.20900    3.82400    0.00500    2.64900    0.17000
 12248.50000   -7.06600 4319.84180   11.57200   11.06300   11.44700   82.41600 3701.73800  123.40000   70.70600    0.15900 4261.49800   10.21500    3.84600    0.00600    2.65000    0.16400
 12249.00000   -6.94900 4376.23780   10.95600   10.87100   11.15700   83.08200 3702.84910  124.54900   70.92300    0.16400 4274.35400   10.22000    3.86900    0.00600    2.65300    0.16300
 12249.50000   -6.83300 4329.02980   10.63500   10.67900   11.15700   87.53800 3703.96090  126.56900   71.14000    0.16400 4234.59180   10.22600    3.89200    0.00600    2.65400    0.16700
 12250.00000   -6.82800 4297.02980   10.36500   10.48800   11.78500   88.15800 3705.07200  128.58900   71.40000    0.17000 4260.55520   10.23200    3.90000    0.00600    2.65400    0.17000
 12250.50000   -6.82600 4319.69290   10.09400   10.37200   12.98200   93.27700 3706.18410  130.60000   71.80000    0.17500 4303.65280   10.23700    3.88600    0.00600    2.65100    0.17300
 12251.00000   -6.82800 4347.96480    9.82300   10.08200   13.98100   91.83000 3707.29590  128.75200   68.20000    0.17700 4353.87700   10.24300    3.87300    0.00600    2.65100    0.17500
 12251.50000   -6.82700 4376.23780    9.55200    9.79200   14.97900   88.28900 3708.40700  126.91100   67.40000    0.17700 4335.14500   10.24900    3.86300    0.00500    2.65400    0.17300
 12252.00000   -6.82700 4345.77290    9.28100    9.50200   15.92300   84.27500 3709.51900  126.20000   67.40000    0.16600 4312.70210   10.25400    3.86400    0.00300    2.65600    0.17000
 12252.50000   -6.83000 4315.30810    9.01000    9.21100   16.06900   84.18100 3710.62990  126.47300   68.98500    0.15100 4290.25780   10.26000    3.97200    0.00600    2.64200    0.16600
 12253.00000   -6.82200 4284.84420    8.73900    8.92100   13.08700   87.40600 3711.74190  129.08000   70.92600    0.15300 4267.81490   10.26600    4.13100    0.00900    2.63300    0.16400
 12253.50000   -6.83300 4254.37890    8.46800    8.63100   10.00100   90.57800 3712.85300  136.61000   72.86700    0.16400 4245.37210   10.27200    4.29400    0.01300    2.63700    0.17600
 12254.00000   -6.83400 4217.82180    8.19800    8.34100    8.80200   93.16100 3713.96510  145.40000   74.80900    0.17500 4222.92920   10.27700    4.44300    0.01700    2.64500    0.18900
 12254.50000   -6.79400 4217.82180    7.89000    8.05000    8.64300   96.01200 3715.07590  145.40000   76.75000    0.18600 4200.48580   10.28300    4.61800    0.01800    2.65100    0.20300
 12255.00000   -6.91100 4267.32710    7.89000    7.76000    8.53300   96.14700 3716.18800  145.19200   79.00000    0.19700 4194.83110   10.28900    4.55600    0.01500    2.65000    0.21700
 12255.50000   -6.17500 4316.83200    8.03500    7.47000    8.36700   96.40100 3717.29910  145.00000   77.80800    0.21100 4194.83110   10.29400    4.37100    0.01200    2.64400    0.22400
 12256.00000   -6.02500 4336.63380    8.25400    7.33500    8.48800   96.65300 3718.41090  141.74900   76.39100    0.20800 4194.83110   10.30000    4.21100    0.00800    2.64200    0.21500
 12256.50000   -6.00400 4277.22800    8.61900    7.33500    9.76300   95.61300 3719.52200  137.33100   74.97400    0.19800 4194.83110   10.30600    4.11800    0.00500    2.64800    0.20700
 12257.00000   -6.04700 4257.42580    8.98500    8.28600   11.16200   93.88900 3720.63400  135.80000   73.55600    0.18800 4194.83110   10.31100    4.10300    0.00500    2.65800    0.20000
 12257.50000   -6.14600 4257.42580    9.35000    9.23600   12.00200   93.94700 3721.74510  135.24800   72.13900    0.17900 4194.83110   10.31800    4.10200    0.00700    2.65900    0.19300
 12258.00000   -6.25500 4282.17820    9.71500   10.18700   12.00200   97.34500 3722.85690  134.04300   70.72100    0.17500 4194.83110   10.32100    4.15100    0.01000    2.66200    0.19800
 12258.50000   -6.36800 4297.02980   10.08000   10.95600   10.18500   99.38800 3723.96800  132.83800   69.40000    0.17800 4194.83110   10.33800    4.19400    0.00900    2.66400    0.20200
 12259.00000   -6.47500 4271.56980   10.37200   10.91500   10.37200   97.75800 3725.08010  131.63400   70.68600    0.18400 4194.83110   10.37300    4.23800    0.00600    2.66700    0.20500
 12259.50000   -6.58500 4229.13720   10.56300   10.87300   11.75500   95.05000 3726.19190  131.95200   71.80000    0.18900 4194.83110   10.36800    4.28300    0.00500    2.67000    0.20800
 12260.00000   -6.69400 4178.21780   10.67400   10.83200   12.90800   94.66200 3727.30300  133.40000   71.56000    0.19300 4194.83110   10.37100    4.32600    0.00600    2.67300    0.21000
 12260.50000   -6.80300 4178.21780   10.78500   10.79100   14.06000   93.84400 3728.41500  131.74300   70.69900    0.19100 4255.66600   10.36900    4.37200    0.00600    2.67300    0.20500
 12261.00000   -6.91300 4326.73290   10.89600   10.75800   15.21200   92.98600 3729.52590  129.86000   69.83900    0.17800 4394.53320   10.37000    4.37800    0.00700    2.66700    0.19600
 12261.50000   -7.02200 4574.25680   11.00700   10.75800   16.36400   89.97000 3730.63790  127.97800   69.82200    0.16500 4533.39990   10.37000    4.37000    0.00800    2.66100    0.18700
 12262.00000   -7.13100 4613.86080   11.11900   10.95600   14.25800   88.77700 3731.74900  127.28400   70.68200    0.15300 4592.44480   10.37000    4.30400    0.00900    2.65400    0.17900
 12262.50000   -7.24000 4580.51120   11.23000   11.35300   12.16900   88.86300 3732.86110  127.11700   71.54300    0.15900 4557.65380   10.37000    4.23900    0.01000    2.64800    0.18100
 12263.00000   -7.34900 4538.82180   11.36300   11.68400   12.33900   88.97400 3733.97190  127.00000   71.00000    0.16800 4469.28420   10.37000    4.17000    0.01000    2.64500    0.18200
 12263.50000   -7.45800 4497.13380   11.57200   12.01500   15.50800   87.61400 3735.08400  125.78900   69.63800    0.17800 4380.91500   10.37000    4.10500    0.00900    2.65300    0.17700
 12264.00000   -7.56700 4455.44580   11.71100   12.34600   19.04700   85.43300 3736.19510  123.39400   68.13200    0.17900 4312.57520   10.37000    4.03700    0.00700    2.65100    0.16400
 12264.50000   -7.67600 4413.75680   11.94400   12.67700   24.00100   79.96400 3737.30690  121.00000   67.40000    0.16100 4306.26220   10.37400    4.01800    0.00600    2.64900    0.15000
 12265.00000   -7.78500 4372.06880   12.22300   12.67700   23.36200   76.86300 3738.41800  118.60600   65.64000    0.14600 4299.95020   10.38300    4.02000    0.00500    2.64700    0.13600
 12265.50000   -7.89500 4330.37990   12.22300   12.67700   21.28800   74.49300 3739.53000  116.21200   64.06200    0.13000 4293.63820   10.39100    4.01900    0.00600    2.64500    0.13500
 12266.00000   -8.00400 4297.02980   11.47400   12.13100   17.70000   73.41200 3740.32100  114.60000   63.00000    0.11700 4287.32620   10.40000    4.02200    0.00700    2.64300    0.13900
 12266.50000   -8.11300 4306.16890   10.95600   11.58500   14.11200   76.47600 3740.87700  115.48700   64.21600    0.14900 4281.01420   10.40900    4.05200    0.00800    2.64300    0.14900
