~Version ---------------------------------------------------
VERS.   2.0 : CWLS log ASCII Standard -VERSION 2.0
WRAP.    NO : One line per depth step
DLM . SPACE : Column Data Section Delimiter
~Well ------------------------------------------------------
STRT .F                4570.0 : START DEPTH
STOP .F               12750.0 : STOP DEPTH
STEP .F                   0.5 : STEP
NULL .               -9999.25 : NULL VALUE
COMP .                        : COMPANY
WELL .                        : WELL
FLD  .                        : FIELD
LOC  .                        : LOCATION
PROV .                        : PROVINCE
CNTY .                        : COUNTY
STAT .                        : STATE
CTRY .                        : COUNTRY
SRVC .                        : SERVICE COMPANY
DATE .                        : DATE
UWI  .                        : UNIQUE WELL ID
API  .                        : API NUMBER
SLAT .WGS84 5.969062416871402 : SURFACE LATITUDE
SLON .WGS84 4.150158925939607 : SURFACE LONGITUDE
DATUM.F               2071.38 : DEPTH DATUM ELEV
~Curve Information -----------------------------------------
DEPT.F     : 
SPR .MV    : SPONTANEOUS POTENTIAL
TENR.LBS   : TENSION FROM RESISTIVITY
ILD .OHMM  : DEEP INDUCTION RESISTIVITY
ILM .OHMM  : INDUCTION LOG MEDIUM RESISTIVITY
SFL .OHMM  : SHALLOW FOCUSED LOG RESISTIVITY
GRR .GAPI  : GAMMA RAY FROM RESISTIVITY
TENS.LBS   : TENSION
DTSM.US/F  : SHEAR-WAVE INTERVAL TRANSIT TIME DELTA-T
DTCO.US/F  : ACOUSTIC TRANSIT TIME SLOWNESS, DELTA T
NPHS.DEC   : NEUTRON POROSITY LIMESTONE FROM SONIC/NEUTRON LOG
TEND.LBS   : TENSION FROM DENSITY LOG
CALD.IN    : CALIPER FROM DENSITY LOG
PE  .B/E   : PHOTOELECTRIC FACTOR
DCOR.G/C3  : DENSITY CORRECTION
RHOB.G/C3  : BULK DENSITY
NPHI.DEC   : NEUTRON POROSITY LIMESTONE
~Params ----------------------------------------------------
~Other -----------------------------------------------------
~ASCII -----------------------------------------------------
# ...
 11923.00000  -13.65900 4257.42580    8.72800    7.62900   10.00100   76.60400   -9999.25   -9999.25   -9999.25   -9999.25 4178.34810   10.18900    4.52700    0.01800    2.64900    0.13600
 11923.50000  -13.60100 4257.42580    8.37700    7.33500   10.00100   74.03600   -9999.25   -9999.25   -9999.25   -9999.25 4182.92090   10.21300    4.54100    0.01600    2.64500    0.13400
 11924.00000  -13.54400 4257.42580    8.02600    7.18900    9.78800   71.52500   -9999.25   -9999.25   -9999.25   -9999.25 4187.49320   10.23700    4.61500    0.01400    2.64100    0.13300
 11924.50000  -13.48600 4257.42580    7.67600    7.01000    9.52500   72.39700   -9999.25   -9999.25   -9999.25   -9999.25 4192.06590   10.26200    4.66600    0.01300    2.63600    0.13600
 11925.00000  -13.42700 4244.22410    7.32500    6.83100    9.26300   73.48700   -9999.25   -9999.25   -9999.25   -9999.25 4194.83110   10.28500    4.69500    0.01100    2.63100    0.14000
 11925.50000  -13.37300 4227.78910    6.97400    6.65200    9.00000   75.35100   -9999.25   -9999.25   -9999.25   -9999.25 4115.30810   10.31100    4.69200    0.01000    2.62600    0.14400
 11926.00000  -13.31000 4211.35300    6.62300    6.47300    8.73700   77.08200   -9999.25   -9999.25   -9999.25   -9999.25 4115.30810   10.33100    4.69500    0.00800    2.62800    0.14800
 11926.50000  -13.23900 4194.91700    6.33900    6.29400    8.47500   81.19800   -9999.25   -9999.25   -9999.25   -9999.25 4075.54710   10.37100    4.67900    0.00600    2.63200    0.15100
 11927.00000  -12.95700 4178.48190    6.33900    6.00100    8.21200   84.03700   -9999.25   -9999.25   -9999.25   -9999.25 4075.54710   10.33900    4.62300    0.00800    2.63300    0.15300
 11927.50000  -12.64500 4162.04590    6.33900    6.11200    7.95000   85.81700   -9999.25   -9999.25   -9999.25   -9999.25 4084.77710   10.32300    4.56600    0.00900    2.63500    0.15600
 11928.00000  -12.33200 4145.61080    6.45600    6.45600    7.68700   85.57600   -9999.25   -9999.25   -9999.25   -9999.25 4120.70410   10.31300    4.50800    0.01000    2.63600    0.15800
 11928.50000  -12.07000 4170.97610    6.81900    6.94400    7.40200   84.83500   -9999.25   -9999.25   -9999.25   -9999.25 4156.63180   10.30200    4.45000    0.01100    2.64100    0.16000
 11929.00000  -11.64500 4227.32710    7.40300    7.57500    8.00900   82.54900   -9999.25   -9999.25   -9999.25   -9999.25 4192.55910   10.29000    4.39400    0.01200    2.64900    0.15000
 11929.50000  -12.29400 4283.67820    7.90100    8.11300    9.22500   76.97100   -9999.25   -9999.25   -9999.25   -9999.25 4228.48580   10.27900    4.33500    0.01200    2.65600    0.13900
 11930.00000  -12.47000 4297.02980    8.39900    8.65100   10.65500   72.55300   -9999.25   -9999.25   -9999.25   -9999.25 4264.41410   10.26800    4.28000    0.01100    2.65600    0.12800
 11930.50000  -12.52100 4291.52490    8.89800    9.18900   12.46600   69.55200   -9999.25   -9999.25   -9999.25   -9999.25 4266.26900   10.25400    4.22000    0.00900    2.65500    0.11700
 11931.00000  -12.51000 4281.66310    9.39600    9.72700   13.63600   67.25200   -9999.25   -9999.25   -9999.25   -9999.25 4255.09180   10.24900    4.23600    0.00800    2.65500    0.11200
 11931.50000  -12.55700 4271.80180    9.82000   10.18500   14.40300   67.37200   -9999.25   -9999.25   -9999.25   -9999.25 4243.91410   10.23900    4.26000    0.00600    2.65400    0.10900
 11932.00000  -12.57800 4261.94090   10.00100   10.09300   14.35800   68.67400   -9999.25   -9999.25   -9999.25   -9999.25 4234.59180   10.20100    4.25300    0.00500    2.65400    0.10700
 11932.50000  -12.60200 4257.42580    9.82000    9.82500   14.22900   71.00700   -9999.25   -9999.25   -9999.25   -9999.25 4234.59180   10.20200    4.24000    0.00500    2.65300    0.10700
 11933.00000  -12.63000 4257.42580    9.53900    9.55700   13.88700   72.17200   -9999.25   -9999.25   -9999.25   -9999.25 4244.39990   10.19600    4.21500    0.00500    2.65300    0.10800
 11933.50000  -12.65500 4257.42580    9.29200    9.29000   13.18000   70.65000   -9999.25   -9999.25   -9999.25   -9999.25 4261.16600   10.19300    4.25800    0.00600    2.65400    0.10800
 11934.00000  -12.68100 4266.43600    9.04500    9.02200   12.42500   68.93400   -9999.25   -9999.25   -9999.25   -9999.25 4274.35400   10.18800    4.33500    0.00600    2.65800    0.11400
 11934.50000  -12.70700 4278.76220    8.79800    8.75400   11.67000   66.46100   -9999.25   -9999.25   -9999.25   -9999.25 4274.35400   10.18500    4.33700    0.00800    2.66200    0.12000
 11935.00000  -12.73200 4291.08890    8.55200    8.48700   11.15700   67.88300   -9999.25   -9999.25   -9999.25   -9999.25 4271.84280   10.18100    4.32400    0.01000    2.66000    0.12600
 11935.50000  -12.75800 4297.02980    8.33400    8.03500   10.93700   70.59900   -9999.25   -9999.25   -9999.25   -9999.25 4261.25390   10.17700    4.29600    0.01100    2.66000    0.13000
 11936.00000  -12.78400 4297.02980    8.33400    8.05900   10.69700   71.64200   -9999.25   -9999.25   -9999.25   -9999.25 4250.66410   10.17300    4.30700    0.01300    2.66100    0.13100
 11936.50000  -12.81000 4297.02980    8.33400    8.13400   10.45700   72.01000   -9999.25   -9999.25   -9999.25   -9999.25 4240.07520   10.16900    4.34000    0.01400    2.67300    0.13200
 11937.00000  -12.83600 4297.02980    8.33400    8.20900   10.21700   74.09400   -9999.25   -9999.25   -9999.25   -9999.25 4229.48580   10.16500    4.33600    0.01600    2.67900    0.13300
 11937.50000  -12.86200 4297.02980    8.33400    8.28400   10.00100   76.19700   -9999.25   -9999.25   -9999.25   -9999.25 4218.89700   10.14500    4.33000    0.01500    2.67000    0.13300
 11938.00000  -12.88800 4297.02980    8.33400    8.35900   10.41600   75.52300   -9999.25   -9999.25   -9999.25   -9999.25 4208.30810   10.12200    4.27600    0.01100    2.66000    0.13100
 11938.50000  -12.91400 4297.02980    8.44800    8.43400   10.95600   72.19300   -9999.25   -9999.25   -9999.25   -9999.25 4197.71920   10.10000    4.25100    0.00800    2.65000    0.12900
 11939.00000  -12.93900 4297.02980    8.64300    8.64300   11.15700   70.18400   -9999.25   -9999.25   -9999.25   -9999.25 4187.51510   10.07800    4.22100    0.00400    2.64700    0.12700
 11939.50000  -12.96500 4297.02980    8.64300    8.80200   11.56500   70.31200   -9999.25   -9999.25   -9999.25   -9999.25 4177.45510   10.05500    4.19400    0.00300    2.65000    0.12400
 11940.00000  -12.99100 4297.02980    8.80200    9.12900   12.02400   70.64600   -9999.25   -9999.25   -9999.25   -9999.25 4167.39600   10.03300    4.16700    0.00400    2.65400    0.12200
 11940.50000  -13.01700 4297.02980    8.80200    9.29700   12.44800   70.10000   -9999.25   -9999.25   -9999.25   -9999.25 4155.06980   10.01000    4.13700    0.00500    2.65200    0.12200
 11941.00000  -13.04300 4297.02980    9.82000    9.82000   12.37100   69.64400   -9999.25   -9999.25   -9999.25   -9999.25 4177.33590    9.98800    4.11200    0.00500    2.65000    0.12100
 11941.50000  -13.06900 4297.02980   10.41200   10.46800   11.20300   70.02400   -9999.25   -9999.25   -9999.25   -9999.25 4206.07810    9.96600    4.07600    0.00600    2.64800    0.12100
 11942.00000  -13.09500 4297.02980   11.09000   11.21200   11.58400   70.04800   -9999.25   -9999.25   -9999.25   -9999.25 4234.59180    9.94300    4.14700    0.00600    2.64600    0.12000
 11942.50000  -13.12000 4297.02980   11.76900   11.95500   13.95300   67.35200   -9999.25   -9999.25   -9999.25   -9999.25 4234.59180    9.92100    4.22000    0.00600    2.64400    0.11400
 11943.00000  -13.14600 4297.02980   12.44800   12.69800   16.66600   62.42500   -9999.25   -9999.25   -9999.25   -9999.25 4193.24120    9.89900    4.29500    0.00600    2.64200    0.10600
 11943.50000  -13.17200 4297.02980   13.12600   13.44200   18.44100   56.72000   -9999.25   -9999.25   -9999.25   -9999.25 4155.06980    9.87600    4.36600    0.00600    2.64500    0.09800
 11944.00000  -13.19700 4297.02980   14.14300   14.18500   20.62000   54.59300   -9999.25   -9999.25   -9999.25   -9999.25 4155.06980    9.85400    4.44500    0.00600    2.65900    0.08900
