~Version ---------------------------------------------------
VERS.   2.0 : CWLS log ASCII Standard -VERSION 2.0
WRAP.    NO : One line per depth step
DLM . SPACE : Column Data Section Delimiter
~Well ------------------------------------------------------
STRT .F                4570.0 : START DEPTH
STOP .F               12750.0 : STOP DEPTH
STEP .F                   0.5 : STEP
NULL .               -9999.25 : NULL VALUE
COMP .                        : COMPANY
WELL .                        : WELL
FLD  .                        : FIELD
LOC  .                        : LOCATION
PROV .                        : PROVINCE
CNTY .                        : COUNTY
STAT .                        : STATE
CTRY .                        : COUNTRY
SRVC .                        : SERVICE COMPANY
DATE .                        : DATE
UWI  .                        : UNIQUE WELL ID
API  .                        : API NUMBER
SLAT .WGS84 5.969062416871402 : SURFACE LATITUDE
SLON .WGS84 4.150158925939607 : SURFACE LONGITUDE
DATUM.F               2071.38 : DEPTH DATUM ELEV
~Curve Information -----------------------------------------
DEPT.F     : 
SPR .MV    : SPONTANEOUS POTENTIAL
TENR.LBS   : TENSION FROM RESISTIVITY
ILD .OHMM  : DEEP INDUCTION RESISTIVITY
ILM .OHMM  : INDUCTION LOG MEDIUM RESISTIVITY
SFL .OHMM  : SHALLOW FOCUSED LOG RESISTIVITY
GRR .GAPI  : GAMMA RAY FROM RESISTIVITY
TENS.LBS   : TENSION
DTSM.US/F  : SHEAR-WAVE INTERVAL TRANSIT TIME DELTA-T
DTCO.US/F  : ACOUSTIC TRANSIT TIME SLOWNESS, DELTA T
NPHS.DEC   : NEUTRON POROSITY LIMESTONE FROM SONIC/NEUTRON LOG
TEND.LBS   : TENSION FROM DENSITY LOG
CALD.IN    : CALIPER FROM DENSITY LOG
PE  .B/E   : PHOTOELECTRIC FACTOR
DCOR.G/C3  : DENSITY CORRECTION
RHOB.G/C3  : BULK DENSITY
NPHI.DEC   : NEUTRON POROSITY LIMESTONE
~Params ----------------------------------------------------
~Other -----------------------------------------------------
~ASCII -----------------------------------------------------
# ...
 10590.00000  -34.94000 3940.59400    6.69500    6.81600    8.16400  114.14300   -9999.25   -9999.25   -9999.25   -9999.25 3903.77100    9.80400    3.61000    0.00100    2.64000    0.20600
 10590.50000  -34.94000 3940.59400    6.71000    6.69500    8.03500  111.36100   -9999.25   -9999.25   -9999.25   -9999.25 3905.88600    9.80500    3.65400    0.00100    2.64100    0.20900
 10591.00000  -34.94000 3940.59400    6.76900    6.69500    8.21200  113.89800   -9999.25   -9999.25   -9999.25   -9999.25 3908.00100    9.80300    3.67200    0.00200    2.64500    0.20500
 10591.50000  -34.94000 3940.59400    6.82800    6.76700    8.60200  121.48900   -9999.25   -9999.25   -9999.25   -9999.25 3910.11600    9.80000    3.67100    0.00400    2.65000    0.19900
 10592.00000  -34.94000 3940.59400    6.88700    6.83400    8.96400  124.00200   -9999.25   -9999.25   -9999.25   -9999.25 3912.23100    9.79800    3.66600    0.00600    2.65400    0.19300
 10592.50000  -34.94000 3940.59400    6.94700    6.90100    9.12900  118.46400   -9999.25   -9999.25   -9999.25   -9999.25 3914.34590    9.79600    3.65500    0.00800    2.65300    0.18700
 10593.00000  -34.94000 3940.59400    7.00600    6.96800    8.93200  111.04300   -9999.25   -9999.25   -9999.25   -9999.25 3916.46090    9.79400    3.64600    0.01100    2.65100    0.18300
 10593.50000  -34.94000 3940.59400    7.06500    7.03600    8.18300  103.03300   -9999.25   -9999.25   -9999.25   -9999.25 3918.57590    9.79200    3.63500    0.01300    2.64800    0.18200
 10594.00000  -34.94000 3940.59400    7.12400    7.10300    8.48300  100.00300   -9999.25   -9999.25   -9999.25   -9999.25 3920.69090    9.79000    3.63100    0.01500    2.65200    0.18400
 10594.50000  -34.94000 3940.59400    7.18300    7.17000    8.81700   99.79000   -9999.25   -9999.25   -9999.25   -9999.25 3922.80590    9.78700    3.63100    0.01700    2.65900    0.18300
 10595.00000  -34.94000 3940.59400    7.24200    7.23700    9.15200  102.12200   -9999.25   -9999.25   -9999.25   -9999.25 3924.92090    9.78500    3.63100    0.01700    2.66400    0.18200
 10595.50000  -34.94000 3940.59400    7.30100    7.30500    9.64300  105.81800   -9999.25   -9999.25   -9999.25   -9999.25 3927.03590    9.78300    3.63100    0.01500    2.66400    0.18300
 10596.00000  -34.94000 3940.59400    7.36000    7.37200    9.60500  106.39100   -9999.25   -9999.25   -9999.25   -9999.25 3929.15090    9.78100    3.63000    0.01400    2.66300    0.18400
 10596.50000  -34.94000 3940.59400    7.42000    7.43900    9.53400  106.48000   -9999.25   -9999.25   -9999.25   -9999.25 3931.26610    9.77900    3.63300    0.01200    2.66300    0.18600
 10597.00000  -34.94000 3935.05000    7.47000    7.47000    9.46200  106.81100   -9999.25   -9999.25   -9999.25   -9999.25 3933.38110    9.77700    3.62100    0.01100    2.66100    0.18600
 10597.50000  -34.94000 3929.17900    7.47000    7.47000    9.39100  109.25700   -9999.25   -9999.25   -9999.25   -9999.25 3935.49610    9.77400    3.59100    0.01100    2.65200    0.18700
 10598.00000  -34.93900 3923.30810    7.47000    7.38800    9.32000  113.50700   -9999.25   -9999.25   -9999.25   -9999.25 3937.61110    9.77200    3.66700    0.00900    2.64300    0.18900
 10598.50000  -34.94000 3917.43700    7.47000    7.33500    9.24800  115.78300   -9999.25   -9999.25   -9999.25   -9999.25 3939.72610    9.77000    3.73500    0.00300    2.63400    0.19000
 10599.00000  -34.94100 3911.56690    7.47000    7.33500    9.17700  114.20200   -9999.25   -9999.25   -9999.25   -9999.25 3940.59400    9.76800    3.57800    0.00000    2.62400    0.19300
 10599.50000  -34.99700 3905.69600    7.47000    7.33500    9.10600  112.67500   -9999.25   -9999.25   -9999.25   -9999.25 3940.59400    9.76600    3.55400   -0.00100    2.62300    0.19600
 10600.00000  -35.07200 3900.99000    7.47000    7.33500    9.03500  110.52900   -9999.25   -9999.25   -9999.25   -9999.25 3940.59400    9.76500    3.54900    0.00000    2.62300    0.19600
 10600.50000  -35.14600 3889.50490    7.32800    7.24000    8.96400  108.55000   -9999.25   -9999.25   -9999.25   -9999.25   -9999.25   -9999.25   -9999.25   -9999.25   -9999.25   -9999.25
 10601.00000  -35.22000 3875.19090    7.20900    7.12300    9.05000  104.73900   -9999.25   -9999.25   -9999.25   -9999.25   -9999.25   -9999.25   -9999.25   -9999.25   -9999.25   -9999.25
 10601.50000  -35.29400 3861.38600    7.09100    7.00500    9.43600  101.45700   -9999.25   -9999.25   -9999.25   -9999.25   -9999.25   -9999.25   -9999.25   -9999.25   -9999.25   -9999.25
 10602.00000  -35.36700 3869.57100    6.97200    6.88700    9.82200  102.75900   -9999.25   -9999.25   -9999.25   -9999.25   -9999.25   -9999.25   -9999.25   -9999.25   -9999.25   -9999.25
 10602.50000  -35.44100 3900.99000    6.85400    6.77000   10.18500  106.24600   -9999.25   -9999.25   -9999.25   -9999.25   -9999.25   -9999.25   -9999.25   -9999.25   -9999.25   -9999.25
 10603.00000  -35.51500 3938.35010    6.73600    6.65200    9.19800  106.85800   -9999.25   -9999.25   -9999.25   -9999.25   -9999.25   -9999.25   -9999.25   -9999.25   -9999.25   -9999.25
 10603.50000  -35.58900 3930.00000    6.61700    6.53400    8.26600  108.57400   -9999.25   -9999.25   -9999.25   -9999.25   -9999.25   -9999.25   -9999.25   -9999.25   -9999.25   -9999.25
 10604.00000  -35.66300 3921.64990    6.49900    6.41700    7.67100  112.70100   -9999.25   -9999.25   -9999.25   -9999.25   -9999.25   -9999.25   -9999.25   -9999.25   -9999.25   -9999.25
 10604.50000  -35.73700 3913.30000    6.38000    6.29900    8.03500  118.84300   -9999.25   -9999.25   -9999.25   -9999.25   -9999.25   -9999.25   -9999.25   -9999.25   -9999.25   -9999.25
 10605.00000  -35.81100 3904.95000    6.26200    6.18100    7.98700  121.17600   -9999.25   -9999.25   -9999.25   -9999.25   -9999.25   -9999.25   -9999.25   -9999.25   -9999.25   -9999.25
 10605.50000  -35.88400 3900.99000    6.14300    6.06400    7.83700  120.78600   -9999.25   -9999.25   -9999.25   -9999.25   -9999.25   -9999.25   -9999.25   -9999.25   -9999.25   -9999.25
 10606.00000  -35.95800 3900.99000    6.08300    5.94600    7.68600  119.32400   -9999.25   -9999.25   -9999.25   -9999.25   -9999.25   -9999.25   -9999.25   -9999.25   -9999.25   -9999.25
 10606.50000  -36.03200 3900.99000    6.04300    5.89300    7.53600  114.15800   -9999.25   -9999.25   -9999.25   -9999.25   -9999.25   -9999.25   -9999.25   -9999.25   -9999.25   -9999.25
 10607.00000  -36.10600 3900.99000    6.00100    5.93300    7.38500  110.89800   -9999.25   -9999.25   -9999.25   -9999.25   -9999.25   -9999.25   -9999.25   -9999.25   -9999.25   -9999.25
 10607.50000  -36.18000 3900.99000    6.00100    5.96700    7.22800  111.43900   -9999.25   -9999.25   -9999.25   -9999.25   -9999.25   -9999.25   -9999.25   -9999.25   -9999.25   -9999.25
 10608.00000  -36.25300 3900.99000    6.00100    6.00100    7.27400  111.58400   -9999.25   -9999.25   -9999.25   -9999.25   -9999.25   -9999.25   -9999.25   -9999.25   -9999.25   -9999.25
 10608.50000  -36.32800 3900.99000    6.11200    6.11200    7.36600  108.47700   -9999.25   -9999.25   -9999.25   -9999.25   -9999.25   -9999.25   -9999.25   -9999.25   -9999.25   -9999.25
 10609.00000  -36.40000 3900.99000    6.22400    6.22400    7.45800  105.21800   -9999.25   -9999.25   -9999.25   -9999.25   -9999.25   -9999.25   -9999.25   -9999.25   -9999.25   -9999.25
 10609.50000  -36.47600 3900.99000    6.36700    6.30300    7.55000  102.76900   -9999.25   -9999.25   -9999.25   -9999.25   -9999.25   -9999.25   -9999.25   -9999.25   -9999.25   -9999.25
 10610.00000  -36.55200 3900.99000    6.50700    6.42900    7.64200  104.50100   -9999.25   -9999.25   -9999.25   -9999.25   -9999.25   -9999.25   -9999.25   -9999.25   -9999.25   -9999.25
 10610.50000  -36.71700 3900.99000    6.64600    6.55500    7.74700  106.39000   -9999.25   -9999.25   -9999.25   -9999.25   -9999.25   -9999.25   -9999.25   -9999.25   -9999.25   -9999.25
 10611.00000  -36.87600 3900.99000    6.78600    6.68100    8.03900  108.86300   -9999.25   -9999.25   -9999.25   -9999.25   -9999.25   -9999.25   -9999.25   -9999.25   -9999.25   -9999.25
