~Version ---------------------------------------------------
VERS.   2.0 : CWLS log ASCII Standard -VERSION 2.0
WRAP.    NO : One line per depth step
DLM . SPACE : Column Data Section Delimiter
~Well ------------------------------------------------------
STRT .F                4570.0 : START DEPTH
STOP .F               12750.0 : STOP DEPTH
STEP .F                   0.5 : STEP
NULL .               -9999.25 : NULL VALUE
COMP .                        : COMPANY
WELL .                        : WELL
FLD  .                        : FIELD
LOC  .                        : LOCATION
PROV .                        : PROVINCE
CNTY .                        : COUNTY
STAT .                        : STATE
CTRY .                        : COUNTRY
SRVC .                        : SERVICE COMPANY
DATE .                        : DATE
UWI  .                        : UNIQUE WELL ID
API  .                        : API NUMBER
SLAT .WGS84 5.969062416871402 : SURFACE LATITUDE
SLON .WGS84 4.150158925939607 : SURFACE LONGITUDE
DATUM.F               2071.38 : DEPTH DATUM ELEV
~Curve Information -----------------------------------------
DEPT.F     : 
SPR .MV    : SPONTANEOUS POTENTIAL
TENR.LBS   : TENSION FROM RESISTIVITY
ILD .OHMM  : DEEP INDUCTION RESISTIVITY
ILM .OHMM  : INDUCTION LOG MEDIUM RESISTIVITY
SFL .OHMM  : SHALLOW FOCUSED LOG RESISTIVITY
GRR .GAPI  : GAMMA RAY FROM RESISTIVITY
TENS.LBS   : TENSION
DTSM.US/F  : SHEAR-WAVE INTERVAL TRANSIT TIME DELTA-T
DTCO.US/F  : ACOUSTIC TRANSIT TIME SLOWNESS, DELTA T
NPHS.DEC   : NEUTRON POROSITY LIMESTONE FROM SONIC/NEUTRON LOG
TEND.LBS   : TENSION FROM DENSITY LOG
CALD.IN    : CALIPER FROM DENSITY LOG
PE  .B/E   : PHOTOELECTRIC FACTOR
DCOR.G/C3  : DENSITY CORRECTION
RHOB.G/C3  : BULK DENSITY
NPHI.DEC   : NEUTRON POROSITY LIMESTONE
~Params ----------------------------------------------------
~Other -----------------------------------------------------
~ASCII -----------------------------------------------------
# ...
 12568.00000  -31.31800 4534.65280   25.35100   46.10500   39.83300   -9999.25 4605.69580  102.66400   59.80000    0.03800 4512.92190   -9999.25    6.83700    0.02600    2.50100   -9999.25
 12568.50000  -31.42700 4507.17820   25.35100   55.65000   45.20800   -9999.25 4601.63180   99.95500   60.98400    0.02400 4446.65280   -9999.25    6.86100    0.02500   -9999.25   -9999.25
 12569.00000  -31.47900 4447.02980   25.35100   65.19500   50.58400   -9999.25 4597.56790   97.89400   63.00000    0.02200 4380.38380   -9999.25    6.95100    0.02900   -9999.25   -9999.25
 12569.50000  -31.47400 4386.88090   25.35100   74.74000   55.95900   -9999.25 4593.50390   96.48300   61.66600    0.02100 4314.11520   -9999.25    6.91400    0.03200   -9999.25   -9999.25
 12570.00000  -31.47400 4326.73290   25.35100   82.95700   60.84100   -9999.25 4589.43990   95.80000   60.60000    0.02000 4234.59180   -9999.25    7.31500    0.03500   -9999.25   -9999.25
 12570.50000  -31.47500 4297.02980   25.35100   81.45700   61.96100   -9999.25 4585.37600   97.00300   62.29200    0.02000 4234.59180   -9999.25   -9999.25    0.03800   -9999.25   -9999.25
 12571.00000  -31.47500 4297.02980   25.35100   74.35800   59.74200   -9999.25 4581.31200  100.20000   63.40000    0.02100 4261.10010   -9999.25   -9999.25    0.04000   -9999.25   -9999.25
 12571.50000  -31.47400 4297.02980   25.35100   71.69400   57.60200   -9999.25 4583.12700  100.60000   62.88400    0.02500 4287.60790   -9999.25   -9999.25    0.04000   -9999.25   -9999.25
 12572.00000  -31.47700 4334.98290   25.35100   64.04200   52.14800   -9999.25 4587.74510  101.40000   62.20000    0.02800 4314.11520   -9999.25   -9999.25    0.04200   -9999.25   -9999.25
 12572.50000  -31.47300 4368.39890   25.35100   57.30500   47.34600   -9999.25 4592.36380  103.47200   62.60000    0.04200 4340.62300   -9999.25   -9999.25    0.03900   -9999.25   -9999.25
 12573.00000  -31.46500 4401.81490   25.35100   50.56800   42.54400   -9999.25 4596.98190  107.03400   62.60000    0.06000 4367.13090   -9999.25   -9999.25    0.03400   -9999.25   -9999.25
 12573.50000  -31.31000 4435.23100   25.35100   43.83100   37.74200   -9999.25 4601.60010  110.59500   64.20000    0.07700 4393.63820   -9999.25   -9999.25    0.03200   -9999.25   -9999.25
 12574.00000  -31.16300 4455.44580   25.35100   37.09400   32.94000   -9999.25 4606.21780  114.15700   65.93500    0.08500 4393.63820   -9999.25   -9999.25    0.03200   -9999.25   -9999.25
 12574.50000  -31.01000 4415.84180   25.35100   30.35700   28.13800   -9999.25 4610.83590  117.71800   68.23900    0.10400 4393.63820   -9999.25   -9999.25    0.03300   -9999.25   -9999.25
 12575.00000  -30.85000 4399.50490   25.35100   23.62000   25.35100   -9999.25 4615.45510  121.28000   71.00000    0.12000 4388.40580   -9999.25   -9999.25    0.03300   -9999.25   -9999.25
 12575.50000  -30.68400 4376.23780   25.34800   20.42300   25.35100   -9999.25 4620.00000  123.40000   71.00000    0.14300 4383.17480   -9999.25   -9999.25    0.03300   -9999.25   -9999.25
 12576.00000  -30.27300 4376.23780   25.35300   19.30900   25.35100   -9999.25 4620.00000  123.40000   71.00000    0.14000 4377.94290   -9999.25   -9999.25    0.03400   -9999.25   -9999.25
 12576.50000  -29.73900 4376.23780   25.35100   18.19400   25.35100   -9999.25 4619.48490  117.48400   70.60000    0.12900 4372.71090   -9999.25   -9999.25    0.03400   -9999.25   -9999.25
 12577.00000  -29.34500 4376.23780   25.63100   17.60300   25.35100   -9999.25 4618.31690  111.80000   69.38000    0.11200 4367.47900   -9999.25   -9999.25    0.03400   -9999.25   -9999.25
 12577.50000  -28.42200 4376.23780   25.95500   17.92700   25.35100   -9999.25 4617.14890  111.40000   68.18900    0.09600 4362.24800   -9999.25   -9999.25    0.03400   -9999.25   -9999.25
 12578.00000  -28.29100 4376.23780   26.27900   17.28500   25.35100   -9999.25 4615.98190  113.60300   66.99800    0.08500 4357.01610   -9999.25   -9999.25    0.03400   -9999.25   -9999.25
 12578.50000  -28.26600 4376.23780   26.60200   17.92700   25.35100   -9999.25 4614.81400  117.03000   65.80700    0.07800 4353.87700   -9999.25   -9999.25    0.03400   -9999.25   -9999.25
 12579.00000  -28.29900 4416.94190   26.92600   18.25700   25.35100   -9999.25 4613.64600  120.45800   64.60000    0.08400 4314.11520   -9999.25   -9999.25    0.03300   -9999.25   -9999.25
 12579.50000  -28.28100 4461.49610   27.27000   18.59300   25.35100   -9999.25 4612.47800  123.88500   64.60000    0.09900 4512.92190   -9999.25   -9999.25    0.03100   -9999.25   -9999.25
 12580.00000  -28.28500 4506.05080   27.77200   18.59300   25.35100   -9999.25 4611.31010  126.32000   65.40000    0.11500 4512.92190   -9999.25   -9999.25    0.02900   -9999.25   -9999.25
 12580.50000  -28.28700 4515.07710   -9999.25   18.59300   -9999.25   -9999.25 4610.14310  128.19200   71.80000    0.11300 4495.04980   -9999.25   -9999.25   -9999.25   -9999.25   -9999.25
 12581.00000  -28.28600 4460.39600   -9999.25   18.59300   -9999.25   -9999.25 4608.97510  130.06400   70.60000    0.11400 4463.14600   -9999.25   -9999.25   -9999.25   -9999.25   -9999.25
 12581.50000  -28.28700 4405.71580   -9999.25   -9999.25   -9999.25   -9999.25 4607.80710  131.00000   71.10400    0.12400 4414.74120   -9999.25   -9999.25   -9999.25   -9999.25   -9999.25
 12582.00000  -28.28700 4351.03520   -9999.25   -9999.25   -9999.25   -9999.25 4606.63920  129.40000   72.11200    0.13400 4376.23780   -9999.25   -9999.25   -9999.25   -9999.25   -9999.25
 12582.50000  -28.28700 4297.02980   -9999.25   -9999.25   -9999.25   -9999.25 4605.47120  127.84300   73.00000    0.14200 4376.23780   -9999.25   -9999.25   -9999.25   -9999.25   -9999.25
 12583.00000  -28.28700 4297.02980   -9999.25   -9999.25   -9999.25   -9999.25 4604.30320  126.13700   73.40000    0.12800 4336.63380   -9999.25   -9999.25   -9999.25   -9999.25   -9999.25
 12583.50000  -28.28700 4263.33890   -9999.25   -9999.25   -9999.25   -9999.25 4603.13620  124.43100   72.14900    0.11200 4300.18990   -9999.25   -9999.25   -9999.25   -9999.25   -9999.25
 12584.00000  -28.28700 4185.36910   -9999.25   -9999.25   -9999.25   -9999.25 4601.96780  122.72600   69.79700    0.09500 4240.04390   -9999.25   -9999.25   -9999.25   -9999.25   -9999.25
 12584.50000  -28.28700 4107.39790   -9999.25   -9999.25   -9999.25   -9999.25 4600.79980  121.02000   67.80000    0.08400 4172.27690   -9999.25   -9999.25   -9999.25   -9999.25   -9999.25
 12585.00000  -28.28700 4019.80200   -9999.25   -9999.25   -9999.25   -9999.25 4599.63180  120.20000   68.60000    0.09700 4104.50980   -9999.25   -9999.25   -9999.25   -9999.25   -9999.25
 12585.50000  -28.28700 3995.83690   -9999.25   -9999.25   -9999.25   -9999.25 4598.46390  120.34200   69.00000    0.11100 4036.74390   -9999.25   -9999.25   -9999.25   -9999.25   -9999.25
 12586.00000  -28.28700 3968.49710   -9999.25   -9999.25   -9999.25   -9999.25 4597.29690  120.60000   69.00000    0.11700 3977.09200   -9999.25   -9999.25   -9999.25   -9999.25   -9999.25
 12586.50000  -28.28700 3941.15700   -9999.25   -9999.25   -9999.25   -9999.25 4596.12890  121.00000   69.00000    0.09900 3920.14500   -9999.25   -9999.25   -9999.25   -9999.25   -9999.25
 12587.00000  -28.28700 3913.81590   -9999.25   -9999.25   -9999.25   -9999.25 4594.96090  115.63600   68.38400    0.07500 3863.19800   -9999.25   -9999.25   -9999.25   -9999.25   -9999.25
 12587.50000  -28.28700 3872.33400   -9999.25   -9999.25   -9999.25   -9999.25 4593.79300  111.10000   66.80000    0.08200 3806.25100   -9999.25   -9999.25   -9999.25   -9999.25   -9999.25
 12588.00000  -28.28700 3818.35500   -9999.25   -9999.25   -9999.25   -9999.25 4592.62500  106.56400   65.21600    0.08900 3749.30400   -9999.25   -9999.25   -9999.25   -9999.25   -9999.25
 12588.50000  -28.28700 3764.37500   -9999.25   -9999.25   -9999.25   -9999.25 4591.45700  103.00000   64.60000    0.08100 3692.35690   -9999.25   -9999.25   -9999.25   -9999.25   -9999.25
 12589.00000  -28.28700 3710.39600   -9999.25   -9999.25   -9999.25   -9999.25 4590.29000  107.00000   69.00600    0.05500 3623.76200   -9999.25   -9999.25   -9999.25   -9999.25   -9999.25
