~Version ---------------------------------------------------
VERS.   2.0 : CWLS log ASCII Standard -VERSION 2.0
WRAP.    NO : One line per depth step
DLM . SPACE : Column Data Section Delimiter
~Well ------------------------------------------------------
STRT .F                4570.0 : START DEPTH
STOP .F               12750.0 : STOP DEPTH
STEP .F                   0.5 : STEP
NULL .               -9999.25 : NULL VALUE
COMP .                        : COMPANY
WELL .                        : WELL
FLD  .                        : FIELD
LOC  .                        : LOCATION
PROV .                        : PROVINCE
CNTY .                        : COUNTY
STAT .                        : STATE
CTRY .                        : COUNTRY
SRVC .                        : SERVICE COMPANY
DATE .                        : DATE
UWI  .                        : UNIQUE WELL ID
API  .                        : API NUMBER
SLAT .WGS84 5.969062416871402 : SURFACE LATITUDE
SLON .WGS84 4.150158925939607 : SURFACE LONGITUDE
DATUM.F               2071.38 : DEPTH DATUM ELEV
~Curve Information -----------------------------------------
DEPT.F     : 
SPR .MV    : SPONTANEOUS POTENTIAL
TENR.LBS   : TENSION FROM RESISTIVITY
ILD .OHMM  : DEEP INDUCTION RESISTIVITY
ILM .OHMM  : INDUCTION LOG MEDIUM RESISTIVITY
SFL .OHMM  : SHALLOW FOCUSED LOG RESISTIVITY
GRR .GAPI  : GAMMA RAY FROM RESISTIVITY
TENS.LBS   : TENSION
DTSM.US/F  : SHEAR-WAVE INTERVAL TRANSIT TIME DELTA-T
DTCO.US/F  : ACOUSTIC TRANSIT TIME SLOWNESS, DELTA T
NPHS.DEC   : NEUTRON POROSITY LIMESTONE FROM SONIC/NEUTRON LOG
TEND.LBS   : TENSION FROM DENSITY LOG
CALD.IN    : CALIPER FROM DENSITY LOG
PE  .B/E   : PHOTOELECTRIC FACTOR
DCOR.G/C3  : DENSITY CORRECTION
RHOB.G/C3  : BULK DENSITY
NPHI.DEC   : NEUTRON POROSITY LIMESTONE
~Params ----------------------------------------------------
~Other -----------------------------------------------------
~ASCII -----------------------------------------------------
# ...
 7795.00000  -48.92000 2950.49510   10.42700    9.30500   12.67700  116.55400   -9999.25   -9999.25   -9999.25   -9999.25   -9999.25   -9999.25   -9999.25   -9999.25   -9999.25   -9999.25
 7795.50000  -49.02400 2950.49510   10.93600    9.91700   12.44800  125.15000   -9999.25   -9999.25   -9999.25   -9999.25   -9999.25   -9999.25   -9999.25   -9999.25   -9999.25   -9999.25
 7796.00000  -49.12700 2954.24390   11.15700   10.52900   12.63300  133.37000   -9999.25   -9999.25   -9999.25   -9999.25   -9999.25   -9999.25   -9999.25   -9999.25   -9999.25   -9999.25
 7796.50000  -49.23000 2960.87110   11.36300   11.15700   13.14000  137.08800   -9999.25   -9999.25   -9999.25   -9999.25   -9999.25   -9999.25   -9999.25   -9999.25   -9999.25   -9999.25
 7797.00000  -49.34000 2967.49800   11.12500   10.77700   13.63600  136.52100   -9999.25   -9999.25   -9999.25   -9999.25   -9999.25   -9999.25   -9999.25   -9999.25   -9999.25   -9999.25
 7797.50000  -49.40500 2974.12500   10.71100   10.38500   12.92900  134.93300   -9999.25   -9999.25   -9999.25   -9999.25   -9999.25   -9999.25   -9999.25   -9999.25   -9999.25   -9999.25
 7798.00000  -49.39600 2980.75200   10.37200    9.99400   12.67700  130.21500   -9999.25   -9999.25   -9999.25   -9999.25   -9999.25   -9999.25    5.02000   -9999.25   -9999.25   -9999.25
 7798.50000  -49.39200 2987.37990   10.37200    9.60200   13.46100  118.62300   -9999.25   -9999.25   -9999.25   -9999.25   -9999.25   -9999.25    5.02000   -9999.25   -9999.25   -9999.25
 7799.00000  -49.28300 2990.09910   10.37200    9.21000   14.46100  108.75000   -9999.25   -9999.25   -9999.25   -9999.25   -9999.25   -9999.25    5.02000   -9999.25   -9999.25   -9999.25
 7799.50000  -49.15800 3042.81010   10.37200    9.12900   14.66800  102.79100   -9999.25   -9999.25   -9999.25   -9999.25   -9999.25   -9999.25    4.98000   -9999.25   -9999.25   -9999.25
 7800.00000  -49.04700 3087.05810   10.37200    9.12900   13.32200  101.54600   -9999.25   -9999.25   -9999.25   -9999.25 3081.51100   10.10700    4.83600    0.04000    2.40300   -9999.25
 7800.50000  -48.93000 3131.30690   10.37200    9.12900   11.97100   99.47100   -9999.25   -9999.25   -9999.25   -9999.25 3024.47800   10.02800    4.62400    0.03800    2.40300   -9999.25
 7801.00000  -48.77100 3135.14890   10.23000    9.12900   10.37200   95.84800   -9999.25   -9999.25   -9999.25   -9999.25 2961.60500    9.87500    4.38500    0.05500    2.43600   -9999.25
 7801.50000  -48.76800 3072.77200   10.08800    9.12900   11.27700   89.29800   -9999.25   -9999.25   -9999.25   -9999.25 2898.73290    9.79000    4.34500    0.06900    2.46600   -9999.25
 7802.00000  -47.94100 3010.39600    9.94700    9.12900   12.38500   84.46600   -9999.25   -9999.25   -9999.25   -9999.25 2882.70410    9.84400    4.62100    0.08400    2.48400   -9999.25
 7802.50000  -47.80500 2950.49510    9.80500    9.12900   13.88700   79.17000   -9999.25   -9999.25   -9999.25   -9999.25 2978.72800    9.91600    5.08100    0.09600    2.49200    0.29700
 7803.00000  -47.80400 3001.82200    9.64300    9.12900   13.39000   81.51600   -9999.25   -9999.25   -9999.25   -9999.25 3041.75000    9.98800    5.54700    0.10400    2.48400    0.29200
 7803.50000  -47.86400 3081.66310    9.64300    9.12900   12.69600   86.88600   -9999.25   -9999.25   -9999.25   -9999.25 3044.32300   10.00900    5.75100    0.10000    2.47700    0.28800
 7804.00000  -47.86800 3096.95800    9.64300    9.29700   11.69700   91.49700   -9999.25   -9999.25   -9999.25   -9999.25 3001.98800   10.07500    5.72400    0.08500    2.45000    0.28600
 7804.50000  -47.89700 3078.81200    9.87900    9.72700   10.69800   93.56900   -9999.25   -9999.25   -9999.25   -9999.25 3001.98800   10.18800    5.48700    0.07300    2.42100    0.28500
 7805.00000  -47.92300 3060.66600   10.15100   10.22300   10.37200   97.52100   -9999.25   -9999.25   -9999.25   -9999.25 3001.98800   10.15900    5.18100    0.05900    2.43000    0.28600
 7805.50000  -47.94500 3042.52000   10.42400   10.71900   10.37200  100.57200   -9999.25   -9999.25   -9999.25   -9999.25 3001.98800    9.95100    4.91900    0.04700    2.45800    0.28600
 7806.00000  -47.97000 2990.09910   10.69700   11.21500   11.36300  103.57800   -9999.25   -9999.25   -9999.25   -9999.25 2992.66210    9.75900    4.63700    0.03400    2.48900    0.27900
 7806.50000  -47.99400 2990.09910   10.96900   11.71100   14.76000  109.47100   -9999.25   -9999.25   -9999.25   -9999.25 2965.22710    9.76300    4.53800    0.06000    2.52900    0.26200
 7807.00000  -48.01900 2983.68990   11.44500   12.20700   18.54900  119.27900   -9999.25   -9999.25   -9999.25   -9999.25 2937.79100    9.72000    4.65500    0.07600    2.53700    0.26500
 7807.50000  -48.04300 2974.61690   12.37400   12.88800   24.89300  128.10200   -9999.25   -9999.25   -9999.25   -9999.25 2910.35600    9.82800    4.70900    0.06400    2.50900    0.27200
 7808.00000  -48.06700 2965.54490   13.30300   13.74000   24.58500  133.07600   -9999.25   -9999.25   -9999.25   -9999.25 2882.70410    9.82000    4.65700    0.04400    2.48000    0.27900
 7808.50000  -48.09100 2956.47190   14.23200   14.59300   23.64000  130.82700   -9999.25   -9999.25   -9999.25   -9999.25 2957.75290   10.94400    4.54300    0.02500    2.47100    0.28600
 7809.00000  -48.11500 2950.49510   15.21300   15.49300   22.69400  125.22300   -9999.25   -9999.25   -9999.25   -9999.25 3081.51100   10.76000    4.43000    0.01200    2.49000    0.29300
 7809.50000  -48.13900 3059.80200   15.21300   14.82700   21.74800  122.29300   -9999.25   -9999.25   -9999.25   -9999.25 3030.41700   10.25100    4.39000    0.01200    2.50700    0.29900
 7810.00000  -48.16300 3080.69310   14.50900   14.12100   20.80200  122.61900   -9999.25   -9999.25   -9999.25   -9999.25 2980.11890   10.00100    4.62300    0.01200    2.46300    0.29700
 7810.50000  -48.18700 3043.26710   13.89700   13.41500   19.85600  124.56500   -9999.25   -9999.25   -9999.25   -9999.25 2962.22710   10.15900    4.99200    0.02700    2.34800    0.29600
 7811.00000  -48.21100 3005.84200   13.28600   12.70900   18.03300  124.57000   -9999.25   -9999.25   -9999.25   -9999.25 2922.46510   10.38200    5.22100    0.01500    2.23500    0.29500
 7811.50000  -48.23500 2987.05590   12.67400   12.00300   15.94800  119.29700   -9999.25   -9999.25   -9999.25   -9999.25 2887.18410   10.60800    5.25500   -0.01700    2.12200    0.29500
 7812.00000  -48.26000 2981.80300   12.06200   11.36300   13.86200  113.25400   -9999.25   -9999.25   -9999.25   -9999.25 2893.88990   10.76300    5.13000   -0.04700    2.14200    0.29400
 7812.50000  -48.28400 2976.55000   11.57200   11.15700   11.36300  106.03600   -9999.25   -9999.25   -9999.25   -9999.25 2900.59590   10.49100    4.68700   -0.06000    2.22700    0.27700
 7813.00000  -48.30800 2971.29810   12.26700   11.90200   13.91200  100.02900   -9999.25   -9999.25   -9999.25   -9999.25 2907.30300   10.10700    4.26500   -0.03800    2.29400    0.26300
 7813.50000  -48.33200 2966.04490   13.13400   12.71700   17.09300  101.38700   -9999.25   -9999.25   -9999.25   -9999.25 2914.00900    9.72700    3.88900   -0.01400    2.43800    0.26200
 7814.00000  -48.35600 2960.79200   13.63600   13.53300   19.63700  104.24600   -9999.25   -9999.25   -9999.25   -9999.25 2920.71610    9.54700    3.87300    0.01400    2.42900    0.27700
 7814.50000  -48.38000 2955.53910   13.88700   14.34800   21.30400  115.64600   -9999.25   -9999.25   -9999.25   -9999.25 2927.42210    9.55600    3.94300    0.03000    2.39700    0.28500
 7815.00000  -48.40400 2950.49510   14.59700   15.16400   23.56800  123.48600   -9999.25   -9999.25   -9999.25   -9999.25 2934.12890    9.54000    4.03900    0.03200    2.40400    0.27700
 7815.50000  -48.42800 2950.49510   15.44800   15.77800   23.39700  132.47800   -9999.25   -9999.25   -9999.25   -9999.25 2940.83500    9.51000    4.12800    0.03100    2.45600    0.24500
 7816.00000  -48.45200 2950.49510   16.29900   16.06900   23.13100  136.03900   -9999.25   -9999.25   -9999.25   -9999.25 2947.54100    9.51100    4.22000    0.06500    2.49400    0.22300
