~Version ---------------------------------------------------
VERS.   2.0 : CWLS log ASCII Standard -VERSION 2.0
WRAP.    NO : One line per depth step
DLM . SPACE : Column Data Section Delimiter
~Well ------------------------------------------------------
STRT .F                4570.0 : START DEPTH
STOP .F               12750.0 : STOP DEPTH
STEP .F                   0.5 : STEP
NULL .               -9999.25 : NULL VALUE
COMP .                        : COMPANY
WELL .                        : WELL
FLD  .                        : FIELD
LOC  .                        : LOCATION
PROV .                        : PROVINCE
CNTY .                        : COUNTY
STAT .                        : STATE
CTRY .                        : COUNTRY
SRVC .                        : SERVICE COMPANY
DATE .                        : DATE
UWI  .                        : UNIQUE WELL ID
API  .                        : API NUMBER
SLAT .WGS84 5.969062416871402 : SURFACE LATITUDE
SLON .WGS84 4.150158925939607 : SURFACE LONGITUDE
DATUM.F               2071.38 : DEPTH DATUM ELEV
~Curve Information -----------------------------------------
DEPT.F     : 
SPR .MV    : SPONTANEOUS POTENTIAL
TENR.LBS   : TENSION FROM RESISTIVITY
ILD .OHMM  : DEEP INDUCTION RESISTIVITY
ILM .OHMM  : INDUCTION LOG MEDIUM RESISTIVITY
SFL .OHMM  : SHALLOW FOCUSED LOG RESISTIVITY
GRR .GAPI  : GAMMA RAY FROM RESISTIVITY
TENS.LBS   : TENSION
DTSM.US/F  : SHEAR-WAVE INTERVAL TRANSIT TIME DELTA-T
DTCO.US/F  : ACOUSTIC TRANSIT TIME SLOWNESS, DELTA T
NPHS.DEC   : NEUTRON POROSITY LIMESTONE FROM SONIC/NEUTRON LOG
TEND.LBS   : TENSION FROM DENSITY LOG
CALD.IN    : CALIPER FROM DENSITY LOG
PE  .B/E   : PHOTOELECTRIC FACTOR
DCOR.G/C3  : DENSITY CORRECTION
RHOB.G/C3  : BULK DENSITY
NPHI.DEC   : NEUTRON POROSITY LIMESTONE
~Params ----------------------------------------------------
~Other -----------------------------------------------------
~ASCII -----------------------------------------------------
# ...
 12095.00000   -9.08900 4360.39600   12.22300   13.48200   17.52900   93.85300 3712.15410  128.60000   72.00000    0.18000 4194.83110    9.33700    3.78500    0.01100    2.64200    0.15200
 12095.50000   -9.10900 4367.49610   13.25600   14.41100   16.97200   95.40200 3708.24610  125.36300   70.30700    0.17200 4223.77690    9.33400    3.66900    0.00900    2.63500    0.13700
 12096.00000   -9.12900 4374.59720   14.31700   15.34100   16.72500   95.20300 3704.33790  121.59000   68.61300    0.16000 4303.61820    9.33100    3.69300    0.00800    2.62800    0.13500
 12096.50000   -9.14900 4376.23780   15.37900   16.27100   16.36400   92.97200 3700.00000  117.40000   67.57300    0.14600 4353.87700    9.32800    3.70500    0.00700    2.62000    0.13300
 12097.00000   -9.16900 4337.58400   16.44100   17.20000   17.48900   89.84100 3701.66500  117.80000   68.18200    0.13300 4314.11520    9.32500    3.70100    0.00500    2.61800    0.13100
 12097.50000   -9.18900 4297.82180   17.50200   18.13000   18.96600   85.63200 3703.53710  118.20000   68.60000    0.13000 4288.27000    9.32200    3.70300    0.00500    2.62100    0.12900
 12098.00000   -9.20900 4258.05910   18.56400   19.05900   20.30400   80.29400 3705.40800  116.95200   67.95200    0.12600 4255.00290    9.31900    3.70600    0.00700    2.62300    0.12500
 12098.50000   -9.22900 4217.82180   19.63900   20.00000   22.31900   73.83200 3707.27910  115.59700   67.24900    0.12300 4194.83110    9.31700    3.81100    0.01000    2.62500    0.11800
 12099.00000   -9.23800 4259.91500   19.94600   20.60200   25.41000   70.82900 3709.15090  114.24300   66.54600    0.12000 4194.83110    9.31300    3.91400    0.01300    2.62100    0.11100
 12099.50000   -9.23700 4302.51810   20.46600   21.21200   28.50100   72.30100 3711.02200  112.60000   65.84300    0.11700 4273.95610    9.31900    4.00400    0.01600    2.61700    0.10400
 12100.00000   -9.23700 4336.63380   20.98700   21.82200   31.59200   73.76200 3712.89400  110.61400   65.00000    0.11300 4274.35400    9.32600    4.09800    0.01800    2.61300    0.10400
 12100.50000   -9.23700 4304.37300   21.50800   22.43100   35.85100   73.14600 3714.76490  108.59600   65.00000    0.10100 4213.64010    9.33400    4.18500    0.02000    2.61500    0.10100
 12101.00000   -9.23700 4257.42580   21.91000   23.14200   35.20300   74.46300 3716.63700  107.80000   65.33600    0.09000 4155.06980    9.34100    4.28900    0.02200    2.61700    0.09900
 12101.50000   -9.23700 4257.42580   22.31300   23.56800   30.36600   78.30300 3718.50810  108.81000   65.67100    0.08400 4223.65820    9.34800    4.29600    0.02400    2.61900    0.09900
 12102.00000   -9.23700 4349.46480   21.67500   23.56800   21.51400   81.55600 3720.37990  109.80000   66.00500    0.09000 4393.63820    9.35600    4.29400    0.02400    2.62000    0.10300
 12102.50000   -9.23700 4490.29690   20.77100   22.35200   22.72400   79.73400 3722.25100  107.80000   66.20000    0.09800 4433.39990    9.36300    4.11300    0.02300    2.62200    0.10700
 12103.00000   -9.23700 4513.72020   19.86800   20.94800   32.62800   73.98100 3724.12210  109.00000   65.40000    0.10800 4433.39990    9.37100    3.87000    0.02100    2.62300    0.10600
 12103.50000   -9.23700 4441.86720   18.96400   19.54400   37.18200   67.59200 3725.99390  109.00000   65.40000    0.10800 4362.32620    9.37800    3.64000    0.01900    2.62400    0.10700
 12104.00000   -9.23700 4370.01420   18.06000   18.59300   35.20300   70.45900 3727.86500  110.76900   65.97900    0.09800 4303.18120    9.38500    3.65200    0.01800    2.62500    0.11200
 12104.50000   -9.23700 4297.02980   17.28500   18.49400   26.45000   78.20100 3729.73710  112.94500   66.90000    0.08900 4244.03610    9.39300    3.66600    0.01600    2.62500    0.12000
 12105.00000   -9.23700 4245.98490   17.28500   18.38700   19.96900   82.78700 3731.60790  115.12000   67.82000    0.09900 4184.89110    9.40000    3.64800    0.01400    2.62300    0.12800
 12105.50000   -9.23600 4201.27590   17.60300   18.28000   18.59300   85.31500 3733.48000  117.29500   68.74000    0.11400 4115.30810    9.40800    3.61700    0.01300    2.62500    0.13200
 12106.00000   -9.23700 4156.56790   17.96800   18.59300   19.91800   82.72900 3735.35110  119.80000   69.80000    0.13000 4115.30810    9.41500    3.58500    0.01400    2.62700    0.13100
 12106.50000   -9.23600 4192.12300   18.43600   18.93500   23.35100   79.73400 3737.22290  119.40000   70.20000    0.13100 4172.78080    9.42200    3.56300    0.01500    2.63700    0.12600
 12107.00000   -9.23700 4281.54000   18.90500   19.09600   25.35100   79.21300 3739.09400  118.08800   69.24000    0.12600 4228.08590    9.43100    3.50500    0.01600    2.64100    0.12100
 12107.50000   -9.23800 4370.95700   19.37300   19.29500   24.42400   79.57200 3740.00000  116.08000   68.32700    0.11300 4283.39110    9.43200    3.56000    0.01800    2.63900    0.11600
 12108.00000   -9.22700 4455.44580   19.84100   19.49300   23.56800   78.94100 3733.06690  114.07200   67.41500    0.10400 4338.69480    9.42000    3.62200    0.01800    2.63500    0.11300
 12108.50000   -9.33800 4445.94090   20.00000   20.00000   26.44600   75.56300 3723.46700  112.06400   66.50200    0.10300 4393.63820    9.40900    3.55300    0.01800    2.63000    0.11200
 12109.00000   -9.55900 4410.43700   20.00000   20.00000   32.13400   75.72500 3713.86690  110.90200   65.80000    0.10100 4393.63820    9.39800    3.50900    0.01800    2.62600    0.10900
 12109.50000   -9.76700 4374.93310   20.00000   20.00000   31.55400   79.87000 3704.26710  112.01800   66.27600    0.09700 4325.21480    9.38700    3.57800    0.01900    2.62300    0.10800
 12110.00000   -9.97500 4339.42920   20.36800   20.00000   27.70500   82.98600 3694.66700  113.13300   67.28000    0.09400 4266.06980    9.37600    3.71900    0.02000    2.61600    0.11300
 12110.50000  -10.18600 4303.92480   24.38300   20.74300   23.45500   80.80300 3685.06690  114.24900   68.28400    0.10000 4206.92480    9.36400    3.83300    0.02200    2.60800    0.11900
 12111.00000  -10.39400 4268.42190   29.40700   24.94100   21.51400   73.80100 3675.46700  114.60000   69.28800    0.10600 4147.77980    9.35300    3.93400    0.02200    2.59200    0.12300
 12111.50000  -10.60600 4232.91800   34.43200   32.66700   39.59300   67.40900 3665.86690  114.60000   70.29200    0.11300 4115.30810    9.34200    3.83600    0.02500    2.57000    0.11300
 12112.00000  -10.81400 4217.82180   39.45700   40.39400   74.53200   61.11600 3660.00000  112.81000   71.00000    0.11300 4128.72800    9.33100    3.64400    0.01900    2.55000    0.09800
 12112.50000  -11.01700 4224.70900   44.48100   48.12000  123.68400   55.94100 3660.00000  110.22900   67.40000    0.09400 4141.40190    9.32000    3.44500    0.01400    2.53300    0.08300
 12113.00000  -11.25000 4233.45700   49.50600   55.84700  181.73800   52.09300 3660.00000  107.64700   66.60000    0.07500 4154.07620    9.30800    3.24700    0.01500    2.53200    0.06800
 12113.50000  -11.41900 4242.20410   54.53000   63.57300  202.75500   52.01200 3660.00000  105.06500   65.58400    0.05500 4166.75000    9.29700    3.05200    0.01600    2.53200    0.05100
 12114.00000  -11.64000 4250.95120   59.55500   71.30000  195.49200   54.32300 3660.00000  102.48300   63.57600    0.03600 4179.42290    9.28600    3.02100    0.01700    2.53200    0.05600
 12114.50000  -11.79500 4259.69920   64.26300   78.54000  137.24200   58.98400 3660.00000  100.20000   61.80000    0.03500 4192.09720    9.27400    3.07800    0.01900    2.53000    0.06200
 12115.00000  -12.53100 4268.44580   60.18400   79.98500   84.38500   59.66600 3660.00000   99.80000   62.28000    0.03400 4204.77100    9.27200    3.12400    0.02000    2.54000    0.06900
 12115.50000  -12.46300 4277.19290   56.34600   73.47200   72.64100   57.04600 3660.00000  100.55300   63.78600    0.04700 4217.44480    9.27200    3.28400    0.02000    2.57200    0.07800
 12116.00000  -12.66400 4285.94090   52.50800   66.08600   90.57000   53.49300 3660.00000  102.76200   65.29200    0.05900 4230.11910    9.27200    3.55800    0.01800    2.59600    0.07400
