~Version ---------------------------------------------------
VERS.   2.0 : CWLS log ASCII Standard -VERSION 2.0
WRAP.    NO : One line per depth step
DLM . SPACE : Column Data Section Delimiter
~Well ------------------------------------------------------
STRT .F                4570.0 : START DEPTH
STOP .F               12750.0 : STOP DEPTH
STEP .F                   0.5 : STEP
NULL .               -9999.25 : NULL VALUE
COMP .                        : COMPANY
WELL .                        : WELL
FLD  .                        : FIELD
LOC  .                        : LOCATION
PROV .                        : PROVINCE
CNTY .                        : COUNTY
STAT .                        : STATE
CTRY .                        : COUNTRY
SRVC .                        : SERVICE COMPANY
DATE .                        : DATE
UWI  .                        : UNIQUE WELL ID
API  .                        : API NUMBER
SLAT .WGS84 5.969062416871402 : SURFACE LATITUDE
SLON .WGS84 4.150158925939607 : SURFACE LONGITUDE
DATUM.F               2071.38 : DEPTH DATUM ELEV
~Curve Information -----------------------------------------
DEPT.F     : 
SPR .MV    : SPONTANEOUS POTENTIAL
TENR.LBS   : TENSION FROM RESISTIVITY
ILD .OHMM  : DEEP INDUCTION RESISTIVITY
ILM .OHMM  : INDUCTION LOG MEDIUM RESISTIVITY
SFL .OHMM  : SHALLOW FOCUSED LOG RESISTIVITY
GRR .GAPI  : GAMMA RAY FROM RESISTIVITY
TENS.LBS   : TENSION
DTSM.US/F  : SHEAR-WAVE INTERVAL TRANSIT TIME DELTA-T
DTCO.US/F  : ACOUSTIC TRANSIT TIME SLOWNESS, DELTA T
NPHS.DEC   : NEUTRON POROSITY LIMESTONE FROM SONIC/NEUTRON LOG
TEND.LBS   : TENSION FROM DENSITY LOG
CALD.IN    : CALIPER FROM DENSITY LOG
PE  .B/E   : PHOTOELECTRIC FACTOR
DCOR.G/C3  : DENSITY CORRECTION
RHOB.G/C3  : BULK DENSITY
NPHI.DEC   : NEUTRON POROSITY LIMESTONE
~Params ----------------------------------------------------
~Other -----------------------------------------------------
~ASCII -----------------------------------------------------
# ...
 7945.50000  -47.79100 3103.25290   14.16800   12.67700   21.51400  108.43100   -9999.25   -9999.25   -9999.25   -9999.25 3036.45800    9.24600    5.42100    0.04800    2.43500    0.24400
 7946.00000  -47.79100 3069.30690   14.14300   12.91000   20.36800  111.31000   -9999.25   -9999.25   -9999.25   -9999.25 3059.30590    9.31400    5.60100    0.05600    2.38300    0.27300
 7946.50000  -47.79100 3097.59500   14.34200   13.15400   17.11800  114.30000   -9999.25   -9999.25   -9999.25   -9999.25 3081.51100   10.27500    5.18900    0.04300    2.32100    0.29600
 7947.00000  -47.79100 3168.31690   14.93800   13.46000   14.66800  113.95400   -9999.25   -9999.25   -9999.25   -9999.25 3121.27200   10.13000    4.83200    0.02800    2.33000    0.29800
 7947.50000  -47.79200 3239.03810   16.24100   13.76500   15.21300  114.92200   -9999.25   -9999.25   -9999.25   -9999.25 3093.28590    9.63000    4.45500    0.01200    2.39000    0.29800
 7948.00000  -47.79100 3267.32690   17.86900   14.27300   22.32600  118.12000   -9999.25   -9999.25   -9999.25   -9999.25 3070.43900    9.20900    4.44800   -0.00100    2.43900    0.29800
 7948.50000  -47.78700 3234.26900   19.49700   15.68100   29.43900  125.29800   -9999.25   -9999.25   -9999.25   -9999.25 3047.59110    9.07700    4.41700   -0.00500    2.48800    0.28600
 7949.00000  -47.71300 3192.94600   21.12500   18.21300   36.55300  129.81500   -9999.25   -9999.25   -9999.25   -9999.25 3024.74390    9.00100    4.45700   -0.01200    2.50500    0.27200
 7949.50000  -47.63800 3151.62400   22.75300   20.74500   43.66600  132.22900   -9999.25   -9999.25   -9999.25   -9999.25 3001.98800    8.92400    4.46700   -0.01100    2.49100    0.27300
 7950.00000  -47.55900 3110.30100   24.38200   23.27700   50.77900  134.94000   -9999.25   -9999.25   -9999.25   -9999.25 3001.98800    8.92300    4.45200   -0.00600    2.45000    0.29500
 7950.50000  -47.48200 3069.30690   26.01000   25.80900   57.89200  144.27700   -9999.25   -9999.25   -9999.25   -9999.25 3001.98800    8.93400    4.42700   -0.00100    2.39400    0.29700
 7951.00000  -47.40500 3130.29710   27.63800   28.80400   65.00500  206.40100   -9999.25   -9999.25   -9999.25   -9999.25 3001.98800    8.94100    4.36000    0.00400    2.35700    0.29800
 7951.50000  -47.32800 3227.72290   29.26600   29.87400   69.12600  272.59000   -9999.25   -9999.25   -9999.25   -9999.25 3031.67700    8.95100    4.26700    0.00500    2.35000    0.29800
 7952.00000  -47.25000 3176.63400   29.87400   28.80400   67.12200  303.31300   -9999.25   -9999.25   -9999.25   -9999.25 3081.51100    8.95900    4.26000    0.01000    2.38000    0.29800
 7952.50000  -47.17300 3126.73290   28.26200   27.51200   58.41300  340.06000   -9999.25   -9999.25   -9999.25   -9999.25 3081.51100    8.98500    4.24100    0.02500    2.42100    0.29800
 7953.00000  -47.09500 3128.55400   25.80600   25.74500   49.70400  323.19300   -9999.25   -9999.25   -9999.25   -9999.25 3081.51100    9.02100    4.22600    0.03100    2.43000    0.29900
 7953.50000  -47.01700 3208.39600   23.35000   23.97800   40.99500  278.61400   -9999.25   -9999.25   -9999.25   -9999.25 3081.51100    9.03600    4.14500    0.01300    2.42000    0.29900
 7954.00000  -46.99100 3254.25710   20.89500   22.21200   32.28600  151.50600   -9999.25   -9999.25   -9999.25   -9999.25 3081.51100    9.01700    4.04200   -0.00200    2.42700    0.29400
 7954.50000  -47.06500 3204.35600   18.43900   20.44500   23.57700  144.96600   -9999.25   -9999.25   -9999.25   -9999.25 3081.51100    9.00700    3.95000   -0.01400    2.46500    0.27300
 7955.00000  -47.12500 3199.34010   16.97200   18.67800   20.05900  130.12000   -9999.25   -9999.25   -9999.25   -9999.25 3077.03810    8.97500    3.95100   -0.00100    2.50600    0.26100
 7955.50000  -47.18900 3215.97410   16.66600   16.91100   19.04500  115.27500   -9999.25   -9999.25   -9999.25   -9999.25 3064.41410    8.95100    3.94600    0.01100    2.51800    0.26100
 7956.00000  -47.25100 3217.95410   16.66600   15.85800   17.92700  109.03600   -9999.25   -9999.25   -9999.25   -9999.25 3051.78910    8.98700    4.10400    0.01800    2.46600    0.28100
 7956.50000  -47.31400 3184.68600   17.51600   15.21300   21.14900  117.36900   -9999.25   -9999.25   -9999.25   -9999.25 3039.16500    9.26000    4.32100    0.00100    2.35600    0.29900
 7957.00000  -47.37700 3148.51490   18.46500   15.49300   24.74200  128.41400   -9999.25   -9999.25   -9999.25   -9999.25 3026.54100    9.60900    4.51100    0.02600    2.30800    0.30000
 7957.50000  -47.44000 3148.51490   19.41400   16.22500   28.33600  139.45800   -9999.25   -9999.25   -9999.25   -9999.25 3013.91700    9.73800    4.72000    0.06000    2.33000    0.30000
 7958.00000  -47.50100 3148.51490   20.36300   17.64500   29.33400  137.65100   -9999.25   -9999.25   -9999.25   -9999.25 3001.98800    9.46800    4.80900    0.09500    2.35300    0.30000
 7958.50000  -47.56400 3148.51490   21.31100   19.06500   26.24000  129.76500   -9999.25   -9999.25   -9999.25   -9999.25 3001.98800    9.24200    4.83800    0.10300    2.42800    0.29900
 7959.00000  -47.62900 3148.51490   22.31300   20.00000   22.72400  123.19300   -9999.25   -9999.25   -9999.25   -9999.25 2995.68310    9.04000    4.54300    0.06500    2.45500    0.28700
 7959.50000  -47.68300 3152.15800   21.77100   19.33000   28.99800  116.62100   -9999.25   -9999.25   -9999.25   -9999.25 2988.46900    9.03000    4.11000    0.01700    2.48200    0.26900
 7960.00000  -47.76200 3158.81200   20.74300   18.59300   35.64200  108.73500   -9999.25   -9999.25   -9999.25   -9999.25 2981.25490    9.01800    3.71400   -0.00500    2.50500    0.25000
 7960.50000  -47.82100 3165.46510   20.74300   18.59300   43.81500  108.73500   -9999.25   -9999.25   -9999.25   -9999.25 2974.04100    9.01300    3.66500    0.00500    2.52800    0.25500
 7961.00000  -48.33200 3172.11890   21.54100   19.42700   41.73000  112.45400   -9999.25   -9999.25   -9999.25   -9999.25 2966.82790    9.00400    3.67000    0.01000    2.50400    0.26200
 7961.50000  -48.85600 3178.77200   22.57700   20.51100   36.14100  118.67500   -9999.25   -9999.25   -9999.25   -9999.25 2962.22710    8.99700    3.67100    0.01500    2.48500    0.26800
 7962.00000  -49.39800 3185.42600   23.61300   20.74300   31.65700  123.05500   -9999.25   -9999.25   -9999.25   -9999.25 3081.51100    8.98900    3.67000    0.01400    2.48900    0.26500
 7962.50000  -49.93900 3162.65890   24.89300   20.70300   27.27000  121.77400   -9999.25   -9999.25   -9999.25   -9999.25 3121.27200    8.98200    3.70000    0.00900    2.51200    0.25700
 7963.00000  -50.46300 3119.88700   24.45400   20.63500   27.61400  119.90300   -9999.25   -9999.25   -9999.25   -9999.25 3106.84500    8.97500    3.73300    0.00700    2.53300    0.25000
 7963.50000  -50.97700 3069.30690   23.37100   20.56800   29.33400  118.88400   -9999.25   -9999.25   -9999.25   -9999.25 3092.41700    8.96700    3.76700    0.00900    2.53500    0.25700
 7964.00000  -50.99900 3102.89110   22.31300   20.50000   30.09600  119.50300   -9999.25   -9999.25   -9999.25   -9999.25 3081.51100    8.96000    3.80000    0.01100    2.53000    0.26800
 7964.50000  -51.00900 3182.73290   22.31300   20.43300   31.55400  124.37700   -9999.25   -9999.25   -9999.25   -9999.25 3041.75000    8.95200    3.83300    0.01300    2.52600    0.28300
 7965.00000  -51.00200 3227.72290   22.31300   20.36800   31.42800  129.26400   -9999.25   -9999.25   -9999.25   -9999.25 3034.23900    8.94500    3.86700    0.01400    2.53200    0.28000
 7965.50000  -51.00700 3183.25290   23.64900   21.12500   30.98300  128.76100   -9999.25   -9999.25   -9999.25   -9999.25 3023.01710    8.93700    3.89900    0.01300    2.54300    0.27500
 7966.00000  -50.98600 3140.48100   24.93400   22.32100   32.29100  127.54500   -9999.25   -9999.25   -9999.25   -9999.25 3011.79590    8.93000    3.93400    0.01000    2.55200    0.27000
 7966.50000  -51.21300 3108.91090   26.22000   24.10500   35.18200  126.52500   -9999.25   -9999.25   -9999.25   -9999.25 3001.98800    8.92200    3.95100    0.00900    2.55400    0.26900
