~Version ---------------------------------------------------
VERS.   2.0 : CWLS log ASCII Standard -VERSION 2.0
WRAP.    NO : One line per depth step
DLM . SPACE : Column Data Section Delimiter
~Well ------------------------------------------------------
STRT .F                4570.0 : START DEPTH
STOP .F               12750.0 : STOP DEPTH
STEP .F                   0.5 : STEP
NULL .               -9999.25 : NULL VALUE
COMP .                        : COMPANY
WELL .                        : WELL
FLD  .                        : FIELD
LOC  .                        : LOCATION
PROV .                        : PROVINCE
CNTY .                        : COUNTY
STAT .                        : STATE
CTRY .                        : COUNTRY
SRVC .                        : SERVICE COMPANY
DATE .                        : DATE
UWI  .                        : UNIQUE WELL ID
API  .                        : API NUMBER
SLAT .WGS84 5.969062416871402 : SURFACE LATITUDE
SLON .WGS84 4.150158925939607 : SURFACE LONGITUDE
DATUM.F               2071.38 : DEPTH DATUM ELEV
~Curve Information -----------------------------------------
DEPT.F     : 
SPR .MV    : SPONTANEOUS POTENTIAL
TENR.LBS   : TENSION FROM RESISTIVITY
ILD .OHMM  : DEEP INDUCTION RESISTIVITY
ILM .OHMM  : INDUCTION LOG MEDIUM RESISTIVITY
SFL .OHMM  : SHALLOW FOCUSED LOG RESISTIVITY
GRR .GAPI  : GAMMA RAY FROM RESISTIVITY
TENS.LBS   : TENSION
DTSM.US/F  : SHEAR-WAVE INTERVAL TRANSIT TIME DELTA-T
DTCO.US/F  : ACOUSTIC TRANSIT TIME SLOWNESS, DELTA T
NPHS.DEC   : NEUTRON POROSITY LIMESTONE FROM SONIC/NEUTRON LOG
TEND.LBS   : TENSION FROM DENSITY LOG
CALD.IN    : CALIPER FROM DENSITY LOG
PE  .B/E   : PHOTOELECTRIC FACTOR
DCOR.G/C3  : DENSITY CORRECTION
RHOB.G/C3  : BULK DENSITY
NPHI.DEC   : NEUTRON POROSITY LIMESTONE
~Params ----------------------------------------------------
~Other -----------------------------------------------------
~ASCII -----------------------------------------------------
# ...
 12417.50000  -37.63000 4297.02980   37.61200   33.11600  115.19300   53.07000 4333.69190  103.31700   60.60000    0.04300 4215.34180    8.50100    3.25500    0.02000    2.63700    0.06200
 12418.00000  -37.36100 4297.02980   33.70200   29.89600   60.50900   60.91100 4325.90820  107.50000   62.31700    0.05500 4214.12010    8.60500    3.49900    0.02000    2.64200    0.05500
 12418.50000  -37.35200 4297.02980   29.79300   26.67700   29.77400   81.45200 4318.12300  111.68300   64.99500    0.07800 4212.89790    8.70800    3.72500    0.01900    2.64600    0.07600
 12419.00000  -37.34600 4297.02980   25.88300   23.45700   22.97500   92.94300 4310.33790  115.86700   67.80000    0.11700 4211.67580    8.81100    3.99600    0.01900    2.65400    0.09900
 12419.50000  -37.35000 4297.02980   21.97300   20.23800   19.28400  101.88700 4302.55420  119.40000   68.59700    0.13600 4210.45410    8.90000    4.15300    0.01900    2.66300    0.12200
 12420.00000  -37.34900 4297.02980   20.36800   17.92700   20.81400  107.25300 4285.42920  120.85000   69.43300    0.15300 4209.23190    8.89800    4.12500    0.01700    2.67200    0.14400
 12420.50000  -37.35000 4297.02980   20.36800   17.60300   23.04500  105.75800 4263.74320  121.40000   69.80000    0.15200 4208.00980    8.89100    4.05500    0.01500    2.67500    0.16900
 12421.00000  -37.34800 4300.76420   20.24700   17.76900   25.27700  101.45300 4242.05710  120.23200   69.80000    0.14300 4206.78910    8.88200    3.97500    0.01300    2.67200    0.17200
 12421.50000  -37.35000 4314.79490   20.00000   18.39300   27.50900   98.10500 4220.37110  119.22800   69.00000    0.13400 4205.56690    8.87500    3.89500    0.01200    2.66700    0.17300
 12422.00000  -37.35500 4328.82620   20.00000   19.01700   28.42400   96.93200 4198.68600  118.60000   68.20000    0.12800 4204.34520    8.86700    3.85900    0.01000    2.66100    0.16100
 12422.50000  -37.33500 4336.63380   20.74300   19.64100   28.74600   96.70300 4180.00000  118.84500   68.70800    0.13000 4203.12300    8.86500    3.89100    0.00900    2.65500    0.15300
 12423.00000  -37.37100 4336.63380   23.14200   20.26400   28.65400   96.11300 4180.00000  119.00000   69.58600    0.13300 4201.90090    8.87200    3.93500    0.01100    2.65500    0.15300
 12423.50000  -37.34600 4336.63380   23.14200   20.88800   27.77200   95.56600 4183.70800  118.41200   70.46500    0.13700 4200.67920    8.89100    3.94000    0.01500    2.66000    0.15200
 12424.00000  -37.19900 4316.51510   22.87800   21.12500   28.31100   95.91200 4187.60010  118.54000   70.60000    0.14000 4199.45700    8.91100    3.92500    0.01800    2.66400    0.15200
 12424.50000  -36.46200 4297.02980   22.45300   21.02000   29.61400   93.20100 4191.49220  120.43700   71.04700    0.13600 4198.23490    8.92700    3.90600    0.01800    2.66800    0.15100
 12425.00000  -36.57900 4297.02980   22.02800   20.76700   29.41700   90.95400 4195.38480  122.33300   71.80000    0.13200 4197.01320    8.94900    3.90200    0.01700    2.67100    0.15000
 12425.50000  -36.54000 4297.02980   21.60300   20.51300   27.15300   90.51500 4199.27690  124.60000   72.20000    0.14200 4195.79100    8.91700    3.89700    0.01500    2.67100    0.15200
 12426.00000  -36.54100 4313.26710   21.17800   20.26000   24.88800   94.28500 4203.16890  125.80000   71.87400    0.15200 4194.83110    8.89200    3.95300    0.01400    2.67300    0.15800
 12426.50000  -36.55100 4329.63720   20.74300   20.00000   22.62400  102.09800 4207.06200  125.80000   71.07000    0.16800 4216.95310    8.85800    4.06800    0.01300    2.67200    0.16300
 12427.00000  -36.54300 4346.00680   21.51400   20.00000   20.74300  105.23700 4210.95410  121.15700   69.80000    0.16000 4235.17090    8.82300    4.15600    0.01100    2.66900    0.17000
 12427.50000  -36.54600 4362.37600   28.38300   20.00000   33.15800  101.54300 4214.84620  117.32400   69.58000    0.13500 4253.38920    8.79000    4.26500    0.01000    2.66100    0.17000
 12428.00000  -36.54600 4376.23780   36.83200   29.30400   81.06800   87.74700 4218.73780  113.49000   68.60000    0.09000 4274.35400    8.77500    4.12900    0.00900    2.64300    0.14200
 12428.50000  -36.54600 4376.23780   45.28100   44.68800  158.70600   73.20800 4218.94820  109.00000   66.22000    0.04000 4274.35400    8.74000    3.91400    0.01100    2.61900    0.09900
 12429.00000  -36.54600 4362.99900   53.73100   60.07200  236.34300   57.58900 4215.20020  107.05900   64.54700    0.05200 4274.35400    8.74700    3.70600    0.01300    2.60400    0.06400
 12429.50000  -36.54700 4348.96680   62.18000   75.45700  266.55200   50.52400 4211.45210  104.71600   62.87300    0.01600 4274.35400    8.75400    3.48600    0.01600    2.59800    0.05300
 12430.00000  -36.54500 4336.63380   70.62900   90.84100  234.04200   47.32200 4207.70410  102.37300   61.20000    0.01800 4274.35400    8.76700    3.28200    0.01900    2.59100    0.03400
 12430.50000  -36.54600 4336.63380   77.12000  103.25300  198.98700   47.02300 4203.95610   99.80000   60.85800    0.02200 4274.35400    8.77600    3.04000    0.02000    2.58400    0.03100
 12431.00000  -36.45900 4336.63380   81.45700  107.08900  163.93200   48.87900 4200.20700  100.84500   61.25900    0.02500 4274.35400    8.78700    2.92300    0.01900    2.58200    0.03600
 12431.50000  -36.34000 4345.24800   80.20100  105.15300  111.06700   54.14000 4196.45900  103.18800   61.40000    0.02900 4274.35400    8.79800    3.03300    0.01800    2.58800    0.04100
 12432.00000  -36.22200 4357.52490   75.99100   98.80800  113.11100   58.14000 4192.71090  105.53100   61.17200    0.03300 4274.35400    8.80800    3.11000    0.01700    2.58400    0.04600
 12432.50000  -36.10500 4369.80180   71.78100   91.71900  105.19700   63.42200 4188.96290  107.87300   61.00000    0.03700 4274.35400    8.81900    3.19700    0.01500    2.56600    0.05000
 12433.00000  -35.98700 4376.23780   67.87700   84.63000   99.55400   62.10700 4185.21480  110.21600   61.40000    0.04100 4274.35400    8.82900    3.16500    0.01400    2.54900    0.05500
 12433.50000  -35.86900 4376.23780   65.44600   77.54100  109.94600   60.54000 4181.46680  110.83900   64.20400    0.04100 4271.44580    8.84000    3.09900    0.01500    2.53400    0.06000
 12434.00000  -35.75200 4376.23780   64.26300   70.45200  125.47100   54.26100 4186.16020  110.23700   66.83900    0.04100 4268.31490    8.85000    3.03400    0.01500    2.53800    0.06300
 12434.50000  -35.63400 4376.23780   59.12700   63.36400  143.37600   50.88500 4196.27980  109.63400   69.80000    0.04100 4265.18410    8.86100    2.96700    0.01500    2.54200    0.06200
 12435.00000  -35.51600 4376.23780   52.27000   56.56100  143.37600   46.87900 4206.39990  109.03200   70.60000    0.04200 4262.05320    8.87200    2.99000    0.01600    2.55700    0.06100
 12435.50000  -35.39900 4376.23780   46.92200   50.65000  109.06000   47.42300 4216.52000  108.60000   69.23200    0.04500 4258.92090    8.88200    3.04200    0.01600    2.56300    0.06100
 12436.00000  -35.28100 4376.23780   42.43400   44.96800   83.10500   52.65300 4220.00000  109.40000   67.22400    0.05400 4255.79000    8.89300    3.09800    0.01600    2.58700    0.06000
 12436.50000  -35.16300 4376.23780   37.94500   39.28600   58.66200   58.66200 4220.00000  112.06900   66.20000    0.06500 4252.65920    8.90200    3.24200    0.01400    2.61200    0.06000
 12437.00000  -35.04600 4376.23780   33.45600   33.60400   55.53900   65.68000 4220.00000  114.52400   66.60000    0.07800 4249.52780    8.91400    3.48500    0.01400    2.63300    0.07700
 12437.50000  -34.92800 4376.23780   28.96800   27.92300   50.70600   75.10900 4220.00000  116.97800   68.38900    0.09200 4246.39700    8.92400    3.80700    0.01200    2.63700    0.09900
 12438.00000  -34.81000 4376.23780   24.44300   25.33700   42.99500   86.46400 4260.00000  118.20000   70.95500    0.12000 4243.26510    8.94100    4.16400    0.01000    2.63900    0.12000
 12438.50000  -34.69300 4376.23780   24.89300   23.53400   34.49500  100.02800 4260.00000  115.91300   73.52000    0.14800 4240.13380    8.93400    4.51000    0.00900    2.63800    0.14600
