~Version ---------------------------------------------------
VERS.   2.0 : CWLS log ASCII Standard -VERSION 2.0
WRAP.    NO : One line per depth step
DLM . SPACE : Column Data Section Delimiter
~Well ------------------------------------------------------
STRT .F                4570.0 : START DEPTH
STOP .F               12750.0 : STOP DEPTH
STEP .F                   0.5 : STEP
NULL .               -9999.25 : NULL VALUE
COMP .                        : COMPANY
WELL .                        : WELL
FLD  .                        : FIELD
LOC  .                        : LOCATION
PROV .                        : PROVINCE
CNTY .                        : COUNTY
STAT .                        : STATE
CTRY .                        : COUNTRY
SRVC .                        : SERVICE COMPANY
DATE .                        : DATE
UWI  .                        : UNIQUE WELL ID
API  .                        : API NUMBER
SLAT .WGS84 5.969062416871402 : SURFACE LATITUDE
SLON .WGS84 4.150158925939607 : SURFACE LONGITUDE
DATUM.F               2071.38 : DEPTH DATUM ELEV
~Curve Information -----------------------------------------
DEPT.F     : 
SPR .MV    : SPONTANEOUS POTENTIAL
TENR.LBS   : TENSION FROM RESISTIVITY
ILD .OHMM  : DEEP INDUCTION RESISTIVITY
ILM .OHMM  : INDUCTION LOG MEDIUM RESISTIVITY
SFL .OHMM  : SHALLOW FOCUSED LOG RESISTIVITY
GRR .GAPI  : GAMMA RAY FROM RESISTIVITY
TENS.LBS   : TENSION
DTSM.US/F  : SHEAR-WAVE INTERVAL TRANSIT TIME DELTA-T
DTCO.US/F  : ACOUSTIC TRANSIT TIME SLOWNESS, DELTA T
NPHS.DEC   : NEUTRON POROSITY LIMESTONE FROM SONIC/NEUTRON LOG
TEND.LBS   : TENSION FROM DENSITY LOG
CALD.IN    : CALIPER FROM DENSITY LOG
PE  .B/E   : PHOTOELECTRIC FACTOR
DCOR.G/C3  : DENSITY CORRECTION
RHOB.G/C3  : BULK DENSITY
NPHI.DEC   : NEUTRON POROSITY LIMESTONE
~Params ----------------------------------------------------
~Other -----------------------------------------------------
~ASCII -----------------------------------------------------
# ...
 8655.00000  -65.25200 3302.89790    6.23300    6.26100    6.88900  106.89600   -9999.25   -9999.25   -9999.25   -9999.25 3263.83500   10.51700    4.40700    0.08600    2.58100    0.28900
 8655.50000  -65.27100 3301.09110    6.22900    6.28600    6.80200  105.67700   -9999.25   -9999.25   -9999.25   -9999.25 3262.52200   10.52300    4.54500    0.08500    2.58100    0.29400
 8656.00000  -65.28900 3299.28390    6.22400    6.31300    6.71400  104.38400   -9999.25   -9999.25   -9999.25   -9999.25 3261.20900   10.52900    4.67200    0.08500    2.58200    0.28800
 8656.50000  -65.30800 3297.47610    6.22400    6.33900    6.62600  106.22100   -9999.25   -9999.25   -9999.25   -9999.25 3259.89600   10.53400    4.52600    0.07800    2.59000    0.27300
 8657.00000  -65.32600 3295.66890    6.37400    6.22400    6.53800  105.49300   -9999.25   -9999.25   -9999.25   -9999.25 3258.58300   10.54200    4.35100    0.06300    2.60200    0.25800
 8657.50000  -65.34500 3293.86110    6.51500    6.43800    6.45600  102.64500   -9999.25   -9999.25   -9999.25   -9999.25 3257.26900   10.53300    4.15500    0.04900    2.61200    0.24400
 8658.00000  -65.36300 3292.05400    6.65700    6.56700    7.16900   94.05300   -9999.25   -9999.25   -9999.25   -9999.25 3255.95610   10.50800    4.05700    0.03400    2.62400    0.22900
 8658.50000  -65.38200 3290.24710    6.79900    6.69600    7.84300   92.17400   -9999.25   -9999.25   -9999.25   -9999.25 3254.64310   10.48600    4.16300    0.02200    2.63900    0.21200
 8659.00000  -65.40000 3288.43900    6.94100    6.82500    8.51400   92.26200   -9999.25   -9999.25   -9999.25   -9999.25 3253.33010   10.46300    4.25400    0.02000    2.64300    0.21200
 8659.50000  -65.41900 3286.63210    7.07200    6.94400    9.25100   92.27000   -9999.25   -9999.25   -9999.25   -9999.25 3252.01710   10.43800    4.32900    0.01900    2.63600    0.21700
 8660.00000  -65.43700 3284.82400    7.17400    6.94400    9.22000   95.18300   -9999.25   -9999.25   -9999.25   -9999.25 3250.70290   10.42400    4.24100    0.01800    2.62500    0.22200
 8660.50000  -65.45600 3283.01710    7.07300    6.90400    8.96400  100.50700   -9999.25   -9999.25   -9999.25   -9999.25 3249.38990   10.44000    4.12700    0.01700    2.61500    0.22700
 8661.00000  -65.46900 3281.21000    6.97100    6.82200    8.18300  105.65200   -9999.25   -9999.25   -9999.25   -9999.25 3248.07690   10.45500    4.00400    0.01500    2.60600    0.23200
 8661.50000  -65.49200 3279.40210    6.87000    6.74000    7.89000  110.53800   -9999.25   -9999.25   -9999.25   -9999.25 3246.76390   10.47100    3.90200    0.01400    2.60400    0.23300
 8662.00000  -65.51400 3277.59500    6.76900    6.65700    7.89000  108.75900   -9999.25   -9999.25   -9999.25   -9999.25 3245.45090   10.48700    3.76100    0.01100    2.60400    0.23500
 8662.50000  -65.53700 3275.78810    6.66700    6.57500    7.89000  106.87900   -9999.25   -9999.25   -9999.25   -9999.25 3244.13790   10.50300    3.90700    0.01700    2.59500    0.23800
 8663.00000  -65.56000 3273.98000    6.56600    6.49200    7.89000  103.37600   -9999.25   -9999.25   -9999.25   -9999.25 3242.82400   10.51900    4.22700    0.02800    2.58000    0.24300
 8663.50000  -65.58300 3272.17310    6.46400    6.41000    7.80900  104.21800   -9999.25   -9999.25   -9999.25   -9999.25 3241.51100   10.53500    4.49200    0.03700    2.56500    0.24700
 8664.00000  -65.60600 3270.36500    6.36300    6.32700    7.65900  104.13700   -9999.25   -9999.25   -9999.25   -9999.25 3240.19800   10.55000    4.78300    0.04700    2.55900    0.25200
 8664.50000  -65.62900 3268.55810    6.26200    6.24500    7.37700  106.23300   -9999.25   -9999.25   -9999.25   -9999.25 3238.88500   10.56600    5.05500    0.05700    2.55300    0.25600
 8665.00000  -65.65200 3268.34910    6.16000    6.16200    7.07200  106.41900   -9999.25   -9999.25   -9999.25   -9999.25 3237.57200   10.58200    5.33300    0.06700    2.54900    0.26100
 8665.50000  -65.67500 3271.55490    6.09600    6.08000    7.01300  106.89500   -9999.25   -9999.25   -9999.25   -9999.25 3236.25810   10.59700    5.28300    0.07200    2.55200    0.26200
 8666.00000  -65.69800 3274.76200    6.06500    5.99700    6.94400  106.01700   -9999.25   -9999.25   -9999.25   -9999.25 3234.94510   10.61400    5.09600    0.07300    2.55600    0.26300
 8666.50000  -65.72000 3277.96900    6.03300    5.91500    7.19100  105.78800   -9999.25   -9999.25   -9999.25   -9999.25 3233.63210   10.62900    4.91900    0.07400    2.55500    0.26300
 8667.00000  -65.74300 3281.17500    6.00200    5.86000    7.16800  106.63000   -9999.25   -9999.25   -9999.25   -9999.25 3232.31910   10.64600    4.85900    0.07800    2.56100    0.26300
 8667.50000  -65.76600 3284.38210    5.97100    5.81400    7.12100  109.74500   -9999.25   -9999.25   -9999.25   -9999.25 3231.00610   10.65800    5.01100    0.08600    2.56300    0.26900
 8668.00000  -65.78900 3287.58910    5.94000    5.76800    7.07200  112.18700   -9999.25   -9999.25   -9999.25   -9999.25 3229.69310   10.69700    4.95800    0.08600    2.55800    0.28000
 8668.50000  -65.81200 3290.79490    5.90900    5.72200    6.87600  110.54700   -9999.25   -9999.25   -9999.25   -9999.25 3228.37890   10.78000    4.86200    0.07800    2.54900    0.28600
 8669.00000  -65.83500 3294.00200    5.87800    5.67700    6.66700  106.38600   -9999.25   -9999.25   -9999.25   -9999.25 3227.72290   10.85500    4.77400    0.07300    2.53700    0.28700
 8669.50000  -65.85800 3297.20900    5.84600    5.63100    6.54700  103.19800   -9999.25   -9999.25   -9999.25   -9999.25 3306.93090   10.93200    4.68200    0.07400    2.54200    0.28800
 8670.00000  -65.88100 3300.41500    5.81500    5.58500    6.49700  100.12400   -9999.25   -9999.25   -9999.25   -9999.25 3267.32690   10.95000    4.65200    0.07600    2.54200    0.29000
 8670.50000  -65.90400 3303.62210    5.78400    5.54000    6.45600   97.82000   -9999.25   -9999.25   -9999.25   -9999.25 3267.32690   10.98300    4.65100    0.07700    2.53100    0.30000
 8671.00000  -65.92700 3306.93090    5.75300    5.49400    6.37000   97.54900   -9999.25   -9999.25   -9999.25   -9999.25 3267.32690   10.98400    4.68000    0.07700    2.52600    0.30000
 8671.50000  -65.95000 3306.93090    5.72200    5.44800    6.33900   98.25800   -9999.25   -9999.25   -9999.25   -9999.25 3267.32690   11.00100    4.72500    0.08000    2.52000    0.30000
 8672.00000  -65.97200 3306.93090    5.69100    5.40300    6.57400  100.33700   -9999.25   -9999.25   -9999.25   -9999.25 3267.32690   11.01300    4.77800    0.08200    2.52200    0.29900
 8672.50000  -65.99500 3306.93090    5.65900    5.35700    6.37500   98.62800   -9999.25   -9999.25   -9999.25   -9999.25 3267.32690   11.01900    4.80700    0.08500    2.52400    0.29900
 8673.00000  -66.01800 3306.93090    5.62800    5.31100    6.41100   98.44900   -9999.25   -9999.25   -9999.25   -9999.25 3267.32690   11.03000    4.78500    0.08300    2.52400    0.29900
 8673.50000  -66.04100 3306.93090    5.59700    5.26500    6.44800   99.70200   -9999.25   -9999.25   -9999.25   -9999.25 3267.32690   11.05400    4.77300    0.08100    2.52700    0.29900
 8674.00000  -66.06400 3306.93090    5.56600    5.22000    6.35800  101.07300   -9999.25   -9999.25   -9999.25   -9999.25 3267.32690   11.00300    4.82300    0.07800    2.52900    0.29900
 8674.50000  -66.08700 3306.93090    5.53500    5.17400    6.23500  102.96300   -9999.25   -9999.25   -9999.25   -9999.25 3267.32690   10.98200    4.85400    0.07800    2.52700    0.29900
 8675.00000  -66.11000 3306.93090    5.50400    5.12800    6.11200  103.99000   -9999.25   -9999.25   -9999.25   -9999.25 3267.32690   10.99900    4.85000    0.08200    2.51300    0.29900
 8675.50000  -66.13300 3306.93090    5.47200    5.08300    6.13000  103.99500   -9999.25   -9999.25   -9999.25   -9999.25 3267.32690   11.02300    4.85700    0.08600    2.50300    0.29900
 8676.00000  -66.15600 3306.93090    5.44100    5.03700    6.14700  101.63000   -9999.25   -9999.25   -9999.25   -9999.25 3267.32690   11.01800    4.96900    0.08900    2.49600    0.29900
