~Version ---------------------------------------------------
VERS.   2.0 : CWLS log ASCII Standard -VERSION 2.0
WRAP.    NO : One line per depth step
DLM . SPACE : Column Data Section Delimiter
~Well ------------------------------------------------------
STRT .F                4570.0 : START DEPTH
STOP .F               12750.0 : STOP DEPTH
STEP .F                   0.5 : STEP
NULL .               -9999.25 : NULL VALUE
COMP .                        : COMPANY
WELL .                        : WELL
FLD  .                        : FIELD
LOC  .                        : LOCATION
PROV .                        : PROVINCE
CNTY .                        : COUNTY
STAT .                        : STATE
CTRY .                        : COUNTRY
SRVC .                        : SERVICE COMPANY
DATE .                        : DATE
UWI  .                        : UNIQUE WELL ID
API  .                        : API NUMBER
SLAT .WGS84 5.969062416871402 : SURFACE LATITUDE
SLON .WGS84 4.150158925939607 : SURFACE LONGITUDE
DATUM.F               2071.38 : DEPTH DATUM ELEV
~Curve Information -----------------------------------------
DEPT.F     : 
SPR .MV    : SPONTANEOUS POTENTIAL
TENR.LBS   : TENSION FROM RESISTIVITY
ILD .OHMM  : DEEP INDUCTION RESISTIVITY
ILM .OHMM  : INDUCTION LOG MEDIUM RESISTIVITY
SFL .OHMM  : SHALLOW FOCUSED LOG RESISTIVITY
GRR .GAPI  : GAMMA RAY FROM RESISTIVITY
TENS.LBS   : TENSION
DTSM.US/F  : SHEAR-WAVE INTERVAL TRANSIT TIME DELTA-T
DTCO.US/F  : ACOUSTIC TRANSIT TIME SLOWNESS, DELTA T
NPHS.DEC   : NEUTRON POROSITY LIMESTONE FROM SONIC/NEUTRON LOG
TEND.LBS   : TENSION FROM DENSITY LOG
CALD.IN    : CALIPER FROM DENSITY LOG
PE  .B/E   : PHOTOELECTRIC FACTOR
DCOR.G/C3  : DENSITY CORRECTION
RHOB.G/C3  : BULK DENSITY
NPHI.DEC   : NEUTRON POROSITY LIMESTONE
~Params ----------------------------------------------------
~Other -----------------------------------------------------
~ASCII -----------------------------------------------------
# ...
 11450.00000  -23.04100 4075.11400    7.40400    7.32400    9.29700  108.68700   -9999.25   -9999.25   -9999.25   -9999.25 3964.80910   10.32800    3.95600    0.01300    2.66600    0.23000
 11450.50000  -22.91400 4077.82200    7.29100    7.26700    8.89800  112.09000   -9999.25   -9999.25   -9999.25   -9999.25 3956.26200   10.33500    3.94600    0.01200    2.65700    0.23800
 11451.00000  -23.03800 4080.53000    7.17800    7.20200    8.67000  115.05500   -9999.25   -9999.25   -9999.25   -9999.25 3961.27200   10.34100    3.94300    0.01300    2.66000    0.24700
 11451.50000  -23.32800 4083.23800    7.07200    7.20200    8.78200  114.29700   -9999.25   -9999.25   -9999.25   -9999.25 3966.26200   10.34800    3.91200    0.01400    2.67100    0.24800
 11452.00000  -23.59400 4085.94700    7.07200    7.33500    8.89500  111.10500   -9999.25   -9999.25   -9999.25   -9999.25 3971.25200   10.35500    3.88500    0.01500    2.67600    0.24700
 11452.50000  -23.85900 4088.65500    7.07200    7.33500    9.00800  110.61100   -9999.25   -9999.25   -9999.25   -9999.25 3976.24290   10.36200    3.85800    0.01600    2.68000    0.24600
 11453.00000  -24.12800 4091.36300    7.07200    7.56100    9.12900  110.85700   -9999.25   -9999.25   -9999.25   -9999.25 3981.23290   10.36800    3.83200    0.01600    2.67400    0.24400
 11453.50000  -24.39700 4094.07100    7.41200    7.85300    8.76500  113.07500   -9999.25   -9999.25   -9999.25   -9999.25 3986.22290   10.37500    3.80600    0.01600    2.65200    0.24300
 11454.00000  -24.66300 4096.77980    7.78100    8.14500    8.37000  115.58300   -9999.25   -9999.25   -9999.25   -9999.25 3991.21290   10.38200    3.77800    0.01600    2.63200    0.24300
 11454.50000  -24.92600 4099.00980    8.15000    8.43600    7.97500  116.16500   -9999.25   -9999.25   -9999.25   -9999.25 3996.02390   10.38900    3.75500    0.01600    2.61100    0.24300
 11455.00000  -25.21300 4090.67210    8.51800    8.72800    8.48700  113.86000   -9999.25   -9999.25   -9999.25   -9999.25 3985.42090   10.39500    3.72300    0.01600    2.60400    0.23100
 11455.50000  -25.20900 4080.04200    8.88700    9.01900   10.57300  107.35300   -9999.25   -9999.25   -9999.25   -9999.25 3968.78710   10.40400    3.71100    0.01600    2.61200    0.21300
 11456.00000  -25.00000 4069.41090    9.25600    9.31100   12.65800   99.75400   -9999.25   -9999.25   -9999.25   -9999.25 3952.15410   10.40700    3.64400    0.01600    2.62700    0.19400
 11456.50000  -24.81600 4058.78100    9.62500    9.64300   14.74400   94.35000   -9999.25   -9999.25   -9999.25   -9999.25 3935.52000   10.44200    3.65900    0.01700    2.64200    0.17600
 11457.00000  -24.63300 4048.14990   10.18500    9.82000   16.66600   90.40300   -9999.25   -9999.25   -9999.25   -9999.25 3916.50100   10.45300    3.71000    0.01700    2.65400    0.16300
 11457.50000  -24.44300 4037.52000   10.00100   10.00100   16.52800   89.49900   -9999.25   -9999.25   -9999.25   -9999.25 3923.36010   10.45600    3.75400    0.01800    2.65200    0.16700
 11458.00000  -24.25800 4026.88890    9.82000   10.00100   16.40000   91.33300   -9999.25   -9999.25   -9999.25   -9999.25 3938.33010   10.53100    3.79900    0.01900    2.64900    0.17400
 11458.50000  -24.07100 4019.80200    8.96400    9.56600   15.09400   96.16100   -9999.25   -9999.25   -9999.25   -9999.25 3953.30000   10.60000    3.84400    0.02500    2.62600    0.20000
 11459.00000  -23.88500 4028.33200    8.54500    8.96600   13.34300  102.59500   -9999.25   -9999.25   -9999.25   -9999.25 3968.27000   10.66800    3.88800    0.03200    2.59800    0.24200
 11459.50000  -23.69500 4043.86890    8.10000    8.36700   11.59300  108.44100   -9999.25   -9999.25   -9999.25   -9999.25 3983.24100   10.73500    3.93500    0.03800    2.57700    0.28400
 11460.00000  -23.48700 4059.40600    7.65500    7.76700   10.18500  115.36500   -9999.25   -9999.25   -9999.25   -9999.25 3998.21090   10.77500    3.97700    0.03300    2.56400    0.29800
 11460.50000  -23.27500 4074.94310    7.21000    7.16800    9.64300  117.82500   -9999.25   -9999.25   -9999.25   -9999.25 4013.18090   10.75000    3.96900    0.02700    2.57300    0.30000
 11461.00000  -23.06300 4090.48000    6.69500    6.94400    9.71400  115.47400   -9999.25   -9999.25   -9999.25   -9999.25 4028.15090   10.71600    3.82900    0.02100    2.61200    0.30000
 11461.50000  -22.85100 4094.21610    6.72000    6.96900    9.78500  110.06100   -9999.25   -9999.25   -9999.25   -9999.25 4006.44090   10.67900    3.78600    0.02100    2.63900    0.29900
 11462.00000  -22.63900 4083.58500    6.74800    6.99900    9.85500  107.82600   -9999.25   -9999.25   -9999.25   -9999.25 3946.56100   10.67300    3.83200    0.02200    2.64500    0.29800
 11462.50000  -22.42700 4072.95510    6.77700    7.02800    9.92500  110.18600   -9999.25   -9999.25   -9999.25   -9999.25 3916.50100   10.72700    3.77200    0.02500    2.62900    0.29700
 11463.00000  -22.21600 4062.32400    6.80500    7.05800   10.00100  114.23200   -9999.25   -9999.25   -9999.25   -9999.25 3956.26200   10.76000    3.62600    0.02300    2.61000    0.29000
 11463.50000  -22.00300 4051.69410    6.90300    7.20200   10.00100  118.46100   -9999.25   -9999.25   -9999.25   -9999.25 3959.23290   10.80900    3.57100    0.02300    2.60700    0.29000
 11464.00000  -21.79100 4041.06300    6.94400    7.20200    9.80800  119.62400   -9999.25   -9999.25   -9999.25   -9999.25 3965.10300   10.85200    3.68300    0.01800    2.60300    0.30000
 11464.50000  -21.58200 4030.43310    6.94400    7.20200    9.63800  121.48500   -9999.25   -9999.25   -9999.25   -9999.25 3970.97410   10.89900    3.81000    0.04300    2.59800    0.29900
 11465.00000  -21.36500 4019.80200    6.94400    7.17600    9.46800  118.60100   -9999.25   -9999.25   -9999.25   -9999.25 3976.84500   10.94400    3.90300    0.06200    2.59500    0.29900
 11465.50000  -21.25200 4048.65600    6.94400    7.15400    9.53600  116.17600   -9999.25   -9999.25   -9999.25   -9999.25 3982.71510   10.98800    4.00500    0.05300    2.59100    0.29900
 11466.00000  -21.14200 4077.51100    6.94400    7.13200    9.64300  113.34900   -9999.25   -9999.25   -9999.25   -9999.25 3988.58590   11.03700    4.10600    0.04800    2.57800    0.29900
 11466.50000  -21.02700 4099.00980    6.94400    7.11000    9.64300  110.72000   -9999.25   -9999.25   -9999.25   -9999.25 3994.45700   11.06200    4.20300    0.04000    2.57100    0.29800
 11467.00000  -20.90800 4099.00980    6.94400    7.08800    9.39400  113.20900   -9999.25   -9999.25   -9999.25   -9999.25 3977.73390   11.03500    4.30800    0.03800    2.57300    0.29800
 11467.50000  -20.79200 4089.93410    6.99200    7.07200    8.96400  116.26100   -9999.25   -9999.25   -9999.25   -9999.25 3952.78300   11.01100    4.30800    0.03400    2.59600    0.29800
 11468.00000  -20.67500 4081.51810    7.07200    7.07200    9.07200  114.57700   -9999.25   -9999.25   -9999.25   -9999.25 3927.83300   10.98500    4.18900    0.02800    2.62100    0.29800
 11468.50000  -20.55800 4073.10210    7.33500    7.20200    9.24800  109.87300   -9999.25   -9999.25   -9999.25   -9999.25 3916.50100   10.95900    4.07900    0.02200    2.63400    0.29700
 11469.00000  -20.44000 4064.68600    7.63600    7.20200    9.41200  105.67100   -9999.25   -9999.25   -9999.25   -9999.25 3926.46800   10.93400    3.96100    0.01700    2.63500    0.29100
 11469.50000  -20.32300 4059.40600    7.95500    7.41100    9.57500  104.52700   -9999.25   -9999.25   -9999.25   -9999.25 3939.77490   10.90800    3.85000    0.01200    2.63100    0.27700
 11470.00000  -20.20600 4064.35600    8.27500    7.97300   10.24400  107.86300   -9999.25   -9999.25   -9999.25   -9999.25 3953.08200   10.89700    3.73500    0.01200    2.63200    0.26400
 11470.50000  -20.08700 4072.77200    8.59500    8.53500   11.26600  108.12100   -9999.25   -9999.25   -9999.25   -9999.25 3966.38790   10.87800    3.69900    0.01500    2.64000    0.26000
 11471.00000  -19.97400 4081.18800    8.96400    8.96400   12.44800  107.45800   -9999.25   -9999.25   -9999.25   -9999.25 3979.69510   10.85000    3.71300    0.01900    2.64600    0.26200
