~Version ---------------------------------------------------
VERS.   2.0 : CWLS log ASCII Standard -VERSION 2.0
WRAP.    NO : One line per depth step
DLM . SPACE : Column Data Section Delimiter
~Well ------------------------------------------------------
STRT .F                4570.0 : START DEPTH
STOP .F               12750.0 : STOP DEPTH
STEP .F                   0.5 : STEP
NULL .               -9999.25 : NULL VALUE
COMP .                        : COMPANY
WELL .                        : WELL
FLD  .                        : FIELD
LOC  .                        : LOCATION
PROV .                        : PROVINCE
CNTY .                        : COUNTY
STAT .                        : STATE
CTRY .                        : COUNTRY
SRVC .                        : SERVICE COMPANY
DATE .                        : DATE
UWI  .                        : UNIQUE WELL ID
API  .                        : API NUMBER
SLAT .WGS84 5.969062416871402 : SURFACE LATITUDE
SLON .WGS84 4.150158925939607 : SURFACE LONGITUDE
DATUM.F               2071.38 : DEPTH DATUM ELEV
~Curve Information -----------------------------------------
DEPT.F     : 
SPR .MV    : SPONTANEOUS POTENTIAL
TENR.LBS   : TENSION FROM RESISTIVITY
ILD .OHMM  : DEEP INDUCTION RESISTIVITY
ILM .OHMM  : INDUCTION LOG MEDIUM RESISTIVITY
SFL .OHMM  : SHALLOW FOCUSED LOG RESISTIVITY
GRR .GAPI  : GAMMA RAY FROM RESISTIVITY
TENS.LBS   : TENSION
DTSM.US/F  : SHEAR-WAVE INTERVAL TRANSIT TIME DELTA-T
DTCO.US/F  : ACOUSTIC TRANSIT TIME SLOWNESS, DELTA T
NPHS.DEC   : NEUTRON POROSITY LIMESTONE FROM SONIC/NEUTRON LOG
TEND.LBS   : TENSION FROM DENSITY LOG
CALD.IN    : CALIPER FROM DENSITY LOG
PE  .B/E   : PHOTOELECTRIC FACTOR
DCOR.G/C3  : DENSITY CORRECTION
RHOB.G/C3  : BULK DENSITY
NPHI.DEC   : NEUTRON POROSITY LIMESTONE
~Params ----------------------------------------------------
~Other -----------------------------------------------------
~ASCII -----------------------------------------------------
# ...
 10439.50000  -41.55900 3897.38990   11.50600   11.80800   28.03700   75.39800   -9999.25   -9999.25   -9999.25   -9999.25 3859.86300    9.48900    3.50300    0.01400    2.61900    0.09900
 10440.00000  -40.80600 3883.88790   10.34700   10.65700   23.55700   84.47400   -9999.25   -9999.25   -9999.25   -9999.25 3848.43900    9.52200    3.58700    0.01600    2.62100    0.12500
 10440.50000  -40.06600 3870.38700    9.18800    9.50500   17.37000   98.82200   -9999.25   -9999.25   -9999.25   -9999.25 3837.01390    9.55500    3.67000    0.01700    2.62400    0.14600
 10441.00000  -39.32900 3856.88600    8.03000    8.35400    7.47000  110.23900   -9999.25   -9999.25   -9999.25   -9999.25 3825.59010    9.58800    3.76300    0.01600    2.62700    0.16600
 10441.50000  -38.58700 3843.38400    7.24700    7.20200    7.53900  116.57600   -9999.25   -9999.25   -9999.25   -9999.25 3814.16600    9.62100    3.79100    0.01400    2.63800    0.18800
 10442.00000  -37.78500 3829.88310    7.02700    7.00000    8.45200  116.71100   -9999.25   -9999.25   -9999.25   -9999.25 3802.74190    9.65400    3.82400    0.01400    2.65200    0.18900
 10442.50000  -37.31000 3821.78200    6.80700    6.88000    9.74100  110.81500   -9999.25   -9999.25   -9999.25   -9999.25 3791.31810    9.68800    3.77100    0.01200    2.66600    0.18300
 10443.00000  -37.29900 3821.78200    6.58800    6.76000   10.37200  105.44400   -9999.25   -9999.25   -9999.25   -9999.25 3782.17800    9.72000    3.66100    0.00900    2.66200    0.17600
 10443.50000  -37.15800 3826.18310    6.43600    6.64000    9.68100  103.40000   -9999.25   -9999.25   -9999.25   -9999.25 3786.83790    9.73500    3.55300    0.00600    2.65400    0.17700
 10444.00000  -37.03300 3837.18410    6.38800    6.52000    8.81700  105.70400   -9999.25   -9999.25   -9999.25   -9999.25 3798.48610    9.76800    3.51300    0.00400    2.64600    0.18100
 10444.50000  -36.91900 3848.18510    6.33900    6.40000    7.95300  109.93500   -9999.25   -9999.25   -9999.25   -9999.25 3810.13400    9.76600    3.58200    0.00100    2.63900    0.18500
 10445.00000  -36.79200 3861.38600    6.33900    6.28000    7.47000  108.86800   -9999.25   -9999.25   -9999.25   -9999.25 3821.78200    9.77200    3.63900    0.00000    2.64000    0.18700
 10445.50000  -36.67200 3861.38600    6.22400    6.16000    7.75500  103.95200   -9999.25   -9999.25   -9999.25   -9999.25 3833.42990    9.77300    3.70400    0.00800    2.64100    0.18900
 10446.00000  -36.55000 3881.18800    6.06800    6.11200    8.18300  102.34600   -9999.25   -9999.25   -9999.25   -9999.25 3845.07910    9.77800    3.76200    0.01400    2.64300    0.18900
 10446.50000  -36.42700 3900.99000    5.91100    5.93000    8.15000  103.88400   -9999.25   -9999.25   -9999.25   -9999.25 3856.72710    9.78000    3.83300    0.01600    2.64500    0.19200
 10447.00000  -36.30600 3898.54000    5.75500    5.77900    8.10900  108.09400   -9999.25   -9999.25   -9999.25   -9999.25 3861.38600    9.78400    3.87800    0.01500    2.64900    0.19600
 10447.50000  -36.18100 3894.45610    5.59800    5.62700    8.06800  111.97200   -9999.25   -9999.25   -9999.25   -9999.25 3861.38600    9.78700    3.93200    0.01500    2.65300    0.19600
 10448.00000  -36.06100 3890.37210    5.44100    5.47600    8.03500  113.18500   -9999.25   -9999.25   -9999.25   -9999.25 3861.38600    9.79000    3.98900    0.01500    2.65300    0.19600
 10448.50000  -35.94100 3886.28810    5.28500    5.32400    7.46100  115.28400   -9999.25   -9999.25   -9999.25   -9999.25 3861.38600    9.79300    4.04300    0.01500    2.64400    0.19700
 10449.00000  -35.80200 3882.20410    5.12800    5.17300    6.98300  115.25400   -9999.25   -9999.25   -9999.25   -9999.25 3858.08590    9.79600    4.10500    0.01800    2.63600    0.20800
 10449.50000  -35.81900 3878.12010    4.97100    5.02100    6.61100  114.06700   -9999.25   -9999.25   -9999.25   -9999.25 3852.58500    9.80000    4.18200    0.02100    2.63400    0.22000
 10450.00000  -36.06400 3874.03710    4.81500    4.87000    6.40100  112.26700   -9999.25   -9999.25   -9999.25   -9999.25 3847.08500    9.80100    4.18900    0.02400    2.63600    0.23100
 10450.50000  -36.27500 3869.95290    4.65800    4.71900    6.19100  110.45100   -9999.25   -9999.25   -9999.25   -9999.25 3841.58400    9.81200    4.29300    0.02800    2.62300    0.24200
 10451.00000  -36.52600 3865.86890    4.50100    4.56700    6.05400  108.64600   -9999.25   -9999.25   -9999.25   -9999.25 3836.08400    9.86400    4.42700    0.04300    2.58500    0.24600
 10451.50000  -36.54400 3861.78490    4.34500    4.41600    5.96200  107.06800   -9999.25   -9999.25   -9999.25   -9999.25 3830.58300   10.01200    4.56400    0.06100    2.56600    0.25000
 10452.00000  -36.55000 3857.70090    4.16700    4.24400    5.47800  106.50000   -9999.25   -9999.25   -9999.25   -9999.25 3825.08300   10.15100    4.69300    0.08400    2.55500    0.25300
 10452.50000  -36.54500 3853.61690    4.16700    4.24400    5.50600  107.03400   -9999.25   -9999.25   -9999.25   -9999.25 3821.78200   10.29300    4.82400    0.07600    2.54900    0.25200
 10453.00000  -36.54700 3849.53300    4.15700    4.24100    5.56300  108.02400   -9999.25   -9999.25   -9999.25   -9999.25 3821.78200   10.39600    4.71800    0.05300    2.55600    0.25100
 10453.50000  -36.54700 3845.44900    4.14200    4.22900    5.62000  107.48600   -9999.25   -9999.25   -9999.25   -9999.25 3821.78200   10.28300    4.51800    0.04800    2.56800    0.25200
 10454.00000  -36.54600 3841.36500    4.12600    4.21800    5.68200  106.61700   -9999.25   -9999.25   -9999.25   -9999.25 3821.78200   10.16700    4.46400    0.04800    2.57900    0.25200
 10454.50000  -36.54600 3837.28200    4.11100    4.20600    5.44400  106.99700   -9999.25   -9999.25   -9999.25   -9999.25 3821.78200   10.16200    4.58800    0.05900    2.58800    0.25000
 10455.00000  -36.54600 3833.19800    4.09600    4.19500    5.33900  109.42900   -9999.25   -9999.25   -9999.25   -9999.25 3821.78200   10.17900    4.66400    0.06600    2.56200    0.24700
 10455.50000  -36.54600 3829.11400    4.08100    4.18400    5.28400  112.04300   -9999.25   -9999.25   -9999.25   -9999.25 3821.78200   10.31500    4.58100    0.06600    2.54900    0.24800
 10456.00000  -36.54600 3825.03000    4.06600    4.17200    5.23000  114.94700   -9999.25   -9999.25   -9999.25   -9999.25 3821.78200   10.45400    4.51000    0.06600    2.54300    0.25400
 10456.50000  -36.54600 3825.21510    4.05100    4.16100    5.18900  115.01900   -9999.25   -9999.25   -9999.25   -9999.25 3821.78200   10.49900    4.43200    0.08200    2.55700    0.26500
 10457.00000  -36.54600 3841.98000    4.03600    4.15000    5.19800  112.54900   -9999.25   -9999.25   -9999.25   -9999.25 3821.78200   10.39600    4.35700    0.08800    2.57200    0.27600
 10457.50000  -36.54700 3858.74610    4.01900    4.13800    5.20700  112.09500   -9999.25   -9999.25   -9999.25   -9999.25 3831.68310   10.31800    4.27900    0.08100    2.58600    0.28100
 10458.00000  -36.54600 3875.51200    4.07200    4.12700    5.21700  113.92500   -9999.25   -9999.25   -9999.25   -9999.25 3839.93410   10.31100    4.25400    0.07600    2.59700    0.27100
 10458.50000  -36.54500 3892.27710    4.09300    4.10700    5.22600  116.10900   -9999.25   -9999.25   -9999.25   -9999.25 3848.18510   10.72300    4.36200    0.07000    2.60300    0.26300
 10459.00000  -36.55100 3900.99000    4.09100    4.10900    5.23500  116.88500   -9999.25   -9999.25   -9999.25   -9999.25 3856.43600   10.79900    4.50400    0.06400    2.60000    0.25500
 10459.50000  -36.49900 3900.99000    4.09200    4.09400    5.24400  113.47700   -9999.25   -9999.25   -9999.25   -9999.25 3861.38600   10.64100    4.45600    0.05800    2.59600    0.24600
 10460.00000  -36.40900 3900.99000    4.12200    4.18400    5.25400  110.09200   -9999.25   -9999.25   -9999.25   -9999.25 3821.78200   10.50000    4.41900    0.05300    2.58700    0.24700
 10460.50000  -36.32400 3900.99000    4.15500    4.20500    5.26300  107.97600   -9999.25   -9999.25   -9999.25   -9999.25 3821.78200   10.58900    4.38400    0.04700    2.58700    0.24900
