~Version ---------------------------------------------------
VERS.   2.0 : CWLS log ASCII Standard -VERSION 2.0
WRAP.    NO : One line per depth step
DLM . SPACE : Column Data Section Delimiter
~Well ------------------------------------------------------
STRT .F                4570.0 : START DEPTH
STOP .F               12750.0 : STOP DEPTH
STEP .F                   0.5 : STEP
NULL .               -9999.25 : NULL VALUE
COMP .                        : COMPANY
WELL .                        : WELL
FLD  .                        : FIELD
LOC  .                        : LOCATION
PROV .                        : PROVINCE
CNTY .                        : COUNTY
STAT .                        : STATE
CTRY .                        : COUNTRY
SRVC .                        : SERVICE COMPANY
DATE .                        : DATE
UWI  .                        : UNIQUE WELL ID
API  .                        : API NUMBER
SLAT .WGS84 5.969062416871402 : SURFACE LATITUDE
SLON .WGS84 4.150158925939607 : SURFACE LONGITUDE
DATUM.F               2071.38 : DEPTH DATUM ELEV
~Curve Information -----------------------------------------
DEPT.F     : 
SPR .MV    : SPONTANEOUS POTENTIAL
TENR.LBS   : TENSION FROM RESISTIVITY
ILD .OHMM  : DEEP INDUCTION RESISTIVITY
ILM .OHMM  : INDUCTION LOG MEDIUM RESISTIVITY
SFL .OHMM  : SHALLOW FOCUSED LOG RESISTIVITY
GRR .GAPI  : GAMMA RAY FROM RESISTIVITY
TENS.LBS   : TENSION
DTSM.US/F  : SHEAR-WAVE INTERVAL TRANSIT TIME DELTA-T
DTCO.US/F  : ACOUSTIC TRANSIT TIME SLOWNESS, DELTA T
NPHS.DEC   : NEUTRON POROSITY LIMESTONE FROM SONIC/NEUTRON LOG
TEND.LBS   : TENSION FROM DENSITY LOG
CALD.IN    : CALIPER FROM DENSITY LOG
PE  .B/E   : PHOTOELECTRIC FACTOR
DCOR.G/C3  : DENSITY CORRECTION
RHOB.G/C3  : BULK DENSITY
NPHI.DEC   : NEUTRON POROSITY LIMESTONE
~Params ----------------------------------------------------
~Other -----------------------------------------------------
~ASCII -----------------------------------------------------
# ...
 10267.50000  -43.19600 3742.57400    5.32500    5.42300    6.44200  113.19500   -9999.25   -9999.25   -9999.25   -9999.25 3742.57400    9.36300    3.83000    0.01000    2.60600    0.21500
 10268.00000  -43.17900 3742.57400    5.28200    5.35600    7.41400  111.86400   -9999.25   -9999.25   -9999.25   -9999.25 3717.82200    9.36700    3.84900    0.00900    2.60100    0.21900
 10268.50000  -43.16200 3742.57400    5.28200    5.28200    8.48700  110.69200   -9999.25   -9999.25   -9999.25   -9999.25 3702.97000    9.36700    3.87300    0.00800    2.59500    0.22000
 10269.00000  -43.14400 3742.57400    5.37900    5.37900    8.64300  111.62500   -9999.25   -9999.25   -9999.25   -9999.25 3742.57400    9.36600    3.90100    0.00800    2.58800    0.22000
 10269.50000  -43.12700 3742.57400    5.47800    5.57400    8.49700  110.09900   -9999.25   -9999.25   -9999.25   -9999.25 3813.86110    9.36700    3.89200    0.00900    2.58800    0.21800
 10270.00000  -43.11000 3742.57400    5.72100    5.88200    8.02600  108.40200   -9999.25   -9999.25   -9999.25   -9999.25 3861.38600    9.36700    3.85200    0.00900    2.59100    0.21600
 10270.50000  -43.09300 3728.15800    6.22400    6.18900    7.33500  106.65700   -9999.25   -9999.25   -9999.25   -9999.25 3792.07910    9.36700    3.83000    0.00800    2.59600    0.21300
 10271.00000  -43.07500 3708.19800    6.22400    6.45600    7.42500  106.50400   -9999.25   -9999.25   -9999.25   -9999.25 3702.97000    9.36700    3.83200    0.00700    2.59700    0.21100
 10271.50000  -43.05800 3688.23800    6.22400    6.45600    8.02600  108.76800   -9999.25   -9999.25   -9999.25   -9999.25 3702.97000    9.36700    3.86500    0.00600    2.59400    0.21100
 10272.00000  -43.04100 3668.27710    6.27000    6.45600    8.77900  108.07700   -9999.25   -9999.25   -9999.25   -9999.25 3750.49510    9.36700    3.89800    0.00500    2.58900    0.21200
 10272.50000  -43.02400 3681.18800    6.31800    6.45600    8.64300  106.17000   -9999.25   -9999.25   -9999.25   -9999.25 3829.70290    9.36700    3.91100    0.00400    2.58200    0.21300
 10273.00000  -43.00400 3731.08910    6.45600    6.45600    8.96400  106.72500   -9999.25   -9999.25   -9999.25   -9999.25 3841.58400    9.36700    3.89800    0.00300    2.57600    0.21600
 10273.50000  -42.99000 3742.57400    6.92200    7.15100    7.60700  111.45500   -9999.25   -9999.25   -9999.25   -9999.25 3808.58110    9.36700    3.87300    0.00300    2.57300    0.21600
 10274.00000  -42.97900 3721.69700    7.52700    7.74600    7.70900  116.16700   -9999.25   -9999.25   -9999.25   -9999.25 3775.57790    9.36700    3.85400    0.00200    2.57100    0.21600
 10274.50000  -43.10600 3700.31100    8.13300    8.34200    8.32100  119.35000   -9999.25   -9999.25   -9999.25   -9999.25 3742.57400    9.36700    3.82100    0.00000    2.57100    0.21500
 10275.00000  -43.23700 3678.92500    8.73900    8.93700    9.05200  116.80000   -9999.25   -9999.25   -9999.25   -9999.25 3709.57100    9.36700    3.78600   -0.00100    2.57800    0.21800
 10275.50000  -43.37400 3657.53910    9.34400    9.53300    9.78300  111.54700   -9999.25   -9999.25   -9999.25   -9999.25 3676.56810    9.36700    3.79900   -0.00200    2.58300    0.22200
 10276.00000  -43.50800 3636.15310    9.84500    9.99700   10.51400  108.29500   -9999.25   -9999.25   -9999.25   -9999.25 3663.36600    9.36700    3.88200   -0.00200    2.59000    0.22400
 10276.50000  -43.64300 3623.76200    9.96000    9.98000   11.24400  104.18200   -9999.25   -9999.25   -9999.25   -9999.25 3584.15800    9.36700    3.97800    0.00000    2.59800    0.22300
 10277.00000  -43.77700 3623.76200   10.07500    9.96200   11.97500  102.38200   -9999.25   -9999.25   -9999.25   -9999.25 3603.96000    9.36700    4.06600    0.00200    2.60500    0.22100
 10277.50000  -43.91200 3663.36600   10.18500    9.94500   12.67700  101.44800   -9999.25   -9999.25   -9999.25   -9999.25 3801.98000    9.36700    4.16700    0.00300    2.59800    0.21900
 10278.00000  -44.04600 3870.89110   10.16200    9.92700   12.50000  104.65200   -9999.25   -9999.25   -9999.25   -9999.25 3980.19800    9.36700    4.24400    0.00400    2.57400    0.21700
 10278.50000  -44.18000 4059.40600   10.12600    9.91000   12.33000  111.34100   -9999.25   -9999.25   -9999.25   -9999.25 4019.80200    9.36700    4.24900    0.00300    2.55300    0.22100
 10279.00000  -44.31600 4010.24390   10.09100    9.89200   12.16000  116.22100   -9999.25   -9999.25   -9999.25   -9999.25 3986.79910    9.36700    4.09400    0.00100    2.54500    0.22900
 10279.50000  -44.44900 3963.66990   10.05500    9.87500   12.00200  117.14300   -9999.25   -9999.25   -9999.25   -9999.25 3953.79490    9.36700    3.92000    0.00000    2.53400    0.23600
 10280.00000  -44.57400 3917.09590   10.01900    9.85700   12.28300  118.15800   -9999.25   -9999.25   -9999.25   -9999.25 3920.79200    9.36700    3.82700   -0.00100    2.53000    0.24400
 10280.50000  -44.60600 3870.52100   10.00100    9.83900   13.29400  120.87600   -9999.25   -9999.25   -9999.25   -9999.25 3887.78910    9.36700    3.86700    0.00000    2.52500    0.24400
 10281.00000  -44.63500 3823.94700   10.00100    9.82000   14.30600  123.56800   -9999.25   -9999.25   -9999.25   -9999.25 3854.78490    9.36700    3.88300    0.00100    2.52100    0.24300
 10281.50000  -44.66100 3782.17800    9.82000    9.46800   15.21300  125.74800   -9999.25   -9999.25   -9999.25   -9999.25 3821.78200    9.36700    3.91100    0.00200    2.50800    0.24400
 10282.00000  -44.68900 3782.17800    8.88300    9.10400   15.21300  132.17900   -9999.25   -9999.25   -9999.25   -9999.25 3788.77910    9.36700    3.93300    0.00600    2.49700    0.26100
 10282.50000  -44.71600 3782.17800    8.03300    8.47900   13.37000  144.97700   -9999.25   -9999.25   -9999.25   -9999.25 3755.77590    9.36600    3.95800    0.02200    2.48700    0.27500
 10283.00000  -44.74300 3782.17800    7.18400    7.85500   11.87300  151.34100   -9999.25   -9999.25   -9999.25   -9999.25 3747.74000    9.36700    3.98200    0.03900    2.49500    0.28900
 10283.50000  -44.77000 3782.17800    6.33400    7.23000   10.37600  152.60400   -9999.25   -9999.25   -9999.25   -9999.25 3756.35010    9.36600    4.00600    0.04800    2.50200    0.29900
 10284.00000  -44.79700 3782.17800    5.99500    6.60500    8.87900  153.82600   -9999.25   -9999.25   -9999.25   -9999.25 3764.95900    9.36700    4.02700    0.04700    2.51400    0.29600
 10284.50000  -44.82500 3782.17800    5.83700    5.98100    7.60700  132.92500   -9999.25   -9999.25   -9999.25   -9999.25 3773.56910    9.36700    4.02300    0.01600    2.53100    0.29000
 10285.00000  -44.85200 3782.17800    5.68000    5.52400    7.32000  118.68500   -9999.25   -9999.25   -9999.25   -9999.25 3782.17800    9.37400    4.01400    0.00700    2.54500    0.27400
 10285.50000  -44.87900 3782.17800    5.52200    5.36900    6.98100  107.97000   -9999.25   -9999.25   -9999.25   -9999.25 3790.78810    9.38500    4.00700    0.01200    2.56500    0.25600
 10286.00000  -44.90600 3782.17800    5.36400    5.21500    6.94400   98.93800   -9999.25   -9999.25   -9999.25   -9999.25 3799.39700    9.39600    4.00000    0.01300    2.60100    0.24000
 10286.50000  -44.93400 3782.17800    5.20600    5.06000    7.33900   92.08700   -9999.25   -9999.25   -9999.25   -9999.25 3808.00710    9.40600    3.98900    0.00600    2.63100    0.23000
 10287.00000  -44.96100 3782.17800    5.04800    4.90500    7.74700   92.79600   -9999.25   -9999.25   -9999.25   -9999.25 3816.61600    9.41700    3.99700    0.00300    2.62700    0.22000
 10287.50000  -44.98800 3782.17800    4.89000    4.75000    6.97500   99.12200   -9999.25   -9999.25   -9999.25   -9999.25 3821.78200    9.42700    4.06700    0.00700    2.61200    0.21500
 10288.00000  -45.01500 3777.42600    4.73200    4.59600    6.19600  105.49700   -9999.25   -9999.25   -9999.25   -9999.25 3805.28100    9.43800    4.13900    0.00800    2.60100    0.22000
 10288.50000  -45.04300 3765.68410    4.57400    4.44100    5.57900  109.54500   -9999.25   -9999.25   -9999.25   -9999.25 3788.77910    9.44400    4.15800    0.04500    2.59900    0.22700
