~Version ---------------------------------------------------
VERS.   2.0 : CWLS log ASCII Standard -VERSION 2.0
WRAP.    NO : One line per depth step
DLM . SPACE : Column Data Section Delimiter
~Well ------------------------------------------------------
STRT .F                4570.0 : START DEPTH
STOP .F               12750.0 : STOP DEPTH
STEP .F                   0.5 : STEP
NULL .               -9999.25 : NULL VALUE
COMP .                        : COMPANY
WELL .                        : WELL
FLD  .                        : FIELD
LOC  .                        : LOCATION
PROV .                        : PROVINCE
CNTY .                        : COUNTY
STAT .                        : STATE
CTRY .                        : COUNTRY
SRVC .                        : SERVICE COMPANY
DATE .                        : DATE
UWI  .                        : UNIQUE WELL ID
API  .                        : API NUMBER
SLAT .WGS84 5.969062416871402 : SURFACE LATITUDE
SLON .WGS84 4.150158925939607 : SURFACE LONGITUDE
DATUM.F               2071.38 : DEPTH DATUM ELEV
~Curve Information -----------------------------------------
DEPT.F     : 
SPR .MV    : SPONTANEOUS POTENTIAL
TENR.LBS   : TENSION FROM RESISTIVITY
ILD .OHMM  : DEEP INDUCTION RESISTIVITY
ILM .OHMM  : INDUCTION LOG MEDIUM RESISTIVITY
SFL .OHMM  : SHALLOW FOCUSED LOG RESISTIVITY
GRR .GAPI  : GAMMA RAY FROM RESISTIVITY
TENS.LBS   : TENSION
DTSM.US/F  : SHEAR-WAVE INTERVAL TRANSIT TIME DELTA-T
DTCO.US/F  : ACOUSTIC TRANSIT TIME SLOWNESS, DELTA T
NPHS.DEC   : NEUTRON POROSITY LIMESTONE FROM SONIC/NEUTRON LOG
TEND.LBS   : TENSION FROM DENSITY LOG
CALD.IN    : CALIPER FROM DENSITY LOG
PE  .B/E   : PHOTOELECTRIC FACTOR
DCOR.G/C3  : DENSITY CORRECTION
RHOB.G/C3  : BULK DENSITY
NPHI.DEC   : NEUTRON POROSITY LIMESTONE
~Params ----------------------------------------------------
~Other -----------------------------------------------------
~ASCII -----------------------------------------------------
# ...
 11600.50000  -21.17000 4099.00980   15.43600   15.38900   17.49500   86.67500   -9999.25   -9999.25   -9999.25   -9999.25 4055.71510   10.67600    3.58200    0.01500    2.64700    0.16800
 11601.00000  -21.35600 4099.00980   15.29500   15.25800   17.01500   84.43200   -9999.25   -9999.25   -9999.25   -9999.25 4039.13400   10.67900    3.58200    0.01500    2.63900    0.17100
 11601.50000  -21.46700 4099.00980   15.15400   15.12800   16.53600   87.13000   -9999.25   -9999.25   -9999.25   -9999.25 4022.55300   10.68100    3.55900    0.01600    2.63600    0.17500
 11602.00000  -21.57900 4119.33980   15.01300   14.99800   16.05700   91.32300   -9999.25   -9999.25   -9999.25   -9999.25 4005.97190   10.68400    3.54500    0.01600    2.63600    0.18100
 11602.50000  -21.69200 4138.61380   14.87100   14.86700   15.77800   92.27700   -9999.25   -9999.25   -9999.25   -9999.25 3996.02390   10.68600    3.54400    0.01700    2.63200    0.18100
 11603.00000  -21.80400 4138.61380   14.73000   14.73700   15.91700   90.96100   -9999.25   -9999.25   -9999.25   -9999.25 4031.80910   10.68900    3.55200    0.01500    2.62500    0.18200
 11603.50000  -21.91600 4138.61380   14.58900   14.60700   16.13900   87.84000   -9999.25   -9999.25   -9999.25   -9999.25 4091.45090   10.69200    3.58000    0.01400    2.62100    0.18200
 11604.00000  -22.03200 4132.35600   14.44800   14.47600   16.36200   85.63000   -9999.25   -9999.25   -9999.25   -9999.25 4155.06980   10.69400    3.61000    0.01500    2.62300    0.18300
 11604.50000  -22.11800 4122.41600   14.30700   14.34600   16.66600   86.15600   -9999.25   -9999.25   -9999.25   -9999.25 4155.06980   10.69700    3.62600    0.01400    2.62600    0.18400
 11605.00000  -22.17000 4112.47510   14.14300   14.21500   16.37500   88.38200   -9999.25   -9999.25   -9999.25   -9999.25 4155.06980   10.69900    3.61400    0.01600    2.62900    0.18300
 11605.50000  -22.22700 4102.53520   14.14300   14.14300   15.91900   90.62900   -9999.25   -9999.25   -9999.25   -9999.25 4115.30810   10.70200    3.58900    0.01600    2.62900    0.18300
 11606.00000  -22.28400 4117.34080   14.12800   14.14300   15.46400   91.53700   -9999.25   -9999.25   -9999.25   -9999.25 4115.30810   10.70500    3.55500    0.01800    2.62800    0.18200
 11606.50000  -22.34000 4145.74320   14.10500   14.14300   15.21300   92.18300   -9999.25   -9999.25   -9999.25   -9999.25 4115.30810   10.70700    3.55300    0.01800    2.62800    0.18200
 11607.00000  -22.39600 4178.21780   14.08200   14.14300   15.21300   92.33400   -9999.25   -9999.25   -9999.25   -9999.25 4115.30810   10.71000    3.58700    0.01800    2.62700    0.18200
 11607.50000  -22.45200 4178.21780   14.05900   14.14300   15.21300   90.64900   -9999.25   -9999.25   -9999.25   -9999.25 4115.30810   10.71200    3.59600    0.01900    2.62600    0.18200
 11608.00000  -22.50800 4176.35110   14.03600   14.14300   15.27500   87.99400   -9999.25   -9999.25   -9999.25   -9999.25 4115.30810   10.71500    3.62800    0.01900    2.62600    0.18300
 11608.50000  -22.56400 4169.25000   14.01400   14.14300   15.33400   85.83600   -9999.25   -9999.25   -9999.25   -9999.25 4115.30810   10.71800    3.65600    0.02000    2.62500    0.18400
 11609.00000  -22.62100 4162.14990   13.99100   14.14300   15.39200   87.18500   -9999.25   -9999.25   -9999.25   -9999.25 4115.30810   10.72000    3.64600    0.02000    2.62500    0.18900
 11609.50000  -22.67700 4155.04980   13.96800   14.14300   15.45100   91.23500   -9999.25   -9999.25   -9999.25   -9999.25 4115.30810   10.72300    3.58700    0.02100    2.62400    0.18900
 11610.00000  -22.73300 4147.94920   13.94500   14.14300   15.49300   95.26000   -9999.25   -9999.25   -9999.25   -9999.25 4099.04200   10.72500    3.53500    0.02200    2.62300    0.19000
 11610.50000  -22.78900 4140.84910   13.92200   14.14300   14.31000   99.08900   -9999.25   -9999.25   -9999.25   -9999.25 4071.93190   10.72800    3.47200    0.02100    2.62500    0.19400
 11611.00000  -22.84600 4133.74800   13.89800   14.14300   13.88700  103.09000   -9999.25   -9999.25   -9999.25   -9999.25 4044.82200   10.73100    3.46800    0.02000    2.62800    0.20200
 11611.50000  -22.90200 4126.64790   13.88700   14.14300   14.58200  100.08000   -9999.25   -9999.25   -9999.25   -9999.25 4017.71190   10.73300    3.51400    0.01800    2.62800    0.20800
 11612.00000  -22.95800 4119.54690   13.88800   14.14300   15.36400   93.76200   -9999.25   -9999.25   -9999.25   -9999.25 3956.26200   10.73600    3.56400    0.01700    2.62500    0.20600
 11612.50000  -23.01400 4112.44680   13.95200   14.14300   16.06900   87.38600   -9999.25   -9999.25   -9999.25   -9999.25 3916.50100   10.72900    3.61400    0.01500    2.62600    0.20300
 11613.00000  -23.07100 4105.34720   14.02500   14.14300   16.17100   84.25400   -9999.25   -9999.25   -9999.25   -9999.25 4115.30810   10.71500    3.66300    0.01500    2.62800    0.19900
 11613.50000  -23.12700 4099.00980   14.13900   14.14200   16.26400   86.45700   -9999.25   -9999.25   -9999.25   -9999.25 4088.80100   10.70300    3.71700    0.01700    2.63200    0.19700
 11614.00000  -23.18300 4099.00980   14.12700   14.14100   16.36400   88.21600   -9999.25   -9999.25   -9999.25   -9999.25 4055.66600   10.69000    3.74600    0.01900    2.63700    0.19700
 11614.50000  -23.23900 4098.17190   14.06200   14.09000   16.12500   92.77200   -9999.25   -9999.25   -9999.25   -9999.25 3996.02390   10.67700    3.73900    0.02000    2.63500    0.19400
 11615.00000  -23.29700 4096.54300   13.99800   14.03300   15.86200   93.60400   -9999.25   -9999.25   -9999.25   -9999.25 4007.20700   10.66400    3.72100    0.02200    2.63200    0.19100
 11615.50000  -23.35100 4094.91310   13.93500   13.97500   15.59900   91.30700   -9999.25   -9999.25   -9999.25   -9999.25 4025.84500   10.65100    3.70200    0.02400    2.62900    0.18700
 11616.00000  -23.40900 4093.28390   13.87300   13.91800   15.21300   89.82600   -9999.25   -9999.25   -9999.25   -9999.25 4044.48290   10.63900    3.68400    0.02500    2.62500    0.19000
 11616.50000  -23.47000 4091.65410   13.81000   13.86000   15.26000   88.75400   -9999.25   -9999.25   -9999.25   -9999.25 4063.12110   10.62600    3.66500    0.02700    2.62800    0.19700
 11617.00000  -23.50600 4090.02390   13.74800   13.80300   15.34800   87.71600   -9999.25   -9999.25   -9999.25   -9999.25 4081.75900   10.61300    3.66300    0.02800    2.64000    0.20300
 11617.50000  -23.59900 4088.39500   13.68500   13.74500   15.49300   87.00900   -9999.25   -9999.25   -9999.25   -9999.25 4100.39790   10.60000    3.66300    0.02800    2.64000    0.20400
 11618.00000  -23.62800 4086.76490   13.62300   13.68800   15.46800   87.78900   -9999.25   -9999.25   -9999.25   -9999.25 4115.30810   10.58700    3.66300    0.02700    2.63600    0.20400
 11618.50000  -23.54200 4085.13600   13.56000   13.63000   15.39600   91.17700   -9999.25   -9999.25   -9999.25   -9999.25 3996.02390   10.57400    3.66300    0.02600    2.63100    0.20500
 11619.00000  -22.79400 4083.50610   13.49800   13.57300   15.32400   94.73400   -9999.25   -9999.25   -9999.25   -9999.25 4045.72610   10.56200    3.66300    0.02400    2.62500    0.20200
 11619.50000  -22.88200 4081.87600   13.43500   13.51500   15.25200   96.02600   -9999.25   -9999.25   -9999.25   -9999.25 4075.54710   10.54900    3.66300    0.02300    2.62000    0.19700
 11620.00000  -22.81300 4080.24710   13.37300   13.45800   15.18000   92.37100   -9999.25   -9999.25   -9999.25   -9999.25 4069.26900   10.53600    3.66300    0.02200    2.61500    0.19200
 11620.50000  -22.78500 4078.61690   13.31000   13.40000   15.10800   90.59200   -9999.25   -9999.25   -9999.25   -9999.25 4058.80490   10.52300    3.66300    0.02100    2.60900    0.19400
 11621.00000  -22.76600 4076.98800   13.24700   13.34300   15.03700   93.06300   -9999.25   -9999.25   -9999.25   -9999.25 4048.34200   10.51100    3.66300    0.01900    2.60700    0.19800
 11621.50000  -22.73000 4075.35790   13.18500   13.28500   14.96400   96.17900   -9999.25   -9999.25   -9999.25   -9999.25 4037.87790   10.49700    3.66300    0.01800    2.61100    0.20100
