~Version ---------------------------------------------------
VERS.   2.0 : CWLS log ASCII Standard -VERSION 2.0
WRAP.    NO : One line per depth step
DLM . SPACE : Column Data Section Delimiter
~Well ------------------------------------------------------
STRT .F                4570.0 : START DEPTH
STOP .F               12750.0 : STOP DEPTH
STEP .F                   0.5 : STEP
NULL .               -9999.25 : NULL VALUE
COMP .                        : COMPANY
WELL .                        : WELL
FLD  .                        : FIELD
LOC  .                        : LOCATION
PROV .                        : PROVINCE
CNTY .                        : COUNTY
STAT .                        : STATE
CTRY .                        : COUNTRY
SRVC .                        : SERVICE COMPANY
DATE .                        : DATE
UWI  .                        : UNIQUE WELL ID
API  .                        : API NUMBER
SLAT .WGS84 5.969062416871402 : SURFACE LATITUDE
SLON .WGS84 4.150158925939607 : SURFACE LONGITUDE
DATUM.F               2071.38 : DEPTH DATUM ELEV
~Curve Information -----------------------------------------
DEPT.F     : 
SPR .MV    : SPONTANEOUS POTENTIAL
TENR.LBS   : TENSION FROM RESISTIVITY
ILD .OHMM  : DEEP INDUCTION RESISTIVITY
ILM .OHMM  : INDUCTION LOG MEDIUM RESISTIVITY
SFL .OHMM  : SHALLOW FOCUSED LOG RESISTIVITY
GRR .GAPI  : GAMMA RAY FROM RESISTIVITY
TENS.LBS   : TENSION
DTSM.US/F  : SHEAR-WAVE INTERVAL TRANSIT TIME DELTA-T
DTCO.US/F  : ACOUSTIC TRANSIT TIME SLOWNESS, DELTA T
NPHS.DEC   : NEUTRON POROSITY LIMESTONE FROM SONIC/NEUTRON LOG
TEND.LBS   : TENSION FROM DENSITY LOG
CALD.IN    : CALIPER FROM DENSITY LOG
PE  .B/E   : PHOTOELECTRIC FACTOR
DCOR.G/C3  : DENSITY CORRECTION
RHOB.G/C3  : BULK DENSITY
NPHI.DEC   : NEUTRON POROSITY LIMESTONE
~Params ----------------------------------------------------
~Other -----------------------------------------------------
~ASCII -----------------------------------------------------
# ...
 11772.50000  -16.46600 4208.37790   12.49100   12.20900   14.40300  105.16400   -9999.25   -9999.25   -9999.25   -9999.25 4102.83790   10.76500    3.67300    0.01500    2.63300    0.19500
 11773.00000  -16.46600 4200.82320   12.22300   12.00200   14.43800  103.85400   -9999.25   -9999.25   -9999.25   -9999.25 4093.76490   10.76400    3.68600    0.01700    2.63800    0.19500
 11773.50000  -16.46600 4193.26710   12.33900   12.09600   14.49300  104.53900   -9999.25   -9999.25   -9999.25   -9999.25 4084.69190   10.76300    3.71200    0.01800    2.64400    0.19500
 11774.00000  -16.46600 4185.71190   12.67700   12.31800   14.54800  105.77200   -9999.25   -9999.25   -9999.25   -9999.25 4075.54710   10.76200    3.72200    0.02100    2.64500    0.19200
 11774.50000  -16.46600 4178.21780   12.67700   12.67700   14.60200  105.05200   -9999.25   -9999.25   -9999.25   -9999.25 4075.54710   10.76000    3.65000    0.01000    2.63900    0.18700
 11775.00000  -16.46600 4182.52290   12.46600   12.67700   14.65700  101.58900   -9999.25   -9999.25   -9999.25   -9999.25 4075.54710   10.75900    3.57800    0.00700    2.63200    0.18200
 11775.50000  -16.46600 4186.79300   12.25600   12.27800   14.53700   96.54600   -9999.25   -9999.25   -9999.25   -9999.25 4125.44680   10.75800    3.58400    0.01100    2.63500    0.18200
 11776.00000  -16.46600 4191.06300   12.04700   11.84900   14.40300   92.83100   -9999.25   -9999.25   -9999.25   -9999.25 4153.25390   10.75700    3.62400    0.01300    2.64200    0.18200
 11776.50000  -16.46600 4195.33400   11.83800   11.42000   13.27400   94.11000   -9999.25   -9999.25   -9999.25   -9999.25 4148.78520   10.75600    3.79200    0.01600    2.65100    0.18700
 11777.00000  -16.46600 4199.60400   11.62800   10.99200   12.32200   99.02300   -9999.25   -9999.25   -9999.25   -9999.25 4144.31590   10.75400    3.93900    0.02200    2.65800    0.19400
 11777.50000  -16.46600 4203.87400   11.41900   10.37200   11.37000  106.81700   -9999.25   -9999.25   -9999.25   -9999.25 4139.84720   10.75300    4.11100    0.02900    2.66200    0.20200
 11778.00000  -16.46600 4208.14500   11.21000   10.56300   10.56300  109.16100   -9999.25   -9999.25   -9999.25   -9999.25 4135.37890   10.75200    4.18100    0.03500    2.66200    0.20900
 11778.50000  -16.46600 4212.41500   11.15700   10.88100   11.00500  106.19700   -9999.25   -9999.25   -9999.25   -9999.25 4130.91020   10.75100    4.18400    0.04200    2.65500    0.21400
 11779.00000  -16.46600 4216.68510   11.15700   11.30400   12.27700   99.74900   -9999.25   -9999.25   -9999.25   -9999.25 4126.44090   10.74900    4.10000    0.04700    2.64500    0.21300
 11779.50000  -16.46600 4217.82180   12.00200   11.72800   13.55000   95.03600   -9999.25   -9999.25   -9999.25   -9999.25 4121.97310   10.74800    3.92900    0.05200    2.63500    0.20300
 11780.00000  -16.46600 4211.15720   12.38100   12.15100   14.66800   93.92500   -9999.25   -9999.25   -9999.25   -9999.25 4117.50390   10.74700    3.76900    0.04100    2.63900    0.18900
 11780.50000  -16.46600 4203.97020   12.78900   12.57400   14.73600   95.01200   -9999.25   -9999.25   -9999.25   -9999.25 4113.03520   10.74600    3.61500    0.02200    2.64300    0.17500
 11781.00000  -16.46600 4196.78320   13.19700   12.99800   14.79700   95.42200   -9999.25   -9999.25   -9999.25   -9999.25 4108.56690   10.74500    3.43500    0.01400    2.64700    0.17300
 11781.50000  -16.46600 4189.59720   13.60600   13.42100   14.85800   94.97400   -9999.25   -9999.25   -9999.25   -9999.25 4104.09810   10.74300    3.49300    0.01700    2.65000    0.17000
 11782.00000  -16.46600 4182.41020   14.14300   13.88700   14.91900   95.12200   -9999.25   -9999.25   -9999.25   -9999.25 4099.62890   10.74200    3.61500    0.01800    2.65400    0.16700
 11782.50000  -16.46600 4175.22310   13.88700   13.88700   16.36400   95.28000   -9999.25   -9999.25   -9999.25   -9999.25 4095.15990   10.74100    3.70900    0.02000    2.65700    0.16400
 11783.00000  -16.46600 4168.03710   13.83000   13.88700   16.22900   95.57400   -9999.25   -9999.25   -9999.25   -9999.25 4090.69190   10.74000    3.74900    0.02200    2.65700    0.16200
 11783.50000  -16.46600 4160.85010   13.70800   13.63600   15.94300   97.39200   -9999.25   -9999.25   -9999.25   -9999.25 4086.22290   10.73900    3.70900    0.02300    2.65600    0.16300
 11784.00000  -16.46600 4153.66310   13.58700   13.53300   15.65800   99.22200   -9999.25   -9999.25   -9999.25   -9999.25 4081.75390   10.73700    3.71600    0.02500    2.65600    0.16400
 11784.50000  -16.46600 4146.47710   13.46600   13.41300   15.37200  102.10400   -9999.25   -9999.25   -9999.25   -9999.25 4077.28590   10.73800    3.83100    0.02700    2.65500    0.16500
 11785.00000  -16.46600 4139.29000   13.34500   13.29300   15.11200  102.79400   -9999.25   -9999.25   -9999.25   -9999.25 4072.81690   10.71900    3.90600    0.02800    2.65400    0.16600
 11785.50000  -16.46600 4132.10300   13.22400   13.17200   14.95600  102.00400   -9999.25   -9999.25   -9999.25   -9999.25 4068.34790   10.67000    3.97500    0.03000    2.64600    0.16600
 11786.00000  -16.46600 4124.91700   13.10300   13.05200   15.03200   98.99600   -9999.25   -9999.25   -9999.25   -9999.25 4063.87890   10.62400    3.98200    0.02900    2.63900    0.16600
 11786.50000  -16.46600 4117.73000   12.98100   12.91000   15.10700   95.96400   -9999.25   -9999.25   -9999.25   -9999.25 4059.41090   10.57500    3.95400    0.02800    2.62800    0.16600
 11787.00000  -16.46600 4110.54300   12.67700   12.67700   15.21300   95.08800   -9999.25   -9999.25   -9999.25   -9999.25 4054.94190   10.52800    3.90800    0.02800    2.62500    0.16700
 11787.50000  -16.46600 4103.35690   12.20100   12.23100   14.90900   96.98400   -9999.25   -9999.25   -9999.25   -9999.25 4050.47290   10.47800    3.89700    0.02800    2.62700    0.16800
 11788.00000  -16.46600 4099.00980   11.72800   11.78800   14.40700   98.93500   -9999.25   -9999.25   -9999.25   -9999.25 4046.00490   10.43900    3.83000    0.02800    2.63300    0.16800
 11788.50000  -16.46600 4111.18800   11.25600   11.34500   13.90400   99.42000   -9999.25   -9999.25   -9999.25   -9999.25 4041.53590   10.41000    3.75400    0.02200    2.64300    0.17100
 11789.00000  -16.46600 4123.46480   10.78400   10.90300   13.39000   99.75300   -9999.25   -9999.25   -9999.25   -9999.25 4037.06690   10.43100    3.66400    0.01800    2.64500    0.17300
 11789.50000  -16.46600 4135.74320   10.31200   10.46000   12.42000  101.60300   -9999.25   -9999.25   -9999.25   -9999.25 4041.02100   10.44400    3.65100    0.01500    2.64500    0.18100
 11790.00000  -16.46600 4148.02000    9.82000   10.01700   11.42700  102.24500   -9999.25   -9999.25   -9999.25   -9999.25 4057.65410   10.46200    3.74700    0.01200    2.64500    0.19200
 11790.50000  -16.46600 4160.29690    9.82000    9.64300   10.43300  102.99900   -9999.25   -9999.25   -9999.25   -9999.25 4074.28810   10.47600    3.83400    0.01400    2.64500    0.20300
 11791.00000  -16.46600 4172.57420    9.69400    9.43500   10.18500  105.77900   -9999.25   -9999.25   -9999.25   -9999.25 4090.92090   10.49300    3.89600    0.02300    2.64500    0.21300
 11791.50000  -16.46600 4217.82180    9.58400    9.33700   11.12100  109.47100   -9999.25   -9999.25   -9999.25   -9999.25 4107.55520   10.47100    3.87300    0.02300    2.64600    0.21200
 11792.00000  -16.46600 4210.95700    9.47400    9.24000   11.78500  113.16800   -9999.25   -9999.25   -9999.25   -9999.25 4093.99610   10.43200    3.85800    0.02100    2.64900    0.21000
 11792.50000  -16.46600 4201.60300    9.36400    9.14200   11.48800  114.19200   -9999.25   -9999.25   -9999.25   -9999.25 4054.07590   10.39700    3.82600    0.01800    2.65300    0.20300
 11793.00000  -16.46600 4192.24900    9.25500    9.04500   10.92100  114.80900   -9999.25   -9999.25   -9999.25   -9999.25 4035.78490   10.36100    3.82100    0.01600    2.65300    0.20000
 11793.50000  -16.46600 4182.89500    9.14500    8.94700   10.35400  113.72500   -9999.25   -9999.25   -9999.25   -9999.25 4064.31400   10.32500    3.82900    0.01200    2.65300    0.19900
