~Version ---------------------------------------------------
VERS.   2.0 : CWLS log ASCII Standard -VERSION 2.0
WRAP.    NO : One line per depth step
DLM . SPACE : Column Data Section Delimiter
~Well ------------------------------------------------------
STRT .F                  152.0 : START DEPTH
STOP .F                13797.0 : STOP DEPTH
STEP .F                    0.5 : STEP
NULL .                -9999.25 : NULL VALUE
COMP .                         : COMPANY
WELL .                         : WELL
FLD  .                         : FIELD
LOC  .                         : LOCATION
PROV .                         : PROVINCE
CNTY .                         : COUNTY
STAT .                         : STATE
CTRY .                         : COUNTRY
SRVC .                         : SERVICE COMPANY
DATE .                         : DATE
UWI  .                         : UNIQUE WELL ID
API  .                         : API NUMBER
SLAT .WGS84 1.8800801468957005 : SURFACE LATITUDE
SLON .WGS84  8.953720885865991 : SURFACE LONGITUDE
DATUM.F                3796.57 : DEPTH DATUM ELEV
~Curve Information -----------------------------------------
DEPT .F     : 
GRD  .GAPI  : GAMMA RAY FROM DENSITY LOG
TNPH .DEC   : THERMAL NEUTRON POROSITY
HCAL .IN    : HILT CALIPER
DPHZ .DEC   : HRGD STANDARD RESOLUTION DENSITY POROSITY
HDRA .G/C3  : HRDD SPINE AND RIBS DENSITY CORRECTION
PEFZ .B/E   : HHRDD STANDARD RESOLUTION FORMATION PHOTO ELECTRIC
RHOZ .G/C3  : BULK DENSITY
DTCO .US/F  : DELTA-T COMPRESSIONAL
DTSM .US/F  : DELTA-T SHEAR
HD   .IN    : HILT CALIPER
DTCO1.US/F  : LONG-SPACED COMPRESSIONAL INTERVAL TRANSIT TIME 12-13-FT RECEIVER
~Params ----------------------------------------------------
~Other -----------------------------------------------------
~ASCII -----------------------------------------------------
# ...
 8478.50000   94.34020    0.12490    9.89550    0.07560    0.05630    3.82750    2.59720   61.11670  107.56090    9.90120   -9999.25
 8479.00000   88.62650    0.12790    9.89980    0.07710    0.11840    3.99860    2.58730   59.85840  107.73220    9.90350   -9999.25
 8479.50000   72.20240    0.10320    9.91860    0.05200    0.16500    4.57130    2.58820   59.92370  107.34740    9.90580   -9999.25
 8480.00000   56.39720    0.07650    9.92730    0.03020    0.17910    4.98470    2.61380   61.42860  106.83760    9.93620   -9999.25
 8480.50000   47.44290    0.07160    9.92730    0.02440    0.16870    5.06840    2.66180   63.92980  107.62610    9.96810   -9999.25
 8481.00000   63.66450    0.11200    9.91990    0.03220    0.10740    4.43100    2.67080   74.35030  112.55780    9.94840   -9999.25
 8481.50000   79.10240    0.15240    9.87580    0.06610    0.03760    3.79350    2.62450   77.06150  118.60690    9.90890   -9999.25
 8482.00000   92.99510    0.17900    9.84330    0.08410    0.01640    3.24390    2.58530   78.61310  121.61410    9.87910   -9999.25
 8482.50000  102.59790    0.18620    9.84750    0.09310    0.00630    3.06750    2.56450   77.52270  122.43620    9.86770   -9999.25
 8483.00000  107.73200    0.18540    9.85930    0.09530    0.00180    3.04790    2.55770   74.98380  123.29830    9.86820   -9999.25
 8483.50000  109.26960    0.17210    9.88320    0.10960    0.00170    3.14840    2.54850   72.48720  123.20680    9.89260   -9999.25
 8484.00000  104.79040    0.14580    9.91220    0.10990    0.00510    3.47160    2.53710   71.15540  120.54770    9.91700   -9999.25
 8484.50000   96.42910    0.11660    9.94130    0.08890    0.02520    3.77980    2.55180   71.26780  116.77960    9.94120   -9999.25
 8485.00000   86.54450    0.10070    9.97030    0.07070    0.04760    4.04390    2.57780   72.53210  116.35560    9.96430   -9999.25
 8485.50000   90.32850    0.10530    9.96950    0.05970    0.05990    3.94860    2.60390   75.87510  119.46520    9.95690   -9999.25
 8486.00000   99.15940    0.12820    9.87590    0.08350    0.03500    3.74470    2.58800   77.29970  120.94810    9.90020   -9999.25
 8486.50000  112.06110    0.15100    9.79590    0.10550    0.00840    3.54080    2.54080   78.46700  122.28990    9.80000   -9999.25
 8487.00000  119.50660    0.16110    9.79530    0.11650   -0.00510    3.33690    2.53490   78.59470  123.28470    9.80000   -9999.25
 8487.50000  122.52280    0.16590    9.79340    0.10810   -0.00500    3.23570    2.53860   78.56610  126.15690    9.80000   -9999.25
 8488.00000  124.30510    0.16740    9.79150    0.09860   -0.00110    3.15520    2.54340   78.06340  128.81700    9.80000   -9999.25
 8488.50000  124.02560    0.16480    9.78960    0.09060   -0.00040    3.13860    2.55420   77.10760  129.74270    9.80000   -9999.25
 8489.00000  121.06020    0.16080    9.78770    0.08680   -0.00120    3.15120    2.56810   75.48230  129.09790    9.79960   -9999.25
 8489.50000  114.36360    0.15680    9.78580    0.08290   -0.00200    3.19620    2.57390   74.56230  124.63220    9.79840   -9999.25
 8490.00000  104.97300    0.15610    9.78380    0.08400   -0.00280    3.36990    2.57620   72.75220  118.20780    9.79720   -9999.25
 8490.50000   98.57250    0.15590    9.78190    0.08300   -0.00280    3.55250    2.57840   70.76960  115.30510    9.79600   -9999.25
 8491.00000   97.40600    0.15640    9.78050    0.07860   -0.00280    3.64860    2.58210   69.52640  114.98830    9.79480   -9999.25
 8491.50000   96.68140    0.15740    9.78050    0.07690   -0.00280    3.55180    2.58610   69.49090  114.95700    9.79350   -9999.25
 8492.00000   94.82220    0.15740    9.78200    0.06830   -0.00200    3.42610    2.59270   69.48630  114.99590    9.79570   -9999.25
 8492.50000   90.26580    0.15640    9.78740    0.06700   -0.00060    3.30040    2.60050   69.48560  116.41870    9.79890   -9999.25
 8493.00000   84.78530    0.14900    9.82870    0.06760    0.00060    3.24590    2.60370   69.48040  116.95500    9.81500   -9999.25
 8493.50000   77.49180    0.12920    9.93740    0.06660    0.00010    3.32410    2.60540   69.38830  116.44470    9.90090   -9999.25
 8494.00000   70.42900    0.10950   10.08830    0.07340   -0.00030    3.51440    2.59890   69.04350  114.76870    9.96480   -9999.25
 8494.50000   63.53590    0.10430   10.24870    0.06500   -0.00060    3.68650    2.59460   69.19360  114.46560    9.97270   -9999.25
 8495.00000   67.10550    0.11950   10.20260    0.06010   -0.00090    3.68550    2.61300   72.33300  116.72660    9.96580   -9999.25
 8495.50000   79.57580    0.13960   10.07300    0.06620   -0.00110    3.52260    2.60860   74.84000  118.99750    9.95890   -9999.25
 8496.00000   92.90250    0.15050    9.94340    0.10020   -0.00100    3.41730    2.57970   75.55800  120.94430    9.95200   -9999.25
 8496.50000   97.77400    0.15120    9.94060    0.10930    0.00060    3.42720    2.53240   75.53700  122.42480    9.94510   -9999.25
 8497.00000   93.04030    0.14690    9.95760    0.08790    0.01910    3.50580    2.53840   75.48300  123.48070    9.93820   -9999.25
 8497.50000   88.27480    0.14150    9.93890    0.07250    0.03820    3.55740    2.58130   75.42320  124.14770    9.93130   -9999.25
 8498.00000   89.36250    0.14450    9.91520    0.06770    0.02610    3.41410    2.60080   75.16250  123.94290    9.92440   -9999.25
 8498.50000   90.98770    0.15250    9.89150    0.08280    0.00360    3.27070    2.58640   74.86710  121.17260    9.91750   -9999.25
 8499.00000   91.35730    0.15730    9.87350    0.08910    0.00110    3.14750    2.56820   74.77680  121.34680    9.90960   -9999.25
 8499.50000   88.57150    0.15590    9.90770    0.08150    0.00040    3.16470    2.57380   75.48730  123.32800    9.90140   -9999.25
 8500.00000   82.12090    0.15230    9.92840    0.07550   -0.00070    3.19020    2.58710   76.44670  123.98190    9.89320   -9999.25
 8500.50000   80.28600    0.14920    9.89540    0.07400    0.00000    3.16310    2.59360   77.60360  126.85170    9.88500   -9999.25
 8501.00000   83.90650    0.15660    9.88090    0.07930    0.00150    3.11800    2.59090   78.72490  131.50410    9.88030   -9999.25
 8501.50000   90.31590    0.17650    9.91180    0.09170    0.00310    3.08610    2.57650   79.47480  136.50980    9.92370   -9999.25
 8502.00000   95.77170    0.18890    9.95110    0.10120    0.00410    3.08240    2.55060   79.44340  142.85330    9.96500   -9999.25
 8502.50000   99.87420    0.19400    9.99040    0.10470    0.00380    3.13810    2.54270   78.84970  143.19940    9.97860   -9999.25
 8503.00000  102.46970    0.19360   10.01230    0.10430    0.00300    3.19230    2.54010   77.71400  140.42610    9.99680   -9999.25
 8503.50000  104.18590    0.19220    9.99570    0.09780    0.00320    3.08490    2.55290   76.75020  133.85960   10.00740   -9999.25
 8504.00000  103.90480    0.19820    9.98140    0.08230    0.00740    2.95000    2.57280   76.49570  123.12950   10.02160   -9999.25
 8504.50000   99.90860    0.20340   10.03490    0.08740    0.01470    2.87960    2.57590   77.22530  116.89590   10.07590   -9999.25
 8505.00000   95.38020    0.23020   10.04700    0.19270    0.02190    2.94500    2.34750   77.95490  115.55640   10.09950   -9999.25
 8505.50000   90.16640    0.25710   10.04360    0.26860    0.06960    3.43080    2.15030   78.32260  118.93450   10.10380   -9999.25
 8506.00000   86.76240    0.27790   10.11190    0.36980    0.11830    4.13590    2.16720   77.65460  123.71410   10.14870   -9999.25
 8506.50000   83.98630    0.24160   10.17340    0.34980    0.16920    4.27520    2.25870   76.70600  123.72410   10.29990   -9999.25
 8507.00000   82.26200    0.19080   10.10690    0.20590    0.19210    4.29940    2.43020   74.33900  119.52570   10.21190   -9999.25
 8507.50000   78.54670    0.14850    9.92970    0.08360    0.17940    4.23160    2.55460   70.92090  114.11060    9.87320   -9999.25
 8508.00000   66.83730    0.13300    9.85000    0.01960    0.12420    4.10920    2.62940   67.25080  107.98820    9.82790   -9999.25
 8508.50000   54.83360    0.11750    9.84760    0.03300    0.06490    4.08410    2.66970   63.74390  104.41810    9.81610   -9999.25
