~Version ---------------------------------------------------
VERS.   2.0 : CWLS log ASCII Standard -VERSION 2.0
WRAP.    NO : One line per depth step
DLM . SPACE : Column Data Section Delimiter
~Well ------------------------------------------------------
STRT .F                  152.0 : START DEPTH
STOP .F                13797.0 : STOP DEPTH
STEP .F                    0.5 : STEP
NULL .                -9999.25 : NULL VALUE
COMP .                         : COMPANY
WELL .                         : WELL
FLD  .                         : FIELD
LOC  .                         : LOCATION
PROV .                         : PROVINCE
CNTY .                         : COUNTY
STAT .                         : STATE
CTRY .                         : COUNTRY
SRVC .                         : SERVICE COMPANY
DATE .                         : DATE
UWI  .                         : UNIQUE WELL ID
API  .                         : API NUMBER
SLAT .WGS84 1.8800801468957005 : SURFACE LATITUDE
SLON .WGS84  8.953720885865991 : SURFACE LONGITUDE
DATUM.F                3796.57 : DEPTH DATUM ELEV
~Curve Information -----------------------------------------
DEPT .F     : 
GRD  .GAPI  : GAMMA RAY FROM DENSITY LOG
TNPH .DEC   : THERMAL NEUTRON POROSITY
HCAL .IN    : HILT CALIPER
DPHZ .DEC   : HRGD STANDARD RESOLUTION DENSITY POROSITY
HDRA .G/C3  : HRDD SPINE AND RIBS DENSITY CORRECTION
PEFZ .B/E   : HHRDD STANDARD RESOLUTION FORMATION PHOTO ELECTRIC
RHOZ .G/C3  : BULK DENSITY
DTCO .US/F  : DELTA-T COMPRESSIONAL
DTSM .US/F  : DELTA-T SHEAR
HD   .IN    : HILT CALIPER
DTCO1.US/F  : LONG-SPACED COMPRESSIONAL INTERVAL TRANSIT TIME 12-13-FT RECEIVER
~Params ----------------------------------------------------
~Other -----------------------------------------------------
~ASCII -----------------------------------------------------
# ...
 10903.50000   69.35500    0.13340   10.70850    0.08630    0.00450    3.55250    2.59340   63.28130  106.23270   10.80030   -9999.25
 10904.00000   78.10010    0.15650   10.82500    0.06460    0.00590    3.75120    2.61560   63.17650  108.63200   10.85030   -9999.25
 10904.50000   85.55410    0.19700   10.86450    0.03650    0.00740    3.93490    2.66490   62.53550  109.93820   10.88620   -9999.25
 10905.00000   91.18420    0.20000   10.87780    0.02180    0.00610    3.95470    2.67430   62.21750  109.94250   10.90990   -9999.25
 10905.50000   90.90630    0.16960   10.90250    0.03130    0.00310    3.85780    2.66350   62.27610  109.61040   10.93350   -9999.25
 10906.00000   86.68950    0.14460   10.95130    0.04940    0.00020    3.76090    2.62410   62.32010  108.66830   10.95720   -9999.25
 10906.50000   81.63930    0.13140   10.98830    0.06820   -0.00280    3.68220    2.60100   62.26990  106.59370   10.98250   -9999.25
 10907.00000   77.93010    0.11820   11.01840    0.07870   -0.00170    3.60970    2.58610   62.37230  105.22740   11.01810   -9999.25
 10907.50000   73.71730    0.10730   11.04860    0.08470    0.00060    3.52860    2.57590   62.29860  105.73060   11.05380   -9999.25
 10908.00000   70.43120    0.09920   11.07870    0.08660    0.00280    3.53840    2.57140   62.10090  106.52570   11.08950   -9999.25
 10908.50000   70.90430    0.10000   11.10880    0.08640    0.00510    3.66810    2.57010   61.78420  106.02770   11.12510   -9999.25
 10909.00000   76.25310    0.11920   11.13990    0.07580    0.00740    3.80160    2.59780   61.69340  105.81140   11.16450   -9999.25
 10909.50000   80.86380    0.14260   11.17410    0.06400    0.00970    3.91120    2.61010   62.32680  106.66250   11.21440   -9999.25
 10910.00000   85.35540    0.16610   11.22300    0.05530    0.01120    3.99950    2.62420   62.97180  107.51370   11.26430   -9999.25
 10910.50000   85.43600    0.18070   11.28110    0.05590    0.01070    3.88030    2.62320   63.49390  108.56290   11.31420   -9999.25
 10911.00000   80.63880    0.16510   11.30190    0.06400    0.00890    3.66760    2.60820   63.80210  108.71050   11.35220   -9999.25
 10911.50000   75.97380    0.13960   11.34150    0.07810    0.00710    3.55660    2.59320   63.61090  108.03060   11.38630   -9999.25
 10912.00000   72.31670    0.11990   11.38640    0.08530    0.00530    3.51170    2.57780   63.37780  107.56450   11.42040   -9999.25
 10912.50000   68.35050    0.12500   11.43470    0.09010    0.00350    3.53890    2.56750   63.18630  107.56450   11.46280   -9999.25
 10913.00000   68.08820    0.13120   11.48290    0.09500    0.00170    3.63050    2.55730   62.99490  107.64800   11.50820   -9999.25
 10913.50000   69.24850    0.13730   11.53120    0.09540    0.00040    3.74100    2.56330   62.80970  107.30310   11.55350   -9999.25
 10914.00000   71.49640    0.14350   11.57950    0.08490    0.00280    3.81000    2.57020   62.37200  106.90920   11.59890   -9999.25
 10914.50000   72.49800    0.14650   11.61850    0.07400    0.01710    3.82610    2.59070   61.98490  107.70880   11.63400   -9999.25
 10915.00000   70.83430    0.12780   11.64430    0.06990    0.01870    3.81720    2.59720   62.15820  108.97250   11.65160   -9999.25
 10915.50000   67.88930    0.11070   11.67000    0.07590    0.01710    3.76310    2.59300   62.71330  109.46030   11.66480   -9999.25
 10916.00000   64.94420    0.11110   11.68850    0.08290    0.01460    3.64090    2.58070   63.33840  109.73470   11.67790   -9999.25
 10916.50000   62.67590    0.11740   11.70200    0.09720    0.01240    3.48970    2.55760   64.57400  109.17220   11.69590   -9999.25
 10917.00000   61.82610    0.12540   11.71510    0.10480    0.01070    3.33840    2.54530   65.27970  108.32580   11.72340   -9999.25
 10917.50000   62.63960    0.13330   11.74270    0.10090    0.00990    3.27610    2.54790   66.19990  107.68470   11.75100   -9999.25
 10918.00000   68.62030    0.14130   11.76680    0.09170    0.01000    3.40980    2.55980   67.40110  107.56450   11.77850   -9999.25
 10918.50000   74.48450    0.14880   11.79000    0.09080    0.02130    3.64710    2.56370   67.64170  107.56450   11.80610   -9999.25
 10919.00000   77.63610    0.14930   11.81860    0.08710    0.05600    3.84550    2.56940   67.42440  107.68970   11.84470   -9999.25
 10919.50000   76.48700    0.14490   11.86750    0.08600    0.05670    3.74180    2.57200   66.69830  108.01180   11.89540   -9999.25
 10920.00000   71.11680    0.13110   11.93460    0.08660    0.03930    3.56240    2.56900   64.55510  108.33380   11.94610   -9999.25
 10920.50000   68.01050    0.11730   11.99450    0.09340    0.00860    3.40320    2.56170   62.47630  109.33440   11.99680   -9999.25
 10921.00000   69.11020    0.10660   12.03810    0.09180    0.00140    3.38410    2.56050   61.97330  110.65810   12.05170   -9999.25
 10921.50000   70.65880    0.10620   12.08170    0.10940    0.00000    3.33760    2.54860   63.06400  113.50390   12.10910   -9999.25
 10922.00000   69.79420    0.11350   12.12530    0.12960   -0.00090    3.26530    2.48240   64.54420  115.84270   12.16660   -9999.25
 10922.50000   67.61870    0.12380   12.19960    0.14410   -0.00170    3.20280    2.48200   65.79710  117.20770   12.22840   -9999.25
 10923.00000   65.44330    0.13420   12.28790    0.14360   -0.00160    3.19360    2.49280   67.12200  117.41380   12.30580   -9999.25
 10923.50000   64.32700    0.14450   12.37620    0.12760   -0.00090    3.20400    2.50860   68.14880  116.61190   12.38330   -9999.25
 10924.00000   66.40700    0.14770   12.46450    0.11160   -0.00020    3.22570    2.52780   68.51840  115.74440   12.46070   -9999.25
 10924.50000   68.70660    0.14920   12.51980    0.10210    0.00060    3.23870    2.54020   68.99300  115.90580   12.53820   -9999.25
 10925.00000   69.23380    0.15080   12.57860    0.10930    0.00130    3.21540    2.53510   69.55780  116.55640   12.59560   -9999.25
 10925.50000   68.52870    0.15620   12.64030    0.12640    0.00200    3.19720    2.50190   69.81620  117.11170   12.65230   -9999.25
 10926.00000   67.75630    0.16170   12.70120    0.13630    0.00270    3.23670    2.49230   69.83360  117.20600   12.70900   -9999.25
 10926.50000   67.74560    0.16710   12.76140    0.13630    0.00340    3.26680    2.49590   69.53380  116.96380   12.76570   -9999.25
 10927.00000   68.23930    0.16010   12.82160    0.12940    0.00420    3.24470    2.50430   68.77830  116.21710   12.83200   -9999.25
 10927.50000   68.73540    0.14620   12.88170    0.12010    0.00670    3.24760    2.51600   68.16890  115.33510   12.90470   -9999.25
 10928.00000   69.02000    0.13840   12.94190    0.11160    0.00130    3.33210    2.52700   68.21900  114.57920   12.97000   -9999.25
 10928.50000   68.78900    0.14730   12.99400    0.10730   -0.00440    3.40890    2.53720   68.62420  114.94990   13.02710   -9999.25
 10929.00000   66.80200    0.15620   13.04540    0.10930   -0.00430    3.31840    2.52600   69.54580  115.68580   13.08420   -9999.25
 10929.50000   63.59640    0.16200   13.09740    0.12180   -0.00360    3.21800    2.50610   69.88350  116.44470   13.14130   -9999.25
 10930.00000   60.39070    0.16440   13.16010    0.13280   -0.00300    3.11760    2.50800   69.66830  117.11360   13.19030   -9999.25
 10930.50000   58.51230    0.16550   13.21970    0.12800   -0.00240    3.09110    2.51440   69.52340  117.34550   13.23820   -9999.25
 10931.00000   60.63420    0.16730   13.24890    0.11710   -0.00180    3.16020    2.52080   69.27130  117.45560   13.27310   -9999.25
 10931.50000   64.11240    0.17190   13.26930    0.10960   -0.00170    3.24180    2.52720   69.41990  117.66830   13.30720   -9999.25
 10932.00000   64.55940    0.17810   13.28970    0.11590   -0.00210    3.32340    2.51420   69.19250  117.88100   13.33700   -9999.25
 10932.50000   64.56340    0.17340   13.31010    0.13070   -0.00250    3.33670    2.49890   68.52060  117.91460   13.35160   -9999.25
 10933.00000   65.50360    0.15980   13.33590    0.13910   -0.00250    3.28550    2.48560   67.63290  117.19550   13.36620   -9999.25
