~Version ---------------------------------------------------
VERS.   2.0 : CWLS log ASCII Standard -VERSION 2.0
WRAP.    NO : One line per depth step
DLM . SPACE : Column Data Section Delimiter
~Well ------------------------------------------------------
STRT .F                  152.0 : START DEPTH
STOP .F                13797.0 : STOP DEPTH
STEP .F                    0.5 : STEP
NULL .                -9999.25 : NULL VALUE
COMP .                         : COMPANY
WELL .                         : WELL
FLD  .                         : FIELD
LOC  .                         : LOCATION
PROV .                         : PROVINCE
CNTY .                         : COUNTY
STAT .                         : STATE
CTRY .                         : COUNTRY
SRVC .                         : SERVICE COMPANY
DATE .                         : DATE
UWI  .                         : UNIQUE WELL ID
API  .                         : API NUMBER
SLAT .WGS84 1.8800801468957005 : SURFACE LATITUDE
SLON .WGS84  8.953720885865991 : SURFACE LONGITUDE
DATUM.F                3796.57 : DEPTH DATUM ELEV
~Curve Information -----------------------------------------
DEPT .F     : 
GRD  .GAPI  : GAMMA RAY FROM DENSITY LOG
TNPH .DEC   : THERMAL NEUTRON POROSITY
HCAL .IN    : HILT CALIPER
DPHZ .DEC   : HRGD STANDARD RESOLUTION DENSITY POROSITY
HDRA .G/C3  : HRDD SPINE AND RIBS DENSITY CORRECTION
PEFZ .B/E   : HHRDD STANDARD RESOLUTION FORMATION PHOTO ELECTRIC
RHOZ .G/C3  : BULK DENSITY
DTCO .US/F  : DELTA-T COMPRESSIONAL
DTSM .US/F  : DELTA-T SHEAR
HD   .IN    : HILT CALIPER
DTCO1.US/F  : LONG-SPACED COMPRESSIONAL INTERVAL TRANSIT TIME 12-13-FT RECEIVER
~Params ----------------------------------------------------
~Other -----------------------------------------------------
~ASCII -----------------------------------------------------
# ...
 11323.50000   71.69940    0.18330   15.58830    0.07170    0.00160    3.85230    2.58670   70.49650  119.65190   15.58010   -9999.25
 11324.00000   70.78250    0.17440   15.63370    0.08510    0.00160    3.68080    2.59200   71.18600  121.47280   15.64330   -9999.25
 11324.50000   69.42850    0.16560   15.67210    0.11830    0.00160    3.57360    2.52740   71.39450  123.06440   15.67840   -9999.25
 11325.00000   68.08220    0.15630   15.71370    0.13640    0.00160    3.51040    2.50270   71.22170  122.28470   15.71340   -9999.25
 11325.50000   66.73150    0.14570   15.75640    0.14350    0.00160    3.55680    2.48070   70.03840  121.25400   15.75330   -9999.25
 11326.00000   64.46850    0.14570   15.79910    0.13680    0.00160    3.62160    2.48450   69.01920  120.39450   15.80460   -9999.25
 11326.50000   64.96360    0.15270   15.84510    0.12810    0.00160    3.68500    2.49560   68.53020  119.91780   15.85820   -9999.25
 11327.00000   68.38030    0.16090   15.89150    0.11270    0.00160    3.74840    2.52040   68.82220  119.91780   15.93420   -9999.25
 11327.50000   71.54930    0.16910   15.93780    0.09650    0.00230    3.78180    2.54000   69.58790  120.43070   16.00830   -9999.25
 11328.00000   73.21760    0.17500   15.94720    0.08900    0.00360    3.73060    2.55930   70.26230  121.97400   16.01890   -9999.25
 11328.50000   71.50640    0.17560   15.94720    0.10940    0.00500    3.63120    2.54880   69.94650  122.70280   16.01560   -9999.25
 11329.00000   66.55860    0.17510   15.94410    0.13180    0.00630    3.56190    2.50990   68.96490  122.55980   16.01220   -9999.25
 11329.50000   62.05530    0.17400   15.93800    0.14080    0.00760    3.55550    2.48540   68.49690  122.28800   16.00890   -9999.25
 11330.00000   62.36010    0.17290   15.93190    0.12050    0.00890    3.62140    2.50400   68.77880  121.96050   16.00550   -9999.25
 11330.50000   65.12280    0.16950   15.92580    0.09920    0.01000    3.62550    2.52680   69.12320  121.96090   16.00220   -9999.25
 11331.00000   67.62410    0.16250   15.91970    0.09060    0.01000    3.61760    2.54950   69.65850  123.71250   15.99880   -9999.25
 11331.50000   68.50250    0.15870   15.91360    0.09730    0.00980    3.57360    2.55780   70.50370  126.20190   15.99550   -9999.25
 11332.00000   66.74610    0.15900   15.90750    0.12640    0.00930    3.54530    2.52420   72.02510  127.89740   15.99210   -9999.25
 11332.50000   63.78310    0.16900   15.90140    0.14700    0.00880    3.59990    2.48930   74.88830  128.59860   15.98880   -9999.25
 11333.00000   62.15160    0.17910   15.89530    0.16650    0.00830    3.66980    2.44960   76.58490  128.31830   15.97810   -9999.25
 11333.50000   61.67900    0.18560   15.88920    0.17130    0.00780    3.73970    2.43790   76.04730  127.57000   15.94500   -9999.25
 11334.00000   63.08910    0.18570   15.88310    0.16770    0.00730    3.78510    2.43680   74.78920  126.28130   15.84520   -9999.25
 11334.50000   65.07830    0.17540   15.82570    0.15980    0.00680    3.78760    2.44310   73.55860  123.38390   15.74140   -9999.25
 11335.00000   66.84090    0.16490   15.72480    0.15430    0.00640    3.78760    2.45620   71.78110  120.97790   15.63760   -9999.25
 11335.50000   66.54380    0.15440   15.62390    0.15050    0.00640    3.78170    2.46820   70.53420  119.79520   15.54030   -9999.25
 11336.00000   66.42580    0.14720   15.52310    0.14930    0.00640    3.76110    2.46990   69.44540  118.51880   15.44690   -9999.25
 11336.50000   66.86040    0.14790   15.41180    0.14340    0.00640    3.75570    2.47630   69.36090  118.08720   15.35350   -9999.25
 11337.00000   72.17740    0.15200   15.29690    0.12580    0.00640    3.81090    2.49090   70.72900  119.06940   15.26000   -9999.25
 11337.50000   72.44360    0.15730   15.20270    0.11650    0.00640    3.98880    2.51240   72.88260  120.80810   15.16660   -9999.25
 11338.00000   69.16270    0.15900   15.10620    0.12480    0.00640    4.06690    2.51390   74.16700  122.88470   15.07650   -9999.25
 11338.50000   65.88180    0.15510   15.00370    0.14960    0.00640    3.89850    2.49510   74.53340  125.16980   14.98700   -9999.25
 11339.00000   63.18450    0.14700   14.89950    0.16390    0.00640    3.69070    2.45920   74.62700  126.30680   14.89740   -9999.25
 11339.50000   63.48520    0.13890   14.78950    0.15700    0.00620    3.55340    2.45090   74.37380  126.05670   14.80790   -9999.25
 11340.00000   64.49560    0.13080   14.67960    0.14230    0.00580    3.53870    2.49520   74.00970  124.73080   14.70450   -9999.25
 11340.50000   64.57650    0.12790   14.59220    0.12750    0.00540    3.57680    2.50980   73.49840  123.53120   14.58860   -9999.25
 11341.00000   64.57650    0.12900   14.49480    0.12580    0.00500    3.62960    2.50030   72.98740  122.45710   14.47260   -9999.25
 11341.50000   65.47780    0.13920   14.39980    0.14540    0.00460    3.67730    2.48310   72.47640  122.16850   14.35660   -9999.25
 11342.00000   68.69620    0.15240   14.30650    0.14380    0.00420    3.69650    2.47370   72.56440  122.16850   14.24370   -9999.25
 11342.50000   71.74150    0.16560   14.21000    0.13360    0.00380    3.68810    2.49240   72.88630  122.59340   14.14430   -9999.25
 11343.00000   74.02880    0.17100   14.06640    0.12340    0.00340    3.60030    2.51180   73.07870  123.09840   14.04490   -9999.25
 11343.50000   73.78850    0.16310   13.94190    0.12590    0.00300    3.51370    2.50470   72.52290  123.70700   13.94550   -9999.25
 11344.00000   72.59840    0.15040   13.84140    0.13560    0.00280    3.43350    2.49570   71.49530  124.40470   13.84610   -9999.25
 11344.50000   72.59840    0.13770   13.73480    0.14020    0.00420    3.37570    2.48850   70.38030  123.94530   13.76360   -9999.25
 11345.00000   72.22570    0.12500   13.66910    0.13190    0.00710    3.41390    2.49740   69.05180  120.88210   13.68840   -9999.25
 11345.50000   69.51410    0.11570   13.59510    0.12270    0.01010    3.46960    2.50990   68.17130  117.76240   13.61310   -9999.25
 11346.00000   67.07680    0.11540   13.52100    0.11350    0.01120    3.52530    2.52010   67.71390  114.71340   13.53780   -9999.25
 11346.50000   64.63950    0.11740   13.44700    0.11350    0.01050    3.52850    2.52540   67.48860  112.32830   13.46260   -9999.25
 11347.00000   63.40840    0.12640   13.35450    0.11750    0.00930    3.51320    2.52190   67.69240  112.86150   13.36960   -9999.25
 11347.50000   62.99650    0.13550   13.25860    0.12150    0.00820    3.51590    2.51630   68.66950  113.66230   13.27530   -9999.25
 11348.00000   62.84770    0.14260   13.14950    0.12550    0.00710    3.53440    2.51070   70.14530  115.93460   13.18100   -9999.25
 11348.50000   62.83390    0.14360   13.07370    0.12590    0.00630    3.56100    2.50930   71.06120  116.89230   13.08670   -9999.25
 11349.00000   63.09500    0.14610   13.00360    0.12250    0.00560    3.65440    2.51050   71.11180  117.44760   12.99240   -9999.25
 11349.50000   66.11270    0.14940   12.93360    0.11840    0.00490    3.82610    2.51430   71.02170  117.79520   12.93040   -9999.25
 11350.00000   73.12020    0.15310   12.86350    0.11120    0.00420    3.99400    2.52620   70.35600  117.79830   12.88020   -9999.25
 11350.50000   79.01930    0.15670   12.79350    0.09450    0.00340    4.16180    2.54350   69.51810  116.96050   12.83010   -9999.25
 11351.00000   84.87040    0.15880   12.71480    0.07770    0.00280    4.24780    2.56730   67.82170  114.70390   12.74110   -9999.25
 11351.50000   90.21120    0.16030   12.63100    0.06160    0.00880    4.19860    2.60750   66.39490  111.11000   12.62220   -9999.25
 11352.00000   99.00080    0.16260   12.54710    0.04620    0.01710    4.19180    2.62520   65.74140  110.32160   12.52420   -9999.25
 11352.50000  105.91840    0.16350   12.47650    0.03440    0.02440    4.15020    2.64890   66.74970  111.07330   12.48420   -9999.25
 11353.00000  101.84760    0.15490   12.43060    0.04410    0.02440    4.02580    2.65200   69.23440  112.24790   12.44420   -9999.25
