~Version ---------------------------------------------------
VERS.   2.0 : CWLS log ASCII Standard -VERSION 2.0
WRAP.    NO : One line per depth step
DLM . SPACE : Column Data Section Delimiter
~Well ------------------------------------------------------
STRT .F                  152.0 : START DEPTH
STOP .F                13797.0 : STOP DEPTH
STEP .F                    0.5 : STEP
NULL .                -9999.25 : NULL VALUE
COMP .                         : COMPANY
WELL .                         : WELL
FLD  .                         : FIELD
LOC  .                         : LOCATION
PROV .                         : PROVINCE
CNTY .                         : COUNTY
STAT .                         : STATE
CTRY .                         : COUNTRY
SRVC .                         : SERVICE COMPANY
DATE .                         : DATE
UWI  .                         : UNIQUE WELL ID
API  .                         : API NUMBER
SLAT .WGS84 1.8800801468957005 : SURFACE LATITUDE
SLON .WGS84  8.953720885865991 : SURFACE LONGITUDE
DATUM.F                3796.57 : DEPTH DATUM ELEV
~Curve Information -----------------------------------------
DEPT .F     : 
GRD  .GAPI  : GAMMA RAY FROM DENSITY LOG
TNPH .DEC   : THERMAL NEUTRON POROSITY
HCAL .IN    : HILT CALIPER
DPHZ .DEC   : HRGD STANDARD RESOLUTION DENSITY POROSITY
HDRA .G/C3  : HRDD SPINE AND RIBS DENSITY CORRECTION
PEFZ .B/E   : HHRDD STANDARD RESOLUTION FORMATION PHOTO ELECTRIC
RHOZ .G/C3  : BULK DENSITY
DTCO .US/F  : DELTA-T COMPRESSIONAL
DTSM .US/F  : DELTA-T SHEAR
HD   .IN    : HILT CALIPER
DTCO1.US/F  : LONG-SPACED COMPRESSIONAL INTERVAL TRANSIT TIME 12-13-FT RECEIVER
~Params ----------------------------------------------------
~Other -----------------------------------------------------
~ASCII -----------------------------------------------------
# ...
 8875.00000  111.23310    0.20000    9.95410    0.04790    0.00650    3.49120    2.63560   74.69080  132.91800    9.90910   -9999.25
 8875.50000  103.62190    0.18060    9.91170    0.06540   -0.00170    3.65150    2.60170   71.97420  130.24210    9.87470   -9999.25
 8876.00000   96.34380    0.16110    9.86580    0.07690   -0.00280    3.81190    2.58610   69.55500  128.20340    9.83600   -9999.25
 8876.50000   89.46010    0.14160    9.81270    0.07860    0.00620    3.96620    2.58740   68.64880  124.59590    9.81540   -9999.25
 8877.00000   85.57090    0.12660    9.79100    0.06980    0.02870    4.06020    2.59700   68.03340  124.09660    9.80200   -9999.25
 8877.50000   83.29510    0.13280    9.77470    0.05140    0.05600    4.15420    2.62780   67.72510  122.27830    9.78860   -9999.25
 8878.00000   84.66760    0.14550    9.75260    0.03890    0.07160    4.13770    2.64990   68.54240  119.72940    9.77510   -9999.25
 8878.50000   88.36590    0.15820    9.73940    0.03210    0.05590    4.01290    2.65820   69.29910  119.79450    9.76170   -9999.25
 8879.00000   92.23710    0.16210    9.73100    0.03310    0.04030    3.88810    2.65710   69.69220  125.97610    9.74830   -9999.25
 8879.50000   96.53990    0.15740    9.71540    0.03850    0.02560    3.76330    2.64850   69.42920  126.63760    9.73040   -9999.25
 8880.00000   97.64690    0.15170    9.69980    0.04460    0.01350    3.63850    2.64430   69.03290  123.89230    9.70910   -9999.25
 8880.50000   96.01570    0.14610    9.68420    0.05110    0.00400    3.60470    2.63530   68.59230  122.98860    9.68770   -9999.25
 8881.00000   94.15870    0.14570    9.66860    0.05760    0.00310    3.61890    2.62250   68.26080  122.70620    9.66640   -9999.25
 8881.50000   94.92010    0.14900    9.65300    0.05970    0.00430    3.62340    2.61780   68.13210  121.68430    9.64510   -9999.25
 8882.00000   96.89370    0.15490    9.61200    0.05470    0.00400    3.59490    2.63060   68.27290  120.92680    9.62350   -9999.25
 8882.50000   98.25270    0.16080    9.56900    0.04210    0.00190    3.56630    2.64290   68.25610  121.07230    9.60160   -9999.25
 8883.00000   96.96040    0.16210    9.55340    0.03340   -0.00020    3.56410    2.65640   67.77260  120.11300    9.57970   -9999.25
 8883.50000   95.57120    0.15420    9.54130    0.03900    0.00170    3.59830    2.64980   66.65730  117.83070    9.55780   -9999.25
 8884.00000   93.76660    0.14440    9.52910    0.04730    0.00510    3.63250    2.63970   65.63350  115.41330    9.53600   -9999.25
 8884.50000   89.53570    0.13490    9.51010    0.05260    0.00850    3.71570    2.62830   64.92950  116.69480    9.51410   -9999.25
 8885.00000   84.92110    0.12530    9.47690    0.04430    0.01190    3.79580    2.63950   64.59900  119.98360    9.49380   -9999.25
 8885.50000   83.26580    0.11580    9.44360    0.03190    0.01320    3.83510    2.65500   64.77530  121.82380    9.48320   -9999.25
 8886.00000   87.44950    0.11220    9.41040    0.02150    0.01180    3.72930    2.67360   65.43830  120.27240    9.47260   -9999.25
 8886.50000   93.36840    0.11250    9.40310    0.02280    0.01150    3.61540    2.67140   65.94440  119.85950    9.46200   -9999.25
 8887.00000   95.06040    0.12220    9.40670    0.03070    0.00810    3.50270    2.66300   65.75750  120.55430    9.45140   -9999.25
 8887.50000   92.81790    0.13190    9.41040    0.03730    0.00470    3.44310    2.65470   65.42150  122.09500    9.44080   -9999.25
 8888.00000   89.58030    0.14150    9.41400    0.04570    0.00130    3.56690    2.64190   65.28740  121.31390    9.43430   -9999.25
 8888.50000   85.95510    0.14070    9.41760    0.04700   -0.00110    3.69070    2.63600   65.31310  118.48620    9.42800   -9999.25
 8889.00000   86.66430    0.13540    9.40670    0.04630   -0.00070    3.74840    2.63620   65.25640  117.56100    9.42180   -9999.25
 8889.50000   89.65790    0.13240    9.38180    0.04440    0.00100    3.63680    2.63750   65.11500  116.80290    9.41550   -9999.25
 8890.00000   92.16470    0.13240    9.37080    0.04170    0.00270    3.52510    2.64120   65.43560  116.32940    9.40920   -9999.25
 8890.50000   94.72200    0.13170    9.37440    0.04190    0.00320    3.41730    2.64340   66.60100  116.45450    9.40300   -9999.25
 8891.00000   97.56960    0.12760    9.38010    0.04350    0.00240    3.37740    2.64250   67.67710  118.42310    9.39500   -9999.25
 8891.50000  101.50090    0.13190    9.38590    0.04350    0.00100    3.35870    2.64220   67.96330  119.59390    9.38430   -9999.25
 8892.00000  106.42800    0.14120    9.38250    0.03840   -0.00040    3.35080    2.64720   68.06750  120.76480    9.37370   -9999.25
 8892.50000  108.00560    0.14960    9.35330    0.03760   -0.00180    3.35080    2.65200   67.97440  119.99560    9.36300   -9999.25
 8893.00000  105.89520    0.14530    9.31660    0.04410   -0.00280    3.32310    2.64600   68.01410  118.54520    9.35780   -9999.25
 8893.50000  102.49700    0.13330    9.27070    0.04760   -0.00190    3.27520    2.63460   68.21390  116.10220    9.35780   -9999.25
 8894.00000  101.38340    0.12130    9.24020    0.04350    0.00000    3.22740    2.63980   68.48280  115.76220    9.35780   -9999.25
 8894.50000  102.56310    0.11770    9.29440    0.03920    0.00150    3.22490    2.64550   68.93550  116.81490    9.35780   -9999.25
 8895.00000  105.11700    0.12910    9.35730    0.03970    0.00150    3.30550    2.64870   69.04570  116.36170    9.35780   -9999.25
 8895.50000  107.86530    0.14050    9.41700    0.04280    0.00110    3.40560    2.64480   68.40160  115.70240    9.35780   -9999.25
 8896.00000  107.98330    0.14340    9.62360    0.04610   -0.00030    3.54250    2.63790   67.56340  115.99620    9.35780   -9999.25
 8896.50000  106.58210    0.13510    9.56060    0.04940   -0.00180    3.67420    2.63240   66.90060  119.94170    9.35780   -9999.25
 8897.00000  105.30600    0.12420    9.48570    0.04850   -0.00090    3.72400    2.63010   67.14220  123.18570    9.37520   -9999.25
 8897.50000  105.73490    0.11970    9.42690    0.04310    0.00430    3.67950    2.63770   67.78130  124.42400    9.47600   -9999.25
 8898.00000  109.75120    0.13760    9.35510    0.04480    0.00950    3.62560    2.64230   68.52280  123.66920    9.60640   -9999.25
 8898.50000  116.15130    0.17560    9.54240    0.04260    0.01480    3.62520    2.63870   69.02790  119.86260    9.66390   -9999.25
 8899.00000  116.41740    0.18390    9.71330    0.05210    0.01410    3.60970    2.63300   68.44460  116.40030    9.69840   -9999.25
 8899.50000  107.96930    0.16960    9.73570    0.05620    0.00910    3.53080    2.62180   66.36060  115.14670    9.72890   -9999.25
 8900.00000   97.16920    0.14270    9.74710    0.07590    0.00410    3.28730    2.60740   64.06800  113.41330    9.73520   -9999.25
 8900.50000   85.68010    0.12140    9.75850    0.08050   -0.00080    3.17210    2.59250   62.36560  111.27610    9.74150   -9999.25
 8901.00000   76.78900    0.10380    9.78000    0.08520   -0.00280    3.08180    2.57760   61.60260  109.17540    9.77050   -9999.25
 8901.50000   70.73580    0.10040    9.81910    0.08180   -0.00160    3.04460    2.57710   61.00640  107.32970    9.86560   -9999.25
 8902.00000   64.65500    0.09940    9.85260    0.07530   -0.00040    3.10310    2.58500   60.79140  106.77350    9.85720   -9999.25
 8902.50000   62.86210    0.10000    9.85260    0.07130   -0.00080    3.21450    2.59690   61.09840  110.04560    9.85900   -9999.25
 8903.00000   65.75580    0.10480    9.85260    0.07470   -0.00190    3.30190    2.59280   61.74070  111.16890    9.88500   -9999.25
 8903.50000   69.74750    0.11460    9.88730    0.07700   -0.00300    3.34330    2.58700   62.60330  111.58000    9.92250   -9999.25
 8904.00000   73.64760    0.12420    9.96400    0.07560   -0.00360    3.42170    2.58560   63.71280  112.95360    9.96000   -9999.25
 8904.50000   77.66070    0.13620    9.99200    0.06590   -0.00220    3.51030    2.59830   64.49170  114.40420   10.01160   -9999.25
 8905.00000   81.63390    0.15510   10.00210    0.04400   -0.00050    3.55310    2.62990   65.79140  117.83590   10.06420   -9999.25
