~Version ---------------------------------------------------
VERS.   2.0 : CWLS log ASCII Standard -VERSION 2.0
WRAP.    NO : One line per depth step
DLM . SPACE : Column Data Section Delimiter
~Well ------------------------------------------------------
STRT .F                  152.0 : START DEPTH
STOP .F                13797.0 : STOP DEPTH
STEP .F                    0.5 : STEP
NULL .                -9999.25 : NULL VALUE
COMP .                         : COMPANY
WELL .                         : WELL
FLD  .                         : FIELD
LOC  .                         : LOCATION
PROV .                         : PROVINCE
CNTY .                         : COUNTY
STAT .                         : STATE
CTRY .                         : COUNTRY
SRVC .                         : SERVICE COMPANY
DATE .                         : DATE
UWI  .                         : UNIQUE WELL ID
API  .                         : API NUMBER
SLAT .WGS84 1.8800801468957005 : SURFACE LATITUDE
SLON .WGS84  8.953720885865991 : SURFACE LONGITUDE
DATUM.F                3796.57 : DEPTH DATUM ELEV
~Curve Information -----------------------------------------
DEPT .F     : 
GRD  .GAPI  : GAMMA RAY FROM DENSITY LOG
TNPH .DEC   : THERMAL NEUTRON POROSITY
HCAL .IN    : HILT CALIPER
DPHZ .DEC   : HRGD STANDARD RESOLUTION DENSITY POROSITY
HDRA .G/C3  : HRDD SPINE AND RIBS DENSITY CORRECTION
PEFZ .B/E   : HHRDD STANDARD RESOLUTION FORMATION PHOTO ELECTRIC
RHOZ .G/C3  : BULK DENSITY
DTCO .US/F  : DELTA-T COMPRESSIONAL
DTSM .US/F  : DELTA-T SHEAR
HD   .IN    : HILT CALIPER
DTCO1.US/F  : LONG-SPACED COMPRESSIONAL INTERVAL TRANSIT TIME 12-13-FT RECEIVER
~Params ----------------------------------------------------
~Other -----------------------------------------------------
~ASCII -----------------------------------------------------
# ...
 7655.00000   42.18030    0.16720   10.78320    0.11280    0.04710    6.59600    2.55850   56.93390  102.39720   10.75060   -9999.25
 7655.50000   45.27280    0.17910   10.85680    0.06040    0.06560    6.61890    2.60370   55.85070   99.94950   10.79410   -9999.25
 7656.00000   53.90990    0.18120   11.01310    0.07950    0.09970    5.97450    2.51820   54.35350  100.35770   10.95220   -9999.25
 7656.50000   57.29310    0.18060   11.26170    0.20350    0.14550    5.13060    2.41800   53.59330  101.97970   11.18620   -9999.25
 7657.00000   53.41880    0.17810   11.51040    0.26620    0.15300    4.28660    2.31590   53.22930  102.84210   11.52910   -9999.25
 7657.50000   48.08460    0.17600   11.78290    0.28640    0.14230    4.00130    2.24000   53.56920  102.75120   11.90310   -9999.25
 7658.00000   44.11370    0.17260   12.05930    0.30670    0.13640    4.75060    2.32400   55.99820  102.31300   12.27710   -9999.25
 7658.50000   42.31350    0.16670   12.25660    0.22530    0.13670    5.51190    2.40790   58.06320  101.58640   11.82160   -9999.25
 7659.00000   42.23330    0.16080   12.24740    0.13330    0.13710    5.51860    2.49190   60.12810  100.85980   12.11340   -9999.25
 7659.50000   43.57290    0.15700   11.78490    0.11850    0.13480    5.41630    2.42380   62.84720  101.76930   11.35920   -9999.25
 7660.00000   50.80540    0.15760   11.71790    0.25320    0.10010    5.56360    2.16040   67.66000  109.38970   11.19330   -9999.25
 7660.50000   64.76960    0.16860   11.72600    0.36760    0.06130    5.82680    2.10190   72.92970  118.28670   11.78840   -9999.25
 7661.00000   81.48970    0.18290   12.64280    0.45320    0.02720    6.06620    1.98570   78.19950  127.29960   13.29830   -9999.25
 7661.50000   91.56720    0.19710   13.84600    0.47270   -0.00690    5.87360    1.94510   78.86170  130.81430   14.22960   -9999.25
 7662.00000   98.24620    0.20810   14.33520    0.43080   -0.02600    5.20330    2.10100   78.83000  130.74800   14.51540   -9999.25
 7662.50000   98.32600    0.20910   13.39230    0.23570   -0.00890    4.63510    2.32460   77.44210  128.29140   12.81500   -9999.25
 7663.00000   92.89690    0.19720   12.15600    0.13250    0.00170    4.11420    2.49020   75.42500  122.13510   11.21750   -9999.25
 7663.50000   86.93600    0.15560   11.17870    0.07900    0.00580    3.87460    2.55690   73.42290  115.97880   11.05530   -9999.25
 7664.00000   82.79300    0.15620   11.00660    0.06100    0.00540    3.90990    2.61230   71.59560  112.22220   11.02860   -9999.25
 7664.50000   81.51880    0.16050   10.98520    0.06730    0.00160    3.97380    2.60670   69.98330  112.51720   11.02080   -9999.25
 7665.00000   80.30360    0.15890   10.98520    0.06660   -0.00120    4.03760    2.60360   69.79800  114.16060   11.01340   -9999.25
 7665.50000   79.41970    0.15050   10.98520    0.06370   -0.00090    4.01520    2.60770   69.61260  115.80410   11.00600   -9999.25
 7666.00000   78.53570    0.15170   10.98520    0.06480   -0.00050    3.98000    2.60810   69.65380  117.03530   10.99850   -9999.25
 7666.50000   77.78140    0.15960   10.98320    0.06510   -0.00010    3.94480    2.60680   69.77620  116.65860   10.99110   -9999.25
 7667.00000   76.85070    0.16660   10.97350    0.06360    0.00020    3.90950    2.60920   69.77620  116.27170   10.98370   -9999.25
 7667.50000   75.04730    0.16760   10.96390    0.06170    0.00050    3.87430    2.61040   69.77620  115.88470   10.97630   -9999.25
 7668.00000   73.12190    0.17150   10.95430    0.06170    0.00000    3.83910    2.61070   69.77620  116.04250   10.96880   -9999.25
 7668.50000   71.91070    0.17600   10.94460    0.06250   -0.00050    3.81020    2.60990   69.77620  116.41230   10.96140   -9999.25
 7669.00000   72.38530    0.17870   10.93500    0.06500   -0.00100    3.86260    2.60490   69.77620  116.39200   10.95400   -9999.25
 7669.50000   75.08240    0.16750   10.92540    0.06860   -0.00140    3.90120    2.60510   69.73130  116.13960   10.95280   -9999.25
 7670.00000   78.52030    0.15860   10.91570    0.06420   -0.00190    3.89890    2.61180   69.59390  115.88710   10.95280   -9999.25
 7670.50000   81.67080    0.14970   10.90610    0.06230   -0.00210    3.87880    2.61390   69.35570  115.78360   10.95200   -9999.25
 7671.00000   82.48560    0.14600   10.89530    0.06090   -0.00230    3.85880    2.61080   69.33060  115.85950   10.91990   -9999.25
 7671.50000   82.65680    0.14740   10.87440    0.06430   -0.00260    3.83870    2.60760   69.51440  116.03330   10.88780   -9999.25
 7672.00000   82.67740    0.14950   10.86520    0.05600   -0.00280    3.83910    2.62000   69.67100  116.22770   10.86080   -9999.25
 7672.50000   82.35480    0.14800   10.86860    0.05570   -0.00200    3.86650    2.61990   69.78210  116.32910   10.85240   -9999.25
 7673.00000   79.72200    0.14440   10.87320    0.05640   -0.00100    3.88640    2.61960   69.89450  116.33650   10.85180   -9999.25
 7673.50000   77.18340    0.14230   10.87540    0.05690   -0.00010    3.90180    2.61900   70.01090  115.83540   10.86210   -9999.25
 7674.00000   75.97390    0.14810   10.92420    0.05280    0.00060    3.90940    2.62390   70.07660  115.32960   10.92370   -9999.25
 7674.50000   77.54920    0.15530   10.96750    0.05030   -0.00050    3.88090    2.62840   70.12890  116.00410   10.98770   -9999.25
 7675.00000   78.10490    0.16260   11.01070    0.05380   -0.00240    3.84000    2.62330   70.17510  116.06740   11.02790   -9999.25
 7675.50000   77.95570    0.16870   11.01820    0.05740   -0.00360    3.79900    2.61990   70.18520  115.92700   11.02830   -9999.25
 7676.00000   76.64200    0.16860   11.03240    0.05620   -0.00280    3.75800    2.62220   70.16790  116.09750   11.04620   -9999.25
 7676.50000   75.46700    0.16130   11.05830    0.05200   -0.00080    3.71700    2.63130   70.08880  116.54550   11.07100   -9999.25
 7677.00000   76.63000    0.15390   11.09200    0.04300    0.00120    3.69600    2.64260   70.00970  116.24610   11.10930   -9999.25
 7677.50000   78.22950    0.14660   11.10600    0.03800    0.00300    3.69600    2.64740   69.93060  115.73870   11.12420   -9999.25
 7678.00000   80.90360    0.13930   11.09890    0.03930    0.00350    3.67440    2.64740   69.85880  115.35410   11.12510   -9999.25
 7678.50000   81.23460    0.13630   11.09510    0.04820    0.00180    3.64340    2.63310   69.81700  115.35410   11.12590   -9999.25
 7679.00000   79.63470    0.13940   11.12900    0.05450    0.00010    3.61290    2.62540   70.17280  115.57930   11.12680   -9999.25
 7679.50000   77.96530    0.14260   11.16850    0.06060    0.00030    3.58270    2.61330   70.84520  116.20790   11.12770   -9999.25
 7680.00000   80.10050    0.14380   11.18430    0.06820    0.00400    3.58710    2.60130   71.50340  116.41750   11.10360   -9999.25
 7680.50000   82.66500    0.14420   10.82590    0.07180    0.00760    3.62150    2.60160   71.24930  115.46340   10.67000   -9999.25
 7681.00000   84.45320    0.14400   10.69100    0.06440    0.01090    3.69640    2.61260   70.06990  114.49430   10.47990   -9999.25
 7681.50000   83.38990    0.14260   10.88930    0.05110    0.00790    3.80190    2.62890   68.99910  113.52520   10.70800   -9999.25
 7682.00000   80.76070    0.13610   11.14790    0.04800    0.00240    3.91010    2.63240   67.92830  112.55600   11.12120   -9999.25
 7682.50000   77.51810    0.12700   11.42360    0.05080   -0.00240    3.97500    2.63010   66.93690  111.58690   11.41580   -9999.25
 7683.00000   73.97670    0.11640   11.68100    0.05400   -0.00500    3.97240    2.62610   66.40810  110.72920   11.53670   -9999.25
 7683.50000   69.91230    0.10560   11.75580    0.05370   -0.00540    3.92940    2.62070   66.63100  110.06530   11.60010   -9999.25
 7684.00000   65.97380    0.10740   11.75520    0.05620   -0.00540    3.88640    2.61970   67.10300  109.74540   11.64510   -9999.25
 7684.50000   65.17540    0.11180   11.51170    0.05260   -0.00360    3.89210    2.62800   67.56550  109.89310   11.60510   -9999.25
 7685.00000   68.41970    0.11630   11.31010    0.04320   -0.00090    3.92510    2.64200   67.69850  110.39270   11.18700   -9999.25
