~Version ---------------------------------------------------
VERS.   2.0 : CWLS log ASCII Standard -VERSION 2.0
WRAP.    NO : One line per depth step
DLM . SPACE : Column Data Section Delimiter
~Well ------------------------------------------------------
STRT .F                  152.0 : START DEPTH
STOP .F                13797.0 : STOP DEPTH
STEP .F                    0.5 : STEP
NULL .                -9999.25 : NULL VALUE
COMP .                         : COMPANY
WELL .                         : WELL
FLD  .                         : FIELD
LOC  .                         : LOCATION
PROV .                         : PROVINCE
CNTY .                         : COUNTY
STAT .                         : STATE
CTRY .                         : COUNTRY
SRVC .                         : SERVICE COMPANY
DATE .                         : DATE
UWI  .                         : UNIQUE WELL ID
API  .                         : API NUMBER
SLAT .WGS84 1.8800801468957005 : SURFACE LATITUDE
SLON .WGS84  8.953720885865991 : SURFACE LONGITUDE
DATUM.F                3796.57 : DEPTH DATUM ELEV
~Curve Information -----------------------------------------
DEPT .F     : 
GRD  .GAPI  : GAMMA RAY FROM DENSITY LOG
TNPH .DEC   : THERMAL NEUTRON POROSITY
HCAL .IN    : HILT CALIPER
DPHZ .DEC   : HRGD STANDARD RESOLUTION DENSITY POROSITY
HDRA .G/C3  : HRDD SPINE AND RIBS DENSITY CORRECTION
PEFZ .B/E   : HHRDD STANDARD RESOLUTION FORMATION PHOTO ELECTRIC
RHOZ .G/C3  : BULK DENSITY
DTCO .US/F  : DELTA-T COMPRESSIONAL
DTSM .US/F  : DELTA-T SHEAR
HD   .IN    : HILT CALIPER
DTCO1.US/F  : LONG-SPACED COMPRESSIONAL INTERVAL TRANSIT TIME 12-13-FT RECEIVER
~Params ----------------------------------------------------
~Other -----------------------------------------------------
~ASCII -----------------------------------------------------
# ...
 10513.50000   66.32710    0.11680   12.43710    0.10740   -0.00160    3.03030    2.53860   62.18450  101.95050   12.43700   -9999.25
 10514.00000   65.05060    0.11680   12.50410    0.11280   -0.00360    3.06200    2.52750   61.83840  101.94690   12.52800   -9999.25
 10514.50000   64.64010    0.11780   12.57110    0.11970   -0.00490    3.09160    2.51710   61.41350  102.45170   12.63360   -9999.25
 10515.00000   64.86470    0.11770   12.64750    0.12430   -0.00570    3.11600    2.51110   61.09530  102.85950   12.70790   -9999.25
 10515.50000   65.61940    0.11750   12.72630    0.12270   -0.00630    3.14090    2.51320   61.53360  103.58980   12.75410   -9999.25
 10516.00000   67.08810    0.11720   12.76550    0.11430   -0.00680    3.16600    2.52300   62.57020  105.01190   12.80030   -9999.25
 10516.50000   68.40550    0.11970   12.78230    0.10600   -0.00580    3.19110    2.53600   63.25270  106.58970   12.84650   -9999.25
 10517.00000   67.21980    0.12830   12.86470    0.09760   -0.00480    3.21630    2.54970   63.19480  108.44260   12.89320   -9999.25
 10517.50000   65.45010    0.13710   12.99170    0.09590   -0.00380    3.24140    2.55530   63.20310  110.09050   12.95270   -9999.25
 10518.00000   65.74970    0.14500   13.01920    0.10160   -0.00270    3.26380    2.55150   63.75650  111.17900   13.01230   -9999.25
 10518.50000   67.15960    0.15260   13.07380    0.10760   -0.00160    3.27820    2.53960   65.09120  112.23480   13.09120   -9999.25
 10519.00000   68.45230    0.15550   13.15850    0.11580   -0.00050    3.27500    2.52390   66.45520  113.27910   13.19450   -9999.25
 10519.50000   67.57470    0.15330   13.26090    0.12070    0.00060    3.24930    2.51610   68.11530  114.32330   13.29770   -9999.25
 10520.00000   66.12290    0.14920   13.37830    0.12730    0.00080    3.22370    2.51060   69.41560  115.23140   13.40010   -9999.25
 10520.50000   65.13380    0.14280   13.49580    0.12870    0.00100    3.21370    2.50560   69.92380  116.11560   13.50230   -9999.25
 10521.00000   64.62430    0.13820   13.57650    0.13090    0.00120    3.21970    2.50150   69.43110  116.89510   13.60360   -9999.25
 10521.50000   65.00610    0.14010   13.63970    0.12880    0.00140    3.22540    2.50410   68.48450  117.05770   13.67540   -9999.25
 10522.00000   65.91530    0.14420   13.69440    0.12560    0.00160    3.22650    2.51050   67.46440  116.47250   13.74730   -9999.25
 10522.50000   66.11990    0.14790   13.73040    0.12160    0.00180    3.22650    2.51490   66.45890  115.89930   13.80310   -9999.25
 10523.00000   66.02590    0.15170   13.75230    0.12140    0.00200    3.22650    2.51510   65.86400  115.34190   13.82280   -9999.25
 10523.50000   65.71150    0.15070   13.76820    0.12150    0.00220    3.22650    2.51630   66.19390  114.83580   13.84240   -9999.25
 10524.00000   65.54440    0.14900   13.79410    0.11530    0.00240    3.22690    2.52330   66.61150  113.16210   13.85990   -9999.25
 10524.50000   66.96720    0.14860   13.81700    0.11500    0.00240    3.24390    2.52270   66.30210  111.72840   13.86650   -9999.25
 10525.00000   68.52000    0.15560   13.82120    0.11840    0.00240    3.29400    2.52180   65.10700  109.60410   13.84770   -9999.25
 10525.50000   69.54970    0.15230   13.78830    0.12540    0.00240    3.37100    2.51180   63.44020  106.95550   13.81170   -9999.25
 10526.00000   68.31100    0.14280   13.74100    0.11690    0.00240    3.42350    2.52190   62.11710  104.85020   13.77560   -9999.25
 10526.50000   66.62060    0.13330   13.68510    0.10500    0.00240    3.43470    2.53810   62.09720  104.58930   13.72500   -9999.25
 10527.00000   65.84410    0.12670   13.62190    0.09230    0.00240    3.45500    2.55130   62.49240  105.33480   13.65690   -9999.25
 10527.50000   66.32330    0.12330   13.55840    0.10000    0.00240    3.46460    2.55440   63.19410  106.29910   13.58870   -9999.25
 10528.00000   67.41130    0.12640   13.49560    0.11840    0.00240    3.42540    2.50600   64.27520  107.94830   13.52070   -9999.25
 10528.50000   69.17810    0.13690   13.42090    0.13120    0.00240    3.36720    2.50730   65.75650  108.94820   13.45270   -9999.25
 10529.00000   70.99920    0.14630   13.34140    0.12450    0.00240    3.30600    2.51300   66.68670  109.45590   13.38410   -9999.25
 10529.50000   71.22320    0.15190   13.26190    0.11670    0.00330    3.24470    2.52730   67.11790  109.83800   13.25490   -9999.25
 10530.00000   69.87420    0.15630   13.15390    0.11170    0.00430    3.20090    2.53080   67.28890  110.19800   13.12570   -9999.25
 10530.50000   68.90690    0.15870   12.97060    0.11030    0.00540    3.18750    2.53430   67.05750  110.42450   12.99660   -9999.25
 10531.00000   69.12620    0.16130   12.84520    0.10570    0.00640    3.19270    2.53940   66.75610  110.34700   12.86630   -9999.25
 10531.50000   70.34930    0.16440   12.72660    0.09990    0.00750    3.23590    2.54940   66.58350  110.26040   12.73300   -9999.25
 10532.00000   71.28060    0.16800   12.64050    0.09850    0.00820    3.27860    2.55160   66.14840  110.17380   12.63260   -9999.25
 10532.50000   71.26880    0.16840   12.57890    0.09860    0.00760    3.27480    2.55380   65.02020  110.05510   12.57930   -9999.25
 10533.00000   69.54710    0.16670   12.50130    0.09850    0.00650    3.23720    2.54850   62.88810  109.77960   12.51320   -9999.25
 10533.50000   66.87950    0.15210   12.41230    0.09790    0.00540    3.19490    2.55330   60.70430  108.19820   12.44510   -9999.25
 10534.00000   64.21190    0.13980   12.36360    0.08940    0.00540    3.21300    2.56290   60.20590  106.92650   12.34600   -9999.25
 10534.50000   63.36240    0.12750   12.24470    0.07790    0.00620    3.26400    2.58290   60.94040  106.92650   12.22710   -9999.25
 10535.00000   62.67460    0.11510   12.11790    0.07110    0.00700    3.31270    2.59740   62.48630  107.30020   12.12720   -9999.25
 10535.50000   62.95680    0.10570   12.03130    0.07390    0.00740    3.26910    2.58920   64.43350  108.02170   12.02730   -9999.25
 10536.00000   64.02860    0.11410   11.94470    0.08160    0.00700    3.18640    2.56440   65.73610  108.74450   11.99330   -9999.25
 10536.50000   64.11810    0.12250   11.94440    0.11280    0.00660    3.18690    2.52330   67.32850  109.28280   11.96760   -9999.25
 10537.00000   64.34990    0.13080   11.96420    0.12750    0.00620    3.20040    2.50460   68.29970  109.35570   11.94180   -9999.25
 10537.50000   66.18840    0.14330   11.94090    0.12780    0.00590    3.29040    2.50560   68.46970  109.42860   11.90940   -9999.25
 10538.00000   68.65200    0.15350   11.88690    0.11070    0.00550    3.37100    2.51900   67.96740  109.22090   11.86070   -9999.25
 10538.50000   71.11560    0.16050   11.80200    0.09170    0.00510    3.42960    2.55630   66.99470  108.99330   11.81290   -9999.25
 10539.00000   72.74500    0.16220   11.74620    0.08840    0.00470    3.35300    2.56590   66.19850  108.76580   11.76870   -9999.25
 10539.50000   73.49480    0.15610   11.70680    0.09360    0.00440    3.21910    2.56530   65.50330  108.55130   11.72440   -9999.25
 10540.00000   72.24020    0.14530   11.66730    0.10310    0.00360    3.10690    2.54990   65.35750  108.33680   11.68010   -9999.25
 10540.50000   70.88020    0.12860   11.62790    0.10870    0.00160    3.08420    2.54110   65.74540  108.12240   11.63590   -9999.25
 10541.00000   69.52020    0.11680   11.58490    0.11200   -0.00030    3.12220    2.53240   66.10360  106.88160   11.59220   -9999.25
 10541.50000   68.18710    0.11440   11.53670    0.11100   -0.00120    3.14570    2.52840   66.35190  105.77460   11.55850   -9999.25
 10542.00000   66.54380    0.11480   11.49290    0.10560    0.00330    3.14440    2.53680   66.68660  104.82160   11.52480   -9999.25
 10542.50000   64.19920    0.12090   11.45250    0.10450    0.00780    3.14560    2.54240   66.88630  103.81020   11.49120   -9999.25
 10543.00000   62.74290    0.12300   11.41410    0.11240    0.00780    3.12740    2.53090   65.81550  103.10550   11.44510   -9999.25
