~Version ---------------------------------------------------
VERS.   2.0 : CWLS log ASCII Standard -VERSION 2.0
WRAP.    NO : One line per depth step
DLM . SPACE : Column Data Section Delimiter
~Well ------------------------------------------------------
STRT .F                  152.0 : START DEPTH
STOP .F                13797.0 : STOP DEPTH
STEP .F                    0.5 : STEP
NULL .                -9999.25 : NULL VALUE
COMP .                         : COMPANY
WELL .                         : WELL
FLD  .                         : FIELD
LOC  .                         : LOCATION
PROV .                         : PROVINCE
CNTY .                         : COUNTY
STAT .                         : STATE
CTRY .                         : COUNTRY
SRVC .                         : SERVICE COMPANY
DATE .                         : DATE
UWI  .                         : UNIQUE WELL ID
API  .                         : API NUMBER
SLAT .WGS84 1.8800801468957005 : SURFACE LATITUDE
SLON .WGS84  8.953720885865991 : SURFACE LONGITUDE
DATUM.F                3796.57 : DEPTH DATUM ELEV
~Curve Information -----------------------------------------
DEPT .F     : 
GRD  .GAPI  : GAMMA RAY FROM DENSITY LOG
TNPH .DEC   : THERMAL NEUTRON POROSITY
HCAL .IN    : HILT CALIPER
DPHZ .DEC   : HRGD STANDARD RESOLUTION DENSITY POROSITY
HDRA .G/C3  : HRDD SPINE AND RIBS DENSITY CORRECTION
PEFZ .B/E   : HHRDD STANDARD RESOLUTION FORMATION PHOTO ELECTRIC
RHOZ .G/C3  : BULK DENSITY
DTCO .US/F  : DELTA-T COMPRESSIONAL
DTSM .US/F  : DELTA-T SHEAR
HD   .IN    : HILT CALIPER
DTCO1.US/F  : LONG-SPACED COMPRESSIONAL INTERVAL TRANSIT TIME 12-13-FT RECEIVER
~Params ----------------------------------------------------
~Other -----------------------------------------------------
~ASCII -----------------------------------------------------
# ...
 13363.50000  189.45250    0.19270    8.19520    0.05770    0.03730    3.76380    2.62000   -9999.25   -9999.25   -9999.25   92.42480
 13364.00000  189.45050    0.18740    8.17740    0.07000    0.03400    3.78350    2.59480   -9999.25   -9999.25   -9999.25   92.25770
 13364.50000  188.66730    0.18920    8.16050    0.08230    0.03650    3.80690    2.57810   -9999.25   -9999.25   -9999.25   91.33310
 13365.00000  188.31000    0.20700    8.15080    0.08670    0.05250    3.83400    2.57110   -9999.25   -9999.25   -9999.25   89.60870
 13365.50000  187.29820    0.21990    8.14120    0.08120    0.08390    3.86400    2.58080   -9999.25   -9999.25   -9999.25   88.36890
 13366.00000  185.44380    0.22800    8.13150    0.07180    0.12860    3.90820    2.59780   -9999.25   -9999.25   -9999.25   87.96130
 13366.50000  182.58130    0.23340    8.12190    0.05910    0.16210    3.91990    2.61980   -9999.25   -9999.25   -9999.25   88.17340
 13367.00000  184.27790    0.23430    8.11220    0.05390    0.16520    3.87060    2.62450   -9999.25   -9999.25   -9999.25   88.26450
 13367.50000  187.75120    0.23310    8.10260    0.05340    0.12730    3.81180    2.62370   -9999.25   -9999.25   -9999.25   88.61660
 13368.00000  191.22450    0.22840    8.10850    0.07040    0.05820    3.80830    2.60220   -9999.25   -9999.25   -9999.25   89.13650
 13368.50000  192.36660    0.21610    8.12060    0.07310    0.03150    3.91820    2.59280   -9999.25   -9999.25   -9999.25   89.65630
 13369.00000  186.73450    0.20030    8.13260    0.07630    0.02120    4.02820    2.58990   -9999.25   -9999.25   -9999.25   90.01600
 13369.50000  176.06290    0.18370    8.14470    0.07450    0.01150    4.06770    2.58890   -9999.25   -9999.25   -9999.25   90.07870
 13370.00000  166.57280    0.16900    8.15680    0.07010    0.00660    3.99670    2.58790   -9999.25   -9999.25   -9999.25   90.10820
 13370.50000  161.54360    0.17260    8.16880    0.07000    0.00420    3.92000    2.58430   -9999.25   -9999.25   -9999.25   90.01160
 13371.00000  162.26740    0.19840    8.18090    0.08680    0.01250    3.84320    2.57000   -9999.25   -9999.25   -9999.25   89.52590
 13371.50000  167.46400    0.21980    8.19440    0.10600    0.04090    3.83550    2.53900   -9999.25   -9999.25   -9999.25   88.05790
 13372.00000  174.97160    0.22570    8.20820    0.10200    0.06830    3.83550    2.54470   -9999.25   -9999.25   -9999.25   86.75720
 13372.50000  180.37400    0.21970    8.22190    0.09560    0.06320    3.82120    2.55820   -9999.25   -9999.25   -9999.25   86.40740
 13373.00000  181.22410    0.20830    8.23560    0.09020    0.05760    3.78940    2.56550   -9999.25   -9999.25   -9999.25   86.51490
 13373.50000  178.98260    0.20180    8.23970    0.08170    0.05210    3.76770    2.57880   -9999.25   -9999.25   -9999.25   86.61110
 13374.00000  175.24430    0.19670    8.22900    0.07430    0.04660    3.73140    2.58970   -9999.25   -9999.25   -9999.25   86.64980
 13374.50000  173.41980    0.18920    8.19970    0.07110    0.04090    3.64750    2.59480   -9999.25   -9999.25   -9999.25   86.60020
 13375.00000  173.90170    0.18180    8.14860    0.08110    0.03350    3.56360    2.58300   -9999.25   -9999.25   -9999.25   86.57100
 13375.50000  176.91130    0.17890    8.09760    0.08060    0.02620    3.47970    2.58050   -9999.25   -9999.25   -9999.25   86.17640
 13376.00000  175.79030    0.18020    8.05710    0.08140    0.01880    3.44340    2.57750   -9999.25   -9999.25   -9999.25   84.57770
 13376.50000  174.91080    0.18360    8.05020    0.09120    0.01370    3.42630    2.56750   -9999.25   -9999.25   -9999.25   82.55950
 13377.00000  174.09340    0.18400    8.04340    0.09760    0.00980    3.40350    2.55160   -9999.25   -9999.25   -9999.25   81.53630
 13377.50000  173.08040    0.18360    8.04270    0.09540    0.00690    3.36350    2.55370   -9999.25   -9999.25   -9999.25   80.78980
 13378.00000  171.15010    0.18350    8.06260    0.09200    0.00740    3.32360    2.56310   -9999.25   -9999.25   -9999.25   79.99170
 13378.50000  171.54110    0.18320    8.08240    0.09090    0.00920    3.28580    2.56570   -9999.25   -9999.25   -9999.25   79.15630
 13379.00000  173.36210    0.18300    8.10220    0.09560    0.00770    3.27390    2.55720   -9999.25   -9999.25   -9999.25   78.36500
 13379.50000  174.09840    0.18200    8.12200    0.10410    0.00390    3.23870    2.54350   -9999.25   -9999.25   -9999.25   78.45520
 13380.00000  169.04550    0.17920    8.14190    0.11210    0.00240    3.15370    2.53180   -9999.25   -9999.25   -9999.25   78.79090
 13380.50000  157.43920    0.17340    8.15710    0.11510    0.00310    3.06860    2.52660   -9999.25   -9999.25   -9999.25   79.43130
 13381.00000  140.97250    0.16020    8.16330    0.10170    0.00310    3.09680    2.53710   -9999.25   -9999.25   -9999.25   82.25930
 13381.50000  129.34960    0.13910    8.16950    0.07490    0.00730    3.27330    2.59700   -9999.25   -9999.25   -9999.25   86.41640
 13382.00000  127.35350    0.12810    8.15630    0.04420    0.02610    3.46160    2.64070   -9999.25   -9999.25   -9999.25   88.46160
 13382.50000  138.37790    0.13170    8.12280    0.04960    0.02410    3.57380    2.62260   -9999.25   -9999.25   -9999.25   89.22360
 13383.00000  145.68920    0.13450    8.09100    0.06740    0.00740    3.56110    2.59780   -9999.25   -9999.25   -9999.25   89.23430
 13383.50000  142.17850    0.13400    8.06380    0.07680   -0.00510    3.70510    2.59260   -9999.25   -9999.25   -9999.25   89.25650
 13384.00000  132.66850    0.13650    8.03220    0.03850   -0.00620    3.83440    2.64870   -9999.25   -9999.25   -9999.25   89.53420
 13384.50000  137.54290    0.14150    7.99620    0.04110    0.01210    3.67990    2.62190   -9999.25   -9999.25   -9999.25   89.99270
 13385.00000  157.03460    0.14100    7.96020    0.08680    0.01460    3.34240    2.57480   -9999.25   -9999.25   -9999.25   90.60080
 13385.50000  170.08650    0.14000    7.92420    0.17700    0.01160    2.82090    2.42710   -9999.25   -9999.25   -9999.25   91.03300
 13386.00000  179.96130    0.13950    7.88810    0.18020    0.00710    2.73170    2.41620   -9999.25   -9999.25   -9999.25   91.03580
 13386.50000  178.93450    0.14270    7.87650    0.17840    0.01160    2.67770    2.41600   -9999.25   -9999.25   -9999.25   91.01130
 13387.00000  178.27580    0.14750    7.86750    0.18200    0.01450    2.64730    2.41530   -9999.25   -9999.25   -9999.25   90.58720
 13387.50000  181.29480    0.15100    7.86680    0.18650    0.01360    2.61700    2.41090   -9999.25   -9999.25   -9999.25   88.92270
 13388.00000  184.31390    0.14930    7.89560    0.18920    0.00940    2.58670    2.41080   -9999.25   -9999.25   -9999.25   87.02060
 13388.50000  187.42490    0.14650    7.92440    0.18370    0.00660    2.58500    2.41670   -9999.25   -9999.25   -9999.25   85.65380
 13389.00000  190.56080    0.14700    7.92300    0.17770    0.00580    2.58810    2.42260   -9999.25   -9999.25   -9999.25   85.37320
 13389.50000  193.96240    0.15160    7.91830    0.18130    0.00580    2.61680    2.42200   -9999.25   -9999.25   -9999.25   85.10530
 13390.00000  201.30060    0.15390    7.90360    0.18570    0.00620    2.67680    2.41180   -9999.25   -9999.25   -9999.25   84.34300
 13390.50000  214.67650    0.15440    7.88820    0.18570    0.00690    2.70650    2.41360   -9999.25   -9999.25   -9999.25   83.08600
 13391.00000  230.42410    0.15330    7.88450    0.17480    0.00750    2.71380    2.42250   -9999.25   -9999.25   -9999.25   82.27850
 13391.50000  245.47900    0.14790    7.88450    0.16810    0.00820    2.74810    2.43570   -9999.25   -9999.25   -9999.25   81.48810
 13392.00000  247.94860    0.14130    7.88810    0.16690    0.00870    2.79630    2.43900   -9999.25   -9999.25   -9999.25   80.78800
 13392.50000  241.74390    0.13960    7.90280    0.16690    0.00900    2.84450    2.44120   -9999.25   -9999.25   -9999.25   80.96000
 13393.00000  234.69620    0.14010    7.90860    0.16020    0.00940    2.89260    2.44520   -9999.25   -9999.25   -9999.25   81.13200
