~Version ---------------------------------------------------
VERS.   2.0 : CWLS log ASCII Standard -VERSION 2.0
WRAP.    NO : One line per depth step
DLM . SPACE : Column Data Section Delimiter
~Well ------------------------------------------------------
STRT .F                  152.0 : START DEPTH
STOP .F                13797.0 : STOP DEPTH
STEP .F                    0.5 : STEP
NULL .                -9999.25 : NULL VALUE
COMP .                         : COMPANY
WELL .                         : WELL
FLD  .                         : FIELD
LOC  .                         : LOCATION
PROV .                         : PROVINCE
CNTY .                         : COUNTY
STAT .                         : STATE
CTRY .                         : COUNTRY
SRVC .                         : SERVICE COMPANY
DATE .                         : DATE
UWI  .                         : UNIQUE WELL ID
API  .                         : API NUMBER
SLAT .WGS84 1.8800801468957005 : SURFACE LATITUDE
SLON .WGS84  8.953720885865991 : SURFACE LONGITUDE
DATUM.F                3796.57 : DEPTH DATUM ELEV
~Curve Information -----------------------------------------
DEPT .F     : 
GRD  .GAPI  : GAMMA RAY FROM DENSITY LOG
TNPH .DEC   : THERMAL NEUTRON POROSITY
HCAL .IN    : HILT CALIPER
DPHZ .DEC   : HRGD STANDARD RESOLUTION DENSITY POROSITY
HDRA .G/C3  : HRDD SPINE AND RIBS DENSITY CORRECTION
PEFZ .B/E   : HHRDD STANDARD RESOLUTION FORMATION PHOTO ELECTRIC
RHOZ .G/C3  : BULK DENSITY
DTCO .US/F  : DELTA-T COMPRESSIONAL
DTSM .US/F  : DELTA-T SHEAR
HD   .IN    : HILT CALIPER
DTCO1.US/F  : LONG-SPACED COMPRESSIONAL INTERVAL TRANSIT TIME 12-13-FT RECEIVER
~Params ----------------------------------------------------
~Other -----------------------------------------------------
~ASCII -----------------------------------------------------
# ...
 12523.50000   76.10260    0.56240   13.94300    0.21360    0.30120    6.09340    2.13020  131.95180  205.98040   13.99350   -9999.25
 12524.00000   72.69000    0.56790   14.87000    0.26220    0.28840    6.25490    2.08770  132.95260  212.59410   15.44670   -9999.25
 12524.50000   67.54370    0.54530   16.47050    0.35690    0.34560    6.37920    2.16090  132.52070  209.11580   17.00050   -9999.25
 12525.00000   67.04430    0.51870   17.52800    0.41160    0.40780    6.33950    2.27230  127.77220  208.01000   18.22860   -9999.25
 12525.50000   67.26470    0.49900   18.34430    0.33400    0.46670    6.12590    2.41530  121.02490  204.92680   17.33570   -9999.25
 12526.00000   67.75000    0.55980   17.04030    0.20380    0.22380    6.04870    2.47140  111.96840  191.10850   16.38530   -9999.25
 12526.50000   68.28720    0.63940   15.71700    0.13830    0.16380    6.05800    2.42950  108.44150  175.92400   15.35530   -9999.25
 12527.00000   71.07220    0.68090   14.93080    0.15380    0.12790    5.93150    2.32860  105.15730  164.20940   14.69270   -9999.25
 12527.50000   77.31140    0.58410   14.51670    0.21760    0.10080    5.48340    2.21070   98.15610  152.03330   14.45980   -9999.25
 12528.00000   85.33470    0.48830   14.22890    0.26780    0.18460    5.56850    2.15420   89.83430  145.71890   14.15070   -9999.25
 12528.50000   92.00100    0.44260   13.72010    0.32920    0.27890    5.97260    2.18420   84.60140  147.65280   13.80480   -9999.25
 12529.00000   97.59410    0.41010   13.62860    0.34740    0.29960    6.16150    2.26220   80.07140  147.16020   13.75660   -9999.25
 12529.50000   98.14450    0.38850   13.87990    0.25730    0.30090    6.05480    2.37640   75.75660  147.52590   13.75920   -9999.25
 12530.00000   94.99820    0.37570   14.16460    0.16720    0.30160    5.88220    2.44180   74.29200  151.58390   13.94070   -9999.25
 12530.50000   92.02780    0.37080   14.44590    0.15420    0.30160    5.74680    2.46080   74.20990  155.22180   14.36600   -9999.25
 12531.00000   90.88370    0.36910   15.01910    0.18000    0.29390    5.74850    2.40600   74.07460  155.20890   14.73890   -9999.25
 12531.50000   89.41190    0.36880   15.92990    0.22810    0.23280    5.85640    2.15070   73.86930  153.53560   15.91040   -9999.25
 12532.00000   87.49460    0.43070   17.03060    0.27270    0.17120    5.95000    2.11570   73.97340  151.94310   17.30070   -9999.25
 12532.50000   85.89190    0.51490   18.07020    0.38710    0.14060    6.24390    2.09820   75.40950  151.44880   17.78260   -9999.25
 12533.00000   86.13390    0.65070   18.46550    0.59630    0.11980    6.62500    2.09710   78.16640  155.73900   18.89160   -9999.25
 12533.50000   86.67260    0.65170   18.49420    0.67900    0.10900    7.00610    2.09750   82.16550  155.89620   18.26260   -9999.25
 12534.00000   86.89950    0.56490   18.40040    0.69950    0.29610    7.40160    2.09920   85.14700  155.57170   18.21600   -9999.25
 12534.50000   85.69950    0.40360   17.25660    0.69490    0.29920    7.18910    2.11350   83.10800  154.75300   18.13400   -9999.25
 12535.00000   84.31080    0.27150   15.76140    0.52440    0.29670    6.57560    2.34290   81.19470  149.26640   15.68320   -9999.25
 12535.50000   85.04660    0.20070   12.58670    0.27560    0.24980    5.96210    2.49150   79.28140  136.41750   12.68000   -9999.25
 12536.00000   89.23370    0.20730   10.05910    0.05220    0.17530    6.03690    2.53830   76.55200  138.44090    9.09120   -9999.25
 12536.50000   92.75030    0.21380    9.05830    0.01980    0.10080    6.42500    2.67820   76.96400  145.63360    9.03650   -9999.25
 12537.00000   93.48400    0.21950    8.99810    0.03520    0.07670    6.30560    2.65350   77.71230  162.89090    8.98180   -9999.25
 12537.50000   93.02470    0.21920    8.95130    0.05010    0.08110    6.18420    2.63140   77.71230  161.27520    8.92590   -9999.25
 12538.00000   93.09350    0.21820    8.90450    0.05000    0.08550    6.06290    2.62990   77.65510  150.87080    8.85900   -9999.25
 12538.50000   93.80990    0.21860    8.85780    0.04190    0.08090    6.00620    2.64300   77.53520  140.93210    8.81490   -9999.25
 12539.00000   93.49160    0.22000    8.81100    0.05430    0.06580    6.00770    2.63050   76.79040  137.50950    8.81720   -9999.25
 12539.50000   92.84960    0.22130    8.80630    0.05190    0.05870    6.02340    2.62460   76.53030  141.64310    8.81960   -9999.25
 12540.00000   93.13150    0.22140    8.82050    0.04040    0.06670    6.08480    2.62690   76.68850  142.05000    8.82190   -9999.25
 12540.50000   96.87870    0.21920    8.83800    0.02180    0.09860    6.45080    2.67190   76.67580  140.43200    8.82430   -9999.25
 12541.00000  101.55750    0.21710    8.85420    0.00790    0.13040    6.81130    2.69580   76.17080  135.42520    8.82660   -9999.25
 12541.50000  105.55290    0.21480    8.87030    0.00200    0.16370    6.99260    2.70490   76.24560  129.14710    8.83690   -9999.25
 12542.00000  104.86220    0.20360    8.88700    0.00060    0.16560    7.52610    2.70970   76.11570  122.76100    8.86840   -9999.25
 12542.50000  100.02790    0.19000    8.86350    0.00120    0.14840    8.15120    2.70900   74.56750  120.75560    8.87460   -9999.25
 12543.00000   95.19360    0.18250    8.81920    0.00580    0.12620    8.19360    2.69980   72.82770  120.87650    8.82730   -9999.25
 12543.50000   94.22710    0.19860    8.77910    0.02320    0.10450    8.07390    2.68150   70.62090  122.76800    8.82730   -9999.25
 12544.00000   95.93120    0.20190    8.81160    0.17760    0.12460    8.00230    2.06310   67.08470  122.50180    8.82730   -9999.25
 12544.50000   98.16710    0.17840    8.94870    0.36940    0.18670    8.29620    2.02350   63.71580  121.01020    8.83790   -9999.25
 12545.00000   99.61200    0.18570    9.70570    0.62690    0.24600    8.73740    1.77910   60.34690  119.79350    9.18900   -9999.25
 12545.50000   99.20460    0.18260   11.12700    0.69390    0.26090    9.18170    1.53480   58.68410  119.82900   10.95280   -9999.25
 12546.00000   98.58660    0.15310   13.08160    0.69760    0.26720    9.65720    1.53300   57.15410  122.24600   13.16850   -9999.25
 12546.50000   97.87940    0.16240   14.05490    0.69170    0.26350    9.80350    1.54790   57.47150  124.85130   14.10130   -9999.25
 12547.00000   94.91780    0.22510   14.09280    0.68430    0.12780    9.87790    1.56330   56.91470  123.50450   14.02300   -9999.25
 12547.50000   89.81500    0.26760   14.11320    0.68910    0.02180    9.88820    1.57880   51.11870  102.53750   13.98540   -9999.25
 12548.00000   82.54810    0.28500   14.13360    0.69520    0.05000    9.31260    1.63340   59.72880  133.27300   14.03180   -9999.25
 12548.50000   79.67330    0.14120   14.18680    0.25510    0.20120    8.31210    1.71760   78.99930  156.54220   14.10170   -9999.25
 12549.00000   81.01250    0.09560   14.31520    0.10220    0.30110    7.40390    1.81270   86.22880  174.98010   14.20080   -9999.25
 12549.50000   84.98410    0.06890   14.70610    0.07470    0.29460    6.82620    1.91290   84.95810  178.46180   15.32060   -9999.25
 12550.00000   88.00970    0.15720   15.89680    0.27640    0.24480    6.56320    2.09360   85.95220  173.52860   16.61210   -9999.25
 12550.50000   89.18390    0.29790   18.18950    0.39510    0.19490    6.30010    2.27430   87.57620  164.49090   17.45030   -9999.25
 12551.00000   84.68440    0.28250   16.96520    0.33290    0.14510    6.07670    2.25550   89.90260  158.57330   15.80640   -9999.25
 12551.50000   78.61380    0.18200   15.99250    0.27060    0.14520    6.01930    2.24210   92.62740  154.00140   15.57760   -9999.25
 12552.00000   77.85780    0.07410   16.20910    0.28000    0.16930    6.07750    2.26870   95.94400  147.27620   16.12920   -9999.25
 12552.50000   80.64230    0.08880   17.20180    0.29500    0.19330    6.23520    2.29530   98.01620  142.46270   17.64730   -9999.25
 12553.00000   84.09840    0.16000   17.76880    0.28220    0.21690    6.39290    2.31370   98.94070  143.65890   17.96200   -9999.25
