~Version ---------------------------------------------------
VERS.   2.0 : CWLS log ASCII Standard -VERSION 2.0
WRAP.    NO : One line per depth step
DLM . SPACE : Column Data Section Delimiter
~Well ------------------------------------------------------
STRT .F                  152.0 : START DEPTH
STOP .F                13797.0 : STOP DEPTH
STEP .F                    0.5 : STEP
NULL .                -9999.25 : NULL VALUE
COMP .                         : COMPANY
WELL .                         : WELL
FLD  .                         : FIELD
LOC  .                         : LOCATION
PROV .                         : PROVINCE
CNTY .                         : COUNTY
STAT .                         : STATE
CTRY .                         : COUNTRY
SRVC .                         : SERVICE COMPANY
DATE .                         : DATE
UWI  .                         : UNIQUE WELL ID
API  .                         : API NUMBER
SLAT .WGS84 1.8800801468957005 : SURFACE LATITUDE
SLON .WGS84  8.953720885865991 : SURFACE LONGITUDE
DATUM.F                3796.57 : DEPTH DATUM ELEV
~Curve Information -----------------------------------------
DEPT .F     : 
GRD  .GAPI  : GAMMA RAY FROM DENSITY LOG
TNPH .DEC   : THERMAL NEUTRON POROSITY
HCAL .IN    : HILT CALIPER
DPHZ .DEC   : HRGD STANDARD RESOLUTION DENSITY POROSITY
HDRA .G/C3  : HRDD SPINE AND RIBS DENSITY CORRECTION
PEFZ .B/E   : HHRDD STANDARD RESOLUTION FORMATION PHOTO ELECTRIC
RHOZ .G/C3  : BULK DENSITY
DTCO .US/F  : DELTA-T COMPRESSIONAL
DTSM .US/F  : DELTA-T SHEAR
HD   .IN    : HILT CALIPER
DTCO1.US/F  : LONG-SPACED COMPRESSIONAL INTERVAL TRANSIT TIME 12-13-FT RECEIVER
~Params ----------------------------------------------------
~Other -----------------------------------------------------
~ASCII -----------------------------------------------------
# ...
 10093.50000   91.11820    0.12130    9.57090    0.07210   -0.00010    3.40610    2.59360   63.76150  104.00960    9.58220   -9999.25
 10094.00000   95.44580    0.13190    9.57930    0.06640   -0.00110    3.55080    2.59990   63.51110  105.02710    9.59800   -9999.25
 10094.50000   99.34580    0.14160    9.60400    0.06400   -0.00200    3.57930    2.60550   63.44970  105.36940    9.63060   -9999.25
 10095.00000  100.78980    0.13930    9.62420    0.06270   -0.00230    3.54620    2.60960   63.16930  104.87320    9.64820   -9999.25
 10095.50000   99.64890    0.13080    9.64330    0.05890    0.00020    3.43230    2.61460   62.46430  104.06290    9.66930   -9999.25
 10096.00000   97.31240    0.12230    9.65010    0.05620    0.00270    3.27520    2.62240   62.16510  102.57310    9.66900   -9999.25
 10096.50000   94.97650    0.11540    9.65220    0.05950    0.00490    3.22720    2.61600   62.04180  100.76990    9.67960   -9999.25
 10097.00000   92.64050    0.10980    9.65430    0.07150    0.00490    3.17680    2.59670   61.36310  100.12550    9.68970   -9999.25
 10097.50000   90.17200    0.09880    9.65640    0.08400    0.00420    3.13610    2.58260   60.65120   99.85970    9.68080   -9999.25
 10098.00000   86.44830    0.08130    9.66450    0.08510    0.00210    3.07810    2.57320   59.94450   99.21680    9.67400   -9999.25
 10098.50000   81.00400    0.06380    9.67550    0.07110    0.00010    3.09070    2.58260   59.52870   99.39030    9.67760   -9999.25
 10099.00000   78.36950    0.05190    9.68660    0.06010   -0.00200    3.15890    2.60550   59.15370   99.56370    9.68680   -9999.25
 10099.50000   79.89430    0.06250    9.69760    0.07080   -0.00410    3.24210    2.61590   59.29940  100.06470    9.69840   -9999.25
 10100.00000   83.92010    0.08170    9.70860    0.08300   -0.00620    3.32540    2.59770   60.11590  101.30690    9.71620   -9999.25
 10100.50000   88.46170    0.10090    9.73310    0.08080   -0.00540    3.33880    2.58380   62.52240  102.74740    9.74250   -9999.25
 10101.00000   89.45490    0.11540    9.76040    0.07480   -0.00410    3.32460    2.59050   63.79250  103.92080    9.75700   -9999.25
 10101.50000   88.66850    0.11770    9.77340    0.07770   -0.00280    3.24470    2.59310   64.34570  104.39830    9.76250   -9999.25
 10102.00000   86.45350    0.11300    9.79230    0.09520   -0.00320    3.17770    2.55690   64.66820  104.57410    9.76730   -9999.25
 10102.50000   84.15080    0.10520    9.80660    0.11900   -0.00370    3.10510    2.52860   64.93910  104.56740    9.77340   -9999.25
 10103.00000   82.61080    0.09750    9.79820    0.12680   -0.00420    3.03140    2.51280   65.57590  104.89780    9.75810   -9999.25
 10103.50000   80.88680    0.08970    9.77670    0.12520   -0.00420    3.01150    2.51090   66.39770  106.02750    9.76580   -9999.25
 10104.00000   79.21020    0.08590    9.75980    0.12150   -0.00260    3.03650    2.51040   66.72700  107.31040    9.76510   -9999.25
 10104.50000   79.48350    0.09730    9.76320    0.11630   -0.00140    3.14020    2.51480   67.11460  108.58410    9.76370   -9999.25
 10105.00000   83.28600    0.12280    9.76660    0.10870   -0.00240    3.29120    2.52540   68.07940  109.62050    9.78140   -9999.25
 10105.50000   88.29040    0.14820    9.77490    0.10030   -0.00340    3.55550    2.53980   68.53730  110.65690    9.80360   -9999.25
 10106.00000   91.78650    0.17380    9.80720    0.09040   -0.00310    3.69780    2.56230   68.12250  112.34490    9.81890   -9999.25
 10106.50000   97.32430    0.19030    9.83670    0.08040   -0.00240    3.78280    2.58210   67.36820  115.03630    9.81480   -9999.25
 10107.00000  105.28290    0.20070    9.85330    0.06570   -0.00170    3.85300    2.59160   66.25760  115.05400    9.82540   -9999.25
 10107.50000  113.01620    0.20010    9.85180    0.05570   -0.00100    3.91710    2.61360   65.07630  114.31050    9.83330   -9999.25
 10108.00000  112.90030    0.17410    9.85030    0.05040   -0.00030    3.83830    2.62420   64.08200  112.85240    9.83420   -9999.25
 10108.50000  105.67420    0.14260    9.84870    0.05270    0.00000    3.69790    2.63000   63.46710  110.62730    9.83420   -9999.25
 10109.00000   97.11290    0.11720    9.84720    0.05700    0.00040    3.52230    2.62440   62.99880  108.94970    9.83460   -9999.25
 10109.50000   88.62200    0.10910    9.84200    0.06090    0.00070    3.47100    2.61810   62.52750  107.60600    9.83420   -9999.25
 10110.00000   84.04500    0.11520    9.82720    0.06290    0.00070    3.42270    2.61090   62.49050  106.31640    9.83350   -9999.25
 10110.50000   80.85180    0.12180    9.81230    0.06580    0.00080    3.33800    2.60350   62.71610  104.97160    9.83280   -9999.25
 10111.00000   79.56360    0.11270    9.80660    0.07310    0.00090    3.22670    2.59410   63.58120  103.68580    9.83210   -9999.25
 10111.50000   77.48860    0.09830    9.81300    0.09610    0.00100    3.10070    2.57020   64.60680  103.29520    9.83070   -9999.25
 10112.00000   76.41410    0.09070    9.81940    0.11320    0.00110    3.02620    2.52890   65.39130  103.75260    9.82750   -9999.25
 10112.50000   76.20480    0.09610    9.80760    0.11250    0.00120    3.05220    2.52540   65.84810  106.40850    9.82440   -9999.25
 10113.00000   78.66610    0.12150    9.79580    0.10580    0.00120    3.21300    2.54220   66.24590  110.52840    9.81790   -9999.25
 10113.50000   84.26000    0.14770    9.79260    0.08620    0.00130    3.41090    2.56460   66.93430  112.83850    9.81410   -9999.25
 10114.00000   92.41490    0.17460    9.79580    0.05880    0.00140    3.57230    2.63990   67.01420  114.46820    9.81410   -9999.25
 10114.50000  105.69780    0.18670    9.79890    0.03050    0.00150    3.74780    2.68290   66.75550  114.69720    9.81410   -9999.25
 10115.00000  117.75520    0.18550    9.80210    0.01580    0.00040    3.89850    2.68640   66.39520  113.46290    9.81410   -9999.25
 10115.50000  122.10520    0.16570    9.80520    0.01690   -0.00080    3.72330    2.68450   65.72430  110.57280    9.81280   -9999.25
 10116.00000  107.42460    0.13810    9.79570    0.02940   -0.00190    3.46960    2.65530   63.40880  106.10860    9.80390   -9999.25
 10116.50000   90.18730    0.10850    9.77680    0.05030   -0.00220    3.23830    2.61070   61.23870  102.01940    9.77650   -9999.25
 10117.00000   76.80740    0.07900    9.76420    0.07020   -0.00240    3.06800    2.58510   58.71440  101.03970    9.75090   -9999.25
 10117.50000   69.03890    0.05520    9.75230    0.08700   -0.00260    3.08480    2.57280   57.35780  100.72570    9.72530   -9999.25
 10118.00000   68.64030    0.05200    9.72850    0.08300   -0.00290    3.21770    2.58350   58.17980  100.94340    9.71820   -9999.25
 10118.50000   70.04330    0.05600    9.74770    0.06740   -0.00310    3.41180    2.59790   59.39240  101.34510    9.73250   -9999.25
 10119.00000   74.64570    0.07150    9.77800    0.05750   -0.00330    3.60130    2.61540   60.33450  103.22900    9.75360   -9999.25
 10119.50000   82.98250    0.08700    9.79080    0.05410   -0.00350    3.72950    2.62210   61.83200  106.54670    9.77190   -9999.25
 10120.00000   94.01240    0.11260    9.79080    0.05470   -0.00350    3.82190    2.62590   63.42430  109.86440    9.78400   -9999.25
 10120.50000  102.68900    0.14350    9.79080    0.05250   -0.00330    3.96390    2.62860   64.73630  111.82360    9.79620   -9999.25
 10121.00000  108.85250    0.17450    9.79020    0.04850   -0.00310    4.05680    2.63390   65.09140  111.39850    9.79690   -9999.25
 10121.50000  107.49760    0.18100    9.78290    0.03920   -0.00280    4.00290    2.65490   65.07100  110.69500    9.79080   -9999.25
 10122.00000   96.96900    0.17410    9.77570    0.03100   -0.00260    3.82180    2.65830   64.74840  110.02840    9.78160   -9999.25
 10122.50000   89.42550    0.15010    9.76840    0.04150   -0.00240    3.65550    2.64780   64.44060  109.59360    9.77240   -9999.25
 10123.00000   89.54060    0.13380    9.78380    0.05850   -0.00210    3.63230    2.61230   64.42350  108.62660    9.77640   -9999.25
