~Version ---------------------------------------------------
VERS.   2.0 : CWLS log ASCII Standard -VERSION 2.0
WRAP.    NO : One line per depth step
DLM . SPACE : Column Data Section Delimiter
~Well ------------------------------------------------------
STRT .F                  152.0 : START DEPTH
STOP .F                13797.0 : STOP DEPTH
STEP .F                    0.5 : STEP
NULL .                -9999.25 : NULL VALUE
COMP .                         : COMPANY
WELL .                         : WELL
FLD  .                         : FIELD
LOC  .                         : LOCATION
PROV .                         : PROVINCE
CNTY .                         : COUNTY
STAT .                         : STATE
CTRY .                         : COUNTRY
SRVC .                         : SERVICE COMPANY
DATE .                         : DATE
UWI  .                         : UNIQUE WELL ID
API  .                         : API NUMBER
SLAT .WGS84 1.8800801468957005 : SURFACE LATITUDE
SLON .WGS84  8.953720885865991 : SURFACE LONGITUDE
DATUM.F                3796.57 : DEPTH DATUM ELEV
~Curve Information -----------------------------------------
DEPT .F     : 
GRD  .GAPI  : GAMMA RAY FROM DENSITY LOG
TNPH .DEC   : THERMAL NEUTRON POROSITY
HCAL .IN    : HILT CALIPER
DPHZ .DEC   : HRGD STANDARD RESOLUTION DENSITY POROSITY
HDRA .G/C3  : HRDD SPINE AND RIBS DENSITY CORRECTION
PEFZ .B/E   : HHRDD STANDARD RESOLUTION FORMATION PHOTO ELECTRIC
RHOZ .G/C3  : BULK DENSITY
DTCO .US/F  : DELTA-T COMPRESSIONAL
DTSM .US/F  : DELTA-T SHEAR
HD   .IN    : HILT CALIPER
DTCO1.US/F  : LONG-SPACED COMPRESSIONAL INTERVAL TRANSIT TIME 12-13-FT RECEIVER
~Params ----------------------------------------------------
~Other -----------------------------------------------------
~ASCII -----------------------------------------------------
# ...
 9302.00000  152.76560    0.21210   10.26470    0.06170    0.00530    3.79920    2.60730   70.88250  123.50260   10.24320   -9999.25
 9302.50000  141.13830    0.20540   10.27030    0.05140    0.00850    3.73430    2.62390   69.83060  122.74670   10.24320   -9999.25
 9303.00000  132.19910    0.20460   10.25300    0.04550    0.01010    3.68630    2.63440   69.35660  121.74270   10.24320   -9999.25
 9303.50000  125.74040    0.21250   10.22350    0.04720    0.00820    3.64310    2.63610   69.25930  120.47470   10.24320   -9999.25
 9304.00000  129.19770    0.22480   10.17400    0.05760    0.00500    3.63280    2.62570   68.96870  119.11830   10.23110   -9999.25
 9304.50000  132.79640    0.23720   10.07470    0.07750    0.01680    3.77830    2.59000   68.42430  117.75660   10.14680   -9999.25
 9305.00000  133.39020    0.24450    9.97170    0.08970    0.07460    3.96030    2.57700   67.25210  116.45640    9.99140   -9999.25
 9305.50000  128.10410    0.23390    9.86870    0.08460    0.10920    4.10330    2.57390   65.89380  114.45540    9.88270   -9999.25
 9306.00000  116.67680    0.19350    9.76570    0.06890    0.12630    4.03370    2.60110   64.02820  112.27370    9.79850   -9999.25
 9306.50000  105.79170    0.12740    9.71290    0.04880    0.10930    3.86830    2.62300   62.07510  109.85590    9.77340   -9999.25
 9307.00000   94.84870    0.08510    9.63410    0.03420    0.08630    3.67580    2.64280   59.63530  106.01860    9.72170   -9999.25
 9307.50000   84.40950    0.05980    9.55360    0.03790    0.06020    3.46170    2.65470   58.24490  102.18130    9.57720   -9999.25
 9308.00000   78.43010    0.05850    9.47740    0.05040    0.03670    3.29680    2.64320   57.47390   99.83770    9.48520   -9999.25
 9308.50000   79.95900    0.06050    9.44740    0.05850    0.01490    3.24500    2.62360   56.86230   99.59450    9.45030   -9999.25
 9309.00000   83.82790    0.06260    9.44190    0.06130    0.00570    3.23290    2.61190   56.52010  100.33170    9.44730   -9999.25
 9309.50000   86.88780    0.06350    9.44340    0.05670    0.00160    3.24110    2.61460   57.83670  102.82820    9.45690   -9999.25
 9310.00000   84.66880    0.06500    9.44910    0.06210    0.00060    3.28500    2.61320   59.36320  105.50550    9.46650   -9999.25
 9310.50000   82.22970    0.07590    9.46200    0.07100    0.00200    3.44580    2.59870   60.55910  108.21420    9.47320   -9999.25
 9311.00000   90.22660    0.10970    9.48000    0.06310    0.01950    3.64990    2.61430   63.74530  110.92300    9.49530   -9999.25
 9311.50000  110.42360    0.15750    9.51080    0.04830    0.04860    3.84670    2.62990   66.08270  115.60710    9.52240   -9999.25
 9312.00000  127.41410    0.19260    9.55210    0.03790    0.04630    3.85270    2.64520   67.90300  121.60660    9.54960   -9999.25
 9312.50000  133.27980    0.20940    9.59330    0.04440    0.02730    3.73000    2.64360   68.63000  126.44250    9.57400   -9999.25
 9313.00000  129.31610    0.21080    9.59960    0.05160    0.01050    3.62120    2.63280   68.93490  127.17160    9.58960   -9999.25
 9313.50000  119.14190    0.19210    9.59150    0.05730    0.00750    3.71820    2.62280   69.18260  123.75090    9.60810   -9999.25
 9314.00000  111.15710    0.17340    9.58280    0.05750    0.06780    3.94690    2.61740   68.87910  122.57600    9.61520   -9999.25
 9314.50000  109.05140    0.16130    9.56810    0.04640    0.11370    4.16230    2.62970   68.12500  121.69320    9.61050   -9999.25
 9315.00000  114.80660    0.17240    9.56300    0.03480    0.11410    4.14460    2.64380   67.63620  119.18940    9.60590   -9999.25
 9315.50000  119.53950    0.18080    9.55780    0.02610    0.07140    3.96620    2.66670   67.53220  116.14310    9.60120   -9999.25
 9316.00000  116.82980    0.16920    9.55270    0.03190    0.01290    3.80650    2.66440   66.56300  114.86870    9.59650   -9999.25
 9316.50000  110.97470    0.15250    9.55250    0.02990    0.00210    3.75590    2.66260   64.69300  113.82480    9.59180   -9999.25
 9317.00000  104.61220    0.13590    9.56250    0.02580    0.00060    3.73610    2.66950   62.82300  112.77140    9.58710   -9999.25
 9317.50000   96.56860    0.11920    9.57280    0.02000    0.00070    3.68770    2.67650   61.83490  111.66900    9.58450   -9999.25
 9318.00000   89.76070    0.10660    9.58310    0.02370    0.00090    3.61920    2.67300   61.38810  110.41880    9.59530   -9999.25
 9318.50000   90.22970    0.10560    9.58600    0.02620    0.00110    3.58370    2.67100   61.13350  109.70590    9.60370   -9999.25
 9319.00000   95.74840    0.12970    9.58810    0.02380    0.00140    3.60590    2.67080   61.12300  109.60640    9.61160   -9999.25
 9319.50000  104.54140    0.14000    9.59030    0.02190    0.00120    3.61100    2.67530   61.33950  109.75630    9.61950   -9999.25
 9320.00000  108.38870    0.13460    9.59530    0.02580    0.00060    3.54830    2.67690   61.57920  110.31650    9.62740   -9999.25
 9320.50000  109.27550    0.11960    9.61070    0.03510    0.00000    3.48700    2.65440   61.84130  110.08010    9.63530   -9999.25
 9321.00000  108.91560    0.10990    9.62610    0.04640   -0.00070    3.43050    2.64050   62.19730  109.74320    9.64730   -9999.25
 9321.50000  109.12320    0.11000    9.64140    0.04810   -0.00130    3.41700    2.63510   62.70490  109.60640    9.66210   -9999.25
 9322.00000  111.53420    0.11870    9.65740    0.04250   -0.00200    3.49200    2.63960   63.09250  109.60640    9.67690   -9999.25
 9322.50000  113.26920    0.12590    9.67920    0.03770   -0.00290    3.54930    2.64550   63.42590  109.94920    9.69650   -9999.25
 9323.00000  111.95220    0.12740    9.70500    0.04060   -0.00380    3.58370    2.64560   63.70900  110.35110    9.72640   -9999.25
 9323.50000  107.88290    0.12770    9.73290    0.04500   -0.00470    3.63420    2.64170   63.48720  110.83930    9.75640   -9999.25
 9324.00000  104.13450    0.12780    9.75540    0.04500   -0.00560    3.68770    2.63880   62.82180  113.06020    9.77780   -9999.25
 9324.50000  100.38600    0.12660    9.78080    0.04530   -0.00650    3.72980    2.63740   62.64020  114.40830    9.80650   -9999.25
 9325.00000   96.63760    0.11680    9.81770    0.05140   -0.00680    3.73530    2.63120   62.71760  113.60390    9.83630   -9999.25
 9325.50000   91.79050    0.10240    9.85100    0.05810   -0.00590    3.67140    2.62530   62.91090  110.92700    9.87390   -9999.25
 9326.00000   90.29340    0.09890    9.88420    0.06580   -0.00490    3.58780    2.60720   63.50830  111.34380    9.91160   -9999.25
 9326.50000   91.12940    0.10760    9.91750    0.07550   -0.00400    3.58330    2.59600   64.08610  112.22110    9.95750   -9999.25
 9327.00000   93.49510    0.12410    9.95070    0.08300   -0.00310    3.70280    2.58210   64.16930  112.60990   10.00820   -9999.25
 9327.50000   95.39850    0.14070    9.98250    0.08120   -0.00330    3.79430    2.57800   64.06250  111.12310   10.05890   -9999.25
 9328.00000   95.23050    0.14810   10.04530    0.07740   -0.00400    3.82080    2.58490   63.58190  109.53200   10.10960   -9999.25
 9328.50000   90.96950    0.14120   10.10810    0.07360   -0.00470    3.77470    2.59170   62.82090  108.28190   10.16080   -9999.25
 9329.00000   83.54250    0.12670   10.17090    0.07650   -0.00530    3.54760    2.58820   62.16510  106.39930   10.21240   -9999.25
 9329.50000   77.00710    0.11770   10.22970    0.08550   -0.00460    3.35430    2.58080   62.10390  104.60660   10.26390   -9999.25
 9330.00000   73.00220    0.11370   10.28580    0.09530   -0.00390    3.28870    2.56630   62.43330  104.79290   10.31550   -9999.25
 9330.50000   68.99740    0.11260   10.33180    0.10210   -0.00310    3.23400    2.55300   63.05130  104.36230   10.36710   -9999.25
 9331.00000   65.54740    0.11200   10.35720    0.11170   -0.00240    3.18240    2.53980   63.47540  103.79950   10.39330   -9999.25
 9331.50000   65.44110    0.11140   10.33150    0.10840   -0.00170    3.13240    2.52980   63.62660  103.76820   10.39430   -9999.25
 9332.00000   70.07810    0.11090   10.32210    0.10260   -0.00100    3.12530    2.53720   63.06410  103.39590   10.39730   -9999.25
