~Version ---------------------------------------------------
VERS.   2.0 : CWLS log ASCII Standard -VERSION 2.0
WRAP.    NO : One line per depth step
DLM . SPACE : Column Data Section Delimiter
~Well ------------------------------------------------------
STRT .F                  152.0 : START DEPTH
STOP .F                13797.0 : STOP DEPTH
STEP .F                    0.5 : STEP
NULL .                -9999.25 : NULL VALUE
COMP .                         : COMPANY
WELL .                         : WELL
FLD  .                         : FIELD
LOC  .                         : LOCATION
PROV .                         : PROVINCE
CNTY .                         : COUNTY
STAT .                         : STATE
CTRY .                         : COUNTRY
SRVC .                         : SERVICE COMPANY
DATE .                         : DATE
UWI  .                         : UNIQUE WELL ID
API  .                         : API NUMBER
SLAT .WGS84 1.8800801468957005 : SURFACE LATITUDE
SLON .WGS84  8.953720885865991 : SURFACE LONGITUDE
DATUM.F                3796.57 : DEPTH DATUM ELEV
~Curve Information -----------------------------------------
DEPT .F     : 
GRD  .GAPI  : GAMMA RAY FROM DENSITY LOG
TNPH .DEC   : THERMAL NEUTRON POROSITY
HCAL .IN    : HILT CALIPER
DPHZ .DEC   : HRGD STANDARD RESOLUTION DENSITY POROSITY
HDRA .G/C3  : HRDD SPINE AND RIBS DENSITY CORRECTION
PEFZ .B/E   : HHRDD STANDARD RESOLUTION FORMATION PHOTO ELECTRIC
RHOZ .G/C3  : BULK DENSITY
DTCO .US/F  : DELTA-T COMPRESSIONAL
DTSM .US/F  : DELTA-T SHEAR
HD   .IN    : HILT CALIPER
DTCO1.US/F  : LONG-SPACED COMPRESSIONAL INTERVAL TRANSIT TIME 12-13-FT RECEIVER
~Params ----------------------------------------------------
~Other -----------------------------------------------------
~ASCII -----------------------------------------------------
# ...
 13753.50000  173.91510    0.03100    7.72960   -0.00460    0.10240    3.62440    2.72740   -9999.25   -9999.25   -9999.25   -9999.25
 13754.00000  168.81010    0.03130    7.72680   -0.00920    0.10440    3.62410    2.72650   -9999.25   -9999.25   -9999.25   -9999.25
 13754.50000  163.70500    0.03160    7.72410   -0.01000    0.10500    3.66420    2.72170   -9999.25   -9999.25   -9999.25   -9999.25
 13755.00000  158.41120    0.03150    7.72140   -0.00750    0.10520    3.70770    2.71700   -9999.25   -9999.25   -9999.25   -9999.25
 13755.50000  153.05710    0.03100    7.71860    0.00020    0.10450    3.75120    2.71350   -9999.25   -9999.25   -9999.25   -9999.25
 13756.00000  150.93170    0.03020    7.71590    0.00010    0.10350    3.77010    2.71180   -9999.25   -9999.25   -9999.25   -9999.25
 13756.50000  148.80640    0.02880    7.71310   -0.00200    0.10150    3.75770    2.70840   -9999.25   -9999.25   -9999.25   -9999.25
 13757.00000  146.68100    0.02690    7.71040    0.00170    0.09940    3.73340    2.70370   -9999.25   -9999.25   -9999.25   -9999.25
 13757.50000  142.73620    0.02640    7.70760    0.00580    0.09860    3.70900    2.70840   -9999.25   -9999.25   -9999.25   -9999.25
 13758.00000  138.94990    0.02690    7.70490    0.00030    0.10070    3.70490    2.71660   -9999.25   -9999.25   -9999.25   -9999.25
 13758.50000  136.68460    0.02760    7.70220   -0.00660    0.10260    3.70440    2.72490   -9999.25   -9999.25   -9999.25   -9999.25
 13759.00000  137.55320    0.02860    7.69940   -0.00780    0.10250    3.69620    2.71960   -9999.25   -9999.25   -9999.25   -9999.25
 13759.50000  140.57010    0.02950    7.69670   -0.00310    0.10200    3.67460    2.71330   -9999.25   -9999.25   -9999.25   -9999.25
 13760.00000  144.24250    0.03040    7.69390    0.00090    0.09950    3.65310    2.70930   -9999.25   -9999.25   -9999.25   -9999.25
 13760.50000  145.73590    0.03140    7.69120    0.00300    0.09530    3.65370    2.70810   -9999.25   -9999.25   -9999.25   -9999.25
 13761.00000  146.42360    0.03240    7.68840    0.00020    0.09350    3.65450    2.71110   -9999.25   -9999.25   -9999.25   -9999.25
 13761.50000  145.17800    0.03310    7.68570   -0.00280    0.09450    3.65530    2.71550   -9999.25   -9999.25   -9999.25   -9999.25
 13762.00000  141.86420    0.03380    7.68300   -0.00390    0.09730    3.65610    2.71690   -9999.25   -9999.25   -9999.25   -9999.25
 13762.50000  135.12030    0.03390    7.68020   -0.00260    0.10020    3.65680    2.71340   -9999.25   -9999.25   -9999.25   -9999.25
 13763.00000  129.88350    0.03360    7.67750   -0.00130    0.10250    3.65760    2.71010   -9999.25   -9999.25   -9999.25   -9999.25
 13763.50000  128.35270    0.03300    7.67470   -0.00100    0.10230    3.65840    2.70990   -9999.25   -9999.25   -9999.25   -9999.25
 13764.00000  129.10710    0.03220    7.67200   -0.00100    0.09300    3.65920    2.71000   -9999.25   -9999.25   -9999.25   -9999.25
 13764.50000  129.27950    0.03160    7.66930   -0.00100    0.08470    3.66000    2.71170   -9999.25   -9999.25   -9999.25   -9999.25
 13765.00000  129.27950    0.03130    7.66650    0.00290    0.08340    3.66070    2.70400   -9999.25   -9999.25   -9999.25   -9999.25
 13765.50000  129.83530    0.03150    7.66380    0.00590    0.09040    3.66150    2.70190   -9999.25   -9999.25   -9999.25   -9999.25
 13766.00000  131.09110    0.03170    7.64990    0.00470    0.09730    3.66230    2.70550   -9999.25   -9999.25   -9999.25   -9999.25
 13766.50000  131.35620    0.03220    7.63520   -0.00070    0.10070    3.66310    2.71610   -9999.25   -9999.25   -9999.25   -9999.25
 13767.00000  130.99490    0.03280    7.62300   -0.00630    0.10620    3.66390    2.72120   -9999.25   -9999.25   -9999.25   -9999.25
 13767.50000  132.00050    0.03390    7.62980   -0.01020    0.11460    3.68540    2.72580   -9999.25   -9999.25   -9999.25   -9999.25
 13768.00000  135.98500    0.03650    7.63670   -0.00660    0.13970    3.92930    2.72830   -9999.25   -9999.25   -9999.25   -9999.25
 13768.50000  138.09680    0.03900    7.64510   -0.02430    0.15500    4.13880    2.76590   -9999.25   -9999.25   -9999.25   -9999.25
 13769.00000  139.75430    0.04160    7.66820   -0.05930    0.14490    4.00670    2.83110   -9999.25   -9999.25   -9999.25   -9999.25
 13769.50000  140.56280    0.04420    7.69140   -0.08000    0.09460    3.57070    2.84390   -9999.25   -9999.25   -9999.25   -9999.25
 13770.00000  142.47730    0.04740    7.71450   -0.06310    0.06010    3.35840    2.81330   -9999.25   -9999.25   -9999.25   -9999.25
 13770.50000  144.74850    0.05080    7.73760   -0.03610    0.02560    3.27270    2.76760   -9999.25   -9999.25   -9999.25   -9999.25
 13771.00000  145.32090    0.05430    7.76080   -0.03460    0.01600    3.24400    2.76590   -9999.25   -9999.25   -9999.25   -9999.25
 13771.50000  143.68120    0.05770    7.76700   -0.03730    0.01590    3.24860    2.77070   -9999.25   -9999.25   -9999.25   -9999.25
 13772.00000  142.04160    0.06110    7.76700   -0.03870    0.01890    3.26010    2.77450   -9999.25   -9999.25   -9999.25   -9999.25
 13772.50000  140.52530    0.06470    7.76900   -0.03680    0.01340    3.27160    2.77110   -9999.25   -9999.25   -9999.25   -9999.25
 13773.00000  140.33940    0.06910    7.78850   -0.03600    0.00730    3.28300    2.76780   -9999.25   -9999.25   -9999.25   -9999.25
 13773.50000  142.28770    0.07350    7.80800   -0.03880    0.00580    3.27830    2.77260   -9999.25   -9999.25   -9999.25   -9999.25
 13774.00000  142.75010    0.07470    7.82750   -0.04340    0.00580    3.21180    2.78240   -9999.25   -9999.25   -9999.25   -9999.25
 13774.50000  140.76280    0.07540    7.84700   -0.05220    0.00680    3.14530    2.79530   -9999.25   -9999.25   -9999.25   -9999.25
 13775.00000  138.59610    0.07610    7.86310   -0.05530    0.00800    3.11150    2.79870   -9999.25   -9999.25   -9999.25   -9999.25
 13775.50000  136.18450    0.07830    7.87790   -0.05050    0.01060    3.17790    2.79070   -9999.25   -9999.25   -9999.25   -9999.25
 13776.00000  137.14290    0.08060    7.89270   -0.04600    0.02230    3.24430    2.78420   -9999.25   -9999.25   -9999.25   -9999.25
 13776.50000  139.85110    0.08230    7.90750   -0.05280    0.04090    3.29310    2.79930   -9999.25   -9999.25   -9999.25   -9999.25
 13777.00000  142.62320    0.08350    7.94020   -0.06820    0.05030    3.31390    2.82160   -9999.25   -9999.25   -9999.25   -9999.25
 13777.50000  145.63150    0.08480    7.97840   -0.06820    0.05740    3.33470    2.81330   -9999.25   -9999.25   -9999.25   -9999.25
 13778.00000  147.10040    0.08550    8.01000   -0.05450    0.05620    3.35170    2.79680   -9999.25   -9999.25   -9999.25   -9999.25
 13778.50000   -9999.25    0.08500    8.03060   -0.04250    0.05620    3.36160    2.77980   -9999.25   -9999.25   -9999.25   -9999.25
 13779.00000   -9999.25    0.08440    8.05130   -0.04130    0.05620    3.37760    2.77750   -9999.25   -9999.25   -9999.25   -9999.25
 13779.50000   -9999.25    0.08410    8.06120   -0.04460    0.06300    3.41710    2.78620   -9999.25   -9999.25   -9999.25   -9999.25
 13780.00000   -9999.25    0.08390    8.06070   -0.05540    0.08050    3.45660    2.79840   -9999.25   -9999.25   -9999.25   -9999.25
 13780.50000   -9999.25    0.08380    8.05910   -0.06740    0.08950    3.49620    2.82000   -9999.25   -9999.25   -9999.25   -9999.25
 13781.00000   -9999.25    0.08430    8.05630   -0.07140    0.08800    3.50980    2.82760   -9999.25   -9999.25   -9999.25   -9999.25
 13781.50000   -9999.25    0.08660    8.05350   -0.07150    0.07730    3.48330    2.82640   -9999.25   -9999.25   -9999.25   -9999.25
 13782.00000   -9999.25    0.08880    8.05070   -0.06650    0.06120    3.42130    2.82030   -9999.25   -9999.25   -9999.25   -9999.25
 13782.50000   -9999.25    0.09040    8.04790   -0.05780    0.04500    3.36130    2.80390   -9999.25   -9999.25   -9999.25   -9999.25
 13783.00000   -9999.25    0.09080    8.04820   -0.04750    0.02890    3.30190    2.78380   -9999.25   -9999.25   -9999.25   -9999.25
