~Version ---------------------------------------------------
VERS.   2.0 : CWLS log ASCII Standard -VERSION 2.0
WRAP.    NO : One line per depth step
DLM . SPACE : Column Data Section Delimiter
~Well ------------------------------------------------------
STRT .F                  152.0 : START DEPTH
STOP .F                13797.0 : STOP DEPTH
STEP .F                    0.5 : STEP
NULL .                -9999.25 : NULL VALUE
COMP .                         : COMPANY
WELL .                         : WELL
FLD  .                         : FIELD
LOC  .                         : LOCATION
PROV .                         : PROVINCE
CNTY .                         : COUNTY
STAT .                         : STATE
CTRY .                         : COUNTRY
SRVC .                         : SERVICE COMPANY
DATE .                         : DATE
UWI  .                         : UNIQUE WELL ID
API  .                         : API NUMBER
SLAT .WGS84 1.8800801468957005 : SURFACE LATITUDE
SLON .WGS84  8.953720885865991 : SURFACE LONGITUDE
DATUM.F                3796.57 : DEPTH DATUM ELEV
~Curve Information -----------------------------------------
DEPT .F     : 
GRD  .GAPI  : GAMMA RAY FROM DENSITY LOG
TNPH .DEC   : THERMAL NEUTRON POROSITY
HCAL .IN    : HILT CALIPER
DPHZ .DEC   : HRGD STANDARD RESOLUTION DENSITY POROSITY
HDRA .G/C3  : HRDD SPINE AND RIBS DENSITY CORRECTION
PEFZ .B/E   : HHRDD STANDARD RESOLUTION FORMATION PHOTO ELECTRIC
RHOZ .G/C3  : BULK DENSITY
DTCO .US/F  : DELTA-T COMPRESSIONAL
DTSM .US/F  : DELTA-T SHEAR
HD   .IN    : HILT CALIPER
DTCO1.US/F  : LONG-SPACED COMPRESSIONAL INTERVAL TRANSIT TIME 12-13-FT RECEIVER
~Params ----------------------------------------------------
~Other -----------------------------------------------------
~ASCII -----------------------------------------------------
# ...
 12943.50000  169.36100    0.19290    8.72940    0.05870    0.07450    3.68970    2.59250   -9999.25   -9999.25   -9999.25   85.92470
 12944.00000  169.76380    0.19400    8.66660    0.06550    0.06180    3.58310    2.60690   -9999.25   -9999.25   -9999.25   82.71740
 12944.50000  169.25650    0.20000    8.62620    0.07280    0.07490    3.57890    2.59600   -9999.25   -9999.25   -9999.25   79.43070
 12945.00000  164.78030    0.20210    8.58530    0.06840    0.06990    3.55840    2.60210   -9999.25   -9999.25   -9999.25   77.86450
 12945.50000  158.30750    0.17610    8.51520    0.04560    0.05260    3.50300    2.62610   -9999.25   -9999.25   -9999.25   77.80600
 12946.00000  152.80640    0.15720    8.46210    0.03470    0.03480    3.44740    2.65020   -9999.25   -9999.25   -9999.25   77.84050
 12946.50000  147.30520    0.14330    8.46200    0.03540    0.01740    3.39630    2.64560   -9999.25   -9999.25   -9999.25   77.90200
 12947.00000  148.87770    0.13700    8.48250    0.05080    0.01240    3.36390    2.62620   -9999.25   -9999.25   -9999.25   77.94830
 12947.50000  151.50160    0.13660    8.52380    0.06680    0.01670    3.39300    2.60690   -9999.25   -9999.25   -9999.25   77.99330
 12948.00000  152.67940    0.13860    8.55380    0.06640    0.04850    3.49550    2.60470   -9999.25   -9999.25   -9999.25   77.97520
 12948.50000  153.22420    0.16590    8.58240    0.06430    0.04580    3.58100    2.60820   -9999.25   -9999.25   -9999.25   77.92670
 12949.00000  152.23520    0.17960    8.58240    0.05470    0.03540    3.65760    2.61270   -9999.25   -9999.25   -9999.25   77.97830
 12949.50000  148.77980    0.18590    8.58240    0.04020    0.02590    3.73420    2.62720   -9999.25   -9999.25   -9999.25   77.88500
 12950.00000  142.81750    0.17920    8.57740    0.01030    0.02550    3.77940    2.67300   -9999.25   -9999.25   -9999.25   77.79160
 12950.50000  138.71170    0.17340    8.56910    0.00070    0.03490    3.71520    2.70860   -9999.25   -9999.25   -9999.25   77.70960
 12951.00000  147.23050    0.17770    8.56300    0.01750    0.03230    3.65100    2.69400   -9999.25   -9999.25   -9999.25   77.73130
 12951.50000  154.94820    0.18940    8.56720    0.03210    0.03150    3.59510    2.66330   -9999.25   -9999.25   -9999.25   77.91940
 12952.00000  160.03610    0.24000    8.63780    0.03860    0.05280    3.73610    2.64810   -9999.25   -9999.25   -9999.25   79.34180
 12952.50000  160.61700    0.27050    8.70840    0.04030    0.08590    3.93040    2.64650   -9999.25   -9999.25   -9999.25   81.11730
 12953.00000  158.69830    0.31220    8.80100    0.03870    0.12520    4.10240    2.64600   -9999.25   -9999.25   -9999.25   83.51140
 12953.50000  160.43950    0.31740    8.91210    0.04250    0.15100    4.20570    2.64510   -9999.25   -9999.25   -9999.25   84.02000
 12954.00000  163.13250    0.30910    8.98440    0.03990    0.16560    4.30910    2.63940   -9999.25   -9999.25   -9999.25   84.12200
 12954.50000  164.28720    0.30100    9.01360    0.04970    0.18010    4.30540    2.62960   -9999.25   -9999.25   -9999.25   84.12630
 12955.00000  160.98310    0.30060    8.94330    0.06020    0.19830    4.21030    2.61970   -9999.25   -9999.25   -9999.25   84.12920
 12955.50000  156.99080    0.30060    8.87300    0.05610    0.23130    4.16220    2.61570   -9999.25   -9999.25   -9999.25   84.12170
 12956.00000  153.38060    0.30290    8.72650    0.04170    0.29950    4.16240    2.63030   -9999.25   -9999.25   -9999.25   83.91380
 12956.50000  152.55830    0.31480    8.53420    0.01530    0.36320    4.19470    2.67420   -9999.25   -9999.25   -9999.25   83.43980
 12957.00000  153.99560    0.32230    8.40830    0.00610    0.40740    4.22150    2.70110   -9999.25   -9999.25   -9999.25   83.28010
 12957.50000  155.58910    0.32270    8.37660    0.02250    0.41910    4.18200    2.68500   -9999.25   -9999.25   -9999.25   83.27620
 12958.00000  157.21230    0.32240    8.41150    0.02370    0.36350    4.17390    2.67540   -9999.25   -9999.25   -9999.25   83.41540
 12958.50000  158.91470    0.32180    8.43300    0.01560    0.30720    4.20570    2.69840   -9999.25   -9999.25   -9999.25   83.62040
 12959.00000  160.28130    0.31980    8.45470    0.00260    0.23230    4.25130    2.70490   -9999.25   -9999.25   -9999.25   84.07650
 12959.50000  158.37430    0.30960    8.48590    0.02210    0.18780    4.29690    2.68970   -9999.25   -9999.25   -9999.25   84.31930
 12960.00000  155.10870    0.29530    8.52530    0.04140    0.19430    4.34260    2.65180   -9999.25   -9999.25   -9999.25   84.48750
 12960.50000  152.98550    0.28230    8.54250    0.05510    0.20230    4.35470    2.62120   -9999.25   -9999.25   -9999.25   84.78520
 12961.00000  154.75980    0.27930    8.53670    0.06390    0.19810    4.26440    2.60770   -9999.25   -9999.25   -9999.25   85.12690
 12961.50000  158.65150    0.28000    8.53200    0.06840    0.19200    4.12210    2.59990   -9999.25   -9999.25   -9999.25   85.54120
 12962.00000  160.46730    0.28280    8.52730    0.07100    0.18930    4.02430    2.59720   -9999.25   -9999.25   -9999.25   85.99680
 12962.50000  159.79640    0.28670    8.52470    0.06700    0.19330    3.95070    2.59900   -9999.25   -9999.25   -9999.25   86.45240
 12963.00000  159.02970    0.30130    8.52400    0.06570    0.21080    3.93190    2.60230   -9999.25   -9999.25   -9999.25   86.39900
 12963.50000  160.16730    0.31600    8.57870    0.07380    0.22770    3.93190    2.60300   -9999.25   -9999.25   -9999.25   86.23880
 12964.00000  165.45240    0.31820    8.68560    0.07370    0.23500    3.93920    2.57940   -9999.25   -9999.25   -9999.25   86.43640
 12964.50000  170.56830    0.31700    8.87780    0.15830    0.22960    3.95620    2.46360   -9999.25   -9999.25   -9999.25   87.18700
 12965.00000  172.65800    0.30960    9.08480    0.22590    0.22680    3.97320    2.27150   -9999.25   -9999.25   -9999.25   88.05650
 12965.50000  170.15860    0.30990    9.38360    0.28310    0.23160    3.99020    2.20430   -9999.25   -9999.25   -9999.25   87.41990
 12966.00000  166.03800    0.31850    9.38510    0.31900    0.23820    4.00720    2.18040   -9999.25   -9999.25   -9999.25   86.93300
 12966.50000  163.07230    0.31550    9.35680    0.31780    0.22470    4.02420    2.17290   -9999.25   -9999.25   -9999.25   86.96440
 12967.00000  163.45030    0.30180    9.33640    0.33540    0.20660    4.04120    2.20370   -9999.25   -9999.25   -9999.25   87.06360
 12967.50000  164.50540    0.29520    9.30550    0.32730    0.19600    4.05820    2.29890   -9999.25   -9999.25   -9999.25   87.22360
 12968.00000  165.38880    0.29420    9.20760    0.21190    0.20770    4.03980    2.43780   -9999.25   -9999.25   -9999.25   88.76160
 12968.50000  166.15580    0.31740    9.05880    0.13500    0.22620    4.01990    2.50700   -9999.25   -9999.25   -9999.25   89.81010
 12969.00000  166.92280    0.31290    8.88430    0.11410    0.21310    4.00010    2.49440   -9999.25   -9999.25   -9999.25   91.20980
 12969.50000  167.76280    0.30370    9.01780    0.17640    0.19190    3.99550    2.41860   -9999.25   -9999.25   -9999.25   91.71110
 12970.00000  168.60850    0.28730    9.29250    0.20200    0.19320    3.99550    2.40100   -9999.25   -9999.25   -9999.25   92.21240
 12970.50000  169.45420    0.28560    9.44660    0.19270    0.21800    3.97350    2.40990   -9999.25   -9999.25   -9999.25   92.92690
 12971.00000  169.95460    0.30950    9.48020    0.17730    0.24500    3.95130    2.41960   -9999.25   -9999.25   -9999.25   93.34720
 12971.50000  168.65820    0.30150    9.44910    0.17660    0.25180    3.93210    2.43360   -9999.25   -9999.25   -9999.25   93.55180
 12972.00000  167.03940    0.28070    9.51630    0.12760    0.24520    3.92380    2.47470   -9999.25   -9999.25   -9999.25   93.42160
 12972.50000  167.35620    0.25700    8.81830    0.10970    0.23830    3.88990    2.54740   -9999.25   -9999.25   -9999.25   92.23870
 12973.00000  168.90860    0.24320    8.60220    0.07440    0.23370    3.87290    2.60230   -9999.25   -9999.25   -9999.25   90.02500
