~Version ---------------------------------------------------
VERS.   2.0 : CWLS log ASCII Standard -VERSION 2.0
WRAP.    NO : One line per depth step
DLM . SPACE : Column Data Section Delimiter
~Well ------------------------------------------------------
STRT .F                  152.0 : START DEPTH
STOP .F                13797.0 : STOP DEPTH
STEP .F                    0.5 : STEP
NULL .                -9999.25 : NULL VALUE
COMP .                         : COMPANY
WELL .                         : WELL
FLD  .                         : FIELD
LOC  .                         : LOCATION
PROV .                         : PROVINCE
CNTY .                         : COUNTY
STAT .                         : STATE
CTRY .                         : COUNTRY
SRVC .                         : SERVICE COMPANY
DATE .                         : DATE
UWI  .                         : UNIQUE WELL ID
API  .                         : API NUMBER
SLAT .WGS84 1.8800801468957005 : SURFACE LATITUDE
SLON .WGS84  8.953720885865991 : SURFACE LONGITUDE
DATUM.F                3796.57 : DEPTH DATUM ELEV
~Curve Information -----------------------------------------
DEPT .F     : 
GRD  .GAPI  : GAMMA RAY FROM DENSITY LOG
TNPH .DEC   : THERMAL NEUTRON POROSITY
HCAL .IN    : HILT CALIPER
DPHZ .DEC   : HRGD STANDARD RESOLUTION DENSITY POROSITY
HDRA .G/C3  : HRDD SPINE AND RIBS DENSITY CORRECTION
PEFZ .B/E   : HHRDD STANDARD RESOLUTION FORMATION PHOTO ELECTRIC
RHOZ .G/C3  : BULK DENSITY
DTCO .US/F  : DELTA-T COMPRESSIONAL
DTSM .US/F  : DELTA-T SHEAR
HD   .IN    : HILT CALIPER
DTCO1.US/F  : LONG-SPACED COMPRESSIONAL INTERVAL TRANSIT TIME 12-13-FT RECEIVER
~Params ----------------------------------------------------
~Other -----------------------------------------------------
~ASCII -----------------------------------------------------
# ...
 8051.50000   59.78390    0.21510    9.73220    0.36820    0.02140    5.20470    2.28300   84.12310  141.77530    9.65030   -9999.25
 8052.00000   65.35260    0.23210   10.01080    0.36570    0.02640    4.59870    2.36310   83.31250  138.46710   10.18700   -9999.25
 8052.50000   74.63860    0.22210   10.26330    0.21690    0.02420    3.94000    2.44330   81.98030  135.25900    9.73820   -9999.25
 8053.00000   78.76100    0.18850    9.88240    0.12430    0.01420    3.48010    2.52340   80.83700  130.25970    9.65090   -9999.25
 8053.50000   83.58490    0.15800    9.62680    0.08810    0.00520    3.09600    2.56010   79.89840  126.06220    9.64710   -9999.25
 8054.00000   90.25670    0.16580    9.62330    0.09400    0.00060    3.04070    2.53610   79.46940  124.11710    9.64090   -9999.25
 8054.50000   97.37820    0.19070    9.64980    0.11860    0.00330    3.15300    2.51750   79.42370  124.86390    9.64050   -9999.25
 8055.00000  103.64620    0.19500    9.67620    0.12480    0.05520    3.30420    2.51590   79.77100  125.94260    9.66830   -9999.25
 8055.50000  101.03120    0.19660    9.69510    0.10440    0.07790    3.45530    2.54330   80.06000  127.02130    9.69600   -9999.25
 8056.00000   97.05460    0.18750    9.69970    0.09100    0.07070    3.45890    2.56100   79.84370  127.77090    9.72380   -9999.25
 8056.50000   93.46570    0.17620    9.69970    0.10040    0.04560    3.34840    2.55210   79.23540  126.42270    9.73720   -9999.25
 8057.00000   91.67000    0.16490    9.67910    0.11190    0.02860    3.24120    2.51850   78.43620  123.90780    9.69870   -9999.25
 8057.50000   90.87550    0.15370    9.60250    0.12580    0.02150    3.16920    2.50940   75.98370  120.85220    9.57270   -9999.25
 8058.00000   89.40090    0.14260    9.52070    0.12590    0.01970    3.23300    2.50980   71.94590  119.26730    9.54630   -9999.25
 8058.50000   84.23540    0.13650    9.49330    0.12070    0.01090    3.31870    2.53290   69.34970  117.86160    9.52240   -9999.25
 8059.00000   77.74880    0.12730    9.48540    0.09850    0.00480    3.40440    2.54530   68.69890  116.52470    9.50390   -9999.25
 8059.50000   73.79610    0.11680    9.50430    0.08260    0.00150    3.47580    2.57450   69.52440  116.00770    9.49310   -9999.25
 8060.00000   74.31680    0.12700    9.52330    0.07370   -0.00050    3.44130    2.59140   72.51720  119.21960    9.49790   -9999.25
 8060.50000   81.88480    0.14390    9.53990    0.07590   -0.00100    3.33260    2.58000   75.21290  121.88290    9.52200   -9999.25
 8061.00000   90.50100    0.15700    9.55490    0.09650   -0.00150    3.22390    2.55920   77.66750  123.77260    9.54610   -9999.25
 8061.50000  101.37500    0.16850    9.56550    0.11160   -0.00170    3.11530    2.52570   78.95990  124.37600    9.57110   -9999.25
 8062.00000  111.59690    0.17550    9.57330    0.12150   -0.00090    3.03300    2.51440   79.95260  124.20030    9.59720   -9999.25
 8062.50000  117.41050    0.17930    9.58110    0.12420   -0.00010    2.96820    2.51240   80.12260  124.50350    9.62340   -9999.25
 8063.00000  112.26630    0.18080    9.58900    0.12320    0.00060    2.90340    2.51210   79.82490  125.53140    9.62610   -9999.25
 8063.50000  103.05530    0.17120    9.59680    0.12640   -0.00060    2.83860    2.51270   79.34570  124.46840    9.61940   -9999.25
 8064.00000   94.10030    0.15700    9.60470    0.12420   -0.00310    2.84160    2.51570   78.86140  123.14490    9.61260   -9999.25
 8064.50000   90.43730    0.14910    9.61130    0.11910   -0.00560    2.96700    2.52320   78.40950  119.82740    9.60580   -9999.25
 8065.00000   90.71320    0.15450    9.59930    0.11270   -0.00750    3.09240    2.52960   76.21780  117.38650    9.59910   -9999.25
 8065.50000   92.63690    0.16140    9.58620    0.11450   -0.00420    3.19840    2.53070   74.66490  117.51120    9.59230   -9999.25
 8066.00000   92.60040    0.15950    9.57300    0.11180    0.00590    3.29790    2.53240   73.44840  118.46970    9.58630   -9999.25
 8066.50000   89.73140    0.15140    9.56340    0.10340    0.01260    3.39300    2.53880   72.90460  118.54990    9.58050   -9999.25
 8067.00000   88.36980    0.14340    9.55780    0.09610    0.01130    3.34840    2.55340   72.32540  117.68030    9.57510   -9999.25
 8067.50000   90.98680    0.14090    9.55210    0.10070    0.00670    3.29500    2.54450   71.71620  116.99570    9.57290   -9999.25
 8068.00000   95.86180    0.14720    9.54650    0.11020    0.00280    3.24170    2.53300   71.21490  117.39810    9.57350   -9999.25
 8068.50000   95.86930    0.15200    9.54080    0.11220    0.00130    3.24760    2.53250   70.44910  117.31930    9.57300   -9999.25
 8069.00000   86.09910    0.15180    9.53670    0.09240   -0.00020    3.45970    2.55500   69.37700  115.87650    9.58760   -9999.25
 8069.50000   76.40030    0.13970    9.55100    0.08110   -0.00170    3.67300    2.57650   69.06870  114.52120    9.58800   -9999.25
 8070.00000   69.55190    0.12980    9.55910    0.06060   -0.00090    3.69050    2.59350   70.23240  114.39110    9.57770   -9999.25
 8070.50000   75.67340    0.13150    9.56720    0.05900    0.00040    3.61540    2.60960   71.61390  115.08980    9.59110   -9999.25
 8071.00000   89.36360    0.13650    9.56820    0.07680    0.00150    3.42390    2.60070   73.15280  117.08180    9.59260   -9999.25
 8071.50000  103.02900    0.14850    9.57670    0.09850    0.00150    3.27410    2.56330   74.77220  119.11810    9.59670   -9999.25
 8072.00000  108.34760    0.16950    9.58630    0.10750    0.00060    3.25170    2.54120   76.39490  121.05320    9.60350   -9999.25
 8072.50000  110.88690    0.18970    9.59600    0.10620   -0.00070    3.15790    2.53290   77.90000  122.72930    9.62970   -9999.25
 8073.00000  112.55390    0.19720    9.60580    0.11580   -0.00200    3.02510    2.52230   78.89510  124.37600    9.64440   -9999.25
 8073.50000  112.72650    0.19980    9.61590    0.13140   -0.00320    2.93420    2.49210   79.05260  124.12540    9.65280   -9999.25
 8074.00000  106.25690    0.19120    9.62600    0.14980    0.00520    2.95750    2.47650   79.00450  123.51530    9.65390   -9999.25
 8074.50000   96.41270    0.18110    9.63610    0.14380    0.03350    3.32000    2.47920   78.47110  122.65670    9.65340   -9999.25
 8075.00000   89.93900    0.17090    9.64630    0.13950    0.06520    3.50790    2.49640   76.36330  122.37900    9.66420   -9999.25
 8075.50000   85.98460    0.15920    9.65640    0.11090    0.06250    3.67660    2.53250   74.66520  120.43800    9.67240   -9999.25
 8076.00000   82.15190    0.14390    9.65690    0.09140    0.03800    3.69860    2.55080   72.97520  117.95240    9.67400   -9999.25
 8076.50000   79.32170    0.12850    9.65330    0.07670    0.01390    3.66880    2.57690   71.65650  115.94750    9.65970   -9999.25
 8077.00000   78.59700    0.12470    9.64930    0.06990    0.00290    3.64220    2.59610   70.29400  115.04320    9.65430   -9999.25
 8077.50000   77.07920    0.12830    9.64520    0.07070    0.00090    3.70960    2.59750   69.63800  113.92780    9.65330   -9999.25
 8078.00000   73.50020    0.13020    9.64150    0.07270   -0.00100    3.81340    2.59710   69.10340  113.01380    9.65390   -9999.25
 8078.50000   70.33690    0.13040    9.64150    0.07490   -0.00220    3.91730    2.59100   68.48980  112.50730    9.65430   -9999.25
 8079.00000   70.38320    0.13020    9.65120    0.07690   -0.00340    3.83370    2.58980   67.79350  111.60930    9.67260   -9999.25
 8079.50000   73.30780    0.12940    9.66330    0.08480   -0.00450    3.70050    2.57420   66.77830  110.59840    9.69100   -9999.25
 8080.00000   72.86500    0.12480    9.67540    0.08900   -0.00250    3.67250    2.56930   65.14320  111.11540    9.71250   -9999.25
 8080.50000   68.64110    0.12030    9.69770    0.08510    0.00150    3.77960    2.57750   64.09570  113.57390    9.72170   -9999.25
 8081.00000   64.41710    0.10820    9.72370    0.07690    0.00500    3.97720    2.58600   64.85330  115.18990    9.73720   -9999.25
 8081.50000   61.84050    0.09650    9.76140    0.07460    0.00810    4.08070    2.57880   66.16570  115.18990    9.75170   -9999.25
