~Version ---------------------------------------------------
VERS.   2.0 : CWLS log ASCII Standard -VERSION 2.0
WRAP.    NO : One line per depth step
DLM . SPACE : Column Data Section Delimiter
~Well ------------------------------------------------------
STRT .F                  152.0 : START DEPTH
STOP .F                13797.0 : STOP DEPTH
STEP .F                    0.5 : STEP
NULL .                -9999.25 : NULL VALUE
COMP .                         : COMPANY
WELL .                         : WELL
FLD  .                         : FIELD
LOC  .                         : LOCATION
PROV .                         : PROVINCE
CNTY .                         : COUNTY
STAT .                         : STATE
CTRY .                         : COUNTRY
SRVC .                         : SERVICE COMPANY
DATE .                         : DATE
UWI  .                         : UNIQUE WELL ID
API  .                         : API NUMBER
SLAT .WGS84 1.8800801468957005 : SURFACE LATITUDE
SLON .WGS84  8.953720885865991 : SURFACE LONGITUDE
DATUM.F                3796.57 : DEPTH DATUM ELEV
~Curve Information -----------------------------------------
DEPT .F     : 
GRD  .GAPI  : GAMMA RAY FROM DENSITY LOG
TNPH .DEC   : THERMAL NEUTRON POROSITY
HCAL .IN    : HILT CALIPER
DPHZ .DEC   : HRGD STANDARD RESOLUTION DENSITY POROSITY
HDRA .G/C3  : HRDD SPINE AND RIBS DENSITY CORRECTION
PEFZ .B/E   : HHRDD STANDARD RESOLUTION FORMATION PHOTO ELECTRIC
RHOZ .G/C3  : BULK DENSITY
DTCO .US/F  : DELTA-T COMPRESSIONAL
DTSM .US/F  : DELTA-T SHEAR
HD   .IN    : HILT CALIPER
DTCO1.US/F  : LONG-SPACED COMPRESSIONAL INTERVAL TRANSIT TIME 12-13-FT RECEIVER
~Params ----------------------------------------------------
~Other -----------------------------------------------------
~ASCII -----------------------------------------------------
# ...
 9698.50000   94.78210    0.09840    9.31550    0.04800   -0.00370    3.45480    2.63390   59.43870  108.64800    9.31740   -9999.25
 9699.00000   99.62450    0.10840    9.32020    0.04880   -0.00430    3.51210    2.63360   60.25680  109.69880    9.33300   -9999.25
 9699.50000  103.84940    0.12120    9.33600    0.04670   -0.00380    3.59600    2.63690   61.39500  113.75480    9.34400   -9999.25
 9700.00000  105.21390    0.13420    9.35370    0.04640   -0.00040    3.67910    2.65180   62.46880  118.75720    9.34560   -9999.25
 9700.50000  107.83930    0.14740    9.37140    0.03670    0.01580    3.77390    2.65680   63.56190  120.09690    9.34970   -9999.25
 9701.00000  113.86670    0.16070    9.38920    0.02680    0.03100    3.84210    2.66600   65.48350  118.24530    9.39120   -9999.25
 9701.50000  120.05570    0.17530    9.41010    0.01950    0.04540    3.86740    2.67780   65.19450  116.12990    9.43440   -9999.25
 9702.00000  120.40610    0.17730    9.44020    0.03110    0.04320    3.59860    2.64950   64.04780  113.63980    9.48770   -9999.25
 9702.50000  107.97010    0.14300    9.47040    0.05960    0.02550    3.29830    2.60660   63.00070  111.80950    9.47240   -9999.25
 9703.00000   93.15280    0.11540    9.48610    0.07320    0.00950    3.08090    2.60090   61.98580  110.06420    9.46660   -9999.25
 9703.50000   77.69700    0.09470    9.48750    0.06970    0.00450    3.01050    2.59790   61.30190  107.39360    9.46760   -9999.25
 9704.00000   71.36780    0.07410    9.48440    0.06480   -0.00020    3.14570    2.60320   60.75160  106.09740    9.48180   -9999.25
 9704.50000   73.10480    0.07020    9.48140    0.06110   -0.00020    3.38470    2.60890   60.29370  106.14440    9.51650   -9999.25
 9705.00000   79.75950    0.08640    9.50260    0.06670    0.00190    3.64050    2.60860   60.41810  106.58320    9.52000   -9999.25
 9705.50000   87.35940    0.11430    9.53450    0.06610    0.00500    3.75100    2.60600   61.07570  106.86640    9.48380   -9999.25
 9706.00000   95.91920    0.12080    9.55250    0.05460    0.01340    3.75080    2.62070   60.76150  107.45590    9.43370   -9999.25
 9706.50000  101.83880    0.12310    9.51180    0.04320    0.01850    3.72120    2.64290   60.40260  108.83530    9.41500   -9999.25
 9707.00000  104.39840    0.12490    9.46410    0.03670    0.01070    3.62720    2.65060   59.83200  110.21470    9.40780   -9999.25
 9707.50000  103.18620    0.12640    9.41650    0.04740    0.00290    3.56570    2.64100   58.61360  112.39590    9.40650   -9999.25
 9708.00000  100.99060    0.12840    9.41040    0.05230   -0.00100    3.61840    2.62570   58.05570  112.18810    9.40650   -9999.25
 9708.50000   99.91110    0.13310    9.41410    0.05610    0.01720    3.77340    2.62010   60.51480  111.53470    9.41820   -9999.25
 9709.00000  102.58890    0.14620    9.41770    0.07850    0.04810    4.27880    2.58490   64.79510  113.63570    9.44210   -9999.25
 9709.50000  107.30660    0.15920    9.48890    0.09790    0.07160    4.71150    2.54740   66.86140  115.39590    9.46600   -9999.25
 9710.00000  110.76280    0.16890    9.49240    0.11980    0.05400    4.73320    2.52600   67.40020  113.86540    9.53640   -9999.25
 9710.50000  105.82340    0.16750    9.48370    0.11430    0.02980    4.28750    2.52880   66.84470  111.69450    9.48270   -9999.25
 9711.00000   96.63150    0.14360    9.47010    0.09530    0.01460    3.84760    2.56040   63.73170  108.41450    9.46590   -9999.25
 9711.50000   88.80360    0.11800    9.45770    0.06210    0.00940    3.49890    2.59210   61.24710  106.52580    9.46370   -9999.25
 9712.00000   88.60490    0.11270    9.46330    0.03930    0.00840    3.56710    2.65140   59.73670  109.46990    9.48630   -9999.25
 9712.50000   93.45320    0.12060    9.50490    0.11790    0.00890    3.82380    2.59160   58.34730  113.48000    9.50810   -9999.25
 9713.00000   97.78930    0.14000    9.61210    0.22050    0.00940    4.48950    2.16810   56.31240  115.30280    9.56780   -9999.25
 9713.50000  100.28690    0.17410    9.85910    0.33280    0.01580    5.15520    2.07920   53.94820  116.26520    9.71440   -9999.25
 9714.00000  103.58730    0.21270   10.28560    0.40610    0.03670    5.72090    2.17920   54.41250  119.78880   10.29960   -9999.25
 9714.50000  105.32250    0.25130   10.64670    0.36950    0.05760    5.50340    2.36160   57.00330  123.33110   10.15630   -9999.25
 9715.00000  104.96470    0.27450   10.10720    0.27050    0.06150    4.79980    2.48140   59.81150  124.90800    9.99420   -9999.25
 9715.50000  100.60120    0.27730    9.78050    0.10220    0.04650    4.09620    2.58940   62.75260  123.72020    9.81140   -9999.25
 9716.00000   97.06820    0.18460    9.72440    0.04860    0.02930    3.73390    2.63830   65.21720  120.83570    9.70200   -9999.25
 9716.50000  100.82740    0.17660    9.69460    0.02500    0.01580    3.67600    2.67020   65.09450  117.60810    9.69750   -9999.25
 9717.00000  106.60460    0.17180    9.69260    0.02700    0.00830    3.64570    2.66720   63.85870  110.05620    9.70250   -9999.25
 9717.50000  110.03100    0.16800    9.68870    0.02890    0.00410    3.60660    2.66350   62.62440  108.05780    9.70620   -9999.25
 9718.00000  106.25360    0.15170    9.68670    0.03780    0.00170    3.55120    2.65330   61.68340  107.86040    9.70670   -9999.25
 9718.50000   95.93120    0.12220    9.69120    0.04210    0.00770    3.50820    2.64470   60.86890  107.49650    9.71880   -9999.25
 9719.00000   88.02420    0.09460    9.71020    0.04190    0.02040    3.52340    2.64420   60.32150  106.86640    9.72640   -9999.25
 9719.50000   82.13430    0.09130    9.72930    0.04030    0.02720    3.67890    2.64400   61.01360  107.29430    9.73430   -9999.25
 9720.00000   87.16840    0.11440    9.74840    0.04440    0.01230    3.83580    2.64440   62.37610  108.36530    9.75630   -9999.25
 9720.50000   94.83060    0.14050    9.76480    0.04200   -0.00110    3.97610    2.64650   62.37610  110.45320    9.77730   -9999.25
 9721.00000   99.26100    0.15060    9.78100    0.03820   -0.00080    3.90330    2.64940   62.27740  111.67750    9.79840   -9999.25
 9721.50000   96.12570    0.13390    9.79720    0.03440    0.00060    3.81080    2.65270   62.04140  111.32930    9.81940   -9999.25
 9722.00000   91.13200    0.10990    9.81330    0.03580   -0.00080    3.72180    2.65450   61.80540  110.71820    9.84040   -9999.25
 9722.50000   89.28550    0.08990    9.82770    0.04040   -0.00200    3.70680    2.64730   61.90200  111.29790    9.86160   -9999.25
 9723.00000   98.13820    0.10350    9.83930    0.03800   -0.00310    3.75970    2.64920   62.48620  112.16170    9.88510   -9999.25
 9723.50000  106.82030    0.12610    9.84910    0.03220   -0.00430    3.83600    2.65450   64.26860  113.06940    9.90850   -9999.25
 9724.00000  113.59240    0.14880    9.88090    0.02640   -0.00220    3.85410    2.66200   67.29930  113.97700    9.93190   -9999.25
 9724.50000  116.62680    0.16410    9.91510    0.02890    0.00430    3.85410    2.66610   67.19520  114.77340    9.95530   -9999.25
 9725.00000  117.43230    0.17750    9.93770    0.02790    0.01090    3.86740    2.66590   66.77630  115.08530    9.97870   -9999.25
 9725.50000  116.37670    0.17950    9.97110    0.03370    0.01480    3.88880    2.66140   66.35750  114.73210    9.99880   -9999.25
 9726.00000  113.73770    0.17760   10.00050    0.03470    0.01450    3.92140    2.65440   65.50100  113.42990   10.00580   -9999.25
 9726.50000  108.29740    0.16730    9.97900    0.04170    0.00220    3.92610    2.64800   64.48840  112.14830   10.01280   -9999.25
 9727.00000  102.49600    0.14730    9.98050    0.04450   -0.00290    3.71410    2.64030   63.53560  110.86680   10.01990   -9999.25
 9727.50000   96.66760    0.12650   10.02530    0.05050   -0.00360    3.49590    2.63320   62.36810  109.57110   10.03290   -9999.25
 9728.00000   91.01990    0.11030   10.05480    0.06450   -0.00360    3.28330    2.61250   62.28840  108.08140   10.06020   -9999.25
 9728.50000   85.08600    0.10040   10.08030    0.08120   -0.00360    3.12260    2.58440   63.00130  106.59180   10.08740   -9999.25
