~Version ---------------------------------------------------
VERS.   2.0 : CWLS log ASCII Standard -VERSION 2.0
WRAP.    NO : One line per depth step
DLM . SPACE : Column Data Section Delimiter
~Well ------------------------------------------------------
STRT .F                  152.0 : START DEPTH
STOP .F                13797.0 : STOP DEPTH
STEP .F                    0.5 : STEP
NULL .                -9999.25 : NULL VALUE
COMP .                         : COMPANY
WELL .                         : WELL
FLD  .                         : FIELD
LOC  .                         : LOCATION
PROV .                         : PROVINCE
CNTY .                         : COUNTY
STAT .                         : STATE
CTRY .                         : COUNTRY
SRVC .                         : SERVICE COMPANY
DATE .                         : DATE
UWI  .                         : UNIQUE WELL ID
API  .                         : API NUMBER
SLAT .WGS84 1.8800801468957005 : SURFACE LATITUDE
SLON .WGS84  8.953720885865991 : SURFACE LONGITUDE
DATUM.F                3796.57 : DEPTH DATUM ELEV
~Curve Information -----------------------------------------
DEPT .F     : 
GRD  .GAPI  : GAMMA RAY FROM DENSITY LOG
TNPH .DEC   : THERMAL NEUTRON POROSITY
HCAL .IN    : HILT CALIPER
DPHZ .DEC   : HRGD STANDARD RESOLUTION DENSITY POROSITY
HDRA .G/C3  : HRDD SPINE AND RIBS DENSITY CORRECTION
PEFZ .B/E   : HHRDD STANDARD RESOLUTION FORMATION PHOTO ELECTRIC
RHOZ .G/C3  : BULK DENSITY
DTCO .US/F  : DELTA-T COMPRESSIONAL
DTSM .US/F  : DELTA-T SHEAR
HD   .IN    : HILT CALIPER
DTCO1.US/F  : LONG-SPACED COMPRESSIONAL INTERVAL TRANSIT TIME 12-13-FT RECEIVER
~Params ----------------------------------------------------
~Other -----------------------------------------------------
~ASCII -----------------------------------------------------
# ...
 12103.50000  105.45310    0.17800    8.26640    0.06050    0.01240    3.68680    2.61510   75.96230  125.42490    8.25440   -9999.25
 12104.00000  104.57070    0.16300    8.26190    0.05770    0.01150    3.62930    2.61880   74.86690  124.42000    8.26270   -9999.25
 12104.50000  101.18470    0.15000    8.24710    0.05680    0.00970    3.54030    2.61950   73.73070  122.19720    8.24460   -9999.25
 12105.00000   99.57520    0.14790    8.21660    0.05890    0.00800    3.45130    2.61810   73.28130  119.97440    8.24190   -9999.25
 12105.50000   98.60030    0.15250    8.21100    0.06420    0.00620    3.36230    2.60560   73.82250  117.79860    8.24790   -9999.25
 12106.00000   98.49780    0.15770    8.22320    0.07770    0.00440    3.27330    2.58640   75.23340  117.26970    8.26800   -9999.25
 12106.50000   98.76980    0.16300    8.24100    0.09270    0.00060    3.24240    2.56850   76.18870  119.21300    8.26470   -9999.25
 12107.00000  100.73420    0.16780    8.25950    0.09840   -0.00310    3.23880    2.55110   75.98460  120.70700    8.27440   -9999.25
 12107.50000  103.68880    0.16930    8.27810    0.09430   -0.00190    3.23880    2.55370   75.62600  121.51240    8.28220   -9999.25
 12108.00000  105.37380    0.16180    8.28810    0.08530   -0.00010    3.25530    2.56900   74.73730  121.89520    8.31270   -9999.25
 12108.50000  102.06080    0.15880    8.27760    0.07620    0.00170    3.29610    2.58340   73.62700  122.28940    8.30930   -9999.25
 12109.00000   97.72370    0.16580    8.26700    0.06860    0.00280    3.33800    2.59710   72.56830  123.44110    8.30580   -9999.25
 12109.50000   92.49800    0.17370    8.25650    0.06600    0.00190    3.38780    2.60230   72.19870  125.54830    8.30240   -9999.25
 12110.00000   87.26290    0.17680    8.24590    0.06270   -0.00070    3.56300    2.60720   72.58350  126.68930    8.29890   -9999.25
 12110.50000   86.12110    0.17260    8.26000    0.05960   -0.00320    3.71460    2.61490   73.32540  131.21720    8.29660   -9999.25
 12111.00000   86.12110    0.16810    8.28060    0.05400   -0.00010    3.69670    2.62290   74.93910  135.21640    8.29660   -9999.25
 12111.50000   89.79050    0.16850    8.29970    0.05170    0.00990    3.61660    2.62940   76.45560  136.55830    8.29660   -9999.25
 12112.00000   97.65380    0.17720    8.31280    0.06060    0.01040    3.55180    2.61650   77.95180  138.76900    8.30540   -9999.25
 12112.50000  104.13010    0.19170    8.31100    0.06400    0.00540    3.52720    2.60890   78.75770  139.36010    8.33010   -9999.25
 12113.00000  108.26490    0.20620    8.30440    0.06060    0.00160    3.54920    2.61410   78.56630  139.45880    8.35510   -9999.25
 12113.50000  110.75820    0.22080    8.29390    0.05860    0.00220    3.55330    2.61720   77.76170  138.38570    8.35790   -9999.25
 12114.00000  110.61090    0.22240    8.28580    0.06090    0.00340    3.45270    2.61460   76.99000  136.19000    8.31990   -9999.25
 12114.50000  107.17560    0.20500    8.27860    0.06190    0.00450    3.33890    2.61210   76.21820  132.37780    8.28750   -9999.25
 12115.00000  103.11050    0.18770    8.27130    0.06310    0.00550    3.38880    2.60890   75.48980  128.24870    8.28350   -9999.25
 12115.50000  100.18910    0.17360    8.26400    0.07050    0.00620    3.46740    2.59870   75.38190  125.65450    8.28370   -9999.25
 12116.00000   97.65720    0.16730    8.25680    0.08260    0.00530    3.52640    2.58340   75.75320  124.28030    8.28380   -9999.25
 12116.50000   94.87110    0.16340    8.25350    0.08780    0.00400    3.54470    2.57390   76.23460  123.22380    8.28170   -9999.25
 12117.00000   94.09540    0.16240    8.26440    0.09360    0.00260    3.51740    2.56680   77.00900  121.92890    8.27970   -9999.25
 12117.50000   96.41860    0.16240    8.28150    0.09810    0.00130    3.38150    2.55680   78.46580  123.48530    8.28480   -9999.25
 12118.00000  100.92250    0.16650    8.30060    0.10480    0.00000    3.23380    2.54690   80.02550  130.03060    8.31160   -9999.25
 12118.50000  106.66680    0.17230    8.32040    0.10890   -0.00140    3.11560    2.53830   81.77690  132.94210    8.33770   -9999.25
 12119.00000  109.18960    0.17810    8.34220    0.11160   -0.00200    3.05400    2.53270   84.15200  133.03730    8.35400   -9999.25
 12119.50000  113.30250    0.18300    8.36340    0.11300   -0.00110    2.99230    2.53220   86.47570  133.10590    8.38000   -9999.25
 12120.00000  121.65340    0.18760    8.38390    0.11640    0.00000    2.94420    2.53170   88.42360  136.92530    8.39410   -9999.25
 12120.50000  131.59570    0.19310    8.40880    0.12600    0.00110    2.91650    2.50430   89.52710  145.90320    8.40860   -9999.25
 12121.00000  142.79570    0.19860    8.43890    0.13900    0.00000    2.92560    2.48350   89.18500  149.29870    8.43080   -9999.25
 12121.50000  147.48640    0.20410    8.46230    0.15440   -0.00120    3.00060    2.46190   87.64920  147.41580    8.44800   -9999.25
 12122.00000  148.06360    0.19790    8.47160    0.16140   -0.00230    3.08830    2.45500   84.91170  145.29550    8.46430   -9999.25
 12122.50000  142.48700    0.18970    8.47700    0.14830   -0.00310    3.17470    2.47690   81.87590  143.49500    8.46340   -9999.25
 12123.00000  133.23590    0.18150    8.47950    0.12290   -0.00240    3.20110    2.51380   79.17890  142.12300    8.45500   -9999.25
 12123.50000  118.89150    0.17330    8.48200    0.09960   -0.00050    3.22460    2.55440   77.76770  140.37400    8.44360   -9999.25
 12124.00000  102.74160    0.16570    8.49070    0.07620    0.00130    3.23090    2.58660   76.47360  136.42920    8.45310   -9999.25
 12124.50000   91.62190    0.16460    8.51260    0.06300    0.00320    3.22890    2.61490   76.59320  135.21480    8.48040   -9999.25
 12125.00000   95.32730    0.17230    8.53450    0.06960    0.00400    3.22940    2.60430   76.63130  136.88830    8.57030   -9999.25
 12125.50000  102.99070    0.18880    8.55640    0.08040    0.00110    3.25930    2.59120   76.07770  137.27930    8.60400   -9999.25
 12126.00000  108.07930    0.20520    8.57840    0.08820   -0.00210    3.46650    2.58150   75.98060  136.40810    8.60530   -9999.25
 12126.50000  104.49120    0.20750    8.61310    0.06420   -0.00290    3.62000    2.59780   76.45400  136.30440    8.65170   -9999.25
 12127.00000   98.49110    0.19460    8.65770    0.04470   -0.00130    3.70230    2.63810   77.16590  138.28090    8.69800   -9999.25
 12127.50000   95.97660    0.20390    8.70150    0.04160    0.00140    3.63980    2.64940   78.01330  137.40540    8.74440   -9999.25
 12128.00000   98.39870    0.21980    8.72900    0.04580    0.00410    3.47010    2.64350   78.69170  135.79740    8.75700   -9999.25
 12128.50000  102.45190    0.23580    8.74140    0.05570    0.00380    3.42350    2.62560   79.12940  134.53550    8.75510   -9999.25
 12129.00000  106.47170    0.24360    8.74820    0.06400    0.00130    3.42020    2.61320   79.26980  134.41610    8.75220   -9999.25
 12129.50000  108.92260    0.23830    8.74820    0.06720   -0.00120    3.43950    2.60340   79.30550  137.73350    8.74930   -9999.25
 12130.00000  109.22460    0.23300    8.74040    0.07060   -0.00360    3.46430    2.59810   79.51960  140.44880    8.74640   -9999.25
 12130.50000  109.12470    0.23520    8.73250    0.07230   -0.00480    3.48900    2.59520   79.68770  141.21620    8.74350   -9999.25
 12131.00000  109.02470    0.23790    8.72460    0.07140   -0.00540    3.50660    2.59550   79.66570  139.00340    8.74060   -9999.25
 12131.50000  108.91650    0.23810    8.71670    0.06930   -0.00550    3.50990    2.60000   79.65180  137.24600    8.73750   -9999.25
 12132.00000  108.85320    0.23120    8.70890    0.06570   -0.00510    3.51320    2.60860   79.50960  136.15430    8.73450   -9999.25
 12132.50000  108.99110    0.21240    8.70100    0.06580    0.00040    3.51220    2.60500   78.92810  133.90220    8.73140   -9999.25
 12133.00000  109.67040    0.19480    8.69310    0.06560    0.01440    3.47880    2.60130   77.51340  131.75760    8.72840   -9999.25
