~Version ---------------------------------------------------
VERS.   2.0 : CWLS log ASCII Standard -VERSION 2.0
WRAP.    NO : One line per depth step
DLM . SPACE : Column Data Section Delimiter
~Well ------------------------------------------------------
STRT .F                  152.0 : START DEPTH
STOP .F                13797.0 : STOP DEPTH
STEP .F                    0.5 : STEP
NULL .                -9999.25 : NULL VALUE
COMP .                         : COMPANY
WELL .                         : WELL
FLD  .                         : FIELD
LOC  .                         : LOCATION
PROV .                         : PROVINCE
CNTY .                         : COUNTY
STAT .                         : STATE
CTRY .                         : COUNTRY
SRVC .                         : SERVICE COMPANY
DATE .                         : DATE
UWI  .                         : UNIQUE WELL ID
API  .                         : API NUMBER
SLAT .WGS84 1.8800801468957005 : SURFACE LATITUDE
SLON .WGS84  8.953720885865991 : SURFACE LONGITUDE
DATUM.F                3796.57 : DEPTH DATUM ELEV
~Curve Information -----------------------------------------
DEPT .F     : 
GRD  .GAPI  : GAMMA RAY FROM DENSITY LOG
TNPH .DEC   : THERMAL NEUTRON POROSITY
HCAL .IN    : HILT CALIPER
DPHZ .DEC   : HRGD STANDARD RESOLUTION DENSITY POROSITY
HDRA .G/C3  : HRDD SPINE AND RIBS DENSITY CORRECTION
PEFZ .B/E   : HHRDD STANDARD RESOLUTION FORMATION PHOTO ELECTRIC
RHOZ .G/C3  : BULK DENSITY
DTCO .US/F  : DELTA-T COMPRESSIONAL
DTSM .US/F  : DELTA-T SHEAR
HD   .IN    : HILT CALIPER
DTCO1.US/F  : LONG-SPACED COMPRESSIONAL INTERVAL TRANSIT TIME 12-13-FT RECEIVER
~Params ----------------------------------------------------
~Other -----------------------------------------------------
~ASCII -----------------------------------------------------
# ...
 11713.50000   91.62190    0.13790    8.98960    0.05230    0.00070    3.04970    2.62800   68.92970  121.96860    8.96820   -9999.25
 11714.00000   89.68610    0.13810    8.99400    0.04420    0.00420    3.18550    2.63760   68.10900  120.81210    8.97150   -9999.25
 11714.50000   85.66010    0.13770    8.99850    0.03180    0.00480    3.33800    2.65660   67.77750  120.18510    8.97490   -9999.25
 11715.00000   82.03680    0.13330    9.00300    0.01780    0.00550    3.44990    2.67780   67.78720  120.15900    8.97820   -9999.25
 11715.50000   81.51610    0.12860    9.00750    0.02000    0.00620    3.42150    2.68600   67.93790  120.26530    8.98160   -9999.25
 11716.00000   82.74830    0.12450    9.01200    0.03330    0.00800    3.32090    2.66360   68.30580  120.86820    8.98490   -9999.25
 11716.50000   83.93620    0.12500    9.01650    0.04240    0.00770    3.21930    2.64530   68.61770  122.07200    8.98820   -9999.25
 11717.00000   84.13890    0.12720    9.02100    0.04110    0.00610    3.11770    2.64330   68.82230  123.28600    8.99160   -9999.25
 11717.50000   84.14710    0.12940    9.02550    0.03650    0.00450    3.06450    2.65320   69.21500  124.36370    8.99490   -9999.25
 11718.00000   85.08030    0.12990    9.03000    0.03960    0.00290    3.02980    2.64850   69.38430  125.20680    8.99830   -9999.25
 11718.50000   87.35720    0.12840    9.03450    0.04260    0.00130    3.01120    2.64210   69.36900  125.46360    9.00160   -9999.25
 11719.00000   89.80280    0.12690    9.03590    0.04000    0.00030    3.00850    2.64280   69.23830  123.01640    9.00500   -9999.25
 11719.50000   90.05160    0.12540    9.03590    0.03540    0.00000    3.02250    2.65640   68.95640  120.61860    9.00830   -9999.25
 11720.00000   88.49980    0.12390    9.03590    0.04170   -0.00020    3.07120    2.64250   68.42040  118.47390    9.01160   -9999.25
 11720.50000   87.42560    0.12240    9.03590    0.05070   -0.00050    3.11980    2.62510   68.08000  117.67750    9.01500   -9999.25
 11721.00000   86.02840    0.12200    9.03360    0.05390   -0.00050    3.16520    2.62400   68.20690  117.24460    9.01830   -9999.25
 11721.50000   84.58950    0.12190    9.03090    0.04910    0.00050    3.21070    2.63050   68.23650  117.24460    9.02170   -9999.25
 11722.00000   82.97670    0.12380    9.02810    0.04070    0.00160    3.21800    2.64320   68.28080  118.06300    9.02500   -9999.25
 11722.50000   81.30800    0.12940    9.01580    0.03290    0.00260    3.18880    2.65310   68.48290  119.18770    9.02840   -9999.25
 11723.00000   83.43190    0.14070    9.01190    0.02620    0.00370    3.13270    2.66350   69.14080  119.95380    9.03170   -9999.25
 11723.50000   87.71480    0.15100    9.02960    0.02230    0.00470    3.08600    2.67220   69.83230  120.92370    9.03510   -9999.25
 11724.00000   90.81760    0.15200    9.05060    0.02090    0.00450    3.08180    2.67710   69.92280  122.05590    9.03840   -9999.25
 11724.50000   90.37110    0.14960    9.05990    0.02740    0.00310    3.06630    2.66950   70.38210  122.28000    9.03600   -9999.25
 11725.00000   89.32990    0.14380    9.03860    0.03600    0.00170    3.03790    2.65610   70.76520  120.41410    9.03220   -9999.25
 11725.50000   90.45100    0.14660    9.02790    0.04450    0.00030    3.00960    2.64280   71.17120  122.78040    9.02850   -9999.25
 11726.00000   92.56120    0.14950    9.04130    0.05200   -0.00070    2.98190    2.62900   71.31390  126.10780    9.02470   -9999.25
 11726.50000   94.68610    0.14940    9.05190    0.05600   -0.00070    2.96400    2.62090   70.98740  124.68960    9.01260   -9999.25
 11727.00000   93.54060    0.14290    9.04120    0.05530   -0.00070    2.97960    2.62150   70.80080  121.36610    9.00040   -9999.25
 11727.50000   88.01450    0.13650    9.02580    0.05040   -0.00070    3.00870    2.62660   70.68130  120.11020    8.98820   -9999.25
 11728.00000   82.95190    0.13000    9.01040    0.04530   -0.00110    3.05400    2.63820   70.39710  120.94520    8.97600   -9999.25
 11728.50000   77.42560    0.12350    8.99500    0.04720   -0.00160    3.08770    2.63700   70.23130  122.61670    8.96370   -9999.25
 11729.00000   79.29640    0.12240    8.97990    0.04850   -0.00220    3.12030    2.62830   70.12230  124.71790    8.95150   -9999.25
 11729.50000   87.05880    0.12490    8.98160    0.05590   -0.00270    3.14290    2.62020   70.05930  124.88070    8.93930   -9999.25
 11730.00000   96.24950    0.12810    8.98790    0.05260   -0.00290    3.13060    2.62530   70.44210  124.40020    8.94140   -9999.25
 11730.50000  100.22230    0.12800    8.98790    0.05060   -0.00150    3.10270    2.63070   71.60930  124.17400    8.94470   -9999.25
 11731.00000   98.74850    0.12590    8.96980    0.04700   -0.00020    3.07620    2.63340   73.49990  125.00390    8.94800   -9999.25
 11731.50000   98.34710    0.12370    8.95180    0.04970    0.00020    3.04970    2.63190   74.56880  126.12290    8.95130   -9999.25
 11732.00000  103.55400    0.12450    8.95310    0.05110   -0.00040    3.04210    2.62990   75.35390  127.09240    8.95900   -9999.25
 11732.50000  114.35930    0.13880    8.98360    0.05480   -0.00090    3.10610    2.62300   76.82240  128.15700    8.98010   -9999.25
 11733.00000  125.20970    0.15930    9.01400    0.06330   -0.00140    3.21100    2.60970   78.77630  130.87020    9.00890   -9999.25
 11733.50000  135.49550    0.17980    9.04440    0.07980   -0.00200    3.31020    2.58240   79.09770  131.70100    9.05210   -9999.25
 11734.00000  143.38310    0.19400    9.09340    0.09730   -0.00250    3.38780    2.56090   78.08820  133.06720    9.10440   -9999.25
 11734.50000  139.06300    0.19350    9.15860    0.09930   -0.00310    3.45590    2.54720   76.40190  134.36850    9.15670   -9999.25
 11735.00000  124.51130    0.17920    9.15770    0.08850   -0.00170    3.51930    2.56220   73.28290  132.64310    9.15810   -9999.25
 11735.50000  109.92040    0.16490    9.13430    0.06460   -0.00010    3.57360    2.61940   70.11570  126.65600    9.12760   -9999.25
 11736.00000   95.24060    0.15060    9.11090    0.02860    0.00160    3.70040    2.66140   67.70170  122.08050    9.10190   -9999.25
 11736.50000   86.82360    0.14030    9.09410    0.00900    0.01200    3.84920    2.69750   66.50660  120.02270    9.09660   -9999.25
 11737.00000   79.70360    0.13360    9.10230   -0.00510    0.06020    4.04840    2.72630   68.29890  122.05380    9.09660   -9999.25
 11737.50000   83.70920    0.13200    9.16950   -0.01470    0.11990    4.24570    2.72750   70.19380  125.05790    9.13570   -9999.25
 11738.00000   94.50810    0.14540    9.35490   -0.00960    0.12810    4.22390    2.70870   70.91440  124.68170    9.27580   -9999.25
 11738.50000  104.96110    0.16050    9.40910    0.00850    0.08920    3.91470    2.68820   71.14360  124.77830    9.25690   -9999.25
 11739.00000  109.01090    0.16900    9.22660    0.02240    0.05020    3.67230    2.67290   70.96970  125.00960    9.07630   -9999.25
 11739.50000  102.32680    0.16730    9.03160    0.01730    0.01880    3.49620    2.68620   70.13440  123.12680    9.02790   -9999.25
 11740.00000   98.25970    0.15480    9.02260    0.01870    0.01070    3.47170    2.67590   69.31050  121.49810    9.01390   -9999.25
 11740.50000   98.67950    0.14870    9.02610    0.02620    0.00430    3.45890    2.66240   68.74060  122.33560    9.00880   -9999.25
 11741.00000  103.66900    0.14860    9.02950    0.02990    0.00160    3.39400    2.66480   68.45850  121.83730    9.01080   -9999.25
 11741.50000  107.27030    0.14770    9.03300    0.02510   -0.00110    3.34550    2.67200   68.03660  121.17620    9.01340   -9999.25
 11742.00000  106.39050    0.14640    9.03640    0.02070   -0.00080    3.35750    2.67830   67.70720  120.85890    9.01570   -9999.25
 11742.50000  101.76150    0.14580    9.03990    0.01810    0.00020    3.39120    2.68160   67.70920  122.99110    9.01640   -9999.25
 11743.00000   95.92350    0.14810    9.04330    0.01970    0.00120    3.42700    2.67840   68.13620  125.68750    9.01770   -9999.25
