~Version ---------------------------------------------------
VERS.   2.0 : CWLS log ASCII Standard -VERSION 2.0
WRAP.    NO : One line per depth step
DLM . SPACE : Column Data Section Delimiter
~Well ------------------------------------------------------
STRT .F                2684.0 : START DEPTH
STOP .F                3742.0 : STOP DEPTH
STEP .F                   0.5 : STEP
NULL .               -9999.25 : NULL VALUE
COMP .                        : COMPANY
WELL .                        : WELL
FLD  .                        : FIELD
LOC  .                        : LOCATION
PROV .                        : PROVINCE
CNTY .                        : COUNTY
STAT .                        : STATE
CTRY .                        : COUNTRY
SRVC .                        : SERVICE COMPANY
DATE .                        : DATE
UWI  .                        : UNIQUE WELL ID
API  .                        : API NUMBER
SLAT .WGS84 6.966614999035201 : SURFACE LATITUDE
SLON .WGS84 4.790251697944001 : SURFACE LONGITUDE
DATUM.F               2387.56 : DEPTH DATUM ELEV
~Curve Information -----------------------------------------
DEPT   .F     : 1 MEASURED DEPTH
DTCO   .US/F  : DELTA-T COMPRESSIONAL
DTL    .US/F  : DELTA-T LONG SPACING
DTSM   .US/F  : DELTA-T SHEAR
GRD    .GAPI  : GAMMA RAY FROM DENSITY LOG
NPHI_LS.DEC   : NEUTRON POROSITY LIMESTONE
~Params ----------------------------------------------------
~Other -----------------------------------------------------
~ASCII -----------------------------------------------------
# ...
 2744.00000   51.52130   60.36360   95.24860    9.55150    0.00430
 2744.50000   51.39860   61.00230   95.15450    8.26840    0.00310
 2745.00000   51.32880   64.54260   96.32330    7.94020    0.00440
 2745.50000   50.80570   75.59180   98.06670    8.19290    0.00700
 2746.00000   49.67220   86.50680   96.83640    9.46510    0.00960
 2746.50000   49.85870   83.49310   96.20600   10.69910    0.01220
 2747.00000   51.52300   72.36200   98.54250   11.35140    0.01580
 2747.50000   55.32980   73.52610  102.43240   12.80870    0.02270
 2748.00000   60.36780   77.52800  105.16610   15.23460    0.03660
 2748.50000   63.82450   79.70510  105.34910   17.66050    0.05570
 2749.00000   64.13530   78.89170  102.76570   20.08650    0.07140
 2749.50000   63.22410   77.77750   97.29200   22.00710    0.08710
 2750.00000   62.26380   78.67100   97.46860   25.87190    0.09860
 2750.50000   61.65900   81.89010  100.45720   25.96360    0.09860
 2751.00000   61.23180   81.40990  104.67460   25.42700    0.09380
 2751.50000   61.04910   78.16370  105.16290   24.66820    0.08640
 2752.00000   61.29730   75.88100  103.09420   23.44480    0.07410
 2752.50000   62.09060   75.88290  102.21840   22.45200    0.07690
 2753.00000   63.02070   76.02790   99.96280   23.30170    0.09110
 2753.50000   63.60670   76.05770   97.22890   24.40200    0.09380
 2754.00000   63.77330   75.85930   97.44170   22.46780    0.07000
 2754.50000   62.69230   71.28680   99.71010   17.02990    0.02970
 2755.00000   62.73930   66.23470  103.52340   14.01300    0.01960
 2755.50000   64.97760   62.33280  108.16920   11.83580    0.02140
 2756.00000   69.48280   60.95720  115.82380   14.95220    0.04850
 2756.50000   72.73040   60.49460  119.08960   22.66630    0.07570
 2757.00000   72.39220   60.49500  115.96530   24.83530    0.10470
 2757.50000   71.04870   61.46250  111.05040   26.33450    0.09700
 2758.00000   69.66570   63.33020  105.43120   26.38030    0.10790
 2758.50000   69.31890   67.96090  100.86360   26.68640    0.12700
 2759.00000   68.72050   68.51720   98.85340   28.16840    0.14060
 2759.50000   68.64470   67.61360   99.29080   29.77160    0.13380
 2760.00000   67.29640   64.73950  100.63650   25.86630    0.10050
 2760.50000   64.69830   62.08030  100.85360   21.03230    0.05170
 2761.00000   61.35370   59.42100  100.18310   18.34940    0.03440
 2761.50000   58.58540   57.66780   98.44500   16.73740    0.02460
 2762.00000   54.71920   59.07960   95.22590   15.33340    0.01870
 2762.50000   52.94480   62.17840   93.58790   14.03000    0.01410
 2763.00000   53.13160   64.82790   92.09230   13.13110    0.01150
 2763.50000   53.40980   67.83550   93.42000   12.40500    0.01160
 2764.00000   -9999.25   71.17560  110.23000   12.87840    0.01250
 2764.50000   -9999.25   72.48320   -9999.25   13.46430    0.01340
 2765.00000   -9999.25   70.13050   -9999.25   13.85910    0.01440
 2765.50000   -9999.25   68.85430   -9999.25   14.15550    0.01630
 2766.00000   -9999.25   69.19940   -9999.25   16.28910    0.02460
 2766.50000   -9999.25   74.01280   -9999.25   19.67150    0.03930
 2767.00000   52.99870   76.05920   -9999.25   22.57470    0.05850
 2767.50000   53.08030   76.79590   -9999.25   23.25070    0.06790
 2768.00000   53.16190   77.34500   -9999.25   21.01200    0.07180
 2768.50000   55.84180   81.78500   -9999.25   21.47220    0.08380
 2769.00000   60.85680   87.62020   -9999.25   24.41080    0.11760
 2769.50000   62.81110   92.09720  105.70730   29.73890    0.15080
 2770.00000   63.85860   94.72340   99.57700   31.52060    0.12280
 2770.50000   63.88980   95.55740   97.50150   28.71150    0.08270
 2771.00000   63.52430   95.72450   98.46380   23.67250    0.05440
 2771.50000   63.25630   94.09790  100.18230   22.68280    0.08050
 2772.00000   63.65370   93.03890  102.85590   29.56510    0.13370
 2772.50000   65.47790   94.14270  110.23260   32.13800    0.16280
 2773.00000   66.86630   96.61830  116.66110   30.92630    0.14310
 2773.50000   65.33160   99.17660  114.65080   28.11440    0.11080
 2774.00000   62.46330   99.44800  109.08440   24.93520    0.07500
 2774.50000   59.64780   98.42080  102.36640   26.20360    0.09090
 2775.00000   60.65860   97.39360  100.72270   30.47970    0.12470
 2775.50000   63.29640   95.35300  100.13580   34.91870    0.15900
 2776.00000   66.67510   88.77960  103.90820   39.30180    0.18660
 2776.50000   70.60000   85.00570  107.68060   40.26860    0.18700
 2777.00000   71.71550   85.78470  111.51840   39.50730    0.17780
 2777.50000   71.84490   87.49270  116.98630   37.08020    0.15890
 2778.00000   70.03640   88.32300  122.45870   31.73530    0.12370
 2778.50000   67.02120   80.44750  127.85470   25.17150    0.08130
 2779.00000   63.82220   76.10050  128.87340   19.06200    0.03740
 2779.50000   63.05060   72.68570  129.83950   14.47330    0.01760
 2780.00000   65.01650   71.38660  131.28660   10.86120    0.01010
 2780.50000   72.31690   69.00260  141.43290   11.01840    0.00700
 2781.00000   79.15470   66.70670  153.79510   11.29890    0.00780
 2781.50000   85.12530   66.90990  167.11710   11.50040    0.00900
 2782.00000   89.30040   67.09870  177.98140   11.61390    0.01030
 2782.50000   91.65560   62.74610  174.64020   11.63920    0.01080
 2783.00000   92.38350   61.34810  165.29140   11.80860    0.01100
 2783.50000   92.64330   60.17490  156.18850   11.92580    0.01170
 2784.00000   92.68330   59.00170  147.37390   12.50270    0.01480
 2784.50000   94.53150   58.08210  150.32660   13.83960    0.02090
 2785.00000   98.42130   58.03580  154.43030   15.65260    0.03110
 2785.50000  105.92090   58.87200  158.53390   18.50050    0.04780
 2786.00000  110.13890   62.13840  168.98790   21.92310    0.06000
 2786.50000  108.64800   68.68800  169.42420   26.41510    0.07930
 2787.00000  106.62500   72.87480  168.97440   29.72130    0.10550
 2787.50000  103.40890   73.68550  167.27220   31.85020    0.13260
 2788.00000   92.16410   72.82080  160.54750   32.75190    0.12280
 2788.50000   87.75890   66.54150  153.93540   31.00940    0.10360
 2789.00000   89.54200   63.04370  146.95500   29.23440    0.08350
 2789.50000   91.78020   60.48490  139.12190   25.78840    0.05930
 2790.00000   90.76170   61.23390  124.70250   21.33140    0.03670
 2790.50000   87.82670   65.49880  116.62030   20.85220    0.03600
 2791.00000   94.55280   69.37930  122.56560   25.27640    0.05230
 2791.50000   89.39280   71.11290  123.08550   29.00670    0.06810
 2792.00000   80.19530   72.84640   94.54510   29.74900    0.07500
 2792.50000   72.45540   73.34450   94.54060   27.18760    0.05810
 2793.00000   90.89040   72.98380  117.67380   25.34530    0.05340
 2793.50000   99.06780   72.53190  121.77040   27.15570    0.06860
 2794.00000  100.99270   75.00200  124.50840   31.96630    0.09680
 2794.50000   99.83450   80.20210  127.06430   38.74010    0.16320
 2795.00000   98.67630   83.52700  133.95510   42.55990    0.19940
 2795.50000   96.86270   84.59110  137.45860   45.16590    0.21380
 2796.00000   94.02190   85.06520  139.43970   39.90830    0.15760
 2796.50000   95.73730   83.97470  138.65580   31.93320    0.07250
 2797.00000   99.42260   81.77050  134.48410   23.63270    0.04530
 2797.50000  100.03090   78.31530  128.78830   20.86940    0.02130
 2798.00000   97.96180   75.75690  122.82380   19.75980    0.02750
 2798.50000   95.71230   76.56420  118.83630   19.84770    0.04080
 2799.00000   93.47020   78.21090  121.65890   21.68800    0.05670
 2799.50000   94.01150   79.84720  126.24670   24.07250    0.08130
 2800.00000   93.87450   79.09770  127.98090   25.11050    0.08720
 2800.50000   88.93190   76.05240  123.50000   24.64980    0.07660
 2801.00000   89.24210   72.94520  114.34750   24.22190    0.05890
 2801.50000   98.74220   68.97840  121.77120   24.11800    0.05490
 2802.00000  105.58010   67.26260  132.12790   27.23070    0.06560
 2802.50000  105.83140   66.42770  133.18550   27.79510    0.06550
 2803.00000  105.10110   66.01120   -9999.25   26.08070    0.05300
 2803.50000  103.94560   65.36230   -9999.25   23.68300    0.03860
