~Version ---------------------------------------------------
VERS.   2.0 : CWLS log ASCII Standard -VERSION 2.0
WRAP.    NO : One line per depth step
DLM . SPACE : Column Data Section Delimiter
~Well ------------------------------------------------------
STRT .F                2684.0 : START DEPTH
STOP .F                3742.0 : STOP DEPTH
STEP .F                   0.5 : STEP
NULL .               -9999.25 : NULL VALUE
COMP .                        : COMPANY
WELL .                        : WELL
FLD  .                        : FIELD
LOC  .                        : LOCATION
PROV .                        : PROVINCE
CNTY .                        : COUNTY
STAT .                        : STATE
CTRY .                        : COUNTRY
SRVC .                        : SERVICE COMPANY
DATE .                        : DATE
UWI  .                        : UNIQUE WELL ID
API  .                        : API NUMBER
SLAT .WGS84 6.966614999035201 : SURFACE LATITUDE
SLON .WGS84 4.790251697944001 : SURFACE LONGITUDE
DATUM.F               2387.56 : DEPTH DATUM ELEV
~Curve Information -----------------------------------------
DEPT   .F     : 1 MEASURED DEPTH
DTCO   .US/F  : DELTA-T COMPRESSIONAL
DTL    .US/F  : DELTA-T LONG SPACING
DTSM   .US/F  : DELTA-T SHEAR
GRD    .GAPI  : GAMMA RAY FROM DENSITY LOG
NPHI_LS.DEC   : NEUTRON POROSITY LIMESTONE
~Params ----------------------------------------------------
~Other -----------------------------------------------------
~ASCII -----------------------------------------------------
# ...
 3284.00000   64.14600   61.97710  115.38990   53.76910    0.07410
 3284.50000   63.20520   61.59080  114.93760   52.04010    0.07260
 3285.00000   62.56150   63.03880  115.89190   51.11720    0.07400
 3285.50000   62.56590   64.51340  117.88490   50.03920    0.07830
 3286.00000   63.59230   65.04980  119.01640   47.71710    0.08360
 3286.50000   65.19820   64.36370  119.22540   46.45780    0.08730
 3287.00000   64.38630   63.70630  117.80320   45.65860    0.08370
 3287.50000   63.93240   63.11380  115.52780   45.72100    0.07890
 3288.00000   63.94060   63.10850  114.48260   46.27410    0.07460
 3288.50000   64.37560   63.91830  114.17770   46.82710    0.07570
 3289.00000   64.43840   64.72810  115.01450   47.41070    0.08160
 3289.50000   64.47870   65.36040  116.88520   48.15800    0.08530
 3290.00000   64.88920   65.76570  118.68550   48.90530    0.09230
 3290.50000   65.47360   66.48120  119.86250   49.61670    0.10070
 3291.00000   66.74400   67.10210  121.38620   50.32580    0.11040
 3291.50000   68.19010   67.23000  122.54370   50.74600    0.11970
 3292.00000   68.51660   67.10170  122.35510   49.90910    0.12150
 3292.50000   68.26780   66.48760  117.13420   47.64200    0.10080
 3293.00000   66.81160   64.22830  112.89710   44.79720    0.07910
 3293.50000   64.67070   61.25450  109.87330   40.05980    0.05720
 3294.00000   61.48500   60.27930  108.38250   36.31300    0.04480
 3294.50000   60.09980   62.26200  110.79630   35.68840    0.05540
 3295.00000   61.17880   65.40460  113.97010   37.62280    0.07150
 3295.50000   63.51620   68.25060  121.26980   40.56870    0.08510
 3296.00000   67.35580   71.10910  129.16310   47.21740    0.11810
 3296.50000   71.73850   74.03820  135.35760   53.19520    0.15480
 3297.00000   74.90100   76.12910  137.50970   56.40810    0.17450
 3297.50000   77.41810   76.74950  138.11370   57.50850    0.17360
 3298.00000   76.97070   75.22980  134.03890   55.57740    0.16390
 3298.50000   73.73420   71.45050  127.80150   51.37600    0.13580
 3299.00000   70.77010   68.58630  124.20760   46.86460    0.10770
 3299.50000   67.80600   65.96240  121.44100   43.07780    0.08130
 3300.00000   65.41680   65.54950  120.45760   45.53250    0.09120
 3300.50000   64.18450   67.68680  120.50450   51.20790    0.11070
 3301.00000   65.32530   69.73610  123.67240   56.32330    0.13040
 3301.50000   68.12050   70.86570  126.84020   59.03260    0.13880
 3302.00000   70.91560   71.76420  130.00800   60.50560    0.14670
 3302.50000   71.76190   71.90490  130.79930   60.19060    0.15710
 3303.00000   71.68430   71.49160  128.32570   59.44220    0.14960
 3303.50000   71.10120   68.56360  123.60470   56.95710    0.13520
 3304.00000   68.96560   65.16620  119.08030   51.95200    0.09500
 3304.50000   66.33540   62.97520  115.59610   47.70070    0.06050
 3305.00000   63.70520   63.27600  115.48020   47.30860    0.06410
 3305.50000   62.20810   64.63140  117.46100   48.25590    0.07280
 3306.00000   62.75800   66.50870  119.96360   52.14900    0.08980
 3306.50000   64.74870   68.63160  121.70860   55.33970    0.10260
 3307.00000   66.94520   69.41560  123.35110   55.77030    0.10010
 3307.50000   68.91030   70.25950  124.68780   55.85810    0.10750
 3308.00000   69.93720   71.21170  126.02440   55.09250    0.11690
 3308.50000   70.48980   72.24640  127.58720   53.81440    0.12520
 3309.00000   70.88520   72.57500  129.20280   52.75940    0.13240
 3309.50000   71.66460   72.59570  129.82080   52.55690    0.13400
 3310.00000   72.27690   71.73160  129.71990   54.49640    0.12540
 3310.50000   71.37360   70.67430  126.78730   56.14120    0.11680
 3311.00000   69.89180   68.48790  123.39040   55.95420    0.10770
 3311.50000   67.36150   65.56110  119.71390   50.60220    0.09860
 3312.00000   64.76350   63.14440  116.17610   41.71420    0.09520
 3312.50000   62.67880   61.57280  113.22060   36.14870    0.09270
 3313.00000   61.24860   60.72770  111.23960   32.37550    0.09180
 3313.50000   61.06500   61.45950  111.53780   29.37690    0.10580
 3314.00000   61.51950   63.49740  112.54530   26.29700    0.12570
 3314.50000   62.65480   65.87600  117.93360   25.96420    0.14570
 3315.00000   63.49260   66.71000  120.80010   26.71170    0.16250
 3315.50000   63.92830   67.54390  122.61230   27.81000    0.16210
 3316.00000   64.83870   67.39070  123.38580   28.71500    0.15330
 3316.50000   65.39620   65.54430  124.06500   28.89410    0.14420
 3317.00000   65.13540   65.59180  124.09690   28.99310    0.14280
 3317.50000   64.77760   65.19810  122.91460   29.53950    0.14170
 3318.00000   64.92990   65.14600  121.38930   32.76660    0.13050
 3318.50000   65.08690   65.38830  120.31260   40.90310    0.11640
 3319.00000   65.16340   65.70530  119.81740   50.40900    0.10720
 3319.50000   65.61410   65.86740  120.05250   54.71610    0.09800
 3320.00000   65.93980   63.90770  120.24690   52.28850    0.09820
 3320.50000   64.00780   62.29420  118.83860   48.40370    0.10540
 3321.00000   62.23430   62.21490  117.40970   47.60270    0.10380
 3321.50000   61.89770   62.37650  116.92720   47.48070    0.10510
 3322.00000   62.63140   62.35770  116.91540   47.43180    0.11040
 3322.50000   63.04350   61.48220  116.23720   47.60720    0.11000
 3323.00000   62.95460   60.33680  115.04580   47.89040    0.10000
 3323.50000   62.51480   59.67810  113.46630   50.04290    0.08550
 3324.00000   61.13790   59.17670  111.76250   52.63310    0.07030
 3324.50000   59.44530   58.82160  112.05640   56.91080    0.06500
 3325.00000   59.33520   60.55030  115.89470   59.86160    0.07330
 3325.50000   61.82710   64.97940  121.13360   62.81950    0.09000
 3326.00000   65.33290   69.25380  128.26920   65.41750    0.12260
 3326.50000   69.56060   72.34000  134.13740   66.68900    0.15530
 3327.00000   72.58990   73.88310  137.10490   68.71150    0.18420
 3327.50000   74.97690   77.51230  142.61490   76.35560    0.19270
 3328.00000   79.09980   81.54940  153.01010   83.75840    0.21730
 3328.50000   82.37600   85.54250  165.73180   86.95160    0.26140
 3329.00000   82.78450   84.46310  163.09190   83.13350    0.29580
 3329.50000   82.07810   80.97620  159.01530   75.23540    0.30010
 3330.00000   78.71500   75.99870  154.93880   59.99490    0.29570
 3330.50000   76.00170   73.48610  149.96170   55.56500    0.27940
 3331.00000   74.96080   73.94840  149.29500   55.92000    0.28330
 3331.50000   74.96340   74.30270  148.49590   57.86370    0.28510
 3332.00000   74.10270   73.32810  144.71650   55.41220    0.28070
 3332.50000   72.38620   67.03750  138.18650   49.11980    0.20380
 3333.00000   70.36160   63.16250  132.68700   38.47400    0.16230
 3333.50000   67.18680   60.66770  125.70680   33.07980    0.12940
 3334.00000   64.52160   60.81230  118.20520   36.07090    0.11680
 3334.50000   63.91290   61.97520  116.76830   39.73470    0.11280
 3335.00000   64.49670   62.51220  116.92210   41.69080    0.11270
 3335.50000   64.01410   61.39630  115.98360   41.83250    0.10640
 3336.00000   62.93120   58.04430  114.18100   43.11270    0.08780
 3336.50000   61.84840   56.73260  112.56510   48.80560    0.06930
 3337.00000   61.36260   57.26650  112.43350   61.05400    0.06080
 3337.50000   61.19950   59.23570  112.63710   72.21590    0.05930
 3338.00000   61.73320   62.12070  114.06710   86.37890    0.07330
 3338.50000   62.81580   63.46310  115.91890   82.22670    0.08910
 3339.00000   63.89830   64.24880  117.48030   73.85020    0.09460
 3339.50000   64.81510   64.63100  118.16270   65.53600    0.09600
 3340.00000   65.70890   64.77820  117.78910   60.01280    0.09580
 3340.50000   66.04470   64.69610  117.31590   55.64420    0.09400
 3341.00000   65.70570   63.91550  115.91650   52.53790    0.08960
 3341.50000   64.62140   62.77160  114.26960   49.48500    0.08350
 3342.00000   63.47920   61.81770  112.23820   47.76950    0.07340
 3342.50000   62.84850   61.22450  110.54780   46.03990    0.07090
 3343.00000   62.24600   61.27950  110.33480   45.41560    0.07380
 3343.50000   62.11750   61.49580  110.37460   44.99810    0.07660
