~Version ---------------------------------------------------
VERS.   2.0 : CWLS log ASCII Standard -VERSION 2.0
WRAP.    NO : One line per depth step
DLM . SPACE : Column Data Section Delimiter
~Well ------------------------------------------------------
STRT .F                2684.0 : START DEPTH
STOP .F                3742.0 : STOP DEPTH
STEP .F                   0.5 : STEP
NULL .               -9999.25 : NULL VALUE
COMP .                        : COMPANY
WELL .                        : WELL
FLD  .                        : FIELD
LOC  .                        : LOCATION
PROV .                        : PROVINCE
CNTY .                        : COUNTY
STAT .                        : STATE
CTRY .                        : COUNTRY
SRVC .                        : SERVICE COMPANY
DATE .                        : DATE
UWI  .                        : UNIQUE WELL ID
API  .                        : API NUMBER
SLAT .WGS84 6.966614999035201 : SURFACE LATITUDE
SLON .WGS84 4.790251697944001 : SURFACE LONGITUDE
DATUM.F               2387.56 : DEPTH DATUM ELEV
~Curve Information -----------------------------------------
DEPT   .F     : 1 MEASURED DEPTH
DTCO   .US/F  : DELTA-T COMPRESSIONAL
DTL    .US/F  : DELTA-T LONG SPACING
DTSM   .US/F  : DELTA-T SHEAR
GRD    .GAPI  : GAMMA RAY FROM DENSITY LOG
NPHI_LS.DEC   : NEUTRON POROSITY LIMESTONE
~Params ----------------------------------------------------
~Other -----------------------------------------------------
~ASCII -----------------------------------------------------
# ...
 3044.00000   63.79180   61.53580  116.60250   26.18130    0.14450
 3044.50000   63.35270   61.46600  115.43350   29.45920    0.15510
 3045.00000   63.20160   62.28440  114.98040   30.90880    0.17000
 3045.50000   63.20160   63.03710  114.67560   32.55950    0.18910
 3046.00000   63.12350   63.38130  114.14750   33.90150    0.20220
 3046.50000   62.21740   62.18540  112.28890   32.73570    0.19610
 3047.00000   60.96000   60.51760  110.85840   31.40360    0.19050
 3047.50000   60.03230   59.08570  110.03010   29.02510    0.19170
 3048.00000   59.89950   58.21700  110.50140   27.18430    0.19600
 3048.50000   59.63010   57.66760  110.72190   26.87970    0.19580
 3049.00000   59.16090   57.11810  110.51550   27.79520    0.18770
 3049.50000   58.04220   56.99730  109.34920   29.06160    0.17790
 3050.00000   57.84120   57.54920  109.80210   30.39950    0.16930
 3050.50000   58.91330   59.30450  112.39200   31.38160    0.17440
 3051.00000   60.35750   63.11790  115.45360   33.19240    0.19680
 3051.50000   61.76570   66.02200  118.09970   35.44830    0.22520
 3052.00000   64.86300   68.40870  120.71660   38.69220    0.23490
 3052.50000   67.67570   69.25370  123.42720   40.96530    0.24440
 3053.00000   69.09880   69.20950  124.12690   40.55980    0.24940
 3053.50000   69.48930   67.89880  124.12780   39.56960    0.25630
 3054.00000   69.13780   66.50670  121.89650   35.81620    0.25500
 3054.50000   65.94440   64.69910  118.81320   33.43120    0.22100
 3055.00000   64.69070   62.89150  117.20180   33.41770    0.18540
 3055.50000   63.74490   61.08380  116.25690   33.97960    0.15910
 3056.00000   63.00590   62.14300  115.92810   34.03470    0.13890
 3056.50000   63.12690   64.77410  116.82600   31.65100    0.17010
 3057.00000   64.07220   65.82790  119.24810   29.06820    0.19360
 3057.50000   65.70790   66.86230  121.87810   27.34260    0.20510
 3058.00000   66.73610   67.77070  124.71370   27.73640    0.21370
 3058.50000   67.92810   68.67910  127.54930   28.57370    0.22480
 3059.00000   69.47010   71.10420  130.38490   29.49910    0.24240
 3059.50000   71.04510   73.71010  133.22060   31.18120    0.25930
 3060.00000   72.78130   75.86720  135.92940   32.48710    0.27510
 3060.50000   74.48120   77.55950  137.91970   33.55020    0.27970
 3061.00000   75.94060   77.55960  138.13320   33.89160    0.27440
 3061.50000   75.11680   75.66770  134.71180   33.66470    0.26440
 3062.00000   73.48880   73.96870  128.85760   32.56940    0.23350
 3062.50000   71.10830   72.26970  125.14640   30.35290    0.19840
 3063.00000   69.08330   70.17180  122.10030   29.61010    0.17460
 3063.50000   66.74680   67.69250  120.52970   29.61270    0.16410
 3064.00000   66.17660   66.87250  121.39390   29.66850    0.17670
 3064.50000   67.35930   69.59860  125.40180   30.92940    0.19870
 3065.00000   68.77480   70.55860  127.69270   32.97660    0.22300
 3065.50000   70.01390   71.43110  130.09430   34.74820    0.22960
 3066.00000   71.00490   72.31220  130.78940   36.73020    0.22200
 3066.50000   71.20970   72.95670  132.11570   38.87140    0.20130
 3067.00000   71.55320   73.36700  134.28010   40.90470    0.20180
 3067.50000   71.93220   74.02070  134.87360   42.47960    0.21120
 3068.00000   73.85830   74.44780  134.87010   43.37090    0.22060
 3068.50000   75.41610   74.28230  134.65220   43.04500    0.22120
 3069.00000   74.39580   71.37310  132.18450   42.40510    0.21750
 3069.50000   71.50590   68.26650  126.21150   39.86580    0.19020
 3070.00000   67.60620   65.16550  117.55620   35.47780    0.15820
 3070.50000   63.68600   61.21460  109.30830   30.31060    0.10630
 3071.00000   60.05580   58.59290  105.72300   28.50980    0.08120
 3071.50000   56.77170   57.87450  105.66260   29.83000    0.08030
 3072.00000   56.18530   57.94400  107.10930   33.26330    0.08070
 3072.50000   57.79150   60.87800  111.77920   40.32380    0.09030
 3073.00000   60.34220   61.77720  115.38720   43.22290    0.10080
 3073.50000   61.53640   62.78030  117.75440   43.91230    0.11130
 3074.00000   62.17870   63.78340  118.92620   44.77370    0.12090
 3074.50000   63.33630   63.90970  119.77700   46.29040    0.12310
 3075.00000   64.67820   64.14770  119.91700   48.94590    0.12440
 3075.50000   68.05520   65.40350  120.17550   54.73090    0.12600
 3076.00000   70.56000   67.35480  121.84680   62.51610    0.12880
 3076.50000   70.78510   71.08160  123.60030   70.91830    0.16740
 3077.00000   70.32160   72.36010  121.03100   76.65430    0.17100
 3077.50000   70.85330   72.25420  116.67410   79.36240    0.17000
 3078.00000   71.30100   71.50120  114.99940   77.46160    0.15990
 3078.50000   71.70190   71.44090  116.41260   74.97480    0.15910
 3079.00000   72.56000   71.69180  119.33460   74.25350    0.16530
 3079.50000   73.97140   72.59470  127.80940   74.34730    0.17930
 3080.00000   75.95700   73.98420  139.82740   74.33900    0.19340
 3080.50000   77.98950   74.39150  148.27460   70.79680    0.19850
 3081.00000   77.08740   72.02780  149.65990   64.77480    0.19860
 3081.50000   74.35460   71.81050  143.85890   57.90260    0.19190
 3082.00000   68.87090   74.96620  132.86810   50.79370    0.18010
 3082.50000   68.02040   72.32590  126.24770   46.61140    0.17500
 3083.00000   68.24170   75.41670  126.20060   45.51580    0.18780
 3083.50000   68.54430   83.79860  126.85720   46.38260    0.20970
 3084.00000   68.84690   91.46700  128.59810   49.41420    0.23000
 3084.50000   68.92910   91.96660  128.67940   53.51540    0.23380
 3085.00000   69.22890   91.31430  128.45830   56.68960    0.23270
 3085.50000   70.87360   91.84290  132.51000   60.68810    0.23560
 3086.00000   77.08890   92.17720  143.39660   70.08280    0.25950
 3086.50000   85.94360   92.34010  154.28310   80.29430    0.28790
 3087.00000   90.53550   85.99410  162.30370   85.65860    0.31620
 3087.50000   91.12330   81.08880  165.86350   87.76590    0.33070
 3088.00000   89.86990   79.29480  161.41310   84.53800    0.32260
 3088.50000   86.52530   85.15840  142.27350   76.90820    0.30690
 3089.00000   80.55670   91.02190  132.84810   70.21870    0.29100
 3089.50000   77.33060   94.04650  131.41140   63.12320    0.27080
 3090.00000   74.73270   94.77830  131.14300   55.73400    0.25110
 3090.50000   72.11250   93.37900  131.14810   50.67220    0.24310
 3091.00000   71.54340   89.30650  131.55570   50.05840    0.24580
 3091.50000   71.65960   82.46780  133.18370   50.00880    0.25270
 3092.00000   72.52390   77.35570  135.64210   50.00880    0.26080
 3092.50000   73.26710   75.33940  136.52240   50.00880    0.26420
 3093.00000   73.80780   74.84200  136.52040   49.98220    0.26750
 3093.50000   74.34840   74.74570  136.12460   49.69980    0.27090
 3094.00000   74.78920   74.81390  135.82490   48.17640    0.27410
 3094.50000   75.02390   74.95850  135.87850   45.97980    0.27510
 3095.00000   74.79990   74.80100  135.98030   44.68330    0.27610
 3095.50000   74.22940   73.40270  135.14520   44.34150    0.27710
 3096.00000   73.16050   71.40810  133.30970   44.49010    0.28730
 3096.50000   71.77430   70.67780  132.54710   44.47510    0.30550
 3097.00000   70.86960   70.73160  131.28730   43.13400    0.31330
 3097.50000   70.13610   70.79220  130.51190   40.96740    0.31690
 3098.00000   70.17300   70.74690  130.69230   39.41970    0.31310
 3098.50000   70.70420   70.72740  130.77110   40.94940    0.30480
 3099.00000   71.29850   70.92760  131.43850   44.15520    0.29370
 3099.50000   72.09950   72.17580  132.25200   46.03620    0.29380
 3100.00000   73.05630   73.72950  133.87660   45.95540    0.30920
 3100.50000   74.44110   75.28310  136.37660   39.99920    0.34020
 3101.00000   75.09580   76.73640  139.19170   40.10170    0.34640
 3101.50000   75.58480   78.01710  141.56910   41.28560    0.35240
 3102.00000   76.47120   79.12720  143.83020   44.52000    0.36300
 3102.50000   77.08930   79.39690  145.34190   49.75290    0.37670
 3103.00000   77.11350   79.25610  145.24220   50.65460    0.37890
 3103.50000   76.46360   78.20080  144.14370   50.54330    0.36090
