~Version ---------------------------------------------------
VERS.   2.0 : CWLS log ASCII Standard -VERSION 2.0
WRAP.    NO : One line per depth step
DLM . SPACE : Column Data Section Delimiter
~Well ------------------------------------------------------
STRT .F                2684.0 : START DEPTH
STOP .F                3742.0 : STOP DEPTH
STEP .F                   0.5 : STEP
NULL .               -9999.25 : NULL VALUE
COMP .                        : COMPANY
WELL .                        : WELL
FLD  .                        : FIELD
LOC  .                        : LOCATION
PROV .                        : PROVINCE
CNTY .                        : COUNTY
STAT .                        : STATE
CTRY .                        : COUNTRY
SRVC .                        : SERVICE COMPANY
DATE .                        : DATE
UWI  .                        : UNIQUE WELL ID
API  .                        : API NUMBER
SLAT .WGS84 6.966614999035201 : SURFACE LATITUDE
SLON .WGS84 4.790251697944001 : SURFACE LONGITUDE
DATUM.F               2387.56 : DEPTH DATUM ELEV
~Curve Information -----------------------------------------
DEPT   .F     : 1 MEASURED DEPTH
DTCO   .US/F  : DELTA-T COMPRESSIONAL
DTL    .US/F  : DELTA-T LONG SPACING
DTSM   .US/F  : DELTA-T SHEAR
GRD    .GAPI  : GAMMA RAY FROM DENSITY LOG
NPHI_LS.DEC   : NEUTRON POROSITY LIMESTONE
~Params ----------------------------------------------------
~Other -----------------------------------------------------
~ASCII -----------------------------------------------------
# ...
 3584.00000   76.74130   76.97150  145.62570   88.39160    0.16450
 3584.50000   75.71910   78.45970  142.75740   86.65390    0.15420
 3585.00000   75.21270   83.55740  141.82040   81.87360    0.14290
 3585.50000   73.61180   83.79500  140.50540   74.72970    0.13420
 3586.00000   71.36150   78.13500  138.07620   67.62420    0.12990
 3586.50000   71.22010   73.15300  135.37810   61.54530    0.12480
 3587.00000   71.45180   72.56250  133.76280   57.52860    0.12080
 3587.50000   70.38400   72.13840  132.06540   53.89270    0.11890
 3588.00000   68.67090   70.61910  129.79050   53.27120    0.10750
 3588.50000   69.08570   69.83580  129.11170   58.44870    0.10750
 3589.00000   70.15280   69.91530  128.89740   68.39090    0.11470
 3589.50000   69.83400   69.98990  127.80560   92.60670    0.12090
 3590.00000   68.40600   69.68600  125.49510  109.69620    0.11980
 3590.50000   66.76940   66.39360  122.23610  107.81710    0.09680
 3591.00000   64.74740   62.51640  119.57030   93.15630    0.06360
 3591.50000   62.72540   61.70500  116.99900   76.16400    0.05160
 3592.00000   61.64130   63.76840  118.35910   58.95710    0.06430
 3592.50000   -9999.25   68.21920  124.24830   56.86140    0.10540
 3593.00000   -9999.25   67.64150  129.96000   59.15960    0.15290
 3593.50000   -9999.25   69.12630  135.52710   62.55220    0.20040
 3594.00000   70.78750   72.67300  137.74880   66.58850    0.26250
 3594.50000   73.42880   71.96870  135.67420   67.34310    0.28220
 3595.00000   72.50100   70.44550  131.06480   63.20340    0.27340
 3595.50000   70.90680   68.62540  127.30770   55.59480    0.25820
 3596.00000   68.42180   66.59450  123.55070   47.29540    0.23330
 3596.50000   65.93670   64.81010  120.02490   46.46240    0.19400
 3597.00000   64.42760   62.99720  117.17510   46.47240    0.15480
 3597.50000   67.37900   60.35120  114.46720   45.41980    0.09800
 3598.00000   73.03920   55.50600  111.92170   42.89330    0.04660
 3598.50000   76.03520   54.23040  109.37610   41.09280    0.02610
 3599.00000   74.13560   53.69310  108.45230   40.87620    0.02310
 3599.50000   70.53050   53.91840  108.88760   40.27610    0.02870
 3600.00000   67.19040   54.68980  110.22970   38.05090    0.04120
 3600.50000   63.83100   55.73450  111.34660   36.10430    0.05950
 3601.00000   60.43390   56.08360  112.11990   35.42530    0.06890
 3601.50000   58.13500   56.28830  112.33710   35.55280    0.07270
 3602.00000   57.23080   55.74230  112.75580   37.83260    0.07340
 3602.50000   56.79530   54.81510  113.56880   42.87120    0.08260
 3603.00000   57.05970   53.81230  114.85070   44.39810    0.09600
 3603.50000   57.40780   52.61740  115.52740   44.41670    0.11570
 3604.00000   56.10480   52.61740  112.36560   43.46020    0.13270
 3604.50000   53.05110   53.84140  102.41630   42.66150    0.14970
 3605.00000   52.90490   55.55290  101.04250   44.47910    0.16450
 3605.50000   54.83090   59.46150  102.37510   49.93920    0.17950
 3606.00000   58.95300   63.27980  109.09870   58.51210    0.17770
 3606.50000   63.10400   67.21700  116.98620   59.47290    0.16630
 3607.00000   64.75890   75.19910  119.95860   58.12500    0.14580
 3607.50000   64.79040   87.94740  121.05550   54.79270    0.12610
 3608.00000   64.17300  101.59770  118.42790   54.39400    0.11080
 3608.50000   64.10780  116.37250  113.19390   61.20540    0.10160
 3609.00000   65.36330  119.86110  110.64450   73.10370    0.10180
 3609.50000   67.26100  120.56860  109.02630   89.71740    0.11150
 3610.00000   70.17400  130.84520  108.91250   95.46300    0.13070
 3610.50000   72.32630  143.38280  111.74590  101.20860    0.17920
 3611.00000   71.94730  139.30270  109.92650   95.33930    0.23950
 3611.50000   65.70200  131.42810  103.77120   91.42040    0.25400
 3612.00000   58.78770  120.57370   97.61590   93.01330    0.30630
 3612.50000   53.96080  118.59950   93.33860   94.51150    0.35020
 3613.00000   51.61970  119.64070   94.23330   96.95470    0.34580
 3613.50000   51.44590  118.73410   96.27000   97.41850    0.33450
 3614.00000   51.09500  113.85660   99.81380   96.90990    0.32870
 3614.50000   50.37000  117.13880  101.52770   96.12580    0.34080
 3615.00000   49.01490  128.83680  100.89080   94.59540    0.34670
 3615.50000   48.98020  126.51110   99.92710   89.88880    0.31790
 3616.00000   49.72730  113.15240   99.97830   79.43070    0.21990
 3616.50000   51.65330   91.37530  102.77010   60.09500    0.12240
 3617.00000   54.64570   86.85690  107.34480   51.68340    0.06790
 3617.50000   57.70780   83.26460  111.77640   45.04300    0.05000
 3618.00000   56.41730   78.39090  111.40360   46.68290    0.04450
 3618.50000   54.32210   73.68700  109.84790   49.53600    0.04760
 3619.00000   53.89990   71.94170  109.71870   52.49340    0.05150
 3619.50000   54.13180   71.33890  109.94800   53.61950    0.05910
 3620.00000   53.98450   70.61530  110.17760   51.71170    0.06730
 3620.50000   55.20980   68.98660  110.37800   48.90490    0.07050
 3621.00000   56.60140   65.63860  110.31300   46.53440    0.07120
 3621.50000   57.77430   60.64670  110.10450   43.89170    0.06990
 3622.00000   58.87710   57.60260  110.02810   42.55210    0.06770
 3622.50000   60.17770   56.96840  109.98290   41.86190    0.06590
 3623.00000   61.25410   56.39620  109.41270   43.20660    0.06140
 3623.50000   61.97820   55.76400  108.54110   46.22180    0.04800
 3624.00000   61.95890   54.47980  107.23910   49.50640    0.03480
 3624.50000   61.02530   53.21180  105.89270   52.06710    0.02500
 3625.00000   59.57260   52.31980  104.88890   52.11260    0.02130
 3625.50000   56.61320   52.18910  104.27400   50.85000    0.01990
 3626.00000   54.39030   52.58440  104.27400   49.68020    0.02370
 3626.50000   55.49330   52.97650  105.03840   50.81920    0.02760
 3627.00000   56.89100   53.28980  105.12480   53.10280    0.03160
 3627.50000   56.87720   53.35720  105.20400   54.94610    0.03200
 3628.00000   56.74940   53.17440  105.72010   52.96110    0.03080
 3628.50000   56.62160   53.00750  105.65200   47.80940    0.02840
 3629.00000   56.51530   52.94110  104.89310   42.80520    0.02670
 3629.50000   56.58930   52.92710  105.45620   39.00410    0.02630
 3630.00000   57.43390   53.43480  106.90520   35.61330    0.03470
 3630.50000   57.59460   53.75530  106.94790   34.25000    0.04500
 3631.00000   -9999.25   53.69160  107.00210   34.04910    0.04870
 3631.50000   -9999.25   53.52710  107.10820   35.75470    0.04890
 3632.00000   -9999.25   53.43490  107.06110   39.33560    0.04660
 3632.50000   -9999.25   53.57590  107.08760   41.90950    0.04370
 3633.00000   -9999.25   53.61030  107.40660   41.98980    0.04070
 3633.50000   -9999.25   53.61310  107.64310   41.18400    0.03860
 3634.00000   -9999.25   53.61280  107.43680   40.12590    0.03720
 3634.50000   -9999.25   53.47230  107.22840   39.61170    0.03590
 3635.00000   -9999.25   53.35280  107.68720   39.27600    0.03700
 3635.50000   -9999.25   53.77230  108.43200   37.49570    0.04970
 3636.00000   -9999.25   55.56100  109.49200   33.30740    0.06490
 3636.50000   -9999.25   57.82870  111.63650   31.04010    0.08190
 3637.00000   -9999.25   60.13260  113.89360   32.97370    0.09850
 3637.50000   -9999.25   62.43650  116.12060   35.83260    0.11480
 3638.00000   61.42890   63.63090  117.93750   41.18380    0.12260
 3638.50000   63.04790   64.08130  118.92840   43.57120    0.12310
 3639.00000   63.34980   63.50840  119.73650   45.44800    0.11910
 3639.50000   63.91240   63.23210  122.30060   46.45490    0.11760
 3640.00000   66.00130   64.20040  127.28340   47.68790    0.12850
 3640.50000   68.09030   66.73440  130.83350   49.29690    0.18170
 3641.00000   70.17930   69.26850  131.94890   51.35500    0.20900
 3641.50000   71.16150   70.77480  130.80860   52.24660    0.23680
 3642.00000   70.71800   69.81580  125.59830   49.04740    0.21510
 3642.50000   68.77210   62.85750  121.28310   44.19980    0.17540
 3643.00000   65.63580   60.91740  117.53950   40.50560    0.12080
 3643.50000   61.93400   58.82800  114.06580   37.82550    0.08870
