~Version ---------------------------------------------------
VERS.   2.0 : CWLS log ASCII Standard -VERSION 2.0
WRAP.    NO : One line per depth step
DLM . SPACE : Column Data Section Delimiter
~Well ------------------------------------------------------
STRT .F                2684.0 : START DEPTH
STOP .F                3742.0 : STOP DEPTH
STEP .F                   0.5 : STEP
NULL .               -9999.25 : NULL VALUE
COMP .                        : COMPANY
WELL .                        : WELL
FLD  .                        : FIELD
LOC  .                        : LOCATION
PROV .                        : PROVINCE
CNTY .                        : COUNTY
STAT .                        : STATE
CTRY .                        : COUNTRY
SRVC .                        : SERVICE COMPANY
DATE .                        : DATE
UWI  .                        : UNIQUE WELL ID
API  .                        : API NUMBER
SLAT .WGS84 6.966614999035201 : SURFACE LATITUDE
SLON .WGS84 4.790251697944001 : SURFACE LONGITUDE
DATUM.F               2387.56 : DEPTH DATUM ELEV
~Curve Information -----------------------------------------
DEPT   .F     : 1 MEASURED DEPTH
DTCO   .US/F  : DELTA-T COMPRESSIONAL
DTL    .US/F  : DELTA-T LONG SPACING
DTSM   .US/F  : DELTA-T SHEAR
GRD    .GAPI  : GAMMA RAY FROM DENSITY LOG
NPHI_LS.DEC   : NEUTRON POROSITY LIMESTONE
~Params ----------------------------------------------------
~Other -----------------------------------------------------
~ASCII -----------------------------------------------------
 2684.00000   -9999.25   -9999.25   -9999.25   20.27390    0.09530
 2684.50000   -9999.25   -9999.25   -9999.25   20.70810    0.11640
 2685.00000   -9999.25   -9999.25   -9999.25   22.14590    0.12350
 2685.50000   -9999.25   -9999.25   -9999.25   24.39660    0.13850
 2686.00000   -9999.25   -9999.25   -9999.25   26.61910    0.15530
 2686.50000   -9999.25   -9999.25   -9999.25   26.61020    0.16330
 2687.00000   -9999.25   -9999.25   -9999.25   25.47260    0.15490
 2687.50000   -9999.25   -9999.25   -9999.25   24.93730    0.14870
 2688.00000   -9999.25   -9999.25   -9999.25   25.27210    0.14200
 2688.50000   -9999.25   -9999.25   -9999.25   24.07110    0.12730
 2689.00000   -9999.25   -9999.25   -9999.25   21.69190    0.09260
 2689.50000   -9999.25   -9999.25   -9999.25   17.20000    0.06370
 2690.00000   -9999.25   -9999.25   -9999.25   13.27710    0.03040
 2690.50000   -9999.25   -9999.25   -9999.25   10.42930    0.01790
 2691.00000   -9999.25   -9999.25   -9999.25    9.50790    0.01640
 2691.50000   -9999.25   -9999.25   -9999.25    9.29730    0.01590
 2692.00000   51.70890   58.93300   98.68830   10.59580    0.01590
 2692.50000   51.71490   59.03440   98.21390   10.55650    0.01810
 2693.00000   51.59350   59.09460   96.66420   10.06220    0.02100
 2693.50000   51.46140   59.11980   95.63340    9.68820    0.02450
 2694.00000   51.21810   59.03050   94.71790   10.10440    0.03090
 2694.50000   53.80800   58.94120   90.32080   12.31110    0.05150
 2695.00000   60.41660   58.88710   89.60700   13.86930    0.07200
 2695.50000   65.96410   58.97350   87.99900   17.15850    0.09460
 2696.00000   67.69500   59.81670   87.94250   22.27520    0.10780
 2696.50000   66.98050   59.72300   87.14960   22.48460    0.11620
 2697.00000   66.55720   59.45440   86.91460   22.24770    0.11950
 2697.50000   67.09970   58.97970   87.02730   22.57370    0.13210
 2698.00000   67.95600   58.44550   89.07460   24.42490    0.15030
 2698.50000   68.38300   58.03520   91.01920   25.55520    0.13420
 2699.00000   67.60700   58.03520   90.80890   22.27110    0.10500
 2699.50000   65.26930   58.10110   87.77240   17.88570    0.06650
 2700.00000   62.65670   58.70670   87.06950   11.70410    0.03480
 2700.50000   58.41410   59.35840   89.06220   11.21140    0.02970
 2701.00000   55.44530   60.10360   91.35630   12.69520    0.03750
 2701.50000   54.40490   61.04310   93.79680   15.86110    0.04930
 2702.00000   56.22760   61.79940   97.04560   19.02660    0.06420
 2702.50000   62.02420   61.33610  102.38280   20.44770    0.07770
 2703.00000   62.97020   60.78970  105.35270   21.56200    0.08680
 2703.50000   63.00560   60.10460  106.58910   21.19030    0.08080
 2704.00000   62.53330   59.31710  105.39860   18.88980    0.07480
 2704.50000   62.88010   58.46810  106.09120   19.06510    0.06540
 2705.00000   63.83510   58.34040  108.71960   20.47270    0.08480
 2705.50000   64.26730   58.32570  110.49940   22.44850    0.10680
 2706.00000   64.79560   58.55880  109.87580   21.40190    0.11760
 2706.50000   66.22970   58.53240  108.50960   19.84650    0.11140
 2707.00000   66.87200   58.61550  109.00020   18.45660    0.10800
 2707.50000   66.14210   58.60010  106.65550   18.83740    0.11140
 2708.00000   67.70330   58.53770  105.51320   23.56070    0.13780
 2708.50000   72.40760   58.49110  109.34590   33.50240    0.19890
 2709.00000   74.94270   58.53720  110.08690   40.41110    0.25540
 2709.50000   76.27430   59.07160  109.17390   43.83400    0.27340
 2710.00000   74.03760   59.67470  106.86860   36.88080    0.21410
 2710.50000   72.14070   60.19060  102.98590   25.13800    0.10950
 2711.00000   70.75980   59.36870  100.32700   19.31480    0.04100
 2711.50000   69.17870   57.99330   96.81130   14.76100    0.02910
 2712.00000   67.88000   57.80990   94.21470   11.25970    0.01480
 2712.50000   66.83690   58.49590   91.77400   11.26090    0.01250
 2713.00000   62.76290   58.85800   91.11360   11.57770    0.01260
 2713.50000   57.60760   59.21580  102.15360   11.73200    0.01290
 2714.00000   52.45240   59.57370   -9999.25   11.82370    0.01330
 2714.50000   48.84770   60.06060   -9999.25   11.90730    0.01460
 2715.00000   48.83970   60.02960   -9999.25   12.53950    0.01690
 2715.50000   49.42850   58.93710   -9999.25   13.89070    0.02380
 2716.00000   49.39750   58.19280   -9999.25   15.45690    0.03930
 2716.50000   -9999.25   58.49750   -9999.25   17.22550    0.06050
 2717.00000   -9999.25   58.96840   -9999.25   18.72360    0.07040
 2717.50000   -9999.25   59.27640   -9999.25   20.20540    0.09000
 2718.00000   -9999.25   58.88160   -9999.25   22.78000    0.12140
 2718.50000   -9999.25   58.60680   -9999.25   28.10760    0.13740
 2719.00000   -9999.25   58.50180   -9999.25   27.62480    0.12360
 2719.50000   -9999.25   58.59070   -9999.25   24.98090    0.09920
 2720.00000   50.40120   58.70000   -9999.25   21.57710    0.08260
 2720.50000   52.85680   58.96050   -9999.25   19.30950    0.07400
 2721.00000   55.64170   58.99280   -9999.25   18.41440    0.05700
 2721.50000   -9999.25   59.02500   -9999.25   16.01860    0.03680
 2722.00000   -9999.25   59.05720   -9999.25   12.76590    0.02320
 2722.50000   -9999.25   59.08950   -9999.25   10.02360    0.01350
 2723.00000   -9999.25   59.05330   -9999.25   10.73460    0.01500
 2723.50000   -9999.25   59.02210   -9999.25   12.71040    0.02170
 2724.00000   -9999.25   58.83080   -9999.25   18.04120    0.05000
 2724.50000   -9999.25   58.63940   -9999.25   30.11170    0.19660
 2725.00000   -9999.25   58.64050   -9999.25   41.10650    0.28560
 2725.50000   -9999.25   58.84780   -9999.25   48.50180    0.36450
 2726.00000   -9999.25   59.05500   -9999.25   50.02250    0.29780
 2726.50000   -9999.25   59.22500  120.53890   41.18420    0.24260
 2727.00000   77.27440   59.31960  120.53890   37.56040    0.19660
 2727.50000   77.85400   59.41400  120.41070   38.62190    0.20920
 2728.00000   78.58130   59.44250  116.86980   44.89850    0.26840
 2728.50000   79.40530   59.44180  117.03100   46.22360    0.25900
 2729.00000   82.08450   59.36570  117.79600   44.12420    0.25350
 2729.50000   84.53710   59.27710  118.13760   43.81860    0.29470
 2730.00000   85.88360   59.21530  116.56210   46.81330    0.35810
 2730.50000   84.13100   59.33490  114.32030   46.60700    0.36860
 2731.00000   81.19620   59.44930  113.71880   41.52630    0.28680
 2731.50000   76.77940   59.43440  115.28390   31.98530    0.16520
 2732.00000   71.79630   59.38240  116.50760   25.20910    0.10700
 2732.50000   67.08480   59.33280  116.50760   24.58640    0.09810
 2733.00000   63.27360   59.28490  115.80610   24.16360    0.09390
 2733.50000   60.51370   59.23700  113.33850   22.47920    0.08160
 2734.00000   57.99910   59.20310  107.55970   19.65120    0.06020
 2734.50000   59.64170   59.20310   97.70330   19.62580    0.06230
 2735.00000   63.50180   59.12370   93.96370   21.64270    0.09750
 2735.50000   66.95930   58.99170   93.57780   24.05170    0.14040
 2736.00000   69.95580   59.03380   95.94600   25.99050    0.12870
 2736.50000   73.85750   59.08360   98.89380   23.04910    0.07980
 2737.00000   77.63430   59.34430  101.45840   18.56240    0.04470
 2737.50000   76.26510   61.69830  103.86150   15.99420    0.02380
 2738.00000   72.14110   66.33810  107.18670   18.36130    0.03660
 2738.50000   67.72190   69.06150  111.03790   23.45160    0.06490
 2739.00000   65.12970   66.72390  114.32630   26.40750    0.08870
 2739.50000   64.88110   61.33870  115.23120   28.06970    0.08100
 2740.00000   66.01120   59.60020  115.28720   26.22460    0.07620
 2740.50000   66.35670   60.91460  115.37870   23.51110    0.07820
 2741.00000   65.08560   60.06820  115.18100   22.29730    0.07830
 2741.50000   63.57090   58.58470  113.16960   21.02270    0.07440
 2742.00000   61.65180   57.80810  111.84060   19.51550    0.05120
 2742.50000   58.90370   61.53780  107.80670   15.62430    0.02430
 2743.00000   55.31870   65.25820  103.86580   13.16070    0.01440
 2743.50000   52.93040   63.29900   99.65240   10.93190    0.00670
