~Version ---------------------------------------------------
VERS.   2.0 : CWLS log ASCII Standard -VERSION 2.0
WRAP.    NO : One line per depth step
DLM . SPACE : Column Data Section Delimiter
~Well ------------------------------------------------------
STRT .F                2684.0 : START DEPTH
STOP .F                3742.0 : STOP DEPTH
STEP .F                   0.5 : STEP
NULL .               -9999.25 : NULL VALUE
COMP .                        : COMPANY
WELL .                        : WELL
FLD  .                        : FIELD
LOC  .                        : LOCATION
PROV .                        : PROVINCE
CNTY .                        : COUNTY
STAT .                        : STATE
CTRY .                        : COUNTRY
SRVC .                        : SERVICE COMPANY
DATE .                        : DATE
UWI  .                        : UNIQUE WELL ID
API  .                        : API NUMBER
SLAT .WGS84 6.966614999035201 : SURFACE LATITUDE
SLON .WGS84 4.790251697944001 : SURFACE LONGITUDE
DATUM.F               2387.56 : DEPTH DATUM ELEV
~Curve Information -----------------------------------------
DEPT   .F     : 1 MEASURED DEPTH
DTCO   .US/F  : DELTA-T COMPRESSIONAL
DTL    .US/F  : DELTA-T LONG SPACING
DTSM   .US/F  : DELTA-T SHEAR
GRD    .GAPI  : GAMMA RAY FROM DENSITY LOG
NPHI_LS.DEC   : NEUTRON POROSITY LIMESTONE
~Params ----------------------------------------------------
~Other -----------------------------------------------------
~ASCII -----------------------------------------------------
# ...
 2984.00000   59.91390   59.67710  109.23300   22.65780    0.20240
 2984.50000   59.42050   59.15800  108.39730   21.57390    0.19650
 2985.00000   58.92710   58.63870  107.81630   20.60690    0.19250
 2985.50000   58.48570   58.11930  106.67830   19.73090    0.18790
 2986.00000   58.16140   57.69210  105.48890   19.59380    0.17630
 2986.50000   58.16540   57.26820  104.57380   20.31220    0.16380
 2987.00000   59.11080   56.67530  104.56790   21.17580    0.16430
 2987.50000   60.05620   56.65760  105.35360   22.15640    0.17430
 2988.00000   61.00160   57.42870  107.07960   25.06010    0.18110
 2988.50000   61.94700   57.93330  109.80910   29.76520    0.17150
 2989.00000   62.36910   58.30620  112.07950   36.07660    0.16030
 2989.50000   62.59350   58.44020  112.77650   40.83400    0.14520
 2990.00000   62.64670   58.66780  112.64720   46.01700    0.13790
 2990.50000   62.61680   60.31480  112.12430   49.47020    0.14010
 2991.00000   62.59100   61.67440  111.64630   51.50450    0.14590
 2991.50000   62.47030   61.99810  111.88610   52.39410    0.15130
 2992.00000   62.38570   61.20610  111.53900   49.48410    0.14760
 2992.50000   62.43950   59.67730  109.52560   46.05940    0.13640
 2993.00000   62.58710   59.13150  108.49380   43.21530    0.13550
 2993.50000   62.77850   59.11160  107.76950   40.18530    0.13760
 2994.00000   62.93810   59.54400  107.65090   40.31100    0.15300
 2994.50000   63.28390   61.23740  107.57000   40.44810    0.16840
 2995.00000   63.44540   62.18660  107.71870   40.43820    0.17940
 2995.50000   63.71980   62.07540  108.07670   40.12940    0.18690
 2996.00000   63.96760   60.96970  108.82680   36.09560    0.18660
 2996.50000   64.23280   59.50770  111.16390   32.62090    0.16400
 2997.00000   64.36480   57.90440  111.43630   30.07450    0.14140
 2997.50000   64.66480   57.46920  110.97110   27.95740    0.13370
 2998.00000   64.94040   57.91630  111.06220   28.09850    0.13540
 2998.50000   65.17970   59.77120  112.17220   30.27790    0.13950
 2999.00000   65.46920   62.00210  113.12960   33.47470    0.13700
 2999.50000   65.91230   65.03800  113.76220   38.77260    0.13840
 3000.00000   67.04920   69.39910  113.21750   50.04130    0.15960
 3000.50000   70.90600   74.23010  114.44390   59.54960    0.18380
 3001.00000   75.06480   74.93020  118.96790   65.49770    0.20450
 3001.50000   77.70860   74.68120  123.10880   67.41680    0.21570
 3002.00000   75.58860   71.31460  121.75430   63.47520    0.21550
 3002.50000   70.79530   66.91030  116.90840   53.83990    0.19000
 3003.00000   67.61580   62.36420  112.81990   44.29300    0.16270
 3003.50000   65.93170   59.61730  108.00050   35.30550    0.14840
 3004.00000   62.02400   57.76490  104.84910   25.74290    0.15050
 3004.50000   58.07700   58.65130  104.60380   21.93090    0.16930
 3005.00000   57.80200   59.15160  104.82450   24.13170    0.17910
 3005.50000   57.72190   58.87610  105.79010   26.02120    0.18410
 3006.00000   57.48160   57.94740  106.67840   28.84220    0.18130
 3006.50000   57.13940   55.34230  106.77730   30.35270    0.14500
 3007.00000   57.10210   53.24640  103.36570   30.73360    0.12860
 3007.50000   58.30150   53.35660  103.89520   31.66430    0.10900
 3008.00000   59.88590   58.57050  112.06990   39.44880    0.11680
 3008.50000   61.91820   65.58150  118.04230   53.59220    0.14270
 3009.00000   63.92790   70.77580  123.22910   67.42290    0.16860
 3009.50000   65.73310   71.54440  123.59460   74.02950    0.18800
 3010.00000   66.15110   70.07480  124.15730   68.76980    0.19310
 3010.50000   66.32600   69.60490  125.41990   64.63140    0.19170
 3011.00000   66.43920   71.15650  131.92450   65.41680    0.19000
 3011.50000   67.88970   73.43300  140.03200   68.00130    0.19110
 3012.00000   70.47830   75.72900  148.06450   71.38420    0.20630
 3012.50000   72.57540   77.56940  151.70200   74.26570    0.21920
 3013.00000   73.66830   78.40050  151.00770   76.46350    0.23320
 3013.50000   74.21040   79.08420  149.54160   77.45940    0.25850
 3014.00000   74.03660   75.24830  146.86210   74.44410    0.26140
 3014.50000   72.99860   71.49590  141.47600   64.89700    0.23730
 3015.00000   71.59730   67.20640  134.53470   55.91340    0.20450
 3015.50000   70.19600   63.60610  130.39400   49.82500    0.18750
 3016.00000   67.27320   63.08370  124.75230   46.81940    0.16990
 3016.50000   64.16180   62.74410  122.53360   45.87720    0.15910
 3017.00000   63.44970   62.43830  121.64950   45.26800    0.15960
 3017.50000   64.04080   62.74530  121.34500   43.71700    0.16910
 3018.00000   64.19340   63.96430  121.42760   42.99080    0.18090
 3018.50000   63.89470   65.03030  119.95990   42.33880    0.20290
 3019.00000   62.86770   64.28710  116.44160   40.98820    0.21540
 3019.50000   61.91100   59.98840  111.35290   36.46640    0.21410
 3020.00000   61.11410   56.83020  108.21260   28.47150    0.20020
 3020.50000   60.29360   54.35310  105.38300   23.09590    0.17580
 3021.00000   58.87870   53.60670  103.02530   21.81860    0.16150
 3021.50000   57.74770   53.01700  101.14690   23.64250    0.16180
 3022.00000   56.80180   52.92110  100.05130   25.88100    0.16920
 3022.50000   56.63270   54.60970   99.19950   28.22760    0.17770
 3023.00000   57.23270   55.40710   99.43760   29.94090    0.18620
 3023.50000   58.22670   56.20450  101.18940   31.21030    0.19350
 3024.00000   58.90150   57.83630  102.80600   32.28160    0.20080
 3024.50000   59.56560   58.91340  104.30580   31.95760    0.20900
 3025.00000   60.03590   59.07020  104.85000   30.74590    0.21020
 3025.50000   60.33560   59.16790  105.65370   29.62590    0.21080
 3026.00000   60.61780   60.49150  107.67730   28.31940    0.21150
 3026.50000   -9999.25   61.32600  109.72010   25.56580    0.22160
 3027.00000   -9999.25   62.44160  112.17230   24.59820    0.23660
 3027.50000   -9999.25   62.20320  112.30750   24.15740    0.25290
 3028.00000   -9999.25   61.64290  111.33160   23.81760    0.24860
 3028.50000   -9999.25   59.75960  110.34800   23.47790    0.23670
 3029.00000   -9999.25   59.75760  109.80860   23.13810    0.22790
 3029.50000   -9999.25   60.40870  109.97980   23.02350    0.23150
 3030.00000   -9999.25   61.21100  110.63660   23.05220    0.23880
 3030.50000   -9999.25   61.41120  111.14860   23.41670    0.24130
 3031.00000   -9999.25   60.30790  110.80870   24.36220    0.23550
 3031.50000   -9999.25   59.20450  110.20280   26.14140    0.22930
 3032.00000   -9999.25   58.01410  109.27430   25.56680    0.22140
 3032.50000   -9999.25   57.71160  108.02690   24.17570    0.21610
 3033.00000   -9999.25   58.78950  107.54220   23.08570    0.21780
 3033.50000   -9999.25   58.53060  107.16310   22.92360    0.21940
 3034.00000   -9999.25   58.00700  106.65800   24.69640    0.21530
 3034.50000   -9999.25   57.81370  106.26120   26.79950    0.20180
 3035.00000   -9999.25   58.33890  106.73260   29.59870    0.19380
 3035.50000   -9999.25   59.69850  107.32500   33.28650    0.20800
 3036.00000   -9999.25   61.28320  109.86950   36.92400    0.22640
 3036.50000   -9999.25   63.43870  111.88350   39.12860    0.23390
 3037.00000   -9999.25   63.80350  112.33880   38.02550    0.21440
 3037.50000   -9999.25   63.56550  113.75920   35.96880    0.18920
 3038.00000   -9999.25   62.84240  115.21280   31.97900    0.17400
 3038.50000   -9999.25   62.11920  115.89880   28.11260    0.16570
 3039.00000   -9999.25   61.61910  116.11630   26.41960    0.16100
 3039.50000   62.98210   61.08160  115.87080   25.64860    0.15640
 3040.00000   62.96700   61.08270  115.75700   25.25150    0.15160
 3040.50000   62.96920   61.23240  115.97370   24.86720    0.14690
 3041.00000   62.96940   61.91090  117.28620   24.08000    0.14450
 3041.50000   62.96940   62.90660  118.40930   22.86460    0.14280
 3042.00000   63.04430   63.42750  119.48010   21.68300    0.14340
 3042.50000   63.55960   63.58630  119.84680   21.54100    0.14470
 3043.00000   63.93380   63.35810  119.40550   22.91950    0.14480
 3043.50000   63.94650   62.45010  117.94640   23.99000    0.14450
