~Version ---------------------------------------------------
VERS.   2.0 : CWLS log ASCII Standard -VERSION 2.0
WRAP.    NO : One line per depth step
DLM . SPACE : Column Data Section Delimiter
~Well ------------------------------------------------------
STRT .F                2684.0 : START DEPTH
STOP .F                3742.0 : STOP DEPTH
STEP .F                   0.5 : STEP
NULL .               -9999.25 : NULL VALUE
COMP .                        : COMPANY
WELL .                        : WELL
FLD  .                        : FIELD
LOC  .                        : LOCATION
PROV .                        : PROVINCE
CNTY .                        : COUNTY
STAT .                        : STATE
CTRY .                        : COUNTRY
SRVC .                        : SERVICE COMPANY
DATE .                        : DATE
UWI  .                        : UNIQUE WELL ID
API  .                        : API NUMBER
SLAT .WGS84 6.966614999035201 : SURFACE LATITUDE
SLON .WGS84 4.790251697944001 : SURFACE LONGITUDE
DATUM.F               2387.56 : DEPTH DATUM ELEV
~Curve Information -----------------------------------------
DEPT   .F     : 1 MEASURED DEPTH
DTCO   .US/F  : DELTA-T COMPRESSIONAL
DTL    .US/F  : DELTA-T LONG SPACING
DTSM   .US/F  : DELTA-T SHEAR
GRD    .GAPI  : GAMMA RAY FROM DENSITY LOG
NPHI_LS.DEC   : NEUTRON POROSITY LIMESTONE
~Params ----------------------------------------------------
~Other -----------------------------------------------------
~ASCII -----------------------------------------------------
# ...
 2804.00000  103.58670   63.38930   -9999.25   20.56910    0.02770
 2804.50000  105.38670   61.60580   -9999.25   20.05090    0.02660
 2805.00000  107.18670   59.24450   -9999.25   21.02960    0.02640
 2805.50000  108.41030   57.85270   -9999.25   21.66140    0.02600
 2806.00000  108.09290   57.80560   -9999.25   21.87200    0.02550
 2806.50000  107.01260   58.29950   -9999.25   22.55670    0.02760
 2807.00000  106.16560   58.76370   -9999.25   23.79910    0.03430
 2807.50000  105.65750   58.76370   -9999.25   24.04840    0.03400
 2808.00000  103.31590   58.25760   -9999.25   23.11120    0.02860
 2808.50000   97.00270   57.24990   -9999.25   21.60550    0.02660
 2809.00000   90.68950   60.54960  110.11940   22.74740    0.03720
 2809.50000   88.16690   63.43000  109.76910   24.95460    0.05740
 2810.00000   86.03370   73.03380  108.47200   39.63230    0.12230
 2810.50000   83.17880   76.37180  105.49760   52.21470    0.19620
 2811.00000   80.96930   73.24870  103.05460   58.02550    0.23810
 2811.50000   77.90340   70.76750  102.34750   55.91780    0.20700
 2812.00000   77.64760   68.48700  101.47360   46.55210    0.14790
 2812.50000   79.61070   63.78340  101.49460   31.34140    0.05100
 2813.00000   79.92950   59.45430  102.05180   25.74280    0.03520
 2813.50000   78.35600   55.06750  102.25680   20.67370    0.02090
 2814.00000   75.36360   53.69320  101.82390   19.21410    0.01370
 2814.50000   71.92260   53.43480  101.34550   19.21410    0.01230
 2815.00000   69.52140   53.95990  100.35540   19.21410    0.01090
 2815.50000   66.79660   54.81150   99.69400   18.83780    0.00970
 2816.00000   64.42170   54.89290  100.05310   18.08510    0.00970
 2816.50000   62.38250   53.07270  100.75260   17.57770    0.01080
 2817.00000   60.31000   52.76190  101.24500   17.52190    0.01190
 2817.50000   57.56990   52.76190  100.62610   17.51280    0.01150
 2818.00000   54.87810   52.17940   99.75480   17.32900    0.01090
 2818.50000   51.95330   51.82450   99.19130   17.14080    0.00800
 2819.00000   51.19990   51.91640   99.37410   17.14950    0.00810
 2819.50000   50.78620   51.84540   99.46770   17.49300    0.00910
 2820.00000   50.80580   51.74630   99.40580   18.80790    0.01010
 2820.50000   50.85780   51.76450   97.86020   20.57760    0.02910
 2821.00000   50.95480   51.66720   96.31310   23.37090    0.04140
 2821.50000   50.94720   51.45940   94.74730   26.16430    0.04840
 2822.00000   49.92820   50.93950   94.36240   29.75860    0.04760
 2822.50000   49.47430   50.36640   96.37640   32.34990    0.04580
 2823.00000   50.02830   52.16710  100.27620   34.74860    0.04630
 2823.50000   52.23770   56.71270  103.21550   38.11890    0.08960
 2824.00000   54.34190   61.58770  107.12310   43.06080    0.15050
 2824.50000   57.06560   64.74700  113.21160   48.63060    0.23580
 2825.00000   59.66650   66.48320  116.50950   51.04040    0.25170
 2825.50000   61.00520   66.08440  116.30120   49.97340    0.24730
 2826.00000   60.67510   65.11590  115.37450   41.51030    0.22540
 2826.50000   59.75510   62.84470  112.28350   41.19640    0.17330
 2827.00000   59.03640   61.29890  111.59460   41.29150    0.13400
 2827.50000   56.96410   59.32410  107.82950   41.18030    0.09750
 2828.00000   53.92610   57.14800  102.53200   37.14060    0.06360
 2828.50000   51.88820   52.09260   98.99030   24.78200    0.02980
 2829.00000   51.18820   47.17410   97.19820   20.49810    0.01270
 2829.50000   50.06300   42.76460   95.40970   18.88900    0.01170
 2830.00000   49.21320   47.54650   93.44340   19.30540    0.01230
 2830.50000   49.37090   65.46310   91.66600   21.40390    0.02770
 2831.00000   50.79840   67.54070   92.28360   26.64000    0.05090
 2831.50000   49.76020   67.09230   92.21750   30.76730    0.08960
 2832.00000   46.44610   67.70840   91.81610   37.10230    0.10060
 2832.50000   45.91890   64.74230   93.54600   34.75030    0.06980
 2833.00000   47.83250   59.73240   94.50170   29.43140    0.04420
 2833.50000   52.55650   55.75580   98.21560   25.80300    0.02400
 2834.00000   58.97260   64.02780  103.04110   28.51340    0.02580
 2834.50000   67.66760   71.72000  107.86660   30.86950    0.04210
 2835.00000   69.14710   73.29660  110.21690   32.05460    0.05850
 2835.50000   67.72550   65.56770  111.39740   31.90890    0.06180
 2836.00000   64.82680   56.32090  111.47760   27.65030    0.05900
 2836.50000   61.51220   51.96190  105.27480   22.81580    0.01820
 2837.00000   59.14540   55.66380  102.73100   21.07500    0.01310
 2837.50000   57.03290   57.87740  101.18040   19.60310    0.01450
 2838.00000   54.65530   55.88620  100.78560   19.84020    0.01640
 2838.50000   52.66270   54.14110  100.92260   22.60430    0.01840
 2839.00000   52.37110   54.40340  101.40140   24.25860    0.01930
 2839.50000   52.63150   54.79650  102.04670   24.50370    0.01920
 2840.00000   52.97710   54.55060  102.31650   23.97980    0.01780
 2840.50000   52.86100   53.55370  102.47420   23.44950    0.01640
 2841.00000   52.04380   52.54770  102.59440   22.41470    0.01600
 2841.50000   51.43050   51.19170  101.61650   21.24070    0.01540
 2842.00000   52.00910   50.18020  100.78490   20.02340    0.01550
 2842.50000   50.80010   49.92040   99.07710   19.51240    0.01600
 2843.00000   50.01420   49.89000   96.07910   19.50420    0.01640
 2843.50000   49.96900   50.11820   94.91700   19.66880    0.01800
 2844.00000   50.47690   50.43060   95.26900   23.99480    0.02180
 2844.50000   51.05970   50.81310   97.76840   24.70150    0.03340
 2845.00000   52.04500   51.20950  100.35580   25.11230    0.05590
 2845.50000   54.70850   53.28070  102.20590   27.19650    0.07840
 2846.00000   59.09870   55.75200  102.21180   32.92830    0.15230
 2846.50000   63.09780   58.22340  100.32720   42.97720    0.20600
 2847.00000   67.86720   60.69470   95.67970   51.12180    0.24730
 2847.50000   69.99820   64.79830   92.12340   57.29120    0.26310
 2848.00000   69.36980   65.72750   88.56710   55.49300    0.22590
 2848.50000   68.55200   60.60260   88.12340   47.26170    0.13190
 2849.00000   72.26760   52.56010   91.90560   39.28020    0.07850
 2849.50000   76.13320   49.98750   96.07950   33.03590    0.06410
 2850.00000   80.53750   49.98370  103.34420   28.35540    0.05600
 2850.50000   83.88310   54.25430  109.86840   26.30100    0.04790
 2851.00000   86.70420   56.21710  112.04310   26.28020    0.04530
 2851.50000   85.66690   58.17990  113.80830   27.14970    0.04600
 2852.00000   81.95930   76.64440  113.64520   29.51470    0.05040
 2852.50000   76.87220   74.67850  110.07080   36.23370    0.09750
 2853.00000   71.93230   70.38160  106.28280   42.82450    0.13870
 2853.50000   68.73120   64.32260  106.31960   47.53250    0.17110
 2854.00000   68.81440   57.11070  106.71010   45.14010    0.13100
 2854.50000   68.72150   51.81830  106.18740   39.01080    0.08760
 2855.00000   65.90000   55.62140  103.96790   32.16650    0.04690
 2855.50000   63.40650   59.35230  101.74840   27.99280    0.04690
 2856.00000   57.35310   61.80330  112.73420   28.59270    0.05470
 2856.50000   60.57870   62.22600  117.58700   30.05390    0.07440
 2857.00000   61.19530   60.82060  117.43670   30.48580    0.07890
 2857.50000   61.19450   61.29420  117.27410   29.42420    0.07410
 2858.00000   61.55210   63.44020  119.12490   29.03140    0.06880
 2858.50000   62.39800   66.29140  120.21370   29.78090    0.07110
 2859.00000   64.50230   70.06700  117.78530   30.57950    0.07390
 2859.50000   65.74550   74.40400  113.43190   30.63440    0.07630
 2860.00000   67.55140   77.19560  111.32390   30.27200    0.07830
 2860.50000   71.38750   75.36630  113.90760   29.80510    0.07960
 2861.00000   78.70110   73.28520  119.10420   29.21200    0.07180
 2861.50000   84.85100   69.39940  121.88110   27.83280    0.06470
 2862.00000   88.93800   59.34950  120.85890   29.17330    0.06850
 2862.50000   81.13050   62.67840  112.25970   33.90350    0.10110
 2863.00000   72.56620   72.39860  103.66040   39.40460    0.14170
 2863.50000   67.07020   80.87590  101.78760   41.67130    0.14840
