~Version ---------------------------------------------------
VERS.   2.0 : CWLS log ASCII Standard -VERSION 2.0
WRAP.    NO : One line per depth step
DLM . SPACE : Column Data Section Delimiter
~Well ------------------------------------------------------
STRT .F                2684.0 : START DEPTH
STOP .F                3742.0 : STOP DEPTH
STEP .F                   0.5 : STEP
NULL .               -9999.25 : NULL VALUE
COMP .                        : COMPANY
WELL .                        : WELL
FLD  .                        : FIELD
LOC  .                        : LOCATION
PROV .                        : PROVINCE
CNTY .                        : COUNTY
STAT .                        : STATE
CTRY .                        : COUNTRY
SRVC .                        : SERVICE COMPANY
DATE .                        : DATE
UWI  .                        : UNIQUE WELL ID
API  .                        : API NUMBER
SLAT .WGS84 6.966614999035201 : SURFACE LATITUDE
SLON .WGS84 4.790251697944001 : SURFACE LONGITUDE
DATUM.F               2387.56 : DEPTH DATUM ELEV
~Curve Information -----------------------------------------
DEPT   .F     : 1 MEASURED DEPTH
DTCO   .US/F  : DELTA-T COMPRESSIONAL
DTL    .US/F  : DELTA-T LONG SPACING
DTSM   .US/F  : DELTA-T SHEAR
GRD    .GAPI  : GAMMA RAY FROM DENSITY LOG
NPHI_LS.DEC   : NEUTRON POROSITY LIMESTONE
~Params ----------------------------------------------------
~Other -----------------------------------------------------
~ASCII -----------------------------------------------------
# ...
 3224.00000   66.82610   68.47220  120.27920   51.81960    0.10990
 3224.50000   66.46670   68.57000  119.94310   53.15440    0.11050
 3225.00000   67.06590   68.66770  120.33420   53.19290    0.11120
 3225.50000   67.78090   68.76540  121.81020   52.09350    0.11360
 3226.00000   68.08900   68.86310  122.94260   50.70070    0.11600
 3226.50000   68.03870   69.01850  122.83090   50.36220    0.11930
 3227.00000   67.94190   69.17990  122.62770   50.84250    0.12160
 3227.50000   68.01830   69.30870  123.18250   51.42820    0.12110
 3228.00000   68.19970   69.36750  123.77300   52.01400    0.12000
 3228.50000   68.18210   69.46420  124.33210   52.10750    0.12130
 3229.00000   68.07260   69.59550  124.50260   52.26180    0.12940
 3229.50000   68.06970   69.72680  124.75380   52.50210    0.13810
 3230.00000   68.44330   70.13500  127.46550   53.82450    0.13980
 3230.50000   69.98920   70.58760  128.77460   55.21680    0.14150
 3231.00000   70.55450   71.08560  129.99080   56.05190    0.14340
 3231.50000   70.86330   71.72270  131.11070   56.81630    0.14600
 3232.00000   71.07240   72.18460  132.23060   57.47790    0.14950
 3232.50000   71.19920   72.40450  133.60300   58.02010    0.15220
 3233.00000   71.24310   72.95580  133.70000   58.26970    0.15480
 3233.50000   71.55030   73.97510  133.70000   58.51940    0.15700
 3234.00000   71.71570   74.99440  134.04210   56.72380    0.15640
 3234.50000   72.01520   75.85630  136.39500   53.20770    0.15230
 3235.00000   72.99440   75.67450  138.75440   50.80750    0.14830
 3235.50000   74.18400   75.67090  140.08730   50.27950    0.15140
 3236.00000   75.27090   76.22130  141.37260   54.45330    0.16750
 3236.50000   77.01080   77.07400  141.98770   59.26070    0.18010
 3237.00000   77.02580   77.05650  141.88060   60.25630    0.17910
 3237.50000   76.05250   76.33650  140.30850   59.39680    0.16640
 3238.00000   73.54480   75.42020  136.96260   58.00340    0.14860
 3238.50000   71.27270   72.49550  131.34340   57.15120    0.13310
 3239.00000   70.10190   70.71360  129.64270   57.23030    0.13070
 3239.50000   69.32730   69.69740  128.00850   58.31070    0.14250
 3240.00000   68.42680   68.73780  125.43630   57.99420    0.14840
 3240.50000   67.53080   68.03520  123.25610   56.66840    0.14310
 3241.00000   66.74810   67.07010  124.59690   57.06860    0.13660
 3241.50000   66.80580   67.07010  126.03270   60.48550    0.14040
 3242.00000   67.76850   69.92720  126.66850   71.55510    0.13720
 3242.50000   68.58820   71.56290  126.51840   85.35950    0.13130
 3243.00000   68.74390   70.35410  123.08610   88.73900    0.13040
 3243.50000   68.08820   67.75180  117.80740   82.37710    0.11090
 3244.00000   66.46160   62.28540  113.00080   61.48150    0.06640
 3244.50000   63.62350   58.04070  111.13680   49.95810    0.04680
 3245.00000   60.53940   58.05600  110.29970   46.53480    0.04920
 3245.50000   58.46200   59.73370  110.13420   46.75560    0.05570
 3246.00000   59.41480   62.00890  110.78580   50.60950    0.06530
 3246.50000   61.57470   63.32730  117.90640   52.99930    0.07510
 3247.00000   63.23790   64.17400  119.98720   53.97810    0.07980
 3247.50000   64.65880   65.68170  122.56530   54.98600    0.08400
 3248.00000   65.17530   67.15960  123.15810   56.36940    0.09160
 3248.50000   65.73150   67.68380  123.78280   56.62940    0.09610
 3249.00000   66.44650   68.20800  124.04280   56.06610    0.09840
 3249.50000   66.57540   68.73220  123.92130   55.29570    0.10070
 3250.00000   67.18910   69.06150  124.39950   55.62750    0.10280
 3250.50000   67.82100   69.31590  125.72420   56.12950    0.10350
 3251.00000   68.33890   69.57030  126.47090   56.26480    0.10280
 3251.50000   68.57790   69.88950  127.32820   55.99020    0.10220
 3252.00000   69.06780   70.47990  128.56870   54.59170    0.10540
 3252.50000   70.73160   71.08070  129.79230   54.20700    0.10950
 3253.00000   71.42650   71.54410  129.91620   55.13170    0.11360
 3253.50000   71.41750   71.90120  129.91460   56.11020    0.11810
 3254.00000   71.40980   72.24270  131.24570   56.34480    0.12260
 3254.50000   72.38010   73.29540  135.73570   56.49260    0.12720
 3255.00000   73.20340   74.21850  137.18400   57.04470    0.13180
 3255.50000   73.75870   75.16080  135.59520   57.83440    0.13880
 3256.00000   73.68270   76.10320  133.64310   58.34700    0.14480
 3256.50000   73.27020   76.45060  132.07200   58.51930    0.14750
 3257.00000   72.91810   75.77680  132.67570   58.64550    0.14660
 3257.50000   72.38500   74.84710  133.15220   58.69130    0.14410
 3258.00000   72.56460   74.73230  132.95050   59.13240    0.14560
 3258.50000   73.08400   75.67630  132.64580   61.07860    0.14850
 3259.00000   72.89150   75.04310  132.31300   61.27020    0.13840
 3259.50000   69.91740   71.68400  131.28870   59.85440    0.12230
 3260.00000   65.83320   66.22360  130.59610   53.00040    0.09660
 3260.50000   62.61040   60.76310  126.74400   48.02410    0.06470
 3261.00000   59.34930   56.59950  119.27990   45.99140    0.04500
 3261.50000   55.80320   55.56980  113.73780   45.51600    0.03660
 3262.00000   56.60390   57.46090  111.92000   47.91470    0.03900
 3262.50000   57.69680   64.72190  114.75890   51.96600    0.05600
 3263.00000   59.84520   68.21830  117.86870   57.75430    0.07550
 3263.50000   63.37310   71.72000  124.29480   64.29960    0.10360
 3264.00000   68.28700   75.22710  132.25790   69.54090    0.16370
 3264.50000   72.71080   78.73410  140.05030   69.70240    0.19320
 3265.00000   77.27170   80.71870  147.63740   69.65100    0.22080
 3265.50000   79.56300   85.22730  152.33740   69.69140    0.23710
 3266.00000   81.40240   86.64810  157.03740   69.54590    0.25060
 3266.50000   83.63510   87.50870  159.66680   69.64470    0.26480
 3267.00000   83.97380   87.55050  159.53280   69.90060    0.26500
 3267.50000   83.24550   87.47240  159.03400   70.42200    0.26230
 3268.00000   83.20770   86.79390  164.01350   71.08920    0.26380
 3268.50000   83.43760   83.83370  163.82800   71.20550    0.26530
 3269.00000   83.03150   81.48990  162.77400   70.46180    0.26480
 3269.50000   82.56710   80.29490  162.19110   68.92850    0.26060
 3270.00000   81.71470   79.77290  162.41310   64.76680    0.25070
 3270.50000   79.52520   79.11900  162.41300   64.80660    0.24090
 3271.00000   78.57550   78.97460  162.22800   65.35620    0.22320
 3271.50000   78.18630   79.56280  161.79370   66.68370    0.23400
 3272.00000   78.69590   80.05120  160.37330   68.70390    0.25020
 3272.50000   79.83620   80.00750  158.48410   71.77360    0.25980
 3273.00000   79.66440   79.83680  154.47190   74.06130    0.26350
 3273.50000   78.72590   79.68500  151.82090   74.99100    0.26730
 3274.00000   77.48920   78.97030  149.20050   71.82520    0.26550
 3274.50000   76.51180   77.52060  144.63290   65.39400    0.26600
 3275.00000   75.96310   75.55010  142.91960   58.09850    0.27540
 3275.50000   74.88350   72.98480  140.66110   51.93630    0.27470
 3276.00000   72.46340   69.41080  134.83280   45.00040    0.22680
 3276.50000   68.27800   64.92180  124.70440   37.40190    0.14960
 3277.00000   64.09270   60.12090  119.84500   32.58320    0.09200
 3277.50000   60.73110   56.40560  115.34870   28.64350    0.07060
 3278.00000   58.06890   54.71460  111.51560   28.17710    0.05990
 3278.50000   57.98870   54.96340  111.64950   30.85860    0.05960
 3279.00000   58.54770   55.60260  112.68050   34.34270    0.05980
 3279.50000   59.06960   55.93260  114.52140   37.94620    0.06150
 3280.00000   60.13580   58.07260  116.78770   47.05910    0.06560
 3280.50000   61.22470   61.34450  119.05390   57.93520    0.06970
 3281.00000   62.25710   64.47910  121.25350   67.48800    0.09520
 3281.50000   63.31090   66.83950  121.47790   76.56950    0.12110
 3282.00000   67.19930   66.86710  121.15030   78.87390    0.12450
 3282.50000   67.30150   65.87580  120.89600   72.06160    0.11420
 3283.00000   66.85190   64.10300  119.06120   64.33230    0.10090
 3283.50000   65.50810   62.90960  117.41400   57.47630    0.08750
