~Version ---------------------------------------------------
VERS.   2.0 : CWLS log ASCII Standard -VERSION 2.0
WRAP.    NO : One line per depth step
DLM . SPACE : Column Data Section Delimiter
~Well ------------------------------------------------------
STRT .F                2684.0 : START DEPTH
STOP .F                3742.0 : STOP DEPTH
STEP .F                   0.5 : STEP
NULL .               -9999.25 : NULL VALUE
COMP .                        : COMPANY
WELL .                        : WELL
FLD  .                        : FIELD
LOC  .                        : LOCATION
PROV .                        : PROVINCE
CNTY .                        : COUNTY
STAT .                        : STATE
CTRY .                        : COUNTRY
SRVC .                        : SERVICE COMPANY
DATE .                        : DATE
UWI  .                        : UNIQUE WELL ID
API  .                        : API NUMBER
SLAT .WGS84 6.966614999035201 : SURFACE LATITUDE
SLON .WGS84 4.790251697944001 : SURFACE LONGITUDE
DATUM.F               2387.56 : DEPTH DATUM ELEV
~Curve Information -----------------------------------------
DEPT   .F     : 1 MEASURED DEPTH
DTCO   .US/F  : DELTA-T COMPRESSIONAL
DTL    .US/F  : DELTA-T LONG SPACING
DTSM   .US/F  : DELTA-T SHEAR
GRD    .GAPI  : GAMMA RAY FROM DENSITY LOG
NPHI_LS.DEC   : NEUTRON POROSITY LIMESTONE
~Params ----------------------------------------------------
~Other -----------------------------------------------------
~ASCII -----------------------------------------------------
# ...
 3644.00000   58.23220   58.14440  110.71310   38.28390    0.08310
 3644.50000   57.36720   59.07830  110.33660   39.18840    0.08150
 3645.00000   58.57300   60.64780  111.95980   39.51910    0.08700
 3645.50000   60.63250   62.80620  113.91300   39.51980    0.09730
 3646.00000   62.69200   65.78210  117.28160   38.35440    0.10810
 3646.50000   64.09730   66.22190  119.33480   35.85310    0.12110
 3647.00000   65.11010   66.33700  120.41370   34.34530    0.13410
 3647.50000   65.21300   65.20800  122.07650   33.05070    0.14200
 3648.00000   64.69990   65.18590  122.68540   32.55360    0.14520
 3648.50000   65.19470   66.21690  123.72810   32.54050    0.14830
 3649.00000   65.85280   66.11090  124.42340   32.97830    0.15060
 3649.50000   65.83760   66.01660  124.92640   33.26490    0.15910
 3650.00000   65.53920   67.02340  125.70440   33.56890    0.16720
 3650.50000   65.71170   67.56850  126.88480   33.87030    0.17450
 3651.00000   65.92360   67.56910  128.02340   34.16930    0.17570
 3651.50000   66.27830   67.59370  129.17820   34.33950    0.17750
 3652.00000   66.85660   67.92580  131.29150   34.28750    0.18300
 3652.50000   67.00910   68.38270  133.41640   33.83560    0.18550
 3653.00000   67.07290   68.28540  133.37800   33.38060    0.18160
 3653.50000   67.36110   67.84370  132.80700   32.84530    0.17590
 3654.00000   68.51030   68.05670  131.82130   32.05630    0.16790
 3654.50000   69.69790   69.26660  130.22260   30.75440    0.16590
 3655.00000   70.23430   69.84840  130.41020   30.08230    0.18220
 3655.50000   70.56310   70.00030  130.53180   30.42810    0.19060
 3656.00000   70.01660   68.36160  128.96500   31.43000    0.18240
 3656.50000   67.86870   65.72540  126.85760   31.65750    0.15140
 3657.00000   64.73590   63.66680  122.63940   31.53270    0.13140
 3657.50000   63.37330   61.79990  117.49700   31.48640    0.12630
 3658.00000   62.07890   61.73300  115.38000   33.23890    0.14020
 3658.50000   61.91190   63.03430  115.38000   36.13840    0.17390
 3659.00000   62.33570   64.46410  116.34790   39.68130    0.19460
 3659.50000   64.11560   66.28690  118.32550   42.13730    0.22730
 3660.00000   66.24010   68.24430  122.35790   40.60400    0.25260
 3660.50000   67.97480   69.45860  125.58480   38.83640    0.27640
 3661.00000   68.75540   70.32600  127.03470   36.69400    0.29300
 3661.50000   70.52880   71.14660  129.38700   36.01270    0.30420
 3662.00000   71.83580   71.65850  129.95570   36.40200    0.31550
 3662.50000   71.88180   71.58840  129.58240   37.28150    0.33130
 3663.00000   70.80770   70.43530  127.78320   37.40200    0.33980
 3663.50000   69.44560   69.51000  125.98670   37.24960    0.34070
 3664.00000   68.02410   68.84260  123.97490   36.89110    0.31250
 3664.50000   67.49630   68.11200  124.40170   36.85510    0.27890
 3665.00000   67.42110   68.13660  125.34970   37.45210    0.24420
 3665.50000   67.40390   68.74890  126.45660   38.16880    0.22370
 3666.00000   67.82450   69.32760  128.30790   37.62620    0.22000
 3666.50000   68.47130   70.40970  130.13890   35.54270    0.22730
 3667.00000   69.48470   70.40760  130.82960   33.84940    0.23600
 3667.50000   69.85600   70.70560  131.21750   33.72530    0.23790
 3668.00000   69.88620   71.05330  131.07610   33.92850    0.23240
 3668.50000   69.74590   71.13010  130.43160   32.17840    0.22920
 3669.00000   69.42370   71.12730  129.65720   30.52470    0.23040
 3669.50000   69.49810   71.12460  129.65290   29.79520    0.23480
 3670.00000   69.95040   71.12180  130.03010   32.22240    0.24200
 3670.50000   70.18280   71.06210  130.23720   32.12410    0.24720
 3671.00000   70.16890   70.96900  130.04230   31.68430    0.25380
 3671.50000   69.92750   70.66420  129.25830   30.88160    0.25560
 3672.00000   68.62540   70.07000  127.98790   30.24930    0.25250
 3672.50000   67.01650   68.71800  126.20930   30.71730    0.24290
 3673.00000   65.90750   67.34550  124.59070   31.49780    0.23690
 3673.50000   65.13380   67.51910  123.98220   32.61290    0.23190
 3674.00000   64.65570   67.01350  123.24580   35.17960    0.22540
 3674.50000   63.87550   66.93620  122.44110   36.61960    0.21440
 3675.00000   63.46860   66.79320  122.73660   37.02430    0.20430
 3675.50000   64.09210   66.65670  123.60410   37.10200    0.19340
 3676.00000   65.78200   66.97110  124.27850   38.08640    0.19010
 3676.50000   65.99860   67.12690  124.63840   39.71960    0.18490
 3677.00000   66.15560   67.07170  124.81540   42.97440    0.16910
 3677.50000   66.31970   66.94100  124.19460   48.92510    0.14040
 3678.00000   66.42120   65.02630  123.44200   56.68590    0.11270
 3678.50000   66.46200   62.93540  122.64490   60.76350    0.09230
 3679.00000   65.96840   62.20060  121.28220   62.59390    0.08260
 3679.50000   64.94080   61.58690  119.99560   62.03490    0.07810
 3680.00000   63.57630   60.13660  117.69110   57.67640    0.07290
 3680.50000   62.43760   58.27360  114.66140   51.95330    0.05370
 3681.00000   61.21140   56.90620  111.99820   46.23170    0.03990
 3681.50000   60.54820   55.53880  110.17920   41.60680    0.03270
 3682.00000   59.68530   54.83530  109.13260   38.60080    0.03090
 3682.50000   58.81530   56.92630  110.42500   37.67930    0.04070
 3683.00000   58.54200   58.17650  112.59030   39.64730    0.05250
 3683.50000   58.48640   59.93210  114.85150   42.69820    0.06880
 3684.00000   58.63010   60.72480  115.47510   44.95230    0.08060
 3684.50000   59.06800   60.29300  115.85920   42.55670    0.08830
 3685.00000   59.63410   59.80020  116.08990   38.80670    0.09190
 3685.50000   59.83900   59.98310  116.22560   34.14180    0.10240
 3686.00000   60.07580   60.87360  116.90500   30.34620    0.11330
 3686.50000   60.51360   61.79840  118.01900   29.24900    0.12160
 3687.00000   61.27800   62.68340  118.66250   29.41340    0.12660
 3687.50000   62.02030   63.37170  119.15070   29.56560    0.13460
 3688.00000   63.12040   63.87070  119.63890   29.71070    0.14780
 3688.50000   63.97740   64.11570  120.07370   29.85580    0.15720
 3689.00000   64.48700   64.36070  120.38110   29.89200    0.16770
 3689.50000   64.90170   64.60580  120.63170   29.86750    0.17080
 3690.00000   65.08100   64.85080  120.93920   29.55680    0.17120
 3690.50000   64.79860   65.01380  120.99000   29.00960    0.17160
 3691.00000   64.42030   65.05740  121.04040   28.46240    0.17210
 3691.50000   64.07970   65.06030  121.09850   27.88860    0.17250
 3692.00000   64.04050   65.06330  121.12310   27.34980    0.16560
 3692.50000   64.01290   64.58650  121.02180   26.90410    0.15550
 3693.00000   64.01010   64.02820  120.96840   26.78750    0.15360
 3693.50000   63.82850   63.90870  120.83040   27.16300    0.15470
 3694.00000   63.57120   63.91160  120.59830   28.34700    0.15890
 3694.50000   63.23420   63.91460  120.38210   28.25880    0.15990
 3695.00000   63.02700   63.91750  120.32980   28.01400    0.15680
 3695.50000   62.86570   63.95700  120.40180   27.25890    0.15490
 3696.00000   63.06580   65.21690  120.96330   27.28710    0.16060
 3696.50000   63.89950   65.70020  122.58190   27.70380    0.17180
 3697.00000   64.27400   66.05480  124.15530   27.82880    0.18640
 3697.50000   65.22210   66.06140  125.34610   27.94000    0.19240
 3698.00000   65.96050   65.92450  125.34610   27.63470    0.18530
 3698.50000   65.88450   65.65990  124.97230   27.19950    0.17660
 3699.00000   65.46000   65.17730  123.53400   26.88100    0.16950
 3699.50000   65.15480   64.41420  122.95330   26.79560    0.16060
 3700.00000   64.87730   64.03930  122.41650   27.10620    0.15710
 3700.50000   64.32010   63.66670  121.76830   28.18050    0.15770
 3701.00000   63.88940   63.41360  121.11830   29.21730    0.16000
 3701.50000   63.49850   63.26350  120.10540   29.79620    0.16050
 3702.00000   63.56300   62.88550  119.78460   29.83880    0.15780
 3702.50000   64.18390   62.27970  119.78620   -9999.25    0.15100
 3703.00000   63.56360   61.46940  119.19600   -9999.25    0.14530
 3703.50000   62.36790   60.63240  117.39880   -9999.25    0.14680
