~Version ---------------------------------------------------
VERS.   2.0 : CWLS log ASCII Standard -VERSION 2.0
WRAP.    NO : One line per depth step
DLM . SPACE : Column Data Section Delimiter
~Well ------------------------------------------------------
STRT .F                2684.0 : START DEPTH
STOP .F                3742.0 : STOP DEPTH
STEP .F                   0.5 : STEP
NULL .               -9999.25 : NULL VALUE
COMP .                        : COMPANY
WELL .                        : WELL
FLD  .                        : FIELD
LOC  .                        : LOCATION
PROV .                        : PROVINCE
CNTY .                        : COUNTY
STAT .                        : STATE
CTRY .                        : COUNTRY
SRVC .                        : SERVICE COMPANY
DATE .                        : DATE
UWI  .                        : UNIQUE WELL ID
API  .                        : API NUMBER
SLAT .WGS84 6.966614999035201 : SURFACE LATITUDE
SLON .WGS84 4.790251697944001 : SURFACE LONGITUDE
DATUM.F               2387.56 : DEPTH DATUM ELEV
~Curve Information -----------------------------------------
DEPT   .F     : 1 MEASURED DEPTH
DTCO   .US/F  : DELTA-T COMPRESSIONAL
DTL    .US/F  : DELTA-T LONG SPACING
DTSM   .US/F  : DELTA-T SHEAR
GRD    .GAPI  : GAMMA RAY FROM DENSITY LOG
NPHI_LS.DEC   : NEUTRON POROSITY LIMESTONE
~Params ----------------------------------------------------
~Other -----------------------------------------------------
~ASCII -----------------------------------------------------
# ...
 3164.00000   62.03870   62.85750  121.08200   57.48590    0.15210
 3164.50000   62.01470   62.78750  121.16350   50.04890    0.15340
 3165.00000   62.02200   62.51680  121.17340   47.52870    0.15320
 3165.50000   62.42590   62.47270  121.29520   45.41850    0.15130
 3166.00000   63.23580   62.56740  121.29040   43.74030    0.14460
 3166.50000   65.87350   62.72820  121.10860   42.13700    0.13610
 3167.00000   69.58240   62.85160  120.81230   41.60090    0.13450
 3167.50000   71.66560   62.91860  120.51620   40.30850    0.13510
 3168.00000   71.61110   62.60220  120.36080   38.50150    0.13490
 3168.50000   68.25670   62.14690  120.15970   37.08620    0.13190
 3169.00000   64.00710   62.26720  120.02220   36.95850    0.12890
 3169.50000   62.25970   62.57090  119.95300   37.19270    0.12790
 3170.00000   61.67700   62.87460  120.19250   36.91500    0.13530
 3170.50000   61.96890   63.15740  121.13570   36.47680    0.14590
 3171.00000   62.05720   63.35270  122.60480   35.63290    0.15060
 3171.50000   62.54180   63.66600  123.14820   34.88200    0.15480
 3172.00000   63.31080   63.73000  122.93880   35.24460    0.15210
 3172.50000   63.96610   63.36380  122.60680   37.95050    0.14190
 3173.00000   64.02680   62.62250  122.27480   40.18000    0.12790
 3173.50000   63.85840   61.88130  121.94290   43.91020    0.11320
 3174.00000   63.23780   61.05670  121.39820   46.60540    0.09960
 3174.50000   62.41220   60.26710  119.58420   45.70190    0.09390
 3175.00000   61.68620   59.87380  118.21850   43.95780    0.09530
 3175.50000   61.12410   60.06700  117.12380   42.13870    0.10030
 3176.00000   60.86080   60.64950  117.07830   39.29870    0.10530
 3176.50000   61.67900   61.23180  117.39840   36.88080    0.11090
 3177.00000   61.73100   61.69260  117.81680   35.23160    0.11940
 3177.50000   61.79940   61.78370  117.90870   34.42400    0.12420
 3178.00000   62.32590   61.76050  118.00020   34.84460    0.12600
 3178.50000   63.92490   61.76130  118.08790   36.31450    0.12300
 3179.00000   64.60610   61.57440  118.14980   38.84630    0.12000
 3179.50000   64.52960   61.30310  118.21170   39.76950    0.11740
 3180.00000   64.48620   61.28050  119.09780   40.69260    0.11390
 3180.50000   64.60060   61.53650  119.99310   41.77400    0.10370
 3181.00000   64.67980   61.93560  119.05710   43.32260    0.09900
 3181.50000   64.68260   62.36170  116.85640   44.46830    0.09650
 3182.00000   64.51170   62.40280  116.06570   44.68260    0.09340
 3182.50000   63.71580   62.36000  114.20650   44.73950    0.08950
 3183.00000   62.63620   62.06520  112.62280   44.54890    0.08390
 3183.50000   61.97570   61.78490  110.72740   44.20650    0.08250
 3184.00000   61.56000   61.54400  109.71870   42.99680    0.08180
 3184.50000   61.15820   61.46670  110.29590   41.78050    0.08110
 3185.00000   61.13480   61.70610  111.46010   41.22610    0.08110
 3185.50000   61.44460   62.12660  112.42690   41.26460    0.08120
 3186.00000   61.62500   62.55870  113.31160   42.12120    0.08040
 3186.50000   61.89600   62.99070  113.39700   43.11290    0.07970
 3187.00000   62.25750   63.19260  113.53260   44.27560    0.08030
 3187.50000   62.76910   63.23100  113.92210   45.70210    0.08560
 3188.00000   63.07200   63.25330  114.24530   46.17230    0.09270
 3188.50000   63.27000   63.32200  114.65380   46.32940    0.09570
 3189.00000   63.46880   63.61910  114.72840   46.70890    0.09420
 3189.50000   64.02640   63.92150  114.57510   47.94530    0.09080
 3190.00000   64.58390   64.07850  113.81410   49.00500    0.08870
 3190.50000   63.83310   63.45060  113.23220   47.91280    0.08880
 3191.00000   63.15610   62.74380  112.62010   45.82280    0.08860
 3191.50000   63.02180   62.55770  111.90740   43.88890    0.08540
 3192.00000   62.15440   62.78340  111.74750   40.33240    0.08080
 3192.50000   61.45400   62.96000  112.33000   37.92860    0.08100
 3193.00000   61.20440   63.13670  112.80400   36.86220    0.08540
 3193.50000   61.84160   63.31340  113.03790   37.81720    0.09260
 3194.00000   62.54690   63.35130  112.99070   40.25320    0.09770
 3194.50000   62.88820   63.14620  112.28280   42.00100    0.09720
 3195.00000   62.75160   62.91490  112.28280   43.24620    0.09420
 3195.50000   62.40820   63.25120  112.67230   43.87460    0.09390
 3196.00000   62.23860   63.98150  113.08950   44.64650    0.09580
 3196.50000   63.40720   64.44500  113.37010   45.45010    0.10200
 3197.00000   64.35490   64.33830  113.39790   45.04400    0.10160
 3197.50000   64.71130   64.20190  113.34460   44.07040    0.09910
 3198.00000   64.59880   64.09700  113.03790   42.21930    0.09550
 3198.50000   64.57480   64.06180  112.76530   41.62900    0.09280
 3199.00000   64.42170   64.06180  112.93770   42.64970    0.09620
 3199.50000   64.15260   64.06760  113.33170   44.27770    0.10050
 3200.00000   63.96980   64.21350  114.38950   45.98100    0.10470
 3200.50000   64.19090   64.50790  115.40490   46.98620    0.10740
 3201.00000   64.53480   64.83940  115.50950   47.08740    0.10900
 3201.50000   64.56940   65.20900  114.79850   46.59440    0.10560
 3202.00000   64.50630   65.28320  114.06000   45.32420    0.10230
 3202.50000   64.46330   65.01070  113.78610   43.40940    0.10430
 3203.00000   64.42370   64.69730  113.92470   43.40580    0.10840
 3203.50000   64.32700   64.69350  114.52380   44.18330    0.11220
 3204.00000   64.60540   64.96870  114.86540   45.91240    0.11600
 3204.50000   65.53300   65.45210  115.22820   47.01190    0.11590
 3205.00000   66.53730   65.50550  115.57730   46.70770    0.11110
 3205.50000   66.84750   65.36790  115.48930   45.95600    0.10080
 3206.00000   66.15760   65.20340  115.09390   44.94410    0.09260
 3206.50000   65.84020   65.07890  114.91000   43.88500    0.09110
 3207.00000   65.33130   65.00220  115.16870   43.91830    0.09690
 3207.50000   64.88900   65.18150  115.41800   44.14910    0.10250
 3208.00000   65.30060   65.53800  115.66070   44.36510    0.10830
 3208.50000   66.69330   65.55580  115.86610   44.26910    0.10950
 3209.00000   66.88070   65.42940  115.64510   43.87950    0.10630
 3209.50000   66.36560   65.23940  115.14010   43.31240    0.09800
 3210.00000   65.31220   65.04950  114.66300   42.82380    0.10120
 3210.50000   64.54110   65.02220  114.20810   43.04090    0.09360
 3211.00000   64.53630   65.28360  113.77160   44.16940    0.09630
 3211.50000   64.67780   65.33920  113.67340   45.49960    0.09870
 3212.00000   64.90770   65.28140  113.98610   46.04700    0.09910
 3212.50000   65.00940   65.11270  114.30360   45.32560    0.09860
 3213.00000   64.89640   65.03680  114.86380   44.59070    0.09800
 3213.50000   64.74510   65.36080  115.43390   44.58770    0.09710
 3214.00000   64.87240   65.77280  116.17550   45.05850    0.09790
 3214.50000   65.39400   66.15010  117.11170   45.88480    0.10160
 3215.00000   65.89260   66.42220  117.72760   46.17740    0.10360
 3215.50000   66.39120   66.60940  118.22390   46.80010    0.10470
 3216.00000   66.48850   66.44090  118.23320   47.85270    0.10690
 3216.50000   66.52630   66.22430  118.23110   49.76190    0.10910
 3217.00000   66.55130   66.17100  118.38650   49.29720    0.10960
 3217.50000   66.67620   66.24090  118.73380   47.53240    0.10920
 3218.00000   66.80110   66.84390  119.08100   47.43020    0.10870
 3218.50000   66.96590   67.61810  119.28290   48.93230    0.10800
 3219.00000   67.19050   67.72830  119.70200   51.59450    0.10850
 3219.50000   67.47190   67.74930  120.32320   53.61730    0.11000
 3220.00000   67.75330   67.77440  120.73640   55.07420    0.11140
 3220.50000   67.91690   67.82730  120.81630   54.29770    0.11210
 3221.00000   68.12490   67.88020  120.76150   53.08830    0.11020
 3221.50000   68.19110   67.93320  120.26490   51.07390    0.10870
 3222.00000   68.09840   67.99430  120.28730   49.53740    0.10940
 3222.50000   68.09170   68.12890  120.55250   49.45050    0.11040
 3223.00000   68.14420   68.25120  121.00760   49.54810    0.11130
 3223.50000   68.09110   68.36220  121.31900   49.63780    0.10980
