~Version ---------------------------------------------------
VERS.   2.0 : CWLS log ASCII Standard -VERSION 2.0
WRAP.    NO : One line per depth step
DLM . SPACE : Column Data Section Delimiter
~Well ------------------------------------------------------
STRT .F                2684.0 : START DEPTH
STOP .F                3742.0 : STOP DEPTH
STEP .F                   0.5 : STEP
NULL .               -9999.25 : NULL VALUE
COMP .                        : COMPANY
WELL .                        : WELL
FLD  .                        : FIELD
LOC  .                        : LOCATION
PROV .                        : PROVINCE
CNTY .                        : COUNTY
STAT .                        : STATE
CTRY .                        : COUNTRY
SRVC .                        : SERVICE COMPANY
DATE .                        : DATE
UWI  .                        : UNIQUE WELL ID
API  .                        : API NUMBER
SLAT .WGS84 6.966614999035201 : SURFACE LATITUDE
SLON .WGS84 4.790251697944001 : SURFACE LONGITUDE
DATUM.F               2387.56 : DEPTH DATUM ELEV
~Curve Information -----------------------------------------
DEPT   .F     : 1 MEASURED DEPTH
DTCO   .US/F  : DELTA-T COMPRESSIONAL
DTL    .US/F  : DELTA-T LONG SPACING
DTSM   .US/F  : DELTA-T SHEAR
GRD    .GAPI  : GAMMA RAY FROM DENSITY LOG
NPHI_LS.DEC   : NEUTRON POROSITY LIMESTONE
~Params ----------------------------------------------------
~Other -----------------------------------------------------
~ASCII -----------------------------------------------------
# ...
 3104.00000   75.56800   77.11110  142.29700   50.25500    0.34510
 3104.50000   75.03370   76.51770  141.29710   49.97130    0.34160
 3105.00000   75.06890   76.77170  141.53070   49.64980    0.34300
 3105.50000   75.46650   77.90990  143.14090   49.63370    0.34770
 3106.00000   75.84600   78.92870  143.72790   49.86960    0.35620
 3106.50000   75.67720   77.61650  142.46010   54.12880    0.35940
 3107.00000   75.15930   75.56490  140.35250   60.80080    0.34890
 3107.50000   74.74110   74.36240  138.32650   67.80060    0.33580
 3108.00000   74.01500   73.21640  133.51570   73.14590    0.32650
 3108.50000   72.92750   70.68290  130.57670   78.01120    0.31730
 3109.00000   71.57180   70.00050  127.94060   82.39130    0.29310
 3109.50000   69.62930   68.15140  125.10050   88.64890    0.26890
 3110.00000   67.54640   66.04760  120.91930   93.42870    0.21280
 3110.50000   66.21020   63.82290  119.12710   89.79050    0.16470
 3111.00000   65.71480   61.54920  118.43270   79.09170    0.14770
 3111.50000   64.57220   61.13220  118.05660   62.41420    0.14030
 3112.00000   63.17890   61.43840  117.79960   46.25460    0.13770
 3112.50000   62.33100   62.23650  117.77080   38.27400    0.13790
 3113.00000   61.94630   63.03460  118.07610   35.37620    0.13980
 3113.50000   61.76810   63.98310  118.41360   33.02580    0.15080
 3114.00000   61.62710   64.02360  119.20250   30.82780    0.15080
 3114.50000   61.64120   63.43130  119.60180   28.44100    0.14460
 3115.00000   62.29360   63.24730  120.27550   26.94830    0.14100
 3115.50000   63.14930   63.21890  121.34430   25.77050    0.14440
 3116.00000   64.01960   63.66380  122.33350   25.49000    0.14900
 3116.50000   64.20210   64.04950  122.95410   25.40320    0.15700
 3117.00000   64.19120   63.90620  122.81110   25.53290    0.15560
 3117.50000   64.07080   63.43080  122.27440   25.77730    0.15380
 3118.00000   63.67030   63.41580  121.02750   26.22250    0.15630
 3118.50000   63.54680   63.64320  120.46760   26.77410    0.16430
 3119.00000   63.77640   63.84730  120.74320   27.20490    0.17440
 3119.50000   64.30360   63.90370  121.07690   27.73590    0.19220
 3120.00000   64.43380   63.96010  120.89080   28.83090    0.20290
 3120.50000   64.33400   63.87770  119.81800   29.46450    0.21040
 3121.00000   64.12270   63.35260  118.50350   29.57510    0.21270
 3121.50000   63.89810   62.75990  118.12460   29.60190    0.21410
 3122.00000   63.17920   62.54620  117.79020   29.93010    0.21960
 3122.50000   62.21830   63.11160  117.74670   30.29870    0.21420
 3123.00000   61.29040   62.95200  117.75750   30.66730    0.19900
 3123.50000   60.84730   62.35930  117.74970   30.44390    0.18330
 3124.00000   60.51740   61.53640  117.74200   28.87170    0.16060
 3124.50000   60.26790   61.40770  117.98400   28.49820    0.15190
 3125.00000   60.23340   61.64570  118.37590   29.06910    0.15100
 3125.50000   60.44250   62.32030  118.76770   30.86590    0.15180
 3126.00000   61.35950   62.99060  119.32950   33.55120    0.15830
 3126.50000   63.17160   63.64940  119.92920   36.07490    0.17110
 3127.00000   63.27520   64.25790  120.72730   36.39500    0.18470
 3127.50000   63.36960   64.82090  121.73650   36.39500    0.20030
 3128.00000   63.84350   65.06310  122.64690   36.85740    0.19910
 3128.50000   64.36730   64.73990  123.34410   37.73620    0.19270
 3129.00000   64.77750   64.14710  123.43490   38.48270    0.18320
 3129.50000   65.17920   63.83450  123.50450   39.62180    0.16820
 3130.00000   65.00700   64.42980  123.55530   40.83100    0.15450
 3130.50000   64.25880   63.95080  123.55070   42.21690    0.14790
 3131.00000   64.10200   63.81550  124.07250   43.15160    0.14790
 3131.50000   64.55920   64.67770  124.56450   43.84600    0.14840
 3132.00000   65.38340   65.31750  126.21810   45.30090    0.14970
 3132.50000   66.22460   65.84450  127.57220   46.77060    0.15550
 3133.00000   66.85250   66.11610  128.16470   47.19810    0.16050
 3133.50000   66.87680   66.24740  128.02370   47.14030    0.16460
 3134.00000   66.85580   66.29190  127.17990   46.69720    0.16210
 3134.50000   66.64010   65.34600  125.59580   46.01110    0.14920
 3135.00000   65.67200   64.08070  123.76040   44.89560    0.13810
 3135.50000   64.58850   62.81530  121.96040   43.72450    0.12550
 3136.00000   63.65090   61.47550  120.18240   42.67780    0.11270
 3136.50000   62.77780   60.85670  119.01160   42.73720    0.10230
 3137.00000   62.15750   61.15040  117.93020   42.84310    0.09980
 3137.50000   61.95430   61.43840  117.92570   42.99620    0.09810
 3138.00000   62.07840   61.50720  118.87970   42.91890    0.10030
 3138.50000   62.54710   61.76080  119.44310   42.84040    0.11440
 3139.00000   63.24440   62.34840  119.96220   43.55290    0.13440
 3139.50000   63.70170   63.33900  120.50620   45.71190    0.15330
 3140.00000   64.43530   63.90860  121.41830   47.70050    0.16550
 3140.50000   64.76530   63.90920  121.74140   47.03930    0.15680
 3141.00000   63.96510   63.20340  120.97650   44.93310    0.14430
 3141.50000   62.74470   61.79200  118.86660   41.18580    0.13150
 3142.00000   61.24080   60.23690  116.55820   36.66230    0.11880
 3142.50000   60.63400   59.29950  115.60800   32.18910    0.10400
 3143.00000   61.04550   59.40150  115.54130   29.42930    0.10690
 3143.50000   61.58220   59.94150  115.67600   29.46060    0.11440
 3144.00000   61.36000   60.21080  116.09200   31.82060    0.12020
 3144.50000   61.27600   60.51270  116.65470   36.61560    0.12170
 3145.00000   61.69730   60.96840  117.04400   38.93350    0.12060
 3145.50000   62.60100   61.62220  117.94970   39.82140    0.11990
 3146.00000   63.92970   62.71340  119.11760   41.56470    0.12300
 3146.50000   64.44800   63.07660  119.81820   43.75200    0.12650
 3147.00000   64.08900   63.26490  119.95620   43.30090    0.12880
 3147.50000   63.19280   63.49730  120.03440   42.12340    0.13350
 3148.00000   62.71480   64.78490  120.32400   39.16610    0.13680
 3148.50000   62.95260   65.20560  121.40170   38.79560    0.14090
 3149.00000   63.52450   65.50910  122.48610   38.98870    0.14790
 3149.50000   63.89490   65.75410  123.54360   39.04080    0.15490
 3150.00000   64.36420   66.04130  124.46720   33.46290    0.17000
 3150.50000   65.20820   66.02940  124.81760   30.39940    0.17140
 3151.00000   65.84390   65.21650  124.47660   29.63780    0.16420
 3151.50000   65.50150   64.43870  124.03110   29.58070    0.15900
 3152.00000   64.43310   63.85250  123.17720   30.08250    0.15280
 3152.50000   63.89420   64.09860  121.97500   31.27500    0.14850
 3153.00000   63.97170   64.11100  120.85740   32.41730    0.15220
 3153.50000   63.97470   64.26140  119.85170   32.98650    0.16070
 3154.00000   63.95210   64.42600  119.41280   32.91320    0.17280
 3154.50000   63.89070   64.83890  120.23740   32.69090    0.18330
 3155.00000   63.98330   65.61490  121.36280   32.68360    0.18820
 3155.50000   64.05180   65.70390  122.42300   33.42760    0.19150
 3156.00000   64.65490   65.83810  123.40140   36.76350    0.18930
 3156.50000   65.98160   66.35170  124.23860   44.40830    0.17820
 3157.00000   66.99050   66.91870  125.11230   51.17940    0.17380
 3157.50000   67.78480   67.10720  125.44930   55.85200    0.16960
 3158.00000   67.57720   67.04300  124.45980   58.02430    0.16720
 3158.50000   66.70600   65.14780  121.44000   54.32480    0.14340
 3159.00000   64.67090   63.78900  118.96880   50.12680    0.11980
 3159.50000   63.21430   61.11870  116.68720   47.80710    0.09990
 3160.00000   61.46670   58.34300  114.71490   48.47110    0.08300
 3160.50000   60.58350   57.65580  113.78280   55.61310    0.07750
 3161.00000   60.25500   57.94940  113.50740   61.77740    0.08590
 3161.50000   60.36350   58.23930  114.44610   68.43160    0.10040
 3162.00000   61.31130   60.22660  116.07780   76.09660    0.11980
 3162.50000   61.65150   61.46370  117.61490   77.95110    0.13590
 3163.00000   61.82520   62.56810  119.08450   75.59590    0.14500
 3163.50000   62.05210   62.85760  120.22050   69.79480    0.15020
