~Version ---------------------------------------------------
VERS.   2.0 : CWLS log ASCII Standard -VERSION 2.0
WRAP.    NO : One line per depth step
DLM . SPACE : Column Data Section Delimiter
~Well ------------------------------------------------------
STRT .F                2684.0 : START DEPTH
STOP .F                3742.0 : STOP DEPTH
STEP .F                   0.5 : STEP
NULL .               -9999.25 : NULL VALUE
COMP .                        : COMPANY
WELL .                        : WELL
FLD  .                        : FIELD
LOC  .                        : LOCATION
PROV .                        : PROVINCE
CNTY .                        : COUNTY
STAT .                        : STATE
CTRY .                        : COUNTRY
SRVC .                        : SERVICE COMPANY
DATE .                        : DATE
UWI  .                        : UNIQUE WELL ID
API  .                        : API NUMBER
SLAT .WGS84 6.966614999035201 : SURFACE LATITUDE
SLON .WGS84 4.790251697944001 : SURFACE LONGITUDE
DATUM.F               2387.56 : DEPTH DATUM ELEV
~Curve Information -----------------------------------------
DEPT   .F     : 1 MEASURED DEPTH
DTCO   .US/F  : DELTA-T COMPRESSIONAL
DTL    .US/F  : DELTA-T LONG SPACING
DTSM   .US/F  : DELTA-T SHEAR
GRD    .GAPI  : GAMMA RAY FROM DENSITY LOG
NPHI_LS.DEC   : NEUTRON POROSITY LIMESTONE
~Params ----------------------------------------------------
~Other -----------------------------------------------------
~ASCII -----------------------------------------------------
# ...
 2864.00000   68.65650   81.98540  103.12580   37.44730    0.12020
 2864.50000   76.64720   73.43140  106.95990   30.68820    0.06930
 2865.00000   80.57660   63.40310  110.21880   26.58610    0.05710
 2865.50000   82.14310   65.57500  111.35120   27.15570    0.06010
 2866.00000   82.43550   70.91250  112.48360   32.34390    0.08790
 2866.50000   81.84380   67.85400  113.36900   35.72690    0.09870
 2867.00000   80.74300   60.65520  112.36420   33.85680    0.08020
 2867.50000   77.58510   55.91300  109.99390   28.95870    0.04900
 2868.00000   72.78970   53.70710  107.32840   23.29580    0.01780
 2868.50000   63.50090   55.78210  100.61020   17.64210    0.00710
 2869.00000   56.21130   55.98720   95.96840   16.86630    0.00570
 2869.50000   50.73520   53.23260   96.03830   16.13200    0.00600
 2870.00000   50.45080   52.46510   98.29980   16.25120    0.00770
 2870.50000   51.60640   53.67140  102.24730   21.65490    0.02850
 2871.00000   53.52000   58.95510  108.44740   29.62980    0.06360
 2871.50000   58.68840   64.74090  114.64750   36.17840    0.10010
 2872.00000   69.54510   69.55210  122.12380   47.69970    0.12390
 2872.50000   81.93860   67.37340  134.37420   54.26220    0.12290
 2873.00000   85.17990   63.71010  146.62460   49.27650    0.09020
 2873.50000   81.89430   59.90710  140.33720   39.98420    0.04820
 2874.00000   74.24390   55.87370  122.10530   33.44030    0.02700
 2874.50000   62.54260   55.76410  106.55550   33.74200    0.03300
 2875.00000   60.46020   56.58600  104.29520   37.86540    0.06150
 2875.50000   60.05610   57.39620  104.10030   43.70410    0.08990
 2876.00000   59.67950   55.86740  103.72540   48.56260    0.09330
 2876.50000   57.80900   53.09210  103.22070   49.76660    0.08310
 2877.00000   55.67030   51.75850   99.98750   47.17380    0.06000
 2877.50000   53.25720   51.51430   96.12830   44.54840    0.05020
 2878.00000   50.84410   51.93390   94.16950   42.93380    0.04490
 2878.50000   50.11270   52.18930   94.03000   42.58560    0.04380
 2879.00000   50.44350   52.13510   94.03580   41.49000    0.03980
 2879.50000   53.64010   51.87120   94.73790   39.74180    0.02870
 2880.00000   60.00440   51.06020   96.14600   30.98120    0.00810
 2880.50000   69.91870   50.39860   98.70760   24.02510    0.00690
 2881.00000   71.18630   51.25120  105.96520   21.17470    0.01270
 2881.50000   70.10940   54.24610  105.96520   22.26910    0.02180
 2882.00000   68.08980   63.86630  103.48800   32.82310    0.07050
 2882.50000   65.61980   66.91380  100.28270   45.42740    0.11450
 2883.00000   62.92990   66.03680   99.20500   43.81790    0.10910
 2883.50000   59.77230   61.44810   94.55260   37.20990    0.05930
 2884.00000   56.21980   55.04640   93.41710   26.39630    0.01530
 2884.50000   53.20760   50.43360   93.55860   20.76590    0.00190
 2885.00000   51.77180   51.79590   93.80940   19.04340    0.00200
 2885.50000   50.19930   50.41770   94.16760   18.99880    0.00520
 2886.00000   50.27870   48.60160   97.05820   22.40870    0.00840
 2886.50000   51.20540   49.76980  100.54100   28.90770    0.03060
 2887.00000   53.31240   54.13840  104.00130   37.01820    0.05610
 2887.50000   55.82770   59.41910  107.33670   44.97320    0.08150
 2888.00000   56.68210   61.66880  107.50630   49.57280    0.07970
 2888.50000   54.16390   59.83880  104.75610   44.06810    0.05940
 2889.00000   53.44320   57.32720  104.07970   37.78670    0.03910
 2889.50000   57.80760   53.44910  107.99890   29.71980    0.02550
 2890.00000   65.13140   53.75050  125.93740   23.82000    0.01670
 2890.50000   71.85500   54.50120  137.37660   20.18220    0.01640
 2891.00000   73.18450   60.38330  141.81390   21.58010    0.03490
 2891.50000   73.45010   66.67660  145.97140   30.83270    0.09530
 2892.00000   72.56050   74.37080  146.06370   42.78670    0.17430
 2892.50000   72.63020   75.40900  143.71260   49.29880    0.26110
 2893.00000   72.85070   72.67420  140.21340   44.18840    0.22290
 2893.50000   72.00650   67.29670  135.38350   38.17380    0.18140
 2894.00000   69.51600   61.73290  129.01560   30.98620    0.13490
 2894.50000   65.15390   57.66360  120.83180   28.24440    0.10600
 2895.00000   60.08410   57.16130  111.31470   27.48730    0.10210
 2895.50000   57.68270   57.16420  105.42340   26.46730    0.10170
 2896.00000   56.71560   57.19580  103.09780   24.07840    0.10750
 2896.50000   57.95100   57.70840  103.57350   21.73620    0.11750
 2897.00000   59.21410   58.47860  105.01280   21.35030    0.12840
 2897.50000   60.47730   59.71120  106.45210   22.02340    0.13830
 2898.00000   62.43930   61.11280  108.06650   23.11450    0.14820
 2898.50000   62.70380   62.51440  108.86340   24.03370    0.14880
 2899.00000   62.91380   62.71220  108.98340   24.20610    0.14600
 2899.50000   62.73270   61.74300  108.10470   24.03620    0.14120
 2900.00000   61.25890   59.97330  106.80560   23.63400    0.13430
 2900.50000   59.97310   58.79010  106.24920   23.07070    0.12490
 2901.00000   59.82940   58.86390  106.68660   22.99210    0.12290
 2901.50000   59.81020   60.03490  107.74560   23.50720    0.12560
 2902.00000   59.95050   61.56370  109.31100   24.04850    0.13310
 2902.50000   60.33680   61.91560  111.33950   26.10910    0.13730
 2903.00000   61.21710   62.16300  113.72040   28.43480    0.14040
 2903.50000   62.27910   62.37590  115.85980   31.19280    0.14250
 2904.00000   63.34120   62.51420  117.70100   34.30540    0.14860
 2904.50000   63.84950   62.65250  117.88360   36.30610    0.14730
 2905.00000   63.85240   62.61450  117.92030   37.27660    0.14400
 2905.50000   63.67770   62.44630  117.63830   37.99610    0.14180
 2906.00000   63.40740   61.53590  116.71270   38.09940    0.14090
 2906.50000   62.31830   59.07430  114.85990   37.33360    0.14040
 2907.00000   61.15310   58.66120  113.10830   36.37230    0.13970
 2907.50000   59.98790   58.24800  111.89940   35.42170    0.13950
 2908.00000   59.05930   58.02250  108.24330   34.82520    0.14530
 2908.50000   58.63290   58.58510  107.74230   35.47400    0.15230
 2909.00000   58.66210   58.80680  107.86700   37.15310    0.15730
 2909.50000   59.38820   58.45530  108.64350   38.12620    0.15770
 2910.00000   59.41680   57.97070  108.83610   39.04640    0.15180
 2910.50000   59.18070   57.48620  108.36790   40.28040    0.15130
 2911.00000   58.44890   56.94390  107.21910   41.84260    0.15150
 2911.50000   57.56130   56.34370  105.95380   42.76590    0.15180
 2912.00000   56.30570   55.44920  102.98290   41.28150    0.14140
 2912.50000   55.07580   54.55470  100.80830   38.07090    0.13440
 2913.00000   54.16740   53.66020   98.63380   33.79950    0.13210
 2913.50000   53.30300   51.37490   96.45930   29.70290    0.13330
 2914.00000   53.37680   51.50240   96.02720   27.63870    0.13550
 2914.50000   55.64500   53.67330   99.52900   30.76410    0.13810
 2915.00000   57.13930   56.74780  103.03070   34.89230    0.14570
 2915.50000   58.43500   59.55380  106.18550   39.99960    0.15800
 2916.00000   60.87010   61.25060  110.18710   42.82840    0.16300
 2916.50000   63.67410   62.94740  115.82620   43.28230    0.16030
 2917.00000   63.75670   64.35260  119.27750   43.52710    0.16310
 2917.50000   62.92120   63.66470  118.72040   46.02750    0.16920
 2918.00000   61.05690   63.47570  117.23010   48.55620    0.17370
 2918.50000   61.50010   65.64070  116.66290   49.40160    0.16790
 2919.00000   62.69800   66.98590  119.63930   49.98500    0.16270
 2919.50000   64.75310   68.24430  126.43130   58.69460    0.16660
 2920.00000   69.86270   71.89940  139.89710   69.17970    0.18820
 2920.50000   74.38880   77.62790  149.76790   76.93230    0.20970
 2921.00000   75.16520   80.67940  151.20300   75.35570    0.23130
 2921.50000   75.44750   80.50810  151.29200   71.01650    0.23810
 2922.00000   75.67840   78.96760  150.49300   61.29330    0.22140
 2922.50000   73.60800   75.18040  144.68920   52.87640    0.17700
 2923.00000   71.53140   72.28080  135.05080   51.05740    0.15400
 2923.50000   68.50400   71.15020  129.17840   49.31100    0.13240
