~Version ---------------------------------------------------
VERS.   2.0 : CWLS log ASCII Standard -VERSION 2.0
WRAP.    NO : One line per depth step
DLM . SPACE : Column Data Section Delimiter
~Well ------------------------------------------------------
STRT .F                2684.0 : START DEPTH
STOP .F                3742.0 : STOP DEPTH
STEP .F                   0.5 : STEP
NULL .               -9999.25 : NULL VALUE
COMP .                        : COMPANY
WELL .                        : WELL
FLD  .                        : FIELD
LOC  .                        : LOCATION
PROV .                        : PROVINCE
CNTY .                        : COUNTY
STAT .                        : STATE
CTRY .                        : COUNTRY
SRVC .                        : SERVICE COMPANY
DATE .                        : DATE
UWI  .                        : UNIQUE WELL ID
API  .                        : API NUMBER
SLAT .WGS84 6.966614999035201 : SURFACE LATITUDE
SLON .WGS84 4.790251697944001 : SURFACE LONGITUDE
DATUM.F               2387.56 : DEPTH DATUM ELEV
~Curve Information -----------------------------------------
DEPT   .F     : 1 MEASURED DEPTH
DTCO   .US/F  : DELTA-T COMPRESSIONAL
DTL    .US/F  : DELTA-T LONG SPACING
DTSM   .US/F  : DELTA-T SHEAR
GRD    .GAPI  : GAMMA RAY FROM DENSITY LOG
NPHI_LS.DEC   : NEUTRON POROSITY LIMESTONE
~Params ----------------------------------------------------
~Other -----------------------------------------------------
~ASCII -----------------------------------------------------
# ...
 3404.00000   64.40820   56.32920  114.15080   78.55510    0.05610
 3404.50000   59.86240   52.87280  106.60110   59.65580    0.03680
 3405.00000   57.58810   54.03670  103.71600   51.66210    0.02770
 3405.50000   56.10470   54.16260  101.67020   43.86760    0.02440
 3406.00000   55.43640   53.78530  101.35600   40.57460    0.02130
 3406.50000   54.40830   53.38570  100.45420   37.59250    0.02130
 3407.00000   53.40430   52.90840   98.77610   35.71690    0.02110
 3407.50000   51.57210   52.86660   97.76700   33.75250    0.01980
 3408.00000   51.62270   53.50930   99.99800   33.92960    0.02080
 3408.50000   51.75250   63.76130  102.39120   36.15560    0.02570
 3409.00000   51.83140   70.68240  104.36110   43.99600    0.04630
 3409.50000   53.51140   72.87960  104.47880   52.24800    0.08940
 3410.00000   57.12870   78.33150   96.31040   68.78400    0.28590
 3410.50000   52.23300   80.29700   89.60960   79.73740    0.33890
 3411.00000   55.46670   80.35020   89.76920   86.61590    0.33040
 3411.50000   61.98310   78.70060  103.94710  100.86500    0.28170
 3412.00000   71.45230   68.28040  116.03440  124.37820    0.16040
 3412.50000   69.50610   65.92240  115.38490  122.98790    0.09200
 3413.00000   66.92030   60.73960  114.04890   98.81210    0.08830
 3413.50000   64.51630   60.62470  114.08020   71.63170    0.08830
 3414.00000   63.10510   61.13220  114.26640   53.76860    0.09160
 3414.50000   62.01350   62.12310  113.41430   36.59750    0.08970
 3415.00000   61.03810   62.85690  112.88960   33.64360    0.08440
 3415.50000   59.82430   63.57500  112.27050   32.02610    0.07660
 3416.00000   58.00850   63.59490  110.18600   32.82270    0.06540
 3416.50000   57.15750   62.24680  108.28790   34.58340    0.05140
 3417.00000   57.02480   60.83210  108.51270   37.45270    0.04580
 3417.50000   57.14200   59.40690  109.33160   40.09120    0.04460
 3418.00000   57.13010   57.98860  110.62910   42.46700    0.04450
 3418.50000   56.49870   57.17440  110.82800   42.13550    0.03770
 3419.00000   55.84300   56.36900  110.89620   39.99840    0.03340
 3419.50000   55.00530   55.58400  110.55440   39.52610    0.02620
 3420.00000   53.64420   54.86520  109.02780   41.74190    0.02410
 3420.50000   52.31480   54.72690  106.92550   45.19080    0.02320
 3421.00000   51.81790   54.72690  106.16170   45.76000    0.02250
 3421.50000   51.78720   54.68810  105.86630   46.32910    0.02170
 3422.00000   52.84860   52.76550  105.10790   46.91160    0.01970
 3422.50000   54.14070   52.66100  104.07000   45.80530    0.01920
 3423.00000   54.83720   53.20450  103.37460   43.26990    0.02280
 3423.50000   55.44480   54.08980  103.96140   38.75850    0.03090
 3424.00000   56.37110   55.17290  105.59620   36.70190    0.03760
 3424.50000   56.88510   55.65360  106.63590   39.74670    0.03950
 3425.00000   56.94640   55.58390  107.08450   44.62990    0.03540
 3425.50000   57.08630   54.67690  107.60270   48.12370    0.02790
 3426.00000   57.10960   53.52310  107.70340   51.04110    0.02350
 3426.50000   56.29080   53.07720  106.15360   50.82110    0.02060
 3427.00000   56.25730   52.84640  106.43580   49.54230    0.01770
 3427.50000   55.67260   52.84640  106.45770   46.57790    0.01590
 3428.00000   54.53070   52.93910  104.44320   45.25690    0.01590
 3428.50000   53.96250   54.37870  105.33680   50.20750    0.02090
 3429.00000   54.62210   56.16820  107.62780   54.48220    0.02920
 3429.50000   56.04520   59.88250  110.39820   57.66830    0.04030
 3430.00000   59.27970   63.60070  113.99390   57.02490    0.05250
 3430.50000   62.51630   63.82970  114.79290   56.38970    0.06120
 3431.00000   67.13690   61.59120  125.56290   57.20710    0.05880
 3431.50000   77.13220   59.88400  139.42900   58.06320    0.05000
 3432.00000   83.97120   60.81080  155.14450   55.39920    0.05020
 3432.50000   82.16730   63.80460  150.63710   51.56810    0.06740
 3433.00000   79.36750   66.79840  143.63250   50.21680    0.09560
 3433.50000   75.49140   68.04070  137.17840   49.16880    0.11350
 3434.00000   71.18560   68.31040  129.89510   42.56750    0.09980
 3434.50000   68.65880   68.99390  124.13940   36.32970    0.10800
 3435.00000   68.04070   70.55200  126.38530   33.28320    0.12670
 3435.50000   68.09490   72.96440  130.36430   33.18420    0.16120
 3436.00000   69.52010   73.16650  134.34320   34.24810    0.19520
 3436.50000   70.47580   72.88080  135.73700   34.70520    0.21050
 3437.00000   70.43740   72.07290  136.22890   33.60720    0.21530
 3437.50000   69.89500   71.57270  135.74550   32.48600    0.21980
 3438.00000   69.77080   71.11400  135.30920   31.76190    0.22480
 3438.50000   70.02190   70.79590  135.75630   32.30770    0.22930
 3439.00000   70.16160   70.53180  134.71670   32.85090    0.23070
 3439.50000   69.67740   69.47160  132.10380   33.42200    0.22490
 3440.00000   68.31790   68.22960  129.41870   33.44930    0.20250
 3440.50000   66.93440   67.07420  126.75060   33.38420    0.18670
 3441.00000   66.26520   66.92750  126.15740   33.12910    0.18470
 3441.50000   65.61090   66.78080  125.72980   32.40440    0.20260
 3442.00000   65.54610   66.49780  126.14460   32.36270    0.23690
 3442.50000   67.03400   66.08120  126.86200   33.11330    0.25210
 3443.00000   68.68180   65.34030  127.49080   35.01450    0.22200
 3443.50000   68.27350   63.85590  127.25970   37.37330    0.18340
 3444.00000   66.67810   62.96640  126.49360   40.09230    0.13540
 3444.50000   66.44630   62.80340  125.74850   42.07030    0.12420
 3445.00000   66.47430   62.52450  124.72780   43.10240    0.12500
 3445.50000   64.86060   61.99520  121.10630   44.48620    0.11700
 3446.00000   65.21370   61.03220  114.76100   46.35900    0.08890
 3446.50000   70.63540   57.79620  111.56870   47.99900    0.05350
 3447.00000   75.31030   56.91030  110.18340   49.57920    0.04080
 3447.50000   76.55120   56.44710  109.02940   51.32710    0.03120
 3448.00000   74.37730   56.40360  108.47640   53.52240    0.03090
 3448.50000   72.26140   56.58110  107.52920   53.52880    0.03120
 3449.00000   70.63120   56.87130  106.35100   51.22210    0.03000
 3449.50000   68.72870   57.11060  105.83140   47.98840    0.02790
 3450.00000   67.23990   58.37490  105.78690   45.10860    0.02630
 3450.50000   65.45470   60.44110  106.23220   46.18780    0.02630
 3451.00000   63.76660   62.18040  105.82270   47.37560    0.02640
 3451.50000   61.55210   59.81650  103.95210   46.82230    0.02470
 3452.00000   57.21890   55.99250  100.97530   45.03310    0.02070
 3452.50000   52.49620   55.64820   97.26670   44.10410    0.01790
 3453.00000   50.94770   62.73450   97.48700   45.81490    0.01810
 3453.50000   51.07590   66.89960   99.71390   50.67400    0.02260
 3454.00000   54.24810   70.42500  106.76670   59.16350    0.04690
 3454.50000   59.15380   73.48120  113.80170   69.89350    0.08290
 3455.00000   64.05810   73.24620  115.38380   78.31640    0.11180
 3455.50000   68.93360   72.18800  117.47060   83.34260    0.15290
 3456.00000   73.80910   72.35780  123.50270   82.43840    0.23310
 3456.50000   76.50200   72.42180  127.69900   76.23810    0.26390
 3457.00000   73.07480   70.28340  126.25950   65.29430    0.22060
 3457.50000   66.82310   66.14860  119.65420   54.72940    0.16020
 3458.00000   57.38990   61.42660  109.75430   44.23870    0.06960
 3458.50000   53.88650   57.43340  108.85210   35.53250    0.05970
 3459.00000   53.61880   59.90640  110.27550   33.56340    0.08500
 3459.50000   55.77060   62.37950  111.96300   32.45150    0.11080
 3460.00000   59.60630   64.65330  115.24180   32.38950    0.13660
 3460.50000   61.95090   66.12420  117.98480   32.81220    0.14850
 3461.00000   63.52970   67.23400  120.24300   33.47520    0.15620
 3461.50000   64.58220   66.65280  121.36020   34.95240    0.16350
 3462.00000   64.52190   64.64270  121.04740   36.40440    0.16250
 3462.50000   63.88480   62.72510  120.26850   37.73270    0.14770
 3463.00000   63.41560   60.80760  119.33440   38.16500    0.12240
 3463.50000   63.41120   59.04050  118.27900   38.47280    0.09830
