~Version ---------------------------------------------------
VERS.   2.0 : CWLS log ASCII Standard -VERSION 2.0
WRAP.    NO : One line per depth step
DLM . SPACE : Column Data Section Delimiter
~Well ------------------------------------------------------
STRT .F                2684.0 : START DEPTH
STOP .F                3742.0 : STOP DEPTH
STEP .F                   0.5 : STEP
NULL .               -9999.25 : NULL VALUE
COMP .                        : COMPANY
WELL .                        : WELL
FLD  .                        : FIELD
LOC  .                        : LOCATION
PROV .                        : PROVINCE
CNTY .                        : COUNTY
STAT .                        : STATE
CTRY .                        : COUNTRY
SRVC .                        : SERVICE COMPANY
DATE .                        : DATE
UWI  .                        : UNIQUE WELL ID
API  .                        : API NUMBER
SLAT .WGS84 6.966614999035201 : SURFACE LATITUDE
SLON .WGS84 4.790251697944001 : SURFACE LONGITUDE
DATUM.F               2387.56 : DEPTH DATUM ELEV
~Curve Information -----------------------------------------
DEPT   .F     : 1 MEASURED DEPTH
DTCO   .US/F  : DELTA-T COMPRESSIONAL
DTL    .US/F  : DELTA-T LONG SPACING
DTSM   .US/F  : DELTA-T SHEAR
GRD    .GAPI  : GAMMA RAY FROM DENSITY LOG
NPHI_LS.DEC   : NEUTRON POROSITY LIMESTONE
~Params ----------------------------------------------------
~Other -----------------------------------------------------
~ASCII -----------------------------------------------------
# ...
 3704.00000   60.94270   60.19150  116.68970   -9999.25    0.15270
 3704.50000   61.83950   60.35280  117.09730   -9999.25    0.15500
 3705.00000   63.11950   60.55850  118.31420   -9999.25    0.15120
 3705.50000   63.95510   60.39880  119.00070   -9999.25    0.14420
 3706.00000   62.72780   60.13520  117.88900   -9999.25    0.13410
 3706.50000   61.12230   59.26330  114.31530   -9999.25    0.12120
 3707.00000   60.32520   59.21320  113.28810   -9999.25    0.11870
 3707.50000   60.99900   59.77480  113.34990   -9999.25    0.12610
 3708.00000   61.99720   60.86490  114.62420   -9999.25    0.14080
 3708.50000   62.54660   61.67400  116.11390   -9999.25    0.15700
 3709.00000   62.74960   61.90460  116.70370   -9999.25    0.16010
 3709.50000   62.65880   61.01270  116.36850   -9999.25    0.16460
 3710.00000   61.69430   60.73060  115.59950   -9999.25    0.17450
 3710.50000   61.44180   62.12460  115.88730   -9999.25    0.19190
 3711.00000   62.65090   64.63110  117.67720   -9999.25    0.21810
 3711.50000   64.20530   67.10380  120.02230   -9999.25    0.22600
 3712.00000   66.17900   68.44340  122.82670   -9999.25    0.21330
 3712.50000   67.99580   69.77840  124.86460   -9999.25    0.18940
 3713.00000   68.38670   71.43140  125.86570   -9999.25    0.17410
 3713.50000   69.36890   75.72700  125.97530   -9999.25    0.16060
 3714.00000   71.43930   75.45110  125.83260   -9999.25    0.14910
 3714.50000   73.68650   70.09700  125.09160   -9999.25   -9999.25
 3715.00000   73.29940   64.40260  122.71670   -9999.25   -9999.25
 3715.50000   72.57530   63.23480  116.36940   -9999.25   -9999.25
 3716.00000   71.60400   66.09240  106.54180   -9999.25   -9999.25
 3716.50000   70.74220   71.30590  101.51910   -9999.25   -9999.25
 3717.00000   71.57430   75.64520  101.82450   -9999.25   -9999.25
 3717.50000   73.19080   76.33400  105.63730   -9999.25   -9999.25
 3718.00000   73.58820   72.40850  112.54820   -9999.25   -9999.25
 3718.50000   74.45180   65.94470  121.12580   -9999.25   -9999.25
 3719.00000   76.48100   61.88820  133.33960   -9999.25   -9999.25
 3719.50000   78.51030   61.48230  147.38120   -9999.25   -9999.25
 3720.00000   80.04170   64.35840  157.66260   -9999.25   -9999.25
 3720.50000   78.25990   69.50960  151.21010   -9999.25   -9999.25
 3721.00000   73.10520   69.16920  141.54090   -9999.25   -9999.25
 3721.50000   68.82600   65.39590  132.44440   -9999.25   -9999.25
 3722.00000   66.01030   62.41950  123.27260   -9999.25   -9999.25
 3722.50000   63.88020   63.83610  119.88260   -9999.25   -9999.25
 3723.00000   63.33730   65.55920  119.86150   -9999.25   -9999.25
 3723.50000   64.17050   67.67860  124.04030   -9999.25   -9999.25
 3724.00000   65.81260   70.31880  128.83220   -9999.25   -9999.25
 3724.50000   67.42550   72.26330  133.28740   -9999.25   -9999.25
 3725.00000   69.00920   73.18500  136.59650   -9999.25   -9999.25
 3725.50000   70.48780   74.23480  140.10870   -9999.25   -9999.25
 3726.00000   71.41490   75.71220  141.70360   -9999.25   -9999.25
 3726.50000   72.07760   75.98720  141.66800   -9999.25   -9999.25
 3727.00000   72.49320   75.67440  140.98680   -9999.25   -9999.25
 3727.50000   72.48480   74.33930  139.94430   -9999.25   -9999.25
 3728.00000   71.57160   70.41430  138.37270   -9999.25   -9999.25
 3728.50000   70.20710   67.00410  132.54740   -9999.25   -9999.25
 3729.00000   67.91590   63.83450  126.96700   -9999.25   -9999.25
 3729.50000   65.51760   61.25720  118.83150   -9999.25   -9999.25
 3730.00000   63.80270   62.81600  113.81410   -9999.25   -9999.25
 3730.50000   62.98210   66.73580  112.89030   -9999.25   -9999.25
 3731.00000   63.82370   70.07780  116.56320   -9999.25   -9999.25
 3731.50000   67.12980   74.26410  122.25680   -9999.25   -9999.25
 3732.00000   70.98680   77.21480  126.36930   -9999.25   -9999.25
 3732.50000   73.97020   75.91370  124.44250   -9999.25   -9999.25
 3733.00000   74.25300   74.02260  122.04870   -9999.25   -9999.25
 3733.50000   72.38200   70.09610  118.84320   -9999.25   -9999.25
 3734.00000   68.57110   66.40790  118.28730   -9999.25   -9999.25
 3734.50000   64.44050   63.50550  117.68730   -9999.25   -9999.25
 3735.00000   63.29160   62.17760  116.62180   -9999.25   -9999.25
 3735.50000   62.15070   61.08280  115.13760   -9999.25   -9999.25
 3736.00000   61.00980   60.33260  112.37300   -9999.25   -9999.25
 3736.50000   59.93890   59.62150  110.88290   -9999.25   -9999.25
 3737.00000   59.43360   58.91150  110.52410   -9999.25   -9999.25
 3737.50000   59.38770   58.20150  110.22500   -9999.25   -9999.25
 3738.00000   59.41150   57.87400  110.21580   -9999.25   -9999.25
 3738.50000   59.43670   57.56430  110.22350   -9999.25   -9999.25
 3739.00000   59.46190   57.43220  110.23130   -9999.25   -9999.25
 3739.50000   59.48710   58.95160  110.23910   -9999.25   -9999.25
 3740.00000   59.51220   63.35620  110.24690   -9999.25   -9999.25
 3740.50000   59.53740   65.47700  110.25470   -9999.25   -9999.25
 3741.00000   59.55510   64.90170  110.26250   -9999.25   -9999.25
 3741.50000   59.52950   63.96300  110.27030   -9999.25   -9999.25
 3742.00000   59.50400   63.83180  110.27810   -9999.25   -9999.25
