~Version ---------------------------------------------------
VERS.   2.0 : CWLS log ASCII Standard -VERSION 2.0
WRAP.    NO : One line per depth step
DLM . SPACE : Column Data Section Delimiter
~Well ------------------------------------------------------
STRT .F                2684.0 : START DEPTH
STOP .F                3742.0 : STOP DEPTH
STEP .F                   0.5 : STEP
NULL .               -9999.25 : NULL VALUE
COMP .                        : COMPANY
WELL .                        : WELL
FLD  .                        : FIELD
LOC  .                        : LOCATION
PROV .                        : PROVINCE
CNTY .                        : COUNTY
STAT .                        : STATE
CTRY .                        : COUNTRY
SRVC .                        : SERVICE COMPANY
DATE .                        : DATE
UWI  .                        : UNIQUE WELL ID
API  .                        : API NUMBER
SLAT .WGS84 6.966614999035201 : SURFACE LATITUDE
SLON .WGS84 4.790251697944001 : SURFACE LONGITUDE
DATUM.F               2387.56 : DEPTH DATUM ELEV
~Curve Information -----------------------------------------
DEPT   .F     : 1 MEASURED DEPTH
DTCO   .US/F  : DELTA-T COMPRESSIONAL
DTL    .US/F  : DELTA-T LONG SPACING
DTSM   .US/F  : DELTA-T SHEAR
GRD    .GAPI  : GAMMA RAY FROM DENSITY LOG
NPHI_LS.DEC   : NEUTRON POROSITY LIMESTONE
~Params ----------------------------------------------------
~Other -----------------------------------------------------
~ASCII -----------------------------------------------------
# ...
 3344.00000   62.04140   61.67140  110.62490   45.40720    0.07630
 3344.50000   61.96540   61.87440  111.12700   46.79600    0.07450
 3345.00000   61.88940   62.11670  111.62910   48.06680    0.07350
 3345.50000   61.89050   62.35910  112.05740   48.53100    0.07260
 3346.00000   61.89420   62.59890  112.35520   47.79490    0.07170
 3346.50000   61.87690   62.74940  112.33890   47.27200    0.07110
 3347.00000   61.79340   62.70160  112.09240   46.69830    0.07080
 3347.50000   61.70980   62.60320  112.11290   46.24930    0.07050
 3348.00000   61.62630   62.57660  112.41640   46.80510    0.07080
 3348.50000   61.59160   62.70700  113.23310   47.95800    0.07190
 3349.00000   61.59160   63.83530  114.12920   49.62880    0.07290
 3349.50000   61.70850   64.87970  114.83070   50.85410    0.07770
 3350.00000   62.24590   65.02040  115.92020   50.61890    0.08340
 3350.50000   63.08770   63.84860  117.15980   47.95070    0.08810
 3351.00000   63.28400   63.57800  118.39950   45.88440    0.08940
 3351.50000   63.28110   64.69940  119.45630   44.46360    0.09400
 3352.00000   63.79230   65.82080  120.02240   47.97090    0.10250
 3352.50000   64.58560   66.57400  119.41600   51.74150    0.10200
 3353.00000   64.89600   65.04350  118.20030   50.47210    0.09270
 3353.50000   64.89480   63.96630  116.27440   48.08300    0.07580
 3354.00000   64.95020   61.84880  112.04970   43.56610    0.05580
 3354.50000   65.22240   58.69990  110.18820   40.09160    0.04430
 3355.00000   66.04700   58.24440  110.13620   40.90130    0.04850
 3355.50000   65.75380   59.02280  112.68990   45.01430    0.05690
 3356.00000   64.09520   62.50670  115.84680   54.67500    0.07500
 3356.50000   63.02130   66.99550  118.50070   61.67930    0.09800
 3357.00000   63.70260   67.54160  119.71210   64.87480    0.10160
 3357.50000   63.79600   65.94330  119.13620   59.64320    0.09980
 3358.00000   63.28620   62.99270  116.14480   48.48040    0.09640
 3358.50000   62.80600   61.07610  113.94730   38.47930    0.09860
 3359.00000   63.45860   61.32350  113.90380   33.24890    0.10780
 3359.50000   63.87350   61.92500  114.25160   31.53030    0.10500
 3360.00000   63.58820   62.01950  114.27840   32.48690    0.09600
 3360.50000   62.73400   60.72930  113.41880   34.11920    0.08360
 3361.00000   61.87980   59.33950  112.03500   35.66050    0.06810
 3361.50000   60.40340   57.95320  110.56460   36.62150    0.05260
 3362.00000   59.48930   56.56700  108.96040   37.02630    0.03600
 3362.50000   58.69940   55.23480  107.53030   37.36660    0.02840
 3363.00000   57.74530   54.67390  106.73240   37.22810    0.02730
 3363.50000   57.13230   54.35380  106.24600   37.26780    0.02760
 3364.00000   57.17420   55.94410  108.75290   40.08760    0.03360
 3364.50000   58.32000   59.36520  112.04180   46.37940    0.04490
 3365.00000   60.23060   62.34020  116.14840   52.46840    0.06300
 3365.50000   62.14120   65.39750  119.90880   60.64250    0.07890
 3366.00000   64.05180   67.19520  121.50990   66.22700    0.09140
 3366.50000   65.47740   67.79080  123.11110   69.61570    0.09680
 3367.00000   66.78930   67.38350  123.70770   68.82120    0.09850
 3367.50000   67.02950   66.53630  123.57540   67.71390    0.09780
 3368.00000   66.24270   65.58490  122.27500   64.87390    0.09180
 3368.50000   65.05990   63.83400  120.54000   58.75110    0.08180
 3369.00000   64.25040   62.06720  118.14070   52.91470    0.06310
 3369.50000   63.72050   59.98270  115.87450   48.75320    0.04510
 3370.00000   62.65140   58.06210  115.14480   50.24220    0.04370
 3370.50000   61.30940   58.48960  114.31970   54.46900    0.04830
 3371.00000   59.96750   60.11770  113.21080   57.66090    0.05140
 3371.50000   59.12970   60.36050  112.30840   58.06010    0.05180
 3372.00000   58.87910   60.17130  112.06390   58.05500    0.04060
 3372.50000   58.22350   59.14790  112.37380   59.17060    0.03720
 3373.00000   57.49450   57.75450  113.44350   64.60080    0.04110
 3373.50000   57.71960   59.81260  114.99870   71.51100    0.05570
 3374.00000   60.66100   64.51020  119.13220   82.13410    0.07670
 3374.50000   65.65370   69.07400  127.54610   87.51710    0.10920
 3375.00000   70.64640   70.31810  128.27350   88.28210    0.12130
 3375.50000   72.57890   70.90070  124.91550   86.13360    0.11500
 3376.00000   70.79010   62.86570  118.14670   79.43650    0.09350
 3376.50000   67.30600   54.74690  116.22890   75.51410    0.07090
 3377.00000   64.24990   48.24550  117.15840   75.55450    0.06810
 3377.50000   61.94070   51.57030  116.28760   76.73140    0.07450
 3378.00000   60.00030   56.65550  111.91450   76.31720    0.07820
 3378.50000   59.37360   59.87510  107.61570   69.70790    0.06100
 3379.00000   58.74690   62.87020  106.49150   62.27340    0.04780
 3379.50000   58.39190   66.40310  106.46900   55.19850    0.05150
 3380.00000   58.95350   73.86840  106.33990   58.88170    0.11760
 3380.50000   59.74640   72.81400  104.85350   66.17720    0.21050
 3381.00000   59.94440   73.15810  104.31470   72.67200    0.26870
 3381.50000   61.45860   77.88680  109.05030   76.40480    0.31460
 3382.00000   68.44110   85.27760  119.94840   78.51330    0.31270
 3382.50000   75.01100  100.17050  129.67810   77.77410    0.23550
 3383.00000   78.42320  102.55750  130.04420   74.42050    0.20220
 3383.50000   77.19140   99.37870  128.46630   70.22870    0.17620
 3384.00000   73.15600   91.25210  123.89530   62.64870    0.15960
 3384.50000   66.90210   83.56970  117.47240   58.52920    0.14860
 3385.00000   63.70370   75.93250  112.32290   56.71210    0.14880
 3385.50000   62.87870   74.22450  111.78110   56.94560    0.15290
 3386.00000   65.07680   74.95650  112.36360   61.07580    0.19310
 3386.50000   69.03620   73.08590  116.09010   69.64300    0.25330
 3387.00000   75.46180   72.57500  122.29750   76.53700    0.31400
 3387.50000   82.12170   73.09070  129.77650   78.61780    0.35530
 3388.00000   85.07300   75.55110  139.35580   71.94080    0.31370
 3388.50000   81.43950   77.34810  139.19470   58.92170    0.23790
 3389.00000   76.37920   78.19640  133.73100   44.26770    0.17960
 3389.50000   71.31880   77.92180  128.16960   35.19210    0.16060
 3390.00000   66.62630   74.59110  122.34190   26.97310    0.14860
 3390.50000   64.12070   71.26040  120.52990   27.07540    0.14130
 3391.00000   63.41280   67.25870  118.37840   28.32960    0.12240
 3391.50000   61.28300   62.75160  115.12680   29.57700    0.09370
 3392.00000   58.96760   58.58270  108.50410   28.03030    0.06250
 3392.50000   57.85420   55.26160  108.37090   25.51170    0.05230
 3393.00000   58.10410   55.09720  109.07120   23.80940    0.04860
 3393.50000   58.52660   55.01820  109.65400   23.44740    0.04650
 3394.00000   57.99600   54.44960  109.24590   24.70910    0.04510
 3394.50000   56.81270   54.95600  106.33930   26.75160    0.04400
 3395.00000   -9999.25   55.50790  104.66840   27.97450    0.04380
 3395.50000   -9999.25   56.20570  104.72890   27.70970    0.04650
 3396.00000   -9999.25   56.92650  107.57370   26.94370    0.05490
 3396.50000   -9999.25   57.64720  111.27130   26.54150    0.06850
 3397.00000   -9999.25   58.29360  113.44680   27.94540    0.07280
 3397.50000   -9999.25   58.34100  114.89950   30.58490    0.06580
 3398.00000   -9999.25   56.50520  112.83680   33.99350    0.04660
 3398.50000   -9999.25   54.44900  110.33740   34.29480    0.02780
 3399.00000   -9999.25   54.05570  110.75720   33.97180    0.02280
 3399.50000   -9999.25   54.08570  110.62120   33.81490    0.02170
 3400.00000   53.71950   54.42200  105.41860   36.05980    0.02400
 3400.50000   51.45360   55.09640  103.66350   39.65470    0.02510
 3401.00000   52.01030   55.77510  106.50620   42.52300    0.02540
 3401.50000   53.83100   58.22530  111.35930   48.22150    0.02780
 3402.00000   56.57620   60.67550  116.88780   60.60570    0.04180
 3402.50000   60.54110   63.62370  120.40580   74.26220    0.07950
 3403.00000   64.31500   65.61170  120.33630   81.91530    0.10140
 3403.50000   65.44490   61.99110  119.19200   84.99690    0.09060
