~Version ---------------------------------------------------
VERS.   2.0 : CWLS log ASCII Standard -VERSION 2.0
WRAP.    NO : One line per depth step
DLM . SPACE : Column Data Section Delimiter
~Well ------------------------------------------------------
STRT .F                2684.0 : START DEPTH
STOP .F                3742.0 : STOP DEPTH
STEP .F                   0.5 : STEP
NULL .               -9999.25 : NULL VALUE
COMP .                        : COMPANY
WELL .                        : WELL
FLD  .                        : FIELD
LOC  .                        : LOCATION
PROV .                        : PROVINCE
CNTY .                        : COUNTY
STAT .                        : STATE
CTRY .                        : COUNTRY
SRVC .                        : SERVICE COMPANY
DATE .                        : DATE
UWI  .                        : UNIQUE WELL ID
API  .                        : API NUMBER
SLAT .WGS84 6.966614999035201 : SURFACE LATITUDE
SLON .WGS84 4.790251697944001 : SURFACE LONGITUDE
DATUM.F               2387.56 : DEPTH DATUM ELEV
~Curve Information -----------------------------------------
DEPT   .F     : 1 MEASURED DEPTH
DTCO   .US/F  : DELTA-T COMPRESSIONAL
DTL    .US/F  : DELTA-T LONG SPACING
DTSM   .US/F  : DELTA-T SHEAR
GRD    .GAPI  : GAMMA RAY FROM DENSITY LOG
NPHI_LS.DEC   : NEUTRON POROSITY LIMESTONE
~Params ----------------------------------------------------
~Other -----------------------------------------------------
~ASCII -----------------------------------------------------
# ...
 3524.00000   63.13750   61.67250  116.54950   29.27710    0.12630
 3524.50000   63.25700   60.64000  115.77450   29.74910    0.10880
 3525.00000   63.28650   60.19570  113.89600   30.94010    0.10220
 3525.50000   63.28230   59.76600  112.63990   32.86730    0.09690
 3526.00000   63.25020   59.35120  111.67490   36.10130    0.09230
 3526.50000   63.16540   58.50370  110.97620   37.77180    0.08680
 3527.00000   63.14720   57.43490  110.56720   37.10510    0.07390
 3527.50000   63.10760   56.77000  110.31450   35.99250    0.06960
 3528.00000   63.06880   56.18200  110.87980   33.53240    0.06340
 3528.50000   63.03800   56.44590  112.19170   31.01200    0.05960
 3529.00000   63.02270   57.23570  113.51970   29.36360    0.06940
 3529.50000   63.00370   58.78060  113.31310   29.53210    0.08020
 3530.00000   62.94130   60.07190  112.72990   33.53330    0.09530
 3530.50000   62.89950   60.91440  112.23970   36.88300    0.11150
 3531.00000   62.85040   61.03280  112.33890   39.34670    0.11450
 3531.50000   62.80310   60.86080  113.19120   39.74460    0.10580
 3532.00000   62.80270   60.85550  115.06330   39.15600    0.09540
 3532.50000   62.72310   64.98390  115.17150   38.96170    0.08930
 3533.00000   62.59740   70.26340  114.71580   41.69170    0.09680
 3533.50000   63.09400   70.95850  114.76090   46.32530    0.11310
 3534.00000   65.57640   65.67640  115.69110   51.58010    0.10500
 3534.50000   67.32190   60.79120  116.89130   51.11060    0.08180
 3535.00000   68.42720   58.48310  116.82380   48.67800    0.06390
 3535.50000   67.87960   57.52110  114.67070   45.86990    0.05160
 3536.00000   66.11010   59.96800  108.73840   43.07320    0.03740
 3536.50000   64.62690   63.41750  104.94470   40.22820    0.03460
 3537.00000   64.61830   64.79470  103.42650   39.72880    0.03410
 3537.50000   65.35260   66.26960  103.12440   40.44910    0.05130
 3538.00000   71.69730   67.81210  122.71140   51.97000    0.11370
 3538.50000   86.54290   69.64040  140.65870   62.08360    0.21180
 3539.00000   77.55810   72.21890  143.25670   68.52020    0.29050
 3539.50000   62.54490   75.53530  115.32970   66.45720    0.28680
 3540.00000   47.53170   78.37150   85.53470   58.69590    0.17910
 3540.50000   47.63410   78.78860   79.75650   43.64520    0.10520
 3541.00000   49.83030   78.39050   90.77630   39.37670    0.05770
 3541.50000   52.02650   75.38450   97.18670   36.08110    0.05710
 3542.00000   54.22270   70.66920  106.81720   34.17240    0.07110
 3542.50000   56.41900   71.12000  113.77950   32.01090    0.09700
 3543.00000   58.61520   72.37480  116.87770   29.99890    0.12340
 3543.50000   60.58410   73.62970  118.53490   29.31290    0.14260
 3544.00000   62.31910   72.22540  119.05420   29.54820    0.15970
 3544.50000   62.20580   68.32640  119.05420   31.82950    0.15610
 3545.00000   61.22290   64.07490  118.55240   31.51140    0.14500
 3545.50000   60.24010   61.74210  117.82980   30.81370    0.13420
 3546.00000   59.23890   61.17890  116.05170   31.34080    0.10930
 3546.50000   58.22230   58.51840  114.59320   32.78410    0.09550
 3547.00000   58.09150   58.35070  113.31630   32.78650    0.09330
 3547.50000   58.18790   58.55200  112.86120   32.54230    0.09340
 3548.00000   58.80020   59.10830  113.41720   32.27830    0.10610
 3548.50000   59.63830   59.66470  114.39760   31.82790    0.11140
 3549.00000   60.47640   59.79240  115.37260   31.94890    0.11460
 3549.50000   61.31450   59.81340  116.33760   32.47820    0.11960
 3550.00000   61.58300   60.00620  118.32400   32.54820    0.12480
 3550.50000   61.24490   60.52050  119.68400   32.43780    0.13070
 3551.00000   61.10190   61.45540  120.87660   31.93290    0.13840
 3551.50000   61.47500   62.74400  121.37760   31.35940    0.14700
 3552.00000   61.85800   63.99360  120.87020   31.42720    0.15570
 3552.50000   62.63530   64.24520  120.13040   31.82300    0.16560
 3553.00000   63.58910   64.27130  120.73260   32.86640    0.17580
 3553.50000   64.27210   64.58820  121.59440   33.63050    0.18410
 3554.00000   64.89110   65.30150  122.09020   34.28810    0.18720
 3554.50000   64.89110   65.42450  122.17320   34.30870    0.17670
 3555.00000   64.75690   64.89250  121.82000   34.35840    0.16390
 3555.50000   64.12670   64.36050  120.72660   35.12540    0.15200
 3556.00000   63.74310   64.16290  120.58730   37.56280    0.14960
 3556.50000   63.99770   64.34640  120.79390   40.19420    0.14730
 3557.00000   64.50240   64.53900  120.87260   42.01600    0.14380
 3557.50000   64.45000   64.08790  119.76650   42.95000    0.13960
 3558.00000   63.57660   60.51880  117.81320   44.33680    0.12400
 3558.50000   61.60130   58.61690  114.83350   46.31480    0.09880
 3559.00000   59.83090   57.49100  112.05690   47.81410    0.07710
 3559.50000   58.70270   57.09160  110.69390   49.13320    0.06150
 3560.00000   58.83810   59.10560  112.53350   50.81360    0.05280
 3560.50000   60.49370   61.99390  116.48650   53.51040    0.05550
 3561.00000   62.23200   64.69050  119.51950   56.61880    0.06880
 3561.50000   63.29350   66.86770  123.66570   60.19030    0.08130
 3562.00000   66.10730   67.26040  126.91980   62.65740    0.09370
 3562.50000   67.05760   66.62140  126.56500   64.61080    0.09630
 3563.00000   67.11420   65.15380  124.24120   65.51180    0.09390
 3563.50000   67.11130   63.06160  121.11580   65.38220    0.08080
 3564.00000   67.18530   60.56250  117.60060   60.43840    0.06920
 3564.50000   67.98570   59.08800  114.44400   47.59130    0.07180
 3565.00000   69.00870   58.91970  112.93970   39.63460    0.08560
 3565.50000   69.97000   59.13030  111.81170   34.27140    0.09800
 3566.00000   72.63670   59.30960  110.97330   31.37290    0.10020
 3566.50000   75.72430   57.13130  110.57750   32.23720    0.07700
 3567.00000   75.61990   56.36710  110.22130   34.74400    0.05940
 3567.50000   74.53200   55.65330  110.15670   39.36970    0.04930
 3568.00000   73.40160   55.74790  110.79750   44.73520    0.05010
 3568.50000   72.33580   57.00280  111.48850   51.76610    0.06390
 3569.00000   71.32430   57.58160  111.95560   56.09380    0.07270
 3569.50000   70.35010   57.59220  112.13300   58.28130    0.07520
 3570.00000   68.52190   55.63470  112.09430   55.81750    0.09570
 3570.50000   65.89790   54.32040  110.68160   50.81050    0.11610
 3571.00000   63.27650   53.40990  108.25680   46.29620    0.13330
 3571.50000   60.89270   53.11880  106.42700   43.13020    0.14100
 3572.00000   58.36380   52.90070  104.79170   38.79350    0.15540
 3572.50000   55.76360   52.68250  103.73360   37.87200    0.16080
 3573.00000   54.44760   52.50440  103.46510   36.12790    0.16030
 3573.50000   53.86600   52.58270  103.03070   34.52720    0.15340
 3574.00000   53.82710   52.84590  101.74720   34.68520    0.14790
 3574.50000   54.16490   53.75780  100.98860   36.41000    0.14880
 3575.00000   54.47290   55.10040  102.43900   38.38470    0.16030
 3575.50000   54.37120   56.44300  104.07460   39.46730    0.16940
 3576.00000   53.99210   56.26710  105.76260   40.82440    0.17800
 3576.50000   53.96930   55.59620  109.79850   42.82940    0.18030
 3577.00000   56.90310   58.75850  114.66390   44.88370    0.17540
 3577.50000   60.09410   61.92090  119.36300   49.40950    0.16980
 3578.00000   63.28500   65.75310  126.53690   54.52070    0.17740
 3578.50000   66.71090   70.42090  135.04360   54.51080    0.20400
 3579.00000   69.40960   71.74620  139.81730   53.56150    0.21350
 3579.50000   70.96900   74.91670  144.62880   52.89040    0.22210
 3580.00000   73.59960   81.15620  149.45720   53.86140    0.22340
 3580.50000   76.60790   84.84960  154.06480   57.46970    0.22400
 3581.00000   78.75500   81.64540  155.96050   61.47510    0.22380
 3581.50000   79.94970   79.36780  156.57190   67.00500    0.22050
 3582.00000   81.03940   78.97570  156.59850   72.16340    0.20740
 3582.50000   80.85720   79.72770  155.37910   76.49710    0.18740
 3583.00000   79.99070   78.82720  153.33740   79.95410    0.18050
 3583.50000   78.73990   77.47840  150.56430   84.63180    0.18040
