~Version ---------------------------------------------------
VERS.   2.0 : CWLS log ASCII Standard -VERSION 2.0
WRAP.    NO : One line per depth step
DLM . SPACE : Column Data Section Delimiter
~Well ------------------------------------------------------
STRT .F                  186.0 : START DEPTH
STOP .F                11503.0 : STOP DEPTH
STEP .F                    0.5 : STEP
NULL .                -9999.25 : NULL VALUE
COMP .                         : COMPANY
WELL .                         : WELL
FLD  .                         : FIELD
LOC  .                         : LOCATION
PROV .                         : PROVINCE
CNTY .                         : COUNTY
STAT .                         : STATE
CTRY .                         : COUNTRY
SRVC .                         : SERVICE COMPANY
DATE .                         : DATE
UWI  .                         : UNIQUE WELL ID
API  .                         : API NUMBER
SLAT .WGS84 0.7799653344071054 : SURFACE LATITUDE
SLON .WGS84  6.896152414964007 : SURFACE LONGITUDE
DATUM.F                2947.61 : DEPTH DATUM ELEV
~Curve Information -----------------------------------------
DEPT   .F     : 1 MEASURED DEPTH
DTCO   .US/F  : DELTA-T COMPRESSIONAL
DTSM   .US/F  : DELTA-T SHEAR
HSGRD  .GAPI  : HNGS STANDARD GAMMA RAY FROM DENSITY LOG
TNPH_LS.DEC   : THERMAL NEUTRON POROSITY [LIMESTONE]
PEFZ   .B/E   : HRDD STANDARD RESOLUTION FORMATION PHOTOELECTRIC FACTOR
DPHZ_LS.DEC   : HGRD STANDARD RESOLUTION DENSITY POROSITY
HDRA   .G/C3  : HRDD SPINE AND RIBS DENSITY CORRECTION
HCALD  .IN    : HRCC CALIPER CALIBRATED FROM DENSITY LOG
RHOZ   .G/C3  : HRDD STANDARD RESOLUTION FORMATION DENSITY
RXOZ   .OHMM  : INVADED FORMATION RESISTIVITY FILTERED AT 18 INCHES
RLA4   .OHMM  : APPARENT RESISTIVITY FROM COMPUTED FOCUSING MODE 4
RLA5   .OHMM  : APPARENT RESISTIVITY FROM COMPUTED FOCUSING MODE 5
~Params ----------------------------------------------------
~Other -----------------------------------------------------
~ASCII -----------------------------------------------------
# ...
 8726.00000   -9999.25   -9999.25  127.30270    0.15350    3.39140    0.06490    0.00930    8.82800    2.61010   11.08600   14.66180   15.30280
 8726.50000   -9999.25   -9999.25  126.53910    0.15410    3.34330    0.05910    0.00900    8.84970    2.61920   10.85980   14.11180   14.93300
 8727.00000   -9999.25   -9999.25  122.83240    0.14830    3.29520    0.05570    0.01430    8.83120    2.62840   10.68630   14.37260   15.16170
 8727.50000   -9999.25   -9999.25  115.92070    0.13870    3.24710    0.04840    0.01660    8.80460    2.63970   11.33880   17.26810   17.91780
 8728.00000   -9999.25   -9999.25  110.37420    0.12810    3.24770    0.03890    0.01730    8.77800    2.65160   13.18970   20.88800   21.77900
 8728.50000   -9999.25   -9999.25  107.07500    0.12880    3.44460    0.03580    0.01800    8.75140    2.65150   13.73720   21.63250   22.29790
 8729.00000   -9999.25   -9999.25  107.08560    0.13660    3.99600    0.05140    0.01870    8.72820    2.63280   12.89240   18.14630   19.23810
 8729.50000   -9999.25   -9999.25  108.98500    0.14440    4.68770    0.07230    0.02650    8.73520    2.60310   10.00090   16.27320   16.70720
 8730.00000   -9999.25   -9999.25  111.23300    0.15030    5.40880    0.08770    0.03520    8.76810    2.57420    3.89860   15.03230   15.79730
 8730.50000   -9999.25   -9999.25  113.32890    0.15570    5.68880    0.08290    0.04390    8.83060    2.57420    2.30940   13.87290   14.69420
 8731.00000   -9999.25   -9999.25  116.81000    0.15870    5.47030    0.05920    0.05260    8.89310    2.64900    1.80070   12.81790   13.49000
 8731.50000   -9999.25   -9999.25  119.95360    0.15880    4.50560    0.03960    0.05130    8.95560    2.65270    2.64420   12.57540   12.82790
 8732.00000   -9999.25   -9999.25  122.22080    0.15880    3.82970    0.03220    0.04120    8.97420    2.65640    4.54280   13.59220   14.45100
 8732.50000   -9999.25   -9999.25  122.68070    0.15930    3.57570    0.03290    0.03160    8.92610    2.66040   10.02480   14.60290   14.95120
 8733.00000   -9999.25   -9999.25  124.30100    0.16070    3.43020    0.03080    0.03160    8.85940    2.66370    9.37730   14.09320   14.53290
 8733.50000   -9999.25   -9999.25  127.61090    0.15930    3.32370    0.03260    0.03140    8.82180    2.65300    9.00270   13.53330   14.05370
 8734.00000   -9999.25   -9999.25  127.56320    0.15680    3.39530    0.04730    0.02410    8.82050    2.62300    8.82060   12.92830   13.50760
 8734.50000   -9999.25   -9999.25  126.76020    0.15420    3.57000    0.06230    0.01690    8.81920    2.60830    8.18140   13.37880   13.89340
 8735.00000   -9999.25   -9999.25  126.28320    0.15240    3.76880    0.06250    0.02360    8.84730    2.60760    4.43580   13.76320   13.99800
 8735.50000   -9999.25   -9999.25  124.80320    0.14970    3.82350    0.05000    0.03100    8.87950    2.64310    3.41760   13.29520   13.68480
 8736.00000   -9999.25   -9999.25  119.62560    0.14000    3.65370    0.03860    0.03680    8.90060    2.65380    3.60100   13.64940   15.83940
 8736.50000   -9999.25   -9999.25  113.56500    0.12630    3.50260    0.03640    0.04270    8.88990    2.65760    7.13020   20.21060   22.42960
 8737.00000   -9999.25   -9999.25  107.49500    0.11420    3.41730    0.04320    0.03940    8.86630    2.64040   13.31280   24.80870   25.86220
 8737.50000   -9999.25   -9999.25  102.45330    0.10570    3.46580    0.04550    0.03540    8.84270    2.63840   13.27530   26.52520   27.52370
 8738.00000   -9999.25   -9999.25   97.41180    0.09720    3.54290    0.04170    0.03780    8.81920    2.64710   13.60930   23.40290   28.21990
 8738.50000   -9999.25   -9999.25   90.86240    0.08870    3.78830    0.03580    0.04630    8.81050    2.65430   10.95750   29.73780   32.17980
 8739.00000   -9999.25   -9999.25   89.10980    0.08210    3.88940    0.03410    0.05240    8.77950    2.65490    8.31060   30.87000   33.74100
 8739.50000   -9999.25   -9999.25   88.13120    0.07860    3.71770    0.03490    0.05800    8.75820    2.65250    7.95700   24.30620   28.35470
 8740.00000   -9999.25   -9999.25   87.90650    0.07730    3.54610    0.04800    0.05840    8.74820    2.63960   10.70610   27.58100   31.43580
 8740.50000   -9999.25   -9999.25   87.87750    0.07750    3.40540    0.05260    0.04610    8.75620    2.62670   11.04540   27.00680   30.91760
 8741.00000   -9999.25   -9999.25   88.93880    0.08220    3.33060    0.05460    0.03700    8.76350    2.62810    9.55410   22.98770   25.06690
 8741.50000   -9999.25   -9999.25   90.74040    0.08800    3.29790    0.04940    0.03320    8.76410    2.63880    9.94850   29.24800   30.46240
 8742.00000   -9999.25   -9999.25   93.45530    0.09390    3.23360    0.04750    0.02600    8.75120    2.63020   17.71420   25.82120   27.63530
 8742.50000   -9999.25   -9999.25   95.94680    0.09650    3.05290    0.05330    0.01810    8.72540    2.61800   17.11630   24.05630   24.34200
 8743.00000   -9999.25   -9999.25   97.33950    0.09790    3.00940    0.06420    0.01330    8.71480    2.61140   15.86710   23.15920   23.96050
 8743.50000   -9999.25   -9999.25   97.58290    0.09930    2.96590    0.05650    0.01310    8.70190    2.61970   16.43480   22.17790   24.37900
 8744.00000   -9999.25   -9999.25   97.24940    0.10070    2.92200    0.05140    0.01280    8.68900    2.62940   17.33660   24.74290   25.85490
 8744.50000   -9999.25   -9999.25   96.75370    0.10220    2.87820    0.05330    0.01400    8.68230    2.62420   17.49520   24.76900   25.25810
 8745.00000   -9999.25   -9999.25   97.00080    0.10690    2.87160    0.05580    0.01380    8.65290    2.61910   15.64540   23.01480   23.86580
 8745.50000   -9999.25   -9999.25   95.91930    0.11160    2.86810    0.05370    0.01410    8.64530    2.61910   13.74590   22.18480   23.85430
 8746.00000   -9999.25   -9999.25   92.11230    0.10900    2.86420    0.03630    0.01550    8.64890    2.66270   15.54460   26.90280   30.49720
 8746.50000   -9999.25   -9999.25   87.73860    0.09980    2.82530    0.03080    0.01690    8.64770    2.66190   16.73870   25.25180   29.79180
 8747.00000   -9999.25   -9999.25   82.67360    0.08900    2.73050    0.03340    0.01760    8.63760    2.64970   22.19140   32.77630   41.61230
 8747.50000   -9999.25   -9999.25   73.88250    0.07830    2.59520    0.04420    0.01530    8.62740    2.63640   25.41610   50.15330   57.32060
 8748.00000   -9999.25   -9999.25   67.74330    0.06830    2.52420    0.04880    0.01300    8.61860    2.62940   39.99550   57.22980   63.66170
 8748.50000   -9999.25   -9999.25   64.48680    0.06850    2.46340    0.04810    0.01070    8.61770    2.62590   25.16250   43.64500   50.33210
 8749.00000   -9999.25   -9999.25   67.02390    0.07130    2.52150    0.05250    0.00840    8.62470    2.61150   25.42950   42.87370   45.92470
 8749.50000   -9999.25   -9999.25   67.45040    0.07650    2.57540    0.06330    0.00620    8.63440    2.59170   20.30650   34.79940   36.97180
 8750.00000   -9999.25   -9999.25   64.70160    0.07860    2.54630    0.08670    0.00580    8.63520    2.56880   21.55950   37.69550   41.27340
 8750.50000   -9999.25   -9999.25   62.29210    0.07650    2.37910    0.09240    0.00590    8.64240    2.55880   12.96620   32.18230   38.09200
 8751.00000   -9999.25   -9999.25   62.56440    0.07450    2.27440    0.09460    0.00600    8.64960    2.55270    9.65710   24.32740   25.33540
 8751.50000   -9999.25   -9999.25   63.33970    0.07600    2.32840    0.09670    0.00610    8.65670    2.55240    8.08610   24.22800   24.93920
 8752.00000   -9999.25   -9999.25   61.28690    0.07610    2.36710    0.09610    0.00620    8.66390    2.55220    8.81290   25.13800   25.99180
 8752.50000   -9999.25   -9999.25   58.43990    0.07250    2.32260    0.09710    0.00610    8.67110    2.55190    8.96850   25.03300   25.16360
 8753.00000   -9999.25   -9999.25   57.00840    0.06580    2.27820    0.09860    0.00600    8.67820    2.55260    8.14240   23.31060   23.91590
 8753.50000   -9999.25   -9999.25   57.60150    0.05900    2.23370    0.09880    0.00510    8.68540    2.55430    7.66380   22.35290   23.01430
