~Version ---------------------------------------------------
VERS.   2.0 : CWLS log ASCII Standard -VERSION 2.0
WRAP.    NO : One line per depth step
DLM . SPACE : Column Data Section Delimiter
~Well ------------------------------------------------------
STRT .F                  186.0 : START DEPTH
STOP .F                11503.0 : STOP DEPTH
STEP .F                    0.5 : STEP
NULL .                -9999.25 : NULL VALUE
COMP .                         : COMPANY
WELL .                         : WELL
FLD  .                         : FIELD
LOC  .                         : LOCATION
PROV .                         : PROVINCE
CNTY .                         : COUNTY
STAT .                         : STATE
CTRY .                         : COUNTRY
SRVC .                         : SERVICE COMPANY
DATE .                         : DATE
UWI  .                         : UNIQUE WELL ID
API  .                         : API NUMBER
SLAT .WGS84 0.7799653344071054 : SURFACE LATITUDE
SLON .WGS84  6.896152414964007 : SURFACE LONGITUDE
DATUM.F                2947.61 : DEPTH DATUM ELEV
~Curve Information -----------------------------------------
DEPT   .F     : 1 MEASURED DEPTH
DTCO   .US/F  : DELTA-T COMPRESSIONAL
DTSM   .US/F  : DELTA-T SHEAR
HSGRD  .GAPI  : HNGS STANDARD GAMMA RAY FROM DENSITY LOG
TNPH_LS.DEC   : THERMAL NEUTRON POROSITY [LIMESTONE]
PEFZ   .B/E   : HRDD STANDARD RESOLUTION FORMATION PHOTOELECTRIC FACTOR
DPHZ_LS.DEC   : HGRD STANDARD RESOLUTION DENSITY POROSITY
HDRA   .G/C3  : HRDD SPINE AND RIBS DENSITY CORRECTION
HCALD  .IN    : HRCC CALIPER CALIBRATED FROM DENSITY LOG
RHOZ   .G/C3  : HRDD STANDARD RESOLUTION FORMATION DENSITY
RXOZ   .OHMM  : INVADED FORMATION RESISTIVITY FILTERED AT 18 INCHES
RLA4   .OHMM  : APPARENT RESISTIVITY FROM COMPUTED FOCUSING MODE 4
RLA5   .OHMM  : APPARENT RESISTIVITY FROM COMPUTED FOCUSING MODE 5
~Params ----------------------------------------------------
~Other -----------------------------------------------------
~ASCII -----------------------------------------------------
# ...
 7942.00000   -9999.25   -9999.25  117.81900    0.15330    3.29930    0.07340    0.00780    8.85200    2.59510    8.78260   10.09900   10.27190
 7942.50000   -9999.25   -9999.25  119.35420    0.15980    3.26180    0.06950    0.00640    8.85010    2.59890    8.16120    9.65960    9.98540
 7943.00000   -9999.25   -9999.25  121.17580    0.16940    3.20030    0.06440    0.00770    8.84720    2.60680    7.58120    9.23920    9.87240
 7943.50000   -9999.25   -9999.25  121.82180    0.17750    3.11960    0.05990    0.00980    8.84320    2.61470    7.16510    9.03140   10.14600
 7944.00000   -9999.25   -9999.25  119.35790    0.17900    3.07720    0.05760    0.01090    8.83920    2.62140    8.03450    9.58090   10.66570
 7944.50000   -9999.25   -9999.25  115.15920    0.16270    3.07190    0.05610    0.01160    8.83520    2.62070    7.99120   10.51550   11.21190
 7945.00000   -9999.25   -9999.25  111.65990    0.14640    3.07090    0.05960    0.01020    8.82970    2.61390    9.09400   11.40240   11.52210
 7945.50000   -9999.25   -9999.25  109.63110    0.13670    3.02280    0.06250    0.00730    8.82670    2.60710    9.30450   11.24950   11.56010
 7946.00000   -9999.25   -9999.25  108.85680    0.14010    2.92230    0.06610    0.00440    8.82740    2.60160    9.41590   10.62990   10.99470
 7946.50000   -9999.25   -9999.25  111.00700    0.14780    2.84210    0.06710    0.00180    8.82820    2.59960    8.94630   10.04450   10.40930
 7947.00000   -9999.25   -9999.25  114.08480    0.15550    2.81090    0.06970    0.00190    8.82880    2.59760    8.47990    9.38530    9.87260
 7947.50000   -9999.25   -9999.25  118.71340    0.16280    2.80090    0.07090    0.00190    8.82930    2.59580    7.74760    8.62380    9.09730
 7948.00000   -9999.25   -9999.25  121.68640    0.16840    2.83270    0.07130    0.00320    8.82930    2.59540    7.16820    8.35860    8.87330
 7948.50000   -9999.25   -9999.25  122.85940    0.16800    2.89800    0.07130    0.00610    8.82610    2.59500    6.95540    8.60900    8.94350
 7949.00000   -9999.25   -9999.25  121.83230    0.16360    2.95450    0.07130    0.00900    8.79420    2.59620    6.95130    8.85930    9.14970
 7949.50000   -9999.25   -9999.25  119.98270    0.15900    3.05050    0.06750    0.01290    8.78940    2.59740    7.10320    8.97170    9.38960
 7950.00000   -9999.25   -9999.25  115.80570    0.15610    3.44020    0.05780    0.01900    8.78470    2.62020    7.13750    9.31830    9.88920
 7950.50000   -9999.25   -9999.25  110.56400    0.15240    4.04130    0.04360    0.02520    8.77990    2.65040    7.61840   11.13570   12.03380
 7951.00000   -9999.25   -9999.25  108.00400    0.14940    4.01400    0.02550    0.03850    8.77510    2.67130    8.38320   12.28180   12.82820
 7951.50000   -9999.25   -9999.25  108.29890    0.14680    3.87770    0.02320    0.04270    8.77040    2.67200    9.97280   11.57760   11.95420
 7952.00000   -9999.25   -9999.25  110.32170    0.14430    3.50990    0.02920    0.03090    8.76560    2.66160    9.09190   11.20060   11.81210
 7952.50000   -9999.25   -9999.25  112.03910    0.14340    3.42050    0.03610    0.02280    8.76080    2.65090    9.42340   11.01680   11.65640
 7953.00000   -9999.25   -9999.25  112.64850    0.14610    3.18790    0.04120    0.01740    8.79940    2.64030    8.54570   10.44380   11.04970
 7953.50000   -9999.25   -9999.25  113.30380    0.15470    3.06360    0.05210    0.01260    8.79640    2.61790    7.89800    9.70710   10.40960
 7954.00000   -9999.25   -9999.25  113.93280    0.16040    2.97430    0.06030    0.00890    8.79340    2.61070    7.69570    9.37490   10.14720
 7954.50000   -9999.25   -9999.25  113.80360    0.16040    2.91490    0.06240    0.00700    8.77690    2.61020    7.71290    9.77330   10.21540
 7955.00000   -9999.25   -9999.25  110.78540    0.15330    2.94630    0.05910    0.00600    8.77310    2.61950    7.94580   10.21290   10.73320
 7955.50000   -9999.25   -9999.25  103.43900    0.13670    3.26830    0.05180    0.00660    8.77270    2.62960    8.51800   12.29720   14.10620
 7956.00000   -9999.25   -9999.25   91.88370    0.11740    3.57920    0.04120    0.00720    8.75510    2.66090   11.37270   18.62550   25.15370
 7956.50000   -9999.25   -9999.25   78.94620    0.09820    3.80300    0.02780    0.00710    8.73080    2.67040   17.61080   30.31100   33.02580
 7957.00000   -9999.25   -9999.25   76.14070    0.08160    3.82520    0.02190    0.00580    8.70650    2.67740   22.08070   30.69380   34.57420
 7957.50000   -9999.25   -9999.25   77.07280    0.07840    3.67000    0.02370    0.01310    8.71290    2.67740   19.39280   22.97740   24.99970
 7958.00000   -9999.25   -9999.25   87.39330    0.09500    3.50930    0.03730    0.01220    8.72350    2.65270   15.22050   17.17750   18.43160
 7958.50000   -9999.25   -9999.25   98.38040    0.11720    3.34610    0.05000    0.01140    8.73650    2.62640   11.74450   12.90250   14.74380
 7959.00000   -9999.25   -9999.25  107.88050    0.13850    3.20870    0.06890    0.01050    8.74680    2.60020    9.06230   10.36800   11.79390
 7959.50000   -9999.25   -9999.25  112.42520    0.15480    3.20960    0.07610    0.00790    8.75350    2.59010    8.01050   10.02510   10.95210
 7960.00000   -9999.25   -9999.25  112.65540    0.15410    3.30470    0.07420    0.00520    8.76010    2.58960    8.08870   10.68380   11.57790
 7960.50000   -9999.25   -9999.25  111.42400    0.14800    3.31950    0.06800    0.00390    8.76670    2.60110    8.84590   11.58250   12.33310
 7961.00000   -9999.25   -9999.25  109.39090    0.14200    3.26570    0.06240    0.00380    8.77330    2.61460    9.74220   12.81490   13.80370
 7961.50000   -9999.25   -9999.25  107.24940    0.13630    3.20700    0.06140    0.00380    8.77890    2.61420   11.12770   14.70000   16.80010
 7962.00000   -9999.25   -9999.25  105.32490    0.13060    3.18410    0.06220    0.00370    8.78280    2.61010   11.98090   16.08960   16.73930
 7962.50000   -9999.25   -9999.25  104.62040    0.13010    3.20060    0.06540    0.00370    8.78660    2.60600   11.16040   15.21050   15.24160
 7963.00000   -9999.25   -9999.25  104.20490    0.12980    3.22110    0.06820    0.00360    8.79050    2.60210   10.67330   14.25620   15.01290
 7963.50000   -9999.25   -9999.25  103.21360    0.12670    3.28830    0.05740    0.00640    8.79430    2.60210   10.23950   13.73420   14.54990
 7964.00000   -9999.25   -9999.25   98.62700    0.11420    3.42440    0.04020    0.01710    8.79820    2.65690   10.98420   14.22220   16.53620
 7964.50000   -9999.25   -9999.25   94.10670    0.10060    3.50000    0.01700    0.02690    8.80210    2.68270   13.38860   18.46340   21.04500
 7965.00000   -9999.25   -9999.25   90.82400    0.09000    3.48400    0.02250    0.02770    8.80590    2.67570   16.04020   22.59030   23.96420
 7965.50000   -9999.25   -9999.25   93.43720    0.08570    3.40350    0.03310    0.02520    8.80980    2.65340   16.25850   18.74250   19.90630
 7966.00000   -9999.25   -9999.25   98.48020    0.10350    3.24480    0.04660    0.02130    8.81360    2.63910   13.51220   15.41740   17.44910
 7966.50000   -9999.25   -9999.25  104.60760    0.13020    3.16470    0.04840    0.01750    8.81750    2.62710   10.29480   11.27180   12.49610
 7967.00000   -9999.25   -9999.25  110.60230    0.15030    3.16540    0.05270    0.01480    8.82270    2.61940    8.48000    9.90040   10.38120
 7967.50000   -9999.25   -9999.25  113.77600    0.15680    3.17870    0.05710    0.01290    8.83310    2.61850    8.18380   10.81200   11.42440
 7968.00000   -9999.25   -9999.25  113.57140    0.14970    3.19200    0.05330    0.01270    8.83570    2.62440    9.25090   12.17360   12.74270
 7968.50000   -9999.25   -9999.25  112.71370    0.14160    3.20080    0.05050    0.01400    8.84570    2.63410   10.18490   12.97910   13.39620
 7969.00000   -9999.25   -9999.25  112.75320    0.13370    3.18120    0.04650    0.01540    8.85480    2.63610   10.58300   12.72160   12.91640
 7969.50000   -9999.25   -9999.25  113.92570    0.13140    3.14490    0.04640    0.01510    8.86370    2.63610    9.83110   12.31870   12.61420
