~Version ---------------------------------------------------
VERS.   2.0 : CWLS log ASCII Standard -VERSION 2.0
WRAP.    NO : One line per depth step
DLM . SPACE : Column Data Section Delimiter
~Well ------------------------------------------------------
STRT .F                  186.0 : START DEPTH
STOP .F                11503.0 : STOP DEPTH
STEP .F                    0.5 : STEP
NULL .                -9999.25 : NULL VALUE
COMP .                         : COMPANY
WELL .                         : WELL
FLD  .                         : FIELD
LOC  .                         : LOCATION
PROV .                         : PROVINCE
CNTY .                         : COUNTY
STAT .                         : STATE
CTRY .                         : COUNTRY
SRVC .                         : SERVICE COMPANY
DATE .                         : DATE
UWI  .                         : UNIQUE WELL ID
API  .                         : API NUMBER
SLAT .WGS84 0.7799653344071054 : SURFACE LATITUDE
SLON .WGS84  6.896152414964007 : SURFACE LONGITUDE
DATUM.F                2947.61 : DEPTH DATUM ELEV
~Curve Information -----------------------------------------
DEPT   .F     : 1 MEASURED DEPTH
DTCO   .US/F  : DELTA-T COMPRESSIONAL
DTSM   .US/F  : DELTA-T SHEAR
HSGRD  .GAPI  : HNGS STANDARD GAMMA RAY FROM DENSITY LOG
TNPH_LS.DEC   : THERMAL NEUTRON POROSITY [LIMESTONE]
PEFZ   .B/E   : HRDD STANDARD RESOLUTION FORMATION PHOTOELECTRIC FACTOR
DPHZ_LS.DEC   : HGRD STANDARD RESOLUTION DENSITY POROSITY
HDRA   .G/C3  : HRDD SPINE AND RIBS DENSITY CORRECTION
HCALD  .IN    : HRCC CALIPER CALIBRATED FROM DENSITY LOG
RHOZ   .G/C3  : HRDD STANDARD RESOLUTION FORMATION DENSITY
RXOZ   .OHMM  : INVADED FORMATION RESISTIVITY FILTERED AT 18 INCHES
RLA4   .OHMM  : APPARENT RESISTIVITY FROM COMPUTED FOCUSING MODE 4
RLA5   .OHMM  : APPARENT RESISTIVITY FROM COMPUTED FOCUSING MODE 5
~Params ----------------------------------------------------
~Other -----------------------------------------------------
~ASCII -----------------------------------------------------
# ...
 6794.00000   -9999.25   -9999.25  145.89320    0.20620    2.58890    0.04820    0.20120   10.17080    2.62950    6.48430    9.39420    9.59680
 6794.50000   -9999.25   -9999.25  140.74030    0.21410    3.37250    0.05190    0.20350   10.17090    2.62490    5.54200    9.08270    9.17160
 6795.00000   -9999.25   -9999.25  138.27900    0.22140    4.34290    0.05050    0.19890   10.14930    2.63740    1.84970    8.84500    8.98700
 6795.50000   -9999.25   -9999.25  137.61720    0.22850    5.04770    0.03840    0.19370    9.92720    2.65070    1.55820    8.75810    9.17720
 6796.00000   -9999.25   -9999.25  133.38560    0.23510    5.30210    0.02640    0.18130    9.60720    2.66710    1.61490    8.90960    9.67270
 6796.50000   -9999.25   -9999.25  127.05700    0.23880    5.26590    0.03230    0.13980    9.37000    2.66710    3.27190    9.95230   10.86520
 6797.00000   -9999.25   -9999.25  119.95330    0.23900    4.88050    0.04600    0.10040    9.34960    2.62270    5.49460   12.35960   14.63930
 6797.50000   -9999.25   -9999.25  117.48640    0.19790    4.45470    0.06080    0.06060    9.32290    2.60400    7.17990   15.19080   16.71840
 6798.00000   -9999.25   -9999.25  119.02570    0.18680    4.13440    0.06880    0.03020    9.26120    2.59640    7.40870   13.94020   15.61310
 6798.50000   -9999.25   -9999.25  121.70980    0.18720    3.84870    0.07190    0.01840    9.30210    2.59630    7.11900   12.45910   13.48920
 6799.00000   -9999.25   -9999.25  120.62280    0.19900    3.58940    0.07110    0.00780    9.34290    2.59840    6.73960   11.13530   12.03920
 6799.50000   -9999.25   -9999.25  117.33210    0.21360    3.40320    0.06610    0.01170    9.39220    2.60800    6.61440   10.39530   10.82230
 6800.00000   -9999.25   -9999.25  114.64060    0.22210    3.16590    0.05670    0.02440    9.47550    2.61750    7.09580    9.82230   10.22490
 6800.50000   -9999.25   -9999.25  114.05840    0.21560    2.95630    0.05180    0.03620    9.52920    2.62390    7.22220    9.71430   10.00210
 6801.00000   -9999.25   -9999.25  114.90330    0.20690    2.90130    0.05090    0.04400    9.54060    2.62710    7.24060   10.02780   10.66100
 6801.50000   -9999.25   -9999.25  115.81130    0.20360    2.88570    0.05080    0.04740    9.52930    2.63030    7.11790   10.74120   11.48170
 6802.00000   -9999.25   -9999.25  117.07630    0.20230    2.92020    0.04990    0.04860    9.51760    2.63350    6.94820   11.14130   11.53680
 6802.50000   -9999.25   -9999.25  118.46960    0.20080    3.00260    0.04600    0.05370    9.51350    2.63670    6.54590   10.73810   11.09920
 6803.00000   -9999.25   -9999.25  119.96980    0.20140    3.13180    0.04560    0.06170    9.51040    2.63710    5.44820   10.17600   10.67830
 6803.50000   -9999.25   -9999.25  121.72340    0.20900    3.40960    0.04910    0.06700    9.48640    2.63330    4.83680    9.64330   10.22360
 6804.00000   -9999.25   -9999.25  123.13770    0.21590    3.70890    0.05520    0.06990    9.46270    2.62100    5.16100    9.22160    9.63930
 6804.50000   -9999.25   -9999.25  123.76580    0.21630    4.00830    0.06510    0.07270    9.45190    2.60870    6.09180    8.93080    9.21040
 6805.00000   -9999.25   -9999.25  123.98310    0.21520    4.36840    0.07210    0.07560    9.44100    2.59770    4.33180    8.80310    9.03330
 6805.50000   -9999.25   -9999.25  125.15640    0.21290    4.75740    0.07510    0.07980    9.50050    2.58730    3.16840    8.67730    9.03330
 6806.00000   -9999.25   -9999.25  126.27790    0.21390    5.02540    0.07580    0.08170    9.64550    2.58830    2.57000    8.60810    9.15580
 6806.50000   -9999.25   -9999.25  125.28600    0.21950    5.28750    0.07270    0.08060    9.66900    2.59620    2.15430    8.88090    9.60650
 6807.00000   -9999.25   -9999.25  123.31580    0.21910    5.47100    0.06640    0.07910    9.66760    2.60410    1.85700    9.50430   10.08930
 6807.50000   -9999.25   -9999.25  121.70970    0.21490    5.63930    0.06600    0.07870    9.73570    2.60520    1.75540   10.17940   10.56730
 6808.00000   -9999.25   -9999.25  119.88840    0.21070    5.55420    0.06890    0.07450    9.80820    2.60510    1.76940   10.64030   11.06790
 6808.50000   -9999.25   -9999.25  117.41360    0.20840    5.33280    0.06570    0.06940    9.84590    2.60340    2.08330   10.93340   11.32710
 6809.00000   -9999.25   -9999.25  117.02080    0.21200    4.94990    0.06440    0.06760    9.76880    2.60180    2.33310   10.98130   11.50370
 6809.50000   -9999.25   -9999.25  117.26350    0.21750    4.73330    0.07270    0.06380    9.64430    2.59100    2.72970   10.95930   11.40890
 6810.00000   -9999.25   -9999.25  117.89040    0.22260    4.65360    0.07990    0.06160    9.52050    2.58580    3.72710   10.91210   11.30400
 6810.50000   -9999.25   -9999.25  118.31030    0.22430    4.75430    0.06860    0.06650    9.38660    2.61520    3.53730   10.72140   11.26430
 6811.00000   -9999.25   -9999.25  116.40620    0.21800    4.92770    0.05370    0.07650    9.22120    2.62820    4.05040   10.54380   11.20610
 6811.50000   -9999.25   -9999.25  111.84330    0.20710    5.10340    0.04970    0.08500    9.17560    2.63090    5.42880    9.94360   10.65830
 6812.00000   -9999.25   -9999.25  107.47810    0.19840    5.31540    0.05230    0.08750    9.13830    2.63040    7.57450    8.62040    9.29430
 6812.50000   -9999.25   -9999.25  105.47040    0.19750    5.51150    0.05500    0.08770    9.12200    2.62870    3.62600    8.56050    9.02500
 6813.00000   -9999.25   -9999.25  112.86940    0.21350    5.51150    0.05620    0.08790    9.19140    2.62710    2.50410    9.00250    9.43350
 6813.50000   -9999.25   -9999.25  121.49720    0.22540    5.48380    0.05000    0.08740    9.28930    2.62550    2.24110    9.49870    9.85540
 6814.00000   -9999.25   -9999.25  126.47870    0.23730    5.44280    0.05590    0.08630    9.37420    2.62290    3.75170    9.71240    9.98710
 6814.50000   -9999.25   -9999.25  127.99930    0.24910    5.40830    0.06340    0.08510    9.20400    2.60830    4.34030    9.81140   10.05660
 6815.00000   -9999.25   -9999.25  129.23220    0.24420    5.47480    0.07560    0.08400    9.21910    2.59170    2.78430    9.96040   10.22370
 6815.50000   -9999.25   -9999.25  129.93900    0.23920    5.66110    0.08190    0.08040    9.29510    2.57920    2.17510   10.30420   10.81470
 6816.00000   -9999.25   -9999.25  130.39060    0.24780    5.84750    0.08390    0.08220    9.33900    2.57580    1.76610   10.86500   11.43570
 6816.50000   -9999.25   -9999.25  130.55650    0.25660    5.94690    0.07580    0.08750    9.33990    2.58790    1.44520   11.24530   11.49380
 6817.00000   -9999.25   -9999.25  130.47560    0.26170    5.83210    0.06330    0.08730    9.33690    2.60580    1.33500   11.29370   11.57210
 6817.50000   -9999.25   -9999.25  129.89520    0.26240    5.62330    0.05310    0.08700    9.31360    2.62500    1.58190   11.36550   11.66040
 6818.00000   -9999.25   -9999.25  128.67990    0.25240    5.48000    0.05610    0.08450    9.18450    2.61960    2.63180   11.44470   11.74930
 6818.50000   -9999.25   -9999.25  127.20480    0.24230    5.44600    0.06310    0.08400    9.08390    2.61220    4.01220   11.52450   11.83600
 6819.00000   -9999.25   -9999.25  125.72940    0.23230    5.48490    0.06150    0.08350    9.00000    2.61150    3.83900   11.54220   11.83600
 6819.50000   -9999.25   -9999.25  123.67800    0.22980    5.60520    0.05880    0.08220    9.02370    2.61790    3.31070   11.42390   11.74770
 6820.00000   -9999.25   -9999.25  122.16820    0.23530    5.71910    0.06310    0.08090    9.07610    2.61670    3.36180   10.83980   11.22240
 6820.50000   -9999.25   -9999.25  122.59100    0.24170    5.71680    0.06550    0.07890    9.12840    2.60690    1.98710   10.11170   10.50260
 6821.00000   -9999.25   -9999.25  123.00720    0.24730    5.66240    0.06290    0.07400    9.18070    2.60760    2.10780   10.15290   10.47880
 6821.50000   -9999.25   -9999.25  119.68920    0.25170    5.42000    0.05260    0.07190    9.23300    2.63030    1.82910   10.50270   11.01490
