~Version ---------------------------------------------------
VERS.   2.0 : CWLS log ASCII Standard -VERSION 2.0
WRAP.    NO : One line per depth step
DLM . SPACE : Column Data Section Delimiter
~Well ------------------------------------------------------
STRT .F                  186.0 : START DEPTH
STOP .F                11503.0 : STOP DEPTH
STEP .F                    0.5 : STEP
NULL .                -9999.25 : NULL VALUE
COMP .                         : COMPANY
WELL .                         : WELL
FLD  .                         : FIELD
LOC  .                         : LOCATION
PROV .                         : PROVINCE
CNTY .                         : COUNTY
STAT .                         : STATE
CTRY .                         : COUNTRY
SRVC .                         : SERVICE COMPANY
DATE .                         : DATE
UWI  .                         : UNIQUE WELL ID
API  .                         : API NUMBER
SLAT .WGS84 0.7799653344071054 : SURFACE LATITUDE
SLON .WGS84  6.896152414964007 : SURFACE LONGITUDE
DATUM.F                2947.61 : DEPTH DATUM ELEV
~Curve Information -----------------------------------------
DEPT   .F     : 1 MEASURED DEPTH
DTCO   .US/F  : DELTA-T COMPRESSIONAL
DTSM   .US/F  : DELTA-T SHEAR
HSGRD  .GAPI  : HNGS STANDARD GAMMA RAY FROM DENSITY LOG
TNPH_LS.DEC   : THERMAL NEUTRON POROSITY [LIMESTONE]
PEFZ   .B/E   : HRDD STANDARD RESOLUTION FORMATION PHOTOELECTRIC FACTOR
DPHZ_LS.DEC   : HGRD STANDARD RESOLUTION DENSITY POROSITY
HDRA   .G/C3  : HRDD SPINE AND RIBS DENSITY CORRECTION
HCALD  .IN    : HRCC CALIPER CALIBRATED FROM DENSITY LOG
RHOZ   .G/C3  : HRDD STANDARD RESOLUTION FORMATION DENSITY
RXOZ   .OHMM  : INVADED FORMATION RESISTIVITY FILTERED AT 18 INCHES
RLA4   .OHMM  : APPARENT RESISTIVITY FROM COMPUTED FOCUSING MODE 4
RLA5   .OHMM  : APPARENT RESISTIVITY FROM COMPUTED FOCUSING MODE 5
~Params ----------------------------------------------------
~Other -----------------------------------------------------
~ASCII -----------------------------------------------------
# ...
 7550.00000   -9999.25   -9999.25  115.65270    0.22020    5.99870    0.04580    0.09510    8.81810    2.57900    2.73070    7.23450    7.58160
 7550.50000   -9999.25   -9999.25  121.05210    0.22910    6.30570    0.07420    0.09670    8.97800    2.58130    1.74370    7.37840    7.61000
 7551.00000   -9999.25   -9999.25  125.76400    0.23870    6.50390    0.07860    0.09570    9.12930    2.59520    1.46900    7.71730    8.09230
 7551.50000   -9999.25   -9999.25  128.78510    0.24970    6.43400    0.06410    0.09200    9.19240    2.60900    1.43390    7.87990    8.07720
 7552.00000   -9999.25   -9999.25  130.83300    0.25630    6.03420    0.05620    0.07630    9.17150    2.62290    2.00660    7.89140    8.03670
 7552.50000   -9999.25   -9999.25  132.11630    0.25790    5.62410    0.05020    0.06250    9.11470    2.63820    1.89420    7.81490    8.16100
 7553.00000   -9999.25   -9999.25  133.31890    0.23600    5.04930    0.04070    0.06020    9.05790    2.64600    2.76550    7.56210    8.20420
 7553.50000   -9999.25   -9999.25  135.21610    0.21230    4.22230    0.04540    0.05140    9.01550    2.63890    4.00930    7.25740    7.73260
 7554.00000   -9999.25   -9999.25  137.91640    0.21070    3.73990    0.05840    0.03530    9.04760    2.61820    4.87730    6.96960    7.18980
 7554.50000   -9999.25   -9999.25  140.24630    0.21380    3.50100    0.06730    0.01950    9.11250    2.60180    5.46080    6.78460    6.99880
 7555.00000   -9999.25   -9999.25  139.99470    0.21390    3.36220    0.06640    0.00760    9.19980    2.60210    5.77640    6.77140    7.01120
 7555.50000   -9999.25   -9999.25  135.68910    0.20980    3.30050    0.06560    0.00920    9.29540    2.60520    6.05260    6.99580    7.58380
 7556.00000   -9999.25   -9999.25  133.21610    0.20550    3.25950    0.06500    0.00810    9.36340    2.60830    6.32960    7.52330    8.40640
 7556.50000   -9999.25   -9999.25  132.64220    0.20080    3.23650    0.06150    0.00700    9.38240    2.61140    6.66110    8.09060    9.05450
 7557.00000   -9999.25   -9999.25  133.69580    0.20290    3.19090    0.06160    0.00590    9.37050    2.61380    7.03550    8.15960    8.98000
 7557.50000   -9999.25   -9999.25  134.88690    0.20710    3.12190    0.06080    0.00620    9.38580    2.60840    7.14930    8.02240    8.68140
 7558.00000   -9999.25   -9999.25  136.11500    0.21050    3.09580    0.06760    0.00690    9.40260    2.60450    6.95020    7.87270    8.39260
 7558.50000   -9999.25   -9999.25  137.34780    0.21380    3.15580    0.06620    0.00750    9.41610    2.60430    6.75850    7.81030    8.18510
 7559.00000   -9999.25   -9999.25  137.95530    0.21690    3.23510    0.06350    0.00800    9.41700    2.60700    6.57300    7.78130    8.04880
 7559.50000   -9999.25   -9999.25  137.04430    0.21530    3.24610    0.05970    0.01000    9.42640    2.61850    6.50670    7.77730    7.96350
 7560.00000   -9999.25   -9999.25  136.24570    0.21340    3.24450    0.05290    0.01390    9.43760    2.63090    6.51640    7.78020    7.93760
 7560.50000   -9999.25   -9999.25  136.04750    0.21600    3.19870    0.04730    0.02140    9.44020    2.63700    6.65570    7.74990    7.90450
 7561.00000   -9999.25   -9999.25  138.67990    0.22840    3.15380    0.04890    0.02870    9.44210    2.63230    6.72260    7.54500    7.83600
 7561.50000   -9999.25   -9999.25  140.34850    0.23660    3.12000    0.05710    0.02270    9.44400    2.60460    6.63320    7.29660    7.60070
 7562.00000   -9999.25   -9999.25  141.28390    0.24260    3.14220    0.06870    0.01220    9.44590    2.58980    6.43550    7.11770    7.37240
 7562.50000   -9999.25   -9999.25  141.36520    0.24030    3.22280    0.07460    0.00910    9.44780    2.58880    6.16360    6.99830    7.22720
 7563.00000   -9999.25   -9999.25  141.05010    0.23070    3.31180    0.07230    0.00910    9.44970    2.59590    6.08220    6.99260    7.20050
 7563.50000   -9999.25   -9999.25  139.17470    0.21970    3.31360    0.06510    0.00970    9.45160    2.60820    6.14600    7.19410    7.35400
 7564.00000   -9999.25   -9999.25  135.61680    0.21230    3.27160    0.06050    0.01030    9.45340    2.61520    6.36410    7.50140    7.70620
 7564.50000   -9999.25   -9999.25  131.86340    0.21100    3.23920    0.05850    0.01090    9.45530    2.61630    6.61650    7.82190    8.07530
 7565.00000   -9999.25   -9999.25  127.75020    0.21490    3.24180    0.06130    0.01180    9.45720    2.61630    6.73580    7.94050    8.22980
 7565.50000   -9999.25   -9999.25  126.59500    0.21670    3.29100    0.05790    0.01300    9.45810    2.61630    6.49200    7.65610    8.05970
 7566.00000   -9999.25   -9999.25  129.23670    0.21450    3.33850    0.06010    0.01510    9.45740    2.60930    6.35780    7.25900    7.71240
 7566.50000   -9999.25   -9999.25  136.50760    0.21350    3.39210    0.06380    0.01420    9.45680    2.59570    6.20110    6.94920    7.36250
 7567.00000   -9999.25   -9999.25  143.82840    0.21550    3.44990    0.07110    0.01240    9.45620    2.58390    5.97500    6.72530    6.99680
 7567.50000   -9999.25   -9999.25  150.43830    0.21840    3.64620    0.07770    0.01300    9.42300    2.58190    5.71660    6.51230    6.75400
 7568.00000   -9999.25   -9999.25  150.53550    0.22040    3.88570    0.07750    0.01530    9.37960    2.59990    5.35580    6.38280    6.84440
 7568.50000   -9999.25   -9999.25  136.95800    0.21020    4.28370    0.06820    0.01750    9.33190    2.63070    5.50950    6.67440    8.59490
 7569.00000   -9999.25   -9999.25  124.89710    0.19290    4.83110    0.04250    0.03460    9.25970    2.66280    6.50980    9.94110   10.72800
 7569.50000   -9999.25   -9999.25  117.16370    0.18520    4.86680    0.01890    0.05240    9.23880    2.68980    6.61510    8.81380   10.34150
 7570.00000   -9999.25   -9999.25  120.58390    0.19600    4.36040    0.01420    0.06310    9.27340    2.68660    5.82970    7.00660    7.18120
 7570.50000   -9999.25   -9999.25  129.31380    0.21070    3.85400    0.03360    0.05130    9.36050    2.64990    5.24970    7.15680    7.30740
 7571.00000   -9999.25   -9999.25  137.23650    0.22360    3.46780    0.05590    0.03010    9.40680    2.61740    5.75190    7.42630    7.66810
 7571.50000   -9999.25   -9999.25  138.18770    0.22920    3.38360    0.06140    0.02280    9.44160    2.60560    5.99430    7.70590    8.00090
 7572.00000   -9999.25   -9999.25  137.64800    0.22410    3.33960    0.06770    0.01610    9.46720    2.59540    6.18540    7.96440    8.16340
 7572.50000   -9999.25   -9999.25  135.44800    0.21360    3.35860    0.07270    0.01010    9.48950    2.59990    6.33970    8.18130    8.44000
 7573.00000   -9999.25   -9999.25  133.83880    0.20300    3.58130    0.06150    0.00720    9.48800    2.61990    6.48580    8.68010    9.42710
 7573.50000   -9999.25   -9999.25  132.48810    0.19260    3.80400    0.05310    0.01160    9.47370    2.63270    6.63520    9.16900    9.79850
 7574.00000   -9999.25   -9999.25  129.90250    0.18970    4.02680    0.04760    0.01400    9.46220    2.63370    6.54320    8.23600    8.78170
 7574.50000   -9999.25   -9999.25  126.04020    0.19330    4.11390    0.05800    0.00790    9.44810    2.60750    6.28520    8.80670    9.74690
 7575.00000   -9999.25   -9999.25  124.97240    0.19950    4.06910    0.06490    0.00150    9.43570    2.60480    6.07420    9.91250   10.81860
 7575.50000   -9999.25   -9999.25  127.56490    0.21080    3.87070    0.06740   -0.00260    9.42400    2.60200    6.15630    8.47550    9.21560
 7576.00000   -9999.25   -9999.25  133.53730    0.22150    3.67280    0.06880   -0.00270    9.38990    2.59900    6.24310    7.05790    7.98260
 7576.50000   -9999.25   -9999.25  137.55320    0.22620    3.50060    0.07180   -0.00260    9.49600    2.59070    6.09060    7.08550    7.84330
 7577.00000   -9999.25   -9999.25  140.19990    0.22860    3.37390    0.07600   -0.00230    9.53020    2.58530    6.06470    7.58320    7.83570
 7577.50000   -9999.25   -9999.25  141.74930    0.22690    3.19750    0.07390   -0.00210    9.56380    2.58890    6.12950    7.77900    7.93160
