~Version ---------------------------------------------------
VERS.   2.0 : CWLS log ASCII Standard -VERSION 2.0
WRAP.    NO : One line per depth step
DLM . SPACE : Column Data Section Delimiter
~Well ------------------------------------------------------
STRT .F                  186.0 : START DEPTH
STOP .F                11503.0 : STOP DEPTH
STEP .F                    0.5 : STEP
NULL .                -9999.25 : NULL VALUE
COMP .                         : COMPANY
WELL .                         : WELL
FLD  .                         : FIELD
LOC  .                         : LOCATION
PROV .                         : PROVINCE
CNTY .                         : COUNTY
STAT .                         : STATE
CTRY .                         : COUNTRY
SRVC .                         : SERVICE COMPANY
DATE .                         : DATE
UWI  .                         : UNIQUE WELL ID
API  .                         : API NUMBER
SLAT .WGS84 0.7799653344071054 : SURFACE LATITUDE
SLON .WGS84  6.896152414964007 : SURFACE LONGITUDE
DATUM.F                2947.61 : DEPTH DATUM ELEV
~Curve Information -----------------------------------------
DEPT   .F     : 1 MEASURED DEPTH
DTCO   .US/F  : DELTA-T COMPRESSIONAL
DTSM   .US/F  : DELTA-T SHEAR
HSGRD  .GAPI  : HNGS STANDARD GAMMA RAY FROM DENSITY LOG
TNPH_LS.DEC   : THERMAL NEUTRON POROSITY [LIMESTONE]
PEFZ   .B/E   : HRDD STANDARD RESOLUTION FORMATION PHOTOELECTRIC FACTOR
DPHZ_LS.DEC   : HGRD STANDARD RESOLUTION DENSITY POROSITY
HDRA   .G/C3  : HRDD SPINE AND RIBS DENSITY CORRECTION
HCALD  .IN    : HRCC CALIPER CALIBRATED FROM DENSITY LOG
RHOZ   .G/C3  : HRDD STANDARD RESOLUTION FORMATION DENSITY
RXOZ   .OHMM  : INVADED FORMATION RESISTIVITY FILTERED AT 18 INCHES
RLA4   .OHMM  : APPARENT RESISTIVITY FROM COMPUTED FOCUSING MODE 4
RLA5   .OHMM  : APPARENT RESISTIVITY FROM COMPUTED FOCUSING MODE 5
~Params ----------------------------------------------------
~Other -----------------------------------------------------
~ASCII -----------------------------------------------------
# ...
 7158.00000   -9999.25   -9999.25   90.56040    0.14840    3.68050    0.05080    0.00830    9.04380    2.62730   10.24400   12.86220   13.26910
 7158.50000   -9999.25   -9999.25   89.30890    0.14460    3.66180    0.05200    0.00660    9.02210    2.62740   10.68090   12.72410   13.34630
 7159.00000   -9999.25   -9999.25   89.88350    0.14080    3.72590    0.04990    0.00500    9.00350    2.63590   11.13650   13.60990   13.96960
 7159.50000   -9999.25   -9999.25   90.79220    0.13980    3.79760    0.04470    0.01310    8.95830    2.64210   11.02550   13.22040   14.25390
 7160.00000   -9999.25   -9999.25   91.70090    0.14130    3.86080    0.04190    0.02160    8.89320    2.64280    9.98130   11.34340   12.26070
 7160.50000   -9999.25   -9999.25   92.62470    0.14310    3.88270    0.05060    0.02430    8.83920    2.60130    9.07230   11.29660   11.89960
 7161.00000   -9999.25   -9999.25   93.35690    0.14780    3.95030    0.06660    0.02080    8.81690    2.58980    8.17660   11.71900   12.19040
 7161.50000   -9999.25   -9999.25   92.46590    0.15470    4.14740    0.07560    0.01560    8.81300    2.58720    7.32240    9.83390   10.24140
 7162.00000   -9999.25   -9999.25   90.63750    0.15940    4.37240    0.06870    0.01350    8.81190    2.60250    8.40890   10.16150   18.55240
 7162.50000   -9999.25   -9999.25   90.43860    0.16380    4.53400    0.05390    0.01580    8.83530    2.63680   10.92320   17.22240   21.20730
 7163.00000   -9999.25   -9999.25  103.15190    0.16880    4.50360    0.03970    0.02830    8.85980    2.65090   12.77220   16.10470   16.81660
 7163.50000   -9999.25   -9999.25  115.98540    0.18420    4.29360    0.04380    0.03660    8.88730    2.64390   10.43890   11.98690   12.94480
 7164.00000   -9999.25   -9999.25  124.38830    0.20190    4.20350    0.06030    0.03360    8.91880    2.61790    7.77730   10.20650   10.68670
 7164.50000   -9999.25   -9999.25  127.27140    0.20580    4.20870    0.07690    0.03140    8.92750    2.59320    7.56020   10.17510   10.92140
 7165.00000   -9999.25   -9999.25  119.66300    0.19860    4.30540    0.07490    0.03090    8.89340    2.58650    7.09350   11.26190   11.96640
 7165.50000   -9999.25   -9999.25  109.70060    0.18900    4.35220    0.05720    0.03730    8.85930    2.60920    7.03170   12.69880   13.77480
 7166.00000   -9999.25   -9999.25  104.20250    0.17940    4.20670    0.04090    0.04390    8.82510    2.67080    8.71560   16.28180   18.76150
 7166.50000   -9999.25   -9999.25  102.35290    0.17250    4.06130    0.02300    0.05050    8.79100    2.67960   11.12250   20.71290   22.74740
 7167.00000   -9999.25   -9999.25  105.54230    0.17040    3.69510    0.02070    0.04450    8.77330    2.67490   12.96660   17.54980   18.62240
 7167.50000   -9999.25   -9999.25  109.84520    0.17280    3.54010    0.02700    0.03470    8.79950    2.66470   12.57300   14.65190   15.50120
 7168.00000   -9999.25   -9999.25  111.93010    0.17570    3.34870    0.03530    0.02270    8.83720    2.65660   11.29580   14.54920   15.23290
 7168.50000   -9999.25   -9999.25  113.74300    0.17330    3.16700    0.03720    0.01000    8.87060    2.65230   11.69670   14.63750   15.23290
 7169.00000   -9999.25   -9999.25  114.43640    0.16220    3.01200    0.03810    0.00870    8.90400    2.64800   12.17450   15.25730   16.41820
 7169.50000   -9999.25   -9999.25  114.17920    0.15110    2.89840    0.04090    0.00740    8.92430    2.64380   13.07620   17.29150   19.06120
 7170.00000   -9999.25   -9999.25  113.61350    0.13390    2.76190    0.04140    0.00650    8.92460    2.63970   14.31690   19.73950   20.84270
 7170.50000   -9999.25   -9999.25  113.54300    0.12580    2.64540    0.04230    0.00770    8.91060    2.63590   15.37850   18.95710   20.55590
 7171.00000   -9999.25   -9999.25  113.39550    0.12570    2.59590    0.04570    0.00880    8.88140    2.63220   14.69660   18.51560   20.06870
 7171.50000   -9999.25   -9999.25  112.11680    0.12400    2.64130    0.05030    0.00990    8.85210    2.62940   14.21120   19.03830   20.69110
 7172.00000   -9999.25   -9999.25  109.13440    0.11840    2.77180    0.04990    0.01110    8.83410    2.62940   14.71740   20.76890   22.26350
 7172.50000   -9999.25   -9999.25  106.03210    0.11360    2.87730    0.04720    0.01220    8.83410    2.63080   17.71900   22.80310   24.08320
 7173.00000   -9999.25   -9999.25  102.85920    0.11180    2.96650    0.04760    0.01210    8.88110    2.63380   22.36590   25.03650   26.05170
 7173.50000   -9999.25   -9999.25  103.22040    0.13310    3.04230    0.05250    0.01100    8.93060    2.63410   20.55600   24.83900   26.50440
 7174.00000   -9999.25   -9999.25  110.06650    0.15370    3.17900    0.06640    0.00790    8.98020    2.61570   13.32680   14.56120   16.72630
 7174.50000   -9999.25   -9999.25  116.91260    0.16560    3.36490    0.07800    0.00520    9.00680    2.59260   10.72050   11.88610   13.10070
 7175.00000   -9999.25   -9999.25  115.20660    0.16010    3.54060    0.07650    0.00560    9.02040    2.58280   10.76330   14.10190   15.99200
 7175.50000   -9999.25   -9999.25  106.68910    0.14690    3.49260    0.06160    0.00590    9.02160    2.59150   13.79920   18.04930   21.90010
 7176.00000   -9999.25   -9999.25   95.68190    0.13050    3.40420    0.03820    0.00620    8.98300    2.62630   18.60050   30.82520   41.23150
 7176.50000   -9999.25   -9999.25   89.16430    0.12640    3.32730    0.02400    0.00660    8.94440    2.66930   24.94560   40.49690   55.27630
 7177.00000   -9999.25   -9999.25   90.04520    0.12680    3.29180    0.02580    0.00650    8.90570    2.67340   25.42910   29.76590   33.67160
 7177.50000   -9999.25   -9999.25   92.95120    0.12840    3.22080    0.03460    0.00630    8.85280    2.65990   19.40970   21.27660   22.80130
 7178.00000   -9999.25   -9999.25   95.09270    0.12790    3.10070    0.04150    0.00620    8.86020    2.64640   17.12180   18.64180   20.06990
 7178.50000   -9999.25   -9999.25   96.77190    0.12230    3.03990    0.04690    0.00600    8.88020    2.63510   17.02250   18.91490   20.12640
 7179.00000   -9999.25   -9999.25   99.34120    0.12070    3.03320    0.05210    0.00580    8.89000    2.62420   17.65660   20.24660   20.85930
 7179.50000   -9999.25   -9999.25  103.94600    0.12030    3.02280    0.05470    0.00560    8.89970    2.62240   18.44680   21.64800   22.24230
 7180.00000   -9999.25   -9999.25  107.89090    0.12000    3.01240    0.05080    0.00550    8.90180    2.63140   20.65710   22.35970   23.71690
 7180.50000   -9999.25   -9999.25  108.01440    0.12200    3.00200    0.04330    0.00530    8.90910    2.64220   22.66630   24.58380   25.28940
 7181.00000   -9999.25   -9999.25  103.16450    0.12650    2.97160    0.03750    0.00550    8.91800    2.65300   22.47900   23.86910   25.22340
 7181.50000   -9999.25   -9999.25   98.62190    0.13160    2.92940    0.03570    0.00560    8.93270    2.65720   18.66320   19.85490   21.36040
 7182.00000   -9999.25   -9999.25   98.53230    0.13590    2.92050    0.04130    0.00580    8.96450    2.64790   16.53780   18.38980   18.72190
 7182.50000   -9999.25   -9999.25  102.05120    0.13650    2.97330    0.04760    0.00590    8.97920    2.63410   15.03580   18.16240   18.55920
 7183.00000   -9999.25   -9999.25  106.87640    0.13330    3.03020    0.05410    0.00600    8.99320    2.62680   15.18980   18.73160   19.39730
 7183.50000   -9999.25   -9999.25  109.95300    0.12660    3.08800    0.05280    0.00610    8.99740    2.62420   16.16920   19.58440   20.68580
 7184.00000   -9999.25   -9999.25  105.28370    0.11900    3.12700    0.05080    0.00620    9.00040    2.62440   16.98310   20.47610   21.74950
 7184.50000   -9999.25   -9999.25   96.73160    0.11140    3.26480    0.04410    0.00630    8.99680    2.63240   18.23530   22.44270   23.98150
 7185.00000   -9999.25   -9999.25   88.11400    0.10260    3.33170    0.03690    0.00640    8.95160    2.64640   21.27280   26.52330   32.21340
 7185.50000   -9999.25   -9999.25   82.80380    0.09320    3.36880    0.02800    0.00650    8.90630    2.66040   27.72280   38.40390   39.69930
