~Version ---------------------------------------------------
VERS.   2.0 : CWLS log ASCII Standard -VERSION 2.0
WRAP.    NO : One line per depth step
DLM . SPACE : Column Data Section Delimiter
~Well ------------------------------------------------------
STRT .F                  186.0 : START DEPTH
STOP .F                11503.0 : STOP DEPTH
STEP .F                    0.5 : STEP
NULL .                -9999.25 : NULL VALUE
COMP .                         : COMPANY
WELL .                         : WELL
FLD  .                         : FIELD
LOC  .                         : LOCATION
PROV .                         : PROVINCE
CNTY .                         : COUNTY
STAT .                         : STATE
CTRY .                         : COUNTRY
SRVC .                         : SERVICE COMPANY
DATE .                         : DATE
UWI  .                         : UNIQUE WELL ID
API  .                         : API NUMBER
SLAT .WGS84 0.7799653344071054 : SURFACE LATITUDE
SLON .WGS84  6.896152414964007 : SURFACE LONGITUDE
DATUM.F                2947.61 : DEPTH DATUM ELEV
~Curve Information -----------------------------------------
DEPT   .F     : 1 MEASURED DEPTH
DTCO   .US/F  : DELTA-T COMPRESSIONAL
DTSM   .US/F  : DELTA-T SHEAR
HSGRD  .GAPI  : HNGS STANDARD GAMMA RAY FROM DENSITY LOG
TNPH_LS.DEC   : THERMAL NEUTRON POROSITY [LIMESTONE]
PEFZ   .B/E   : HRDD STANDARD RESOLUTION FORMATION PHOTOELECTRIC FACTOR
DPHZ_LS.DEC   : HGRD STANDARD RESOLUTION DENSITY POROSITY
HDRA   .G/C3  : HRDD SPINE AND RIBS DENSITY CORRECTION
HCALD  .IN    : HRCC CALIPER CALIBRATED FROM DENSITY LOG
RHOZ   .G/C3  : HRDD STANDARD RESOLUTION FORMATION DENSITY
RXOZ   .OHMM  : INVADED FORMATION RESISTIVITY FILTERED AT 18 INCHES
RLA4   .OHMM  : APPARENT RESISTIVITY FROM COMPUTED FOCUSING MODE 4
RLA5   .OHMM  : APPARENT RESISTIVITY FROM COMPUTED FOCUSING MODE 5
~Params ----------------------------------------------------
~Other -----------------------------------------------------
~ASCII -----------------------------------------------------
# ...
 5618.00000   -9999.25   -9999.25   57.69160    0.23470   -9999.25   -9999.25   -9999.25   -9999.25   -9999.25   -9999.25   -9999.25   -9999.25
 5618.50000   -9999.25   -9999.25   59.59140    0.24400   -9999.25   -9999.25   -9999.25   -9999.25   -9999.25   -9999.25   -9999.25   -9999.25
 5619.00000   -9999.25   -9999.25   62.76060    0.24640   -9999.25   -9999.25   -9999.25   -9999.25   -9999.25   -9999.25   -9999.25   -9999.25
 5619.50000   -9999.25   -9999.25   74.52020    0.24180   -9999.25   -9999.25   -9999.25   -9999.25   -9999.25   -9999.25   -9999.25   -9999.25
 5620.00000   -9999.25   -9999.25   86.27990    0.22180    2.96810   -0.10010    0.03680    9.24960    2.53720   -9999.25   -9999.25   -9999.25
 5620.50000   -9999.25   -9999.25   95.77550    0.19720    3.40220    0.08790    0.08920    9.61650    2.54250   -9999.25   -9999.25   -9999.25
 5621.00000   -9999.25   -9999.25   94.90370    0.18460    3.90580    0.10800    0.12770    9.86450    2.56300   -9999.25   -9999.25   -9999.25
 5621.50000   -9999.25   -9999.25   90.52910    0.17550    4.21450    0.09630    0.14870    9.94080    2.58340   -9999.25   -9999.25   -9999.25
 5622.00000   -9999.25   -9999.25   86.02950    0.16630    3.99770    0.07660    0.15700    9.96380    2.60090   -9999.25   -9999.25   -9999.25
 5622.50000   -9999.25   -9999.25   81.54030    0.15720    3.79120    0.06950    0.17450    9.98680    2.60090   -9999.25   -9999.25   -9999.25
 5623.00000   -9999.25   -9999.25   79.56990    0.15090    3.66540    0.07370    0.18620   10.00990    2.56400   -9999.25   -9999.25   -9999.25
 5623.50000   -9999.25   -9999.25   79.56170    0.14970    3.64020    0.08600    0.18300   10.03290    2.56600   -9999.25   -9999.25   -9999.25
 5624.00000   -9999.25   -9999.25   81.90110    0.15880    3.60480    0.09010    0.17850   10.06750    2.57720   -9999.25   -9999.25   -9999.25
 5624.50000   -9999.25   -9999.25   84.80040    0.16970    3.59900    0.08510    0.18160   10.10450    2.58910   -9999.25   -9999.25   -9999.25
 5625.00000   -9999.25   -9999.25   90.29340    0.18460    3.60060    0.07700    0.18490   10.14140    2.59180   -9999.25   -9999.25   -9999.25
 5625.50000   -9999.25   -9999.25   96.86690    0.19960    3.61770    0.07680    0.18780   10.17830    2.58290   -9999.25   -9999.25   -9999.25
 5626.00000   -9999.25   -9999.25  102.88160    0.22460    3.68330    0.08120    0.18840   10.20220    2.56630   -9999.25   -9999.25   -9999.25
 5626.50000   -9999.25   -9999.25  102.87040    0.23370    3.77940    0.08680    0.18790   10.21410    2.56210   -9999.25   -9999.25   -9999.25
 5627.00000   -9999.25   -9999.25  101.96300    0.23820    3.84830    0.09300    0.18530   10.22590    2.56670   -9999.25   -9999.25   -9999.25
 5627.50000   -9999.25   -9999.25  101.55690    0.23840    3.86340    0.09030    0.18360   10.23060    2.57780   -9999.25   -9999.25   -9999.25
 5628.00000   -9999.25   -9999.25  101.99110    0.23780    3.87090    0.08340    0.18310   10.23480    2.58510   -9999.25   -9999.25   -9999.25
 5628.50000   -9999.25   -9999.25  101.94990    0.22700    3.90980    0.07850    0.17860   10.23930    2.59080   -9999.25   -9999.25   -9999.25
 5629.00000   -9999.25   -9999.25  100.53080    0.21420    3.96470    0.07430    0.16770   10.24370    2.59680   -9999.25   -9999.25   -9999.25
 5629.50000   -9999.25   -9999.25   99.37920    0.20510    4.01960    0.07030    0.15120   10.24810    2.61030   -9999.25   -9999.25   -9999.25
 5630.00000   -9999.25   -9999.25   99.99240    0.20110    4.04270    0.06070    0.14540   10.25260    2.62050   -9999.25   -9999.25   -9999.25
 5630.50000   -9999.25   -9999.25  101.55930    0.20390    4.01500    0.05710    0.14410   10.25700    2.61170   -9999.25   -9999.25   -9999.25
 5631.00000   -9999.25   -9999.25  101.91430    0.20650    3.96700    0.06240    0.14000   10.26150    2.58980   -9999.25   -9999.25   -9999.25
 5631.50000   -9999.25   -9999.25  101.46850    0.20810    3.90160    0.07140    0.12990   10.26700    2.59350   -9999.25   -9999.25   -9999.25
 5632.00000   -9999.25   -9999.25  101.23630    0.20970    3.79350    0.07280    0.12470   10.27270    2.61260   -9999.25   -9999.25   -9999.25
 5632.50000   -9999.25   -9999.25  101.46810    0.21400    3.68590    0.06160    0.14490   10.27840    2.62400   -9999.25   -9999.25   -9999.25
 5633.00000   -9999.25   -9999.25  102.90180    0.22090    3.59070    0.05430    0.17230   10.28420    2.62020   -9999.25   -9999.25   -9999.25
 5633.50000   -9999.25   -9999.25  105.04970    0.22740    3.57130    0.06490    0.18930   10.28990    2.59120   -9999.25   -9999.25   -9999.25
 5634.00000   -9999.25   -9999.25  108.33400    0.23250    3.55440    0.08160    0.18870   10.29560    2.57620   -9999.25   -9999.25   -9999.25
 5634.50000   -9999.25   -9999.25  108.91160    0.22620    3.53210    0.08450    0.17680   10.30140    2.58010   -9999.25   -9999.25   -9999.25
 5635.00000   -9999.25   -9999.25  107.01500    0.21180    3.54540    0.08120    0.15980   10.30710    2.58650   -9999.25   -9999.25   -9999.25
 5635.50000   -9999.25   -9999.25  104.47340    0.19580    3.55880    0.07540    0.15980   10.32910    2.59290   -9999.25   -9999.25   -9999.25
 5636.00000   -9999.25   -9999.25  101.03860    0.19200    3.60980    0.06890    0.15980   10.35420    2.60490   -9999.25   -9999.25   -9999.25
 5636.50000   -9999.25   -9999.25   97.82980    0.18940    3.70050    0.06040    0.15980   10.38120    2.61670   -9999.25   -9999.25   -9999.25
 5637.00000   -9999.25   -9999.25   95.57430    0.18780    3.79200    0.05650    0.15990   10.41080    2.62270   -9999.25   -9999.25   -9999.25
 5637.50000   -9999.25   -9999.25   96.07690    0.18700    3.93130    0.05630    0.15990   10.44040    2.62320   -9999.25   -9999.25   -9999.25
 5638.00000   -9999.25   -9999.25   97.80220    0.19260    4.08140    0.05580    0.15160   10.49110    2.61480   -9999.25   -9999.25   -9999.25
 5638.50000   -9999.25   -9999.25  100.23010    0.19800    4.15940    0.05650    0.13830   10.58410    2.59970   -9999.25   -9999.25   -9999.25
 5639.00000   -9999.25   -9999.25  103.24950    0.19890    4.19490    0.06480    0.11210   10.70460    2.58460   -9999.25   -9999.25   -9999.25
 5639.50000   -9999.25   -9999.25  105.70370    0.18640    4.19850    0.07350    0.08790   10.82520    2.58320   -9999.25   -9999.25   -9999.25
 5640.00000   -9999.25   -9999.25  107.41290    0.18440    4.23590    0.07860    0.08780   11.02170    2.59010   -9999.25   -9999.25   -9999.25
 5640.50000   -9999.25   -9999.25  108.80620    0.18910    4.41390    0.07380    0.08930   11.35300    2.59690   -9999.25   -9999.25   -9999.25
 5641.00000   -9999.25   -9999.25  110.00890    0.19380    4.59100    0.07080    0.09090   11.65480    2.62820   -9999.25   -9999.25   -9999.25
 5641.50000   -9999.25   -9999.25  110.46700    0.18970    4.79420    0.05390    0.09300   11.66580    2.64910   -9999.25   -9999.25   -9999.25
 5642.00000   -9999.25   -9999.25  109.28190    0.18500    4.97600    0.04210    0.09410   11.67940    2.64940   -9999.25   -9999.25   -9999.25
 5642.50000   -9999.25   -9999.25  107.93360    0.18860    5.01920    0.04320    0.08530   11.76980    2.62330   -9999.25   -9999.25   -9999.25
 5643.00000   -9999.25   -9999.25  106.78820    0.19980    5.00790    0.05570    0.07270   11.83780    2.61410   -9999.25   -9999.25   -9999.25
 5643.50000   -9999.25   -9999.25  106.90890    0.21110    4.99670    0.06380    0.05200   11.88500    2.60920   -9999.25   -9999.25   -9999.25
 5644.00000   -9999.25   -9999.25  109.44290    0.22330    4.98710    0.06200    0.03820   11.89190    2.60570   -9999.25   -9999.25   -9999.25
 5644.50000   -9999.25   -9999.25  112.49430    0.22810    5.00630    0.06540    0.03970   11.83600    2.58540   -9999.25   -9999.25   -9999.25
 5645.00000   -9999.25   -9999.25  114.52360    0.21690    5.06940    0.07300    0.03950   11.76790    2.58920   -9999.25   -9999.25   -9999.25
 5645.50000   -9999.25   -9999.25  116.82860    0.20470    5.00800    0.07860    0.03360   11.71430    2.60510   -9999.25   -9999.25   -9999.25
