~Version ---------------------------------------------------
VERS.   2.0 : CWLS log ASCII Standard -VERSION 2.0
WRAP.    NO : One line per depth step
DLM . SPACE : Column Data Section Delimiter
~Well ------------------------------------------------------
STRT .F                  186.0 : START DEPTH
STOP .F                11503.0 : STOP DEPTH
STEP .F                    0.5 : STEP
NULL .                -9999.25 : NULL VALUE
COMP .                         : COMPANY
WELL .                         : WELL
FLD  .                         : FIELD
LOC  .                         : LOCATION
PROV .                         : PROVINCE
CNTY .                         : COUNTY
STAT .                         : STATE
CTRY .                         : COUNTRY
SRVC .                         : SERVICE COMPANY
DATE .                         : DATE
UWI  .                         : UNIQUE WELL ID
API  .                         : API NUMBER
SLAT .WGS84 0.7799653344071054 : SURFACE LATITUDE
SLON .WGS84  6.896152414964007 : SURFACE LONGITUDE
DATUM.F                2947.61 : DEPTH DATUM ELEV
~Curve Information -----------------------------------------
DEPT   .F     : 1 MEASURED DEPTH
DTCO   .US/F  : DELTA-T COMPRESSIONAL
DTSM   .US/F  : DELTA-T SHEAR
HSGRD  .GAPI  : HNGS STANDARD GAMMA RAY FROM DENSITY LOG
TNPH_LS.DEC   : THERMAL NEUTRON POROSITY [LIMESTONE]
PEFZ   .B/E   : HRDD STANDARD RESOLUTION FORMATION PHOTOELECTRIC FACTOR
DPHZ_LS.DEC   : HGRD STANDARD RESOLUTION DENSITY POROSITY
HDRA   .G/C3  : HRDD SPINE AND RIBS DENSITY CORRECTION
HCALD  .IN    : HRCC CALIPER CALIBRATED FROM DENSITY LOG
RHOZ   .G/C3  : HRDD STANDARD RESOLUTION FORMATION DENSITY
RXOZ   .OHMM  : INVADED FORMATION RESISTIVITY FILTERED AT 18 INCHES
RLA4   .OHMM  : APPARENT RESISTIVITY FROM COMPUTED FOCUSING MODE 4
RLA5   .OHMM  : APPARENT RESISTIVITY FROM COMPUTED FOCUSING MODE 5
~Params ----------------------------------------------------
~Other -----------------------------------------------------
~ASCII -----------------------------------------------------
# ...
 10658.00000   74.53390  129.13800  134.19150    0.22330    3.51210    0.06140    0.00610    8.61220    2.61300    7.74120    9.87280   10.24010
 10658.50000   71.27550  125.41620  131.48270    0.24010    3.44140    0.05980    0.00520    8.61020    2.61870    8.63850   11.42760   12.39820
 10659.00000   70.15910  122.49830  126.97260    0.22500    3.35700    0.05430    0.00510    8.60810    2.62590    9.81520   14.37320   16.39670
 10659.50000   70.34920  121.88350  118.47690    0.19270    3.27520    0.05240    0.00510    8.60610    2.63310   11.97600   17.34750   18.49410
 10660.00000   71.14190  122.95380  108.18610    0.17130    3.22630    0.05170    0.00520    8.60410    2.64280   15.51740   21.85970   25.82340
 10660.50000   71.98060  124.72420   97.10730    0.15720    3.22660    0.04670    0.00530    8.60210    2.64820   21.41180   27.64140   31.74620
 10661.00000   72.21910  126.09650   94.87110    0.15940    3.23600    0.04220    0.00540    8.59790    2.64760   23.26860   28.18420   36.15990
 10661.50000   71.93990  126.45130   96.88600    0.17380    3.26690    0.04180    0.00540    8.59340    2.64150   15.68610   18.17380   21.17660
 10662.00000   71.38530  126.11160  100.19120    0.18480    3.33290    0.04550    0.00530    8.58880    2.64040   12.76100   15.04640   15.66800
 10662.50000   70.98120  125.56680  102.90620    0.18900    3.39690    0.04540    0.00510    8.61480    2.63970   11.38970   14.46340   14.90670
 10663.00000   69.76970  123.05920  104.42770    0.18950    3.41200    0.04330    0.00470    8.64370    2.63940   12.50750   13.90070   14.64920
 10663.50000   68.65360  119.69700  103.12410    0.18940    3.45240    0.04310    0.00440    8.67260    2.63980   12.25100   14.73070   15.29550
 10664.00000   68.97820  118.97640   97.13790    0.17690    3.56830    0.04600    0.00420    8.65800    2.64350   11.64580   15.10520   15.86670
 10664.50000   70.11450  121.02740   90.37510    0.16210    3.84320    0.04380    0.00410    8.62050    2.65780   11.46630   15.71200   18.89030
 10665.00000   71.30910  122.71820   85.10840    0.14510    3.96100    0.03660    0.00390    8.57070    2.66650   11.77450   21.49240   26.37960
 10665.50000   72.32720  124.45330   83.08180    0.13870    3.96100    0.02940    0.00380    8.50600    2.66640   15.57560   38.41550   44.61980
 10666.00000   72.88290  127.91370   88.56650    0.15490    3.85160    0.03210    0.00360    8.49490    2.65030   16.39840   25.66550   40.02150
 10666.50000   73.35050  130.62850   96.44080    0.18260    3.67670    0.04620    0.00350    8.54890    2.61850   14.23570   17.09140   18.94080
 10667.00000   73.74840  132.03750  104.15260    0.19840    3.48490    0.05620    0.00340    8.60440    2.61510   11.22560   15.03400   16.50860
 10667.50000   73.61750  132.35980  108.87760    0.20390    3.46610    0.05930    0.00320    8.65780    2.61540   10.95790   14.54140   15.62500
 10668.00000   73.43410  132.45740  110.58870    0.20710    3.39390    0.05780    0.00310    8.69020    2.62100   11.45000   14.21250   15.32850
 10668.50000   73.50260  132.27730  111.10690    0.20480    3.39740    0.05690    0.00290    8.69050    2.62050   12.46960   14.20010   15.47430
 10669.00000   73.73060  132.00310  110.78850    0.20280    3.37590    0.05680    0.00280    8.69070    2.61840   13.26020   14.46280   15.79150
 10669.50000   73.85160  131.80780  110.80360    0.20330    3.36230    0.05660    0.00260    8.69010    2.61470   13.09010   14.73040   15.86610
 10670.00000   73.85520  131.76840  110.84120    0.20420    3.36110    0.06140    0.00250    8.67220    2.61270   12.57560   14.89250   15.84490
 10670.50000   73.85540  131.63060  110.07820    0.20390    3.36060    0.06000    0.00230    8.65390    2.61080   12.24510   14.89140   15.75010
 10671.00000   73.85570  130.92880  108.40730    0.19970    3.36000    0.05940    0.00220    8.61200    2.61150   12.20150   14.89140   15.48010
 10671.50000   73.80690  130.36550  105.94810    0.19530    3.35920    0.05910    0.00210    8.60310    2.61520   12.45760   14.75500   15.21470
 10672.00000   73.03360  129.59220  106.77670    0.19510    3.36310    0.05790    0.00190    8.59420    2.61890   12.27410   14.43230   14.98430
 10672.50000   71.98480  128.44730  108.48670    0.19610    3.37460    0.05640    0.00180    8.60360    2.62090   12.00680   14.21680   14.90630
 10673.00000   71.07160  127.63560  107.73710    0.19680    3.38030    0.05640    0.00160    8.62540    2.61510   11.75110   14.44340   15.25750
 10673.50000   70.47120  126.67600  102.88110    0.19740    3.33670    0.05910    0.00180    8.64620    2.60820   11.64930   15.64660   16.73900
 10674.00000   69.91890  125.71650  100.88470    0.19720    3.28800    0.06190    0.00200    8.65040    2.60890   12.62450   16.79070   17.97150
 10674.50000   69.44750  124.75290   99.16090    0.18790    3.23990    0.06080    0.00210    8.65080    2.62560   13.88380   16.19220   17.34870
 10675.00000   69.10980  123.78840   97.41450    0.17840    3.27580    0.05040    0.00230    8.65110    2.64380   15.47100   16.72780   17.61240
 10675.50000   68.63410  123.60760   93.44270    0.16890    3.33560    0.04120    0.00250    8.65130    2.64590   17.55710   21.53140   24.35040
 10676.00000   68.19280  124.48870   89.69750    0.16300    3.58070    0.03980    0.00270    8.64830    2.65080   18.67810   21.10070   22.60590
 10676.50000   68.14020  126.36850   88.30590    0.15720    3.62440    0.04220    0.00280    8.62840    2.65980   16.77550   18.95580   20.46820
 10677.00000   69.92920  128.25560   87.61080    0.15140    3.65200    0.03920    0.00300    8.63700    2.66880   19.43240   21.65820   25.33230
 10677.50000   72.11830  131.41600   89.42730    0.14570    3.61040    0.02980    0.00320    8.65320    2.67390   23.39010   31.02030   36.25420
 10678.00000   73.34840  133.12840   97.50070    0.14730    3.54410    0.02250    0.00340    8.67230    2.65530   13.74370   17.73050   20.07740
 10678.50000   74.17490  133.69340  104.75390    0.16150    3.44850    0.03140    0.00350    8.69140    2.62270   10.03370   12.06300   13.56890
 10679.00000   74.61460  133.65010  110.92360    0.18530    3.22970    0.05100    0.00370    8.71040    2.60240   10.50980   13.91840   14.69340
 10679.50000   74.63450  133.22770  113.55070    0.19420    3.13040    0.06380    0.00390    8.72950    2.60360   12.23000   14.66180   15.40830
 10680.00000   74.63560  131.44910  114.66940    0.19780    3.18340    0.06690    0.00400    8.77040    2.60740   13.09470   15.25400   15.70860
 10680.50000   74.62090  130.19260  115.73220    0.19710    3.30020    0.06170    0.00530    8.82040    2.61130   13.24910   15.54310   15.89630
 10681.00000   73.71900  127.77720  115.71500    0.19360    3.37160    0.05920    0.00660    8.84960    2.61510   13.27550   15.67950   16.14290
 10681.50000   70.77990  125.44030  115.67270    0.19040    3.38230    0.05740    0.00790    8.87820    2.61990   12.99010   15.90330   16.42260
 10682.00000   69.20140  123.51000  115.73430    0.18390    3.39300    0.05580    0.00670    8.90650    2.62580   12.89750   16.39130   16.82960
 10682.50000   67.95150  122.75310  114.48800    0.17550    3.40050    0.05180    0.00500    8.93470    2.64060   13.25440   20.03610   26.94550
 10683.00000   68.03030  122.21210  107.07410    0.16520    3.41090    0.04250    0.00320    8.94890    2.65540   14.27970   32.47370   41.30620
 10683.50000   68.46530  122.58980   96.03910    0.15440    3.49680    0.03090    0.00150    8.94890    2.66880   18.77930   20.50470   26.95130
 10684.00000   70.91760  127.55740   88.31130    0.13920    3.51240    0.02620   -0.00030    8.94900    2.66760   16.72930   34.15620   45.35720
 10684.50000   74.35190  133.10240   88.36510    0.12490    3.47740    0.03120   -0.00200    8.94900    2.63910   15.84390   42.16400   50.59710
 10685.00000   78.78300  138.39380  100.27970    0.13140    3.35110    0.04700   -0.00370    8.98840    2.61520   15.20700   20.50990   26.10370
 10685.50000   80.11250  140.71650  112.19430    0.16410    3.16480    0.06020   -0.00190    9.04150    2.59550   11.43530   13.29170   15.07400
