~Version ---------------------------------------------------
VERS.   2.0 : CWLS log ASCII Standard -VERSION 2.0
WRAP.    NO : One line per depth step
DLM . SPACE : Column Data Section Delimiter
~Well ------------------------------------------------------
STRT .F                  186.0 : START DEPTH
STOP .F                11503.0 : STOP DEPTH
STEP .F                    0.5 : STEP
NULL .                -9999.25 : NULL VALUE
COMP .                         : COMPANY
WELL .                         : WELL
FLD  .                         : FIELD
LOC  .                         : LOCATION
PROV .                         : PROVINCE
CNTY .                         : COUNTY
STAT .                         : STATE
CTRY .                         : COUNTRY
SRVC .                         : SERVICE COMPANY
DATE .                         : DATE
UWI  .                         : UNIQUE WELL ID
API  .                         : API NUMBER
SLAT .WGS84 0.7799653344071054 : SURFACE LATITUDE
SLON .WGS84  6.896152414964007 : SURFACE LONGITUDE
DATUM.F                2947.61 : DEPTH DATUM ELEV
~Curve Information -----------------------------------------
DEPT   .F     : 1 MEASURED DEPTH
DTCO   .US/F  : DELTA-T COMPRESSIONAL
DTSM   .US/F  : DELTA-T SHEAR
HSGRD  .GAPI  : HNGS STANDARD GAMMA RAY FROM DENSITY LOG
TNPH_LS.DEC   : THERMAL NEUTRON POROSITY [LIMESTONE]
PEFZ   .B/E   : HRDD STANDARD RESOLUTION FORMATION PHOTOELECTRIC FACTOR
DPHZ_LS.DEC   : HGRD STANDARD RESOLUTION DENSITY POROSITY
HDRA   .G/C3  : HRDD SPINE AND RIBS DENSITY CORRECTION
HCALD  .IN    : HRCC CALIPER CALIBRATED FROM DENSITY LOG
RHOZ   .G/C3  : HRDD STANDARD RESOLUTION FORMATION DENSITY
RXOZ   .OHMM  : INVADED FORMATION RESISTIVITY FILTERED AT 18 INCHES
RLA4   .OHMM  : APPARENT RESISTIVITY FROM COMPUTED FOCUSING MODE 4
RLA5   .OHMM  : APPARENT RESISTIVITY FROM COMPUTED FOCUSING MODE 5
~Params ----------------------------------------------------
~Other -----------------------------------------------------
~ASCII -----------------------------------------------------
# ...
 6010.00000   -9999.25   -9999.25  131.17040    0.21910    4.58880    0.17720    0.18080   11.43780    2.37970    0.70620   12.57990   12.90830
 6010.50000   -9999.25   -9999.25  131.20660    0.21100    4.38150    0.21070    0.15980   11.96490    2.40220    0.38990   12.08170   12.55820
 6011.00000   -9999.25   -9999.25  131.57910    0.20290    4.09730    0.19970    0.15960   12.56820    2.42460    0.28240   12.19730   12.86380
 6011.50000   -9999.25   -9999.25  132.57930    0.20050    3.80260    0.17390    0.16320   12.88250    2.45780    0.31380   13.16390   13.78820
 6012.00000   -9999.25   -9999.25  131.41150    0.19990    3.54620    0.15780    0.17170   12.59220    2.47620    0.42010   13.92020   14.31990
 6012.50000   -9999.25   -9999.25  127.21540    0.19990    3.43820    0.14520    0.18030   11.93370    2.47680    0.58780   13.58850   13.97680
 6013.00000   -9999.25   -9999.25  123.49010    0.19960    3.48250    0.14690    0.18830   11.51380    2.47750    0.76920   13.17020   13.55330
 6013.50000   -9999.25   -9999.25  122.36330    0.19260    3.59610    0.12880    0.19600   11.29150    2.53630    0.86180   13.34900   13.69910
 6014.00000   -9999.25   -9999.25  121.33820    0.18210    3.84980    0.09790    0.20580   11.04260    2.56420    0.97720   13.96830   14.36920
 6014.50000   -9999.25   -9999.25  120.34330    0.17870    3.96150    0.09010    0.21570   10.85100    2.56620    1.30160   14.65240   15.09880
 6015.00000   -9999.25   -9999.25  120.42110    0.19030    4.16390    0.09380    0.21630   10.66610    2.54920    1.83200   15.06400   15.57280
 6015.50000   -9999.25   -9999.25  122.84650    0.19980    4.21400    0.09840    0.21410   10.62690    2.55350    1.27670   14.33720   14.77610
 6016.00000   -9999.25   -9999.25  125.82990    0.20770    4.17390    0.09120    0.21470   10.77110    2.56830    0.91650   13.88810   14.24330
 6016.50000   -9999.25   -9999.25  129.40260    0.21350    4.12500    0.08390    0.21410   10.94060    2.57810    0.78470   13.52500   13.93640
 6017.00000   -9999.25   -9999.25  132.01060    0.21760    4.12490    0.08240    0.21360   10.84670    2.56190    0.79840   12.99510   13.65240
 6017.50000   -9999.25   -9999.25  130.98600    0.22920    4.21590    0.10130    0.20220   10.66020    2.51700    1.34900   11.98560   12.91510
 6018.00000   -9999.25   -9999.25  128.41360    0.23200    4.32280    0.11910    0.18540   10.50220    2.50450    1.03290   11.47430   12.78100
 6018.50000   -9999.25   -9999.25  124.93050    0.23020    4.47620    0.13260    0.17980   10.33210    2.50170    1.04700   12.73610   13.26160
 6019.00000   -9999.25   -9999.25  121.42520    0.21750    4.61220    0.12640    0.18250   10.14010    2.50250    1.12430   13.07330   13.43770
 6019.50000   -9999.25   -9999.25  120.44970    0.20480    4.72490    0.12480    0.19620   10.03970    2.50450    1.10750   12.42750   13.78410
 6020.00000   -9999.25   -9999.25  122.30750    0.19710    4.83410    0.12310    0.20340   10.02650    2.51910    1.00240   13.74740   15.88920
 6020.50000   -9999.25   -9999.25  124.16530    0.18970    4.92360    0.11400    0.20730    9.93640    2.54300    0.89330   14.05410   15.12410
 6021.00000   -9999.25   -9999.25  125.47160    0.18840    5.01320    0.09950    0.21000    9.88170    2.56680    0.78680   14.52740   15.37220
 6021.50000   -9999.25   -9999.25  125.18400    0.18700    5.12860    0.07960    0.21250    9.83530    2.59060    0.74960   15.21970   15.72920
 6022.00000   -9999.25   -9999.25  124.08450    0.18550    5.27030    0.07220    0.21520    9.67190    2.58910    1.25780   15.25330   16.09440
 6022.50000   -9999.25   -9999.25  122.82290    0.18260    5.42180    0.09720    0.21010    9.48040    2.42820    2.34150   15.30940   16.32150
 6023.00000   -9999.25   -9999.25  121.56130    0.18120    5.54970    0.15850    0.19860    9.31070    2.41710    1.25640   15.32550   16.20370
 6023.50000   -9999.25   -9999.25  120.82070    0.18190    5.47440    0.18290    0.17540    9.28300    2.41430    0.81030   15.02510   15.53900
 6024.00000   -9999.25   -9999.25  122.11980    0.18270    5.35310    0.15260    0.16950    9.33030    2.48610    0.56460   14.54120   15.01970
 6024.50000   -9999.25   -9999.25  123.89350    0.18350    5.23180    0.12340    0.17590    9.51440    2.51220    0.55650   14.32420   15.04920
 6025.00000   -9999.25   -9999.25  124.08800    0.18390    5.22230    0.11930    0.18310    9.69690    2.51960    0.73240   14.81490   15.41350
 6025.50000   -9999.25   -9999.25  120.82360    0.18440    5.43520    0.11840    0.19070    9.66720    2.52100    0.81630   15.29230   15.73430
 6026.00000   -9999.25   -9999.25  116.71290    0.18280    5.67500    0.11870    0.19780    9.65160    2.51940    0.97340   15.19910   15.69850
 6026.50000   -9999.25   -9999.25  115.64720    0.18220    5.91480    0.12610    0.20500    9.68500    2.48530    1.22100   14.42110   14.77380
 6027.00000   -9999.25   -9999.25  116.37950    0.18770    6.18490    0.15420    0.21210   10.17920    2.45150    1.12760   13.71270   13.96350
 6027.50000   -9999.25   -9999.25  117.03640    0.19830    6.41160    0.16080    0.20700   10.60610    2.45800    0.91490   13.62760   13.72750
 6028.00000   -9999.25   -9999.25  116.99950    0.20930    6.53380    0.14990    0.19850   10.95510    2.48290    0.77690   13.62200   13.85980
 6028.50000   -9999.25   -9999.25  116.52680    0.21810    6.65610    0.13000    0.19390   11.17460    2.50770    0.69190   13.67980   13.99710
 6029.00000   -9999.25   -9999.25  117.67460    0.21210    6.78550    0.11790    0.18880   11.04410    2.51950    0.67760   14.14910   14.65480
 6029.50000   -9999.25   -9999.25  118.88420    0.20110    6.92500    0.12620    0.18370   10.90380    2.50170    0.80210   15.10630   15.33320
 6030.00000   -9999.25   -9999.25  118.62510    0.19020    7.02930    0.15690    0.17840   10.70520    2.41870    0.95350   14.79270   15.17000
 6030.50000   -9999.25   -9999.25  118.10420    0.19160    7.06040    0.18110    0.16760   10.47480    2.41800    0.95000   14.35150   14.68880
 6031.00000   -9999.25   -9999.25  118.65720    0.19770    7.03670    0.16670    0.15760   10.28450    2.49020    0.81670   14.11540   14.42070
 6031.50000   -9999.25   -9999.25  120.78620    0.20380    7.01290    0.12320    0.16420   10.22870    2.53920    0.80840   14.51860   15.10460
 6032.00000   -9999.25   -9999.25  124.00500    0.20720    6.98910    0.09440    0.17360   10.24450    2.56080    1.07200   15.62730   15.87550
 6032.50000   -9999.25   -9999.25  126.03820    0.20230    6.99670    0.08450    0.16530   10.18540    2.57380    1.20980   14.89040   15.22490
 6033.00000   -9999.25   -9999.25  123.63530    0.19540    7.02340    0.10340    0.14850   10.01490    2.52930    1.03090   14.03230   14.34920
 6033.50000   -9999.25   -9999.25  117.51300    0.20050    7.04000    0.11620    0.12910    9.83610    2.52380    0.63350   13.22360   13.52380
 6034.00000   -9999.25   -9999.25  114.28280    0.20820    6.99380    0.08580    0.10760    9.84660    2.59160    0.40190   12.54780   13.08850
 6034.50000   -9999.25   -9999.25  113.80110    0.21630    6.10680    0.05340    0.09500    9.96830    2.66340    0.39440   12.74140   13.87610
 6035.00000   -9999.25   -9999.25  115.66140    0.21520    4.44200    0.02840    0.07880    9.83130    2.66490    0.76480   14.10020   15.23940
 6035.50000   -9999.25   -9999.25  117.26110    0.20630    3.71080    0.03800    0.05840    9.58040    2.61250    5.77420   15.49160   16.46170
 6036.00000   -9999.25   -9999.25  119.31530    0.19740    3.33650    0.05740    0.03400    9.41370    2.61320   15.04750   15.58200   16.27700
 6036.50000   -9999.25   -9999.25  120.72930    0.18850    3.26720    0.05660    0.01730    9.45130    2.62970   14.88420   15.33320   16.10050
 6037.00000   -9999.25   -9999.25  121.66370    0.18440    3.20290    0.04770    0.01290    9.45740    2.64910   14.61710   15.32420   16.66220
 6037.50000   -9999.25   -9999.25  121.57190    0.18820    3.20470    0.03890    0.01150    9.40030    2.64520   14.60210   15.32420   16.06230
