~Version ---------------------------------------------------
VERS.   2.0 : CWLS log ASCII Standard -VERSION 2.0
WRAP.    NO : One line per depth step
DLM . SPACE : Column Data Section Delimiter
~Well ------------------------------------------------------
STRT .F                  186.0 : START DEPTH
STOP .F                11503.0 : STOP DEPTH
STEP .F                    0.5 : STEP
NULL .                -9999.25 : NULL VALUE
COMP .                         : COMPANY
WELL .                         : WELL
FLD  .                         : FIELD
LOC  .                         : LOCATION
PROV .                         : PROVINCE
CNTY .                         : COUNTY
STAT .                         : STATE
CTRY .                         : COUNTRY
SRVC .                         : SERVICE COMPANY
DATE .                         : DATE
UWI  .                         : UNIQUE WELL ID
API  .                         : API NUMBER
SLAT .WGS84 0.7799653344071054 : SURFACE LATITUDE
SLON .WGS84  6.896152414964007 : SURFACE LONGITUDE
DATUM.F                2947.61 : DEPTH DATUM ELEV
~Curve Information -----------------------------------------
DEPT   .F     : 1 MEASURED DEPTH
DTCO   .US/F  : DELTA-T COMPRESSIONAL
DTSM   .US/F  : DELTA-T SHEAR
HSGRD  .GAPI  : HNGS STANDARD GAMMA RAY FROM DENSITY LOG
TNPH_LS.DEC   : THERMAL NEUTRON POROSITY [LIMESTONE]
PEFZ   .B/E   : HRDD STANDARD RESOLUTION FORMATION PHOTOELECTRIC FACTOR
DPHZ_LS.DEC   : HGRD STANDARD RESOLUTION DENSITY POROSITY
HDRA   .G/C3  : HRDD SPINE AND RIBS DENSITY CORRECTION
HCALD  .IN    : HRCC CALIPER CALIBRATED FROM DENSITY LOG
RHOZ   .G/C3  : HRDD STANDARD RESOLUTION FORMATION DENSITY
RXOZ   .OHMM  : INVADED FORMATION RESISTIVITY FILTERED AT 18 INCHES
RLA4   .OHMM  : APPARENT RESISTIVITY FROM COMPUTED FOCUSING MODE 4
RLA5   .OHMM  : APPARENT RESISTIVITY FROM COMPUTED FOCUSING MODE 5
~Params ----------------------------------------------------
~Other -----------------------------------------------------
~ASCII -----------------------------------------------------
# ...
 6402.00000   -9999.25   -9999.25  119.43430    0.21030    5.10440    0.10700    0.16210   10.36980    2.53610    1.02600   13.23030   13.61530
 6402.50000   -9999.25   -9999.25  120.90560    0.21690    5.02750    0.09290    0.17990   10.67110    2.55710    1.04780   12.32120   12.56910
 6403.00000   -9999.25   -9999.25  123.10190    0.21700    5.03440    0.08880    0.18100   10.54000    2.56950    1.65980   12.18050   12.55640
 6403.50000   -9999.25   -9999.25  125.29820    0.20940    5.17160    0.08580    0.17860   10.34800    2.57980    2.76030   12.70910   13.07030
 6404.00000   -9999.25   -9999.25  126.09640    0.19140    5.33730    0.07810    0.18140   10.28860    2.58990    3.06500   13.10490   13.33450
 6404.50000   -9999.25   -9999.25  127.41230    0.17750    5.51130    0.07480    0.18650   10.26600    2.58250    1.45000   13.16270   13.54960
 6405.00000   -9999.25   -9999.25  127.51860    0.17330    5.55340    0.08030    0.19150   10.24020    2.57760    1.18770   13.96370   14.81330
 6405.50000   -9999.25   -9999.25  126.73260    0.17100    5.46870    0.08410    0.18070    9.81130    2.59360    1.04280   15.11590   15.87560
 6406.00000   -9999.25   -9999.25  126.40670    0.17000    5.26600    0.07530    0.16840    9.56880    2.59220    1.29970   15.90960   16.20900
 6406.50000   -9999.25   -9999.25  126.93560    0.16940    5.09740    0.07950    0.15920    9.37160    2.56330    2.04630   15.90960   16.13990
 6407.00000   -9999.25   -9999.25  128.52290    0.17710    5.01610    0.09060    0.15010    9.38700    2.55770    2.22090   14.32880   15.11030
 6407.50000   -9999.25   -9999.25  129.19210    0.19010    4.98440    0.09590    0.15680    9.58720    2.56030    1.76100   12.54380   13.64000
 6408.00000   -9999.25   -9999.25  128.55540    0.20550    4.98320    0.08400    0.16370    9.70850    2.58540    1.28910   11.60740   12.55810
 6408.50000   -9999.25   -9999.25  127.15230    0.20750    5.00010    0.07200    0.17170    9.76950    2.60120    1.22250   11.48850   12.66230
 6409.00000   -9999.25   -9999.25  127.13240    0.20810    5.02590    0.06910    0.18210    9.82960    2.61520    1.71120   11.93470   13.47560
 6409.50000   -9999.25   -9999.25  128.01330    0.21080    5.07040    0.06110    0.18570    9.90540    2.62930    2.38250   12.51190   13.99410
 6410.00000   -9999.25   -9999.25  129.37820    0.21260    5.24280    0.05560    0.18840    9.87960    2.62940    2.42370   12.65400   14.10080
 6410.50000   -9999.25   -9999.25  130.74310    0.20800    5.41760    0.04980    0.18870    9.83620    2.61590    1.94300   12.14020   13.65440
 6411.00000   -9999.25   -9999.25  131.93660    0.19980    5.59160    0.05970    0.17960    9.88670    2.57290    1.79940   11.67180   12.70820
 6411.50000   -9999.25   -9999.25  130.81040    0.19150    5.72150    0.08670    0.16500    9.96350    2.57520    1.48070   11.79200   13.01310
 6412.00000   -9999.25   -9999.25  127.48330    0.18330    5.64170    0.08080    0.15470    9.99880    2.60470    1.32460   12.06220   13.53130
 6412.50000   -9999.25   -9999.25  123.00160    0.17570    5.51580    0.06270    0.15710    9.92890    2.65530    1.51130   12.58000   14.07750
 6413.00000   -9999.25   -9999.25  118.83350    0.17020    5.44420    0.03780    0.15940    9.68470    2.65040    2.07120   14.82300   16.30630
 6413.50000   -9999.25   -9999.25  117.94260    0.16550    5.53150    0.03820    0.15720    9.46390    2.62520    3.25870   14.23370   15.76770
 6414.00000   -9999.25   -9999.25  120.17800    0.16110    5.65400    0.06000    0.14930    9.38900    2.60510    2.06730   14.63350   15.15740
 6414.50000   -9999.25   -9999.25  121.78300    0.16500    5.66870    0.06660    0.14150    9.52290    2.60470    1.60900   13.59210   14.79860
 6415.00000   -9999.25   -9999.25  123.66370    0.17790    5.54130    0.06140    0.13370    9.67670    2.60430    1.51190   11.68930   12.61800
 6415.50000   -9999.25   -9999.25  125.98580    0.18760    5.39500    0.04590    0.12620    9.78850    2.63320    1.72940   11.01010   11.44590
 6416.00000   -9999.25   -9999.25  126.54750    0.19280    5.35440    0.04610    0.12300    9.95360    2.63750    2.79340   10.29300   10.75180
 6416.50000   -9999.25   -9999.25  126.63100    0.19980    5.37130    0.06260    0.11990   10.11660    2.60850    3.28690    8.73800   10.09540
 6417.00000   -9999.25   -9999.25  128.64080    0.21670    5.41290    0.06450    0.11680   10.16860    2.61660    2.78920    7.63700    8.14230
 6417.50000   -9999.25   -9999.25  133.40610    0.22960    5.09960    0.05720    0.11280   10.20550    2.63520    2.32980    7.92330    8.21820
 6418.00000   -9999.25   -9999.25  136.80600    0.23920    4.76820    0.04360    0.10720   10.21120    2.64200    3.27070    8.16960    8.43270
 6418.50000   -9999.25   -9999.25  138.11490    0.25100    4.63340    0.05420    0.10060   10.25020    2.61500    4.24270    8.13850    8.39300
 6419.00000   -9999.25   -9999.25  134.70080    0.24840    4.62120    0.07000    0.09310   10.31890    2.58900    4.01770    8.33490    8.65310
 6419.50000   -9999.25   -9999.25  130.93200    0.23880    4.65640    0.07620    0.07650   10.43280    2.58850    3.23130    8.90620    9.32470
 6420.00000   -9999.25   -9999.25  127.23230    0.22760    4.69270    0.05980    0.08380   10.25050    2.64020    3.54190    9.54770   10.10660
 6420.50000   -9999.25   -9999.25  124.83610    0.21660    4.72310    0.04600    0.09500    9.91860    2.63240    4.49260   10.03400   11.12020
 6421.00000   -9999.25   -9999.25  124.93830    0.20970    4.87070    0.04750    0.10350    9.65790    2.61530    5.56770    9.81660   11.08940
 6421.50000   -9999.25   -9999.25  127.28940    0.21470    5.21070    0.06260    0.10990    9.42090    2.59820    3.99350    9.38490   10.01260
 6422.00000   -9999.25   -9999.25  130.49740    0.22940    5.58270    0.07590    0.11290    9.43210    2.58730    2.89450    9.34260   10.06950
 6422.50000   -9999.25   -9999.25  133.66280    0.23830    5.77790    0.07100    0.11480    9.47970    2.60360    2.67730    9.93530   10.51270
 6423.00000   -9999.25   -9999.25  135.90600    0.25190    5.87650    0.05900    0.11610    9.50360    2.61560    4.12600   10.19500   10.63630
 6423.50000   -9999.25   -9999.25  136.39800    0.26780    5.95870    0.06190    0.11750    9.48740    2.60550    2.95440    9.35580    9.76480
 6424.00000   -9999.25   -9999.25  135.50790    0.25940    6.00270    0.06300    0.11530    9.51480    2.60690    1.86770    8.59120    9.27460
 6424.50000   -9999.25   -9999.25  133.45490    0.24880    5.53010    0.03080    0.10940    9.54210    2.69410    1.90830    9.63820   10.82110
 6425.00000   -9999.25   -9999.25  131.09750    0.22580    4.72640    0.00470    0.10260    9.51940    2.71880    3.39310   11.67790   12.59020
 6425.50000   -9999.25   -9999.25  127.32430    0.19520    3.73750   -0.00430    0.08090    9.42590    2.71890   10.01110   12.76820   13.44980
 6426.00000   -9999.25   -9999.25  123.33780    0.17460    3.41320    0.03560    0.04660    9.35610    2.62910   11.20840   13.42920   13.87240
 6426.50000   -9999.25   -9999.25  120.83420    0.16810    3.25120    0.05920    0.01920    9.30240    2.61150   11.76430   13.63490   14.25400
 6427.00000   -9999.25   -9999.25  122.37440    0.16600    3.08930    0.06230    0.00500    9.26210    2.61200   12.36250   13.86440   14.64610
 6427.50000   -9999.25   -9999.25  124.13610    0.16700    2.97080    0.05850    0.00420    9.22180    2.61550   12.71790   14.25650   14.93480
 6428.00000   -9999.25   -9999.25  124.35930    0.17200    2.87880    0.06000    0.00560    9.18140    2.62390   13.00990   14.65660   15.20720
 6428.50000   -9999.25   -9999.25  123.27580    0.17390    2.84170    0.05480    0.00840    9.15390    2.63160   13.23410   14.97660   15.48460
 6429.00000   -9999.25   -9999.25  122.84610    0.17380    2.85880    0.04920    0.01320    9.15320    2.63300   13.33680   15.26080   15.61490
 6429.50000   -9999.25   -9999.25  122.49920    0.16980    2.86440    0.04720    0.01630    9.15240    2.62650   13.47120   15.48370   15.70190
