~Version ---------------------------------------------------
VERS.   2.0 : CWLS log ASCII Standard -VERSION 2.0
WRAP.    NO : One line per depth step
DLM . SPACE : Column Data Section Delimiter
~Well ------------------------------------------------------
STRT .F                  186.0 : START DEPTH
STOP .F                11503.0 : STOP DEPTH
STEP .F                    0.5 : STEP
NULL .                -9999.25 : NULL VALUE
COMP .                         : COMPANY
WELL .                         : WELL
FLD  .                         : FIELD
LOC  .                         : LOCATION
PROV .                         : PROVINCE
CNTY .                         : COUNTY
STAT .                         : STATE
CTRY .                         : COUNTRY
SRVC .                         : SERVICE COMPANY
DATE .                         : DATE
UWI  .                         : UNIQUE WELL ID
API  .                         : API NUMBER
SLAT .WGS84 0.7799653344071054 : SURFACE LATITUDE
SLON .WGS84  6.896152414964007 : SURFACE LONGITUDE
DATUM.F                2947.61 : DEPTH DATUM ELEV
~Curve Information -----------------------------------------
DEPT   .F     : 1 MEASURED DEPTH
DTCO   .US/F  : DELTA-T COMPRESSIONAL
DTSM   .US/F  : DELTA-T SHEAR
HSGRD  .GAPI  : HNGS STANDARD GAMMA RAY FROM DENSITY LOG
TNPH_LS.DEC   : THERMAL NEUTRON POROSITY [LIMESTONE]
PEFZ   .B/E   : HRDD STANDARD RESOLUTION FORMATION PHOTOELECTRIC FACTOR
DPHZ_LS.DEC   : HGRD STANDARD RESOLUTION DENSITY POROSITY
HDRA   .G/C3  : HRDD SPINE AND RIBS DENSITY CORRECTION
HCALD  .IN    : HRCC CALIPER CALIBRATED FROM DENSITY LOG
RHOZ   .G/C3  : HRDD STANDARD RESOLUTION FORMATION DENSITY
RXOZ   .OHMM  : INVADED FORMATION RESISTIVITY FILTERED AT 18 INCHES
RLA4   .OHMM  : APPARENT RESISTIVITY FROM COMPUTED FOCUSING MODE 4
RLA5   .OHMM  : APPARENT RESISTIVITY FROM COMPUTED FOCUSING MODE 5
~Params ----------------------------------------------------
~Other -----------------------------------------------------
~ASCII -----------------------------------------------------
# ...
 11050.00000   48.03290   92.02670   14.13530   -0.01110    5.00810    0.01670    0.00290    8.58850    2.68470  106.91970 1530.12100 4533.20610
 11050.50000   47.92180   91.99680   13.78520   -0.00960    5.00580    0.01530    0.00300    8.63450    2.68680   95.14450 1502.57120 5062.16890
 11051.00000   47.81070   91.96690   13.43500   -0.00930    5.01230    0.01120    0.00310    8.67240    2.69590   88.21830 1473.45340 5626.82570
 11051.50000   47.73900   91.93690   13.60230   -0.00900    5.02450    0.00700    0.00370    8.70360    2.70030   85.51960 1434.77270 6192.96630
 11052.00000   47.69630   91.91430   14.01770   -0.00880    5.02580    0.00820    0.00490    8.67990    2.70180  100.66020 1382.05360 5656.79740
 11052.50000   47.65360   91.89980   14.13850   -0.00870    5.03050    0.01150    0.00610    8.66660    2.69500  103.26080 1299.03690 4152.43260
 11053.00000   47.62370   91.88540   14.67990   -0.00900    5.04100    0.01420    0.00740    8.65680    2.68850   93.34960 1174.15390 3294.70680
 11053.50000   47.64000   91.87090   15.27930   -0.00990    5.04750    0.01370    0.00860    8.62740    2.69320   99.20290 1107.49820 3063.55100
 11054.00000   47.76110   91.85650   15.57590   -0.01090    5.02860    0.00820    0.00980    8.61520    2.69960  107.53390 1176.73510 3299.90750
 11054.50000   48.00890   91.84200   14.86740   -0.01210    4.99240    0.00490    0.01000    8.61750    2.70450  116.31010 1282.10750 3966.79660
 11055.00000   48.15740   91.82760   13.26950   -0.01330    5.00320    0.00440    0.00750    8.59650    2.70450  124.16400 1402.12410 4882.73340
 11055.50000   48.34610   91.81320   12.73870   -0.01490    5.02530    0.01040    0.00480    8.57540    2.69420  129.32920 1551.72740 6482.81690
 11056.00000   48.40780   91.79870   12.72380   -0.01560    5.04750    0.01140    0.00450    8.56720    2.69120  120.73480 1675.69140 8108.53170
 11056.50000   48.41420   91.78430   12.93090   -0.01550    5.06960    0.01010    0.00530    8.57300    2.69280  115.87960 1616.45480 6320.14990
 11057.00000   48.43990   91.86430   12.93400   -0.01490    5.11630    0.00890    0.00620    8.60430    2.69580  109.86810 1506.49210 4372.70260
 11057.50000   48.51520   92.05560   12.93720   -0.01440    5.22080    0.00760    0.00890    8.64380    2.69880   96.94460 1482.36840 3957.26320
 11058.00000   48.40900   92.24700   13.08260   -0.01300    5.35340    0.00580    0.01280    8.68780    2.70190   84.10160 1642.14650 5186.19090
 11058.50000   48.41930   92.43830   13.47470   -0.01100    5.42400    0.00090    0.01650    8.73400    2.71030   74.65970 1714.93880 6602.79980
 11059.00000   48.49110   92.62970   13.86680   -0.00890    5.39840   -0.00450    0.01990    8.75770    2.71660   77.69170 1553.47640 6862.17870
 11059.50000   48.69530   92.59880   13.92770   -0.00730    5.27770   -0.00320    0.02060    8.77160    2.71310   81.31940 1427.96140 5507.62550
 11060.00000   48.80080   92.39770   14.17380   -0.00590    5.15900    0.00620    0.01650    8.76810    2.70460   78.07180 1320.34010 3754.43360
 11060.50000   48.79150   92.33640   13.91830   -0.00500    5.13020    0.00840    0.01230    8.75550    2.69780   79.61730 1133.74060 2604.79980
 11061.00000   48.77390   92.22740   13.64570   -0.00460    5.12110    0.00920    0.00820    8.74630    2.69530   90.35350  931.23030  750.39040
 11061.50000   48.53700   92.14890   13.37300   -0.00500    5.11610    0.01020    0.00790    8.72060    2.69290   91.70010  923.44230  657.82980
 11062.00000   48.18530   92.06970   13.10040   -0.00590    5.11610    0.01170    0.00830    8.69480    2.69040   87.80500 1088.97060 2749.27270
 11062.50000   47.86100   91.99050   12.82770   -0.00780    5.10650    0.01320    0.00920    8.67100    2.68800   95.62940 1405.92480 6767.07810
 11063.00000   48.01770   91.91130   12.55990   -0.00970    5.04420    0.01490    0.01030    8.63670    2.68530  106.67020 1470.46510 6601.52050
 11063.50000   48.00990   91.83210   12.32780   -0.01170    4.97070    0.01660    0.01150    8.61550    2.68260  115.82910 1661.12010 8446.29980
 11064.00000   48.00220   91.75280   12.21190   -0.01360    4.93440    0.01730    0.01270    8.62180    2.68070  113.76980 1581.36470 7049.70210
 11064.50000   47.99440   91.68460   11.79620   -0.01420    5.05190    0.01630    0.01370    8.64460    2.68510  108.31700 1474.15720 4421.75440
 11065.00000   47.98670   91.78700   11.73090   -0.01300    5.16930    0.01230    0.01440    8.66750    2.69260  100.77030 1552.62220 5318.09570
 11065.50000   47.85390   91.88940   12.15400   -0.01180    5.24620    0.00730    0.01520    8.70910    2.70010   93.26990 1514.46740 6268.09180
 11066.00000   47.69150   91.99180   12.80280   -0.01060    5.24630    0.00400    0.01590    8.71940    2.70280   88.58480 1229.58790 3114.73490
 11066.50000   47.61600   92.09420   12.99280   -0.00940    5.25240    0.00660    0.01670    8.73860    2.69720   93.20130 1227.97300 3149.88430
 11067.00000   47.80080   92.19660   13.04480   -0.00910    5.25840    0.01100    0.01360    8.74900    2.69060  103.78890 1612.19910 7478.86280
 11067.50000   47.98810   92.29900   12.95270   -0.00880    5.31590    0.01260    0.01210    8.73650    2.69090   98.08520 1565.04870 8040.44970
 11068.00000   48.14960   92.40140   12.95180   -0.00940    5.35930    0.01100    0.01210    8.71620    2.69530   65.36230 1109.50570 4247.53170
 11068.50000   48.37610   92.50380   12.92420   -0.00990    5.35950    0.00940    0.01210    8.70640    2.69940   61.02900  863.11610 1753.33450
 11069.00000   48.39160   92.60620   12.53050   -0.01030    5.35980    0.00870    0.01210    8.67030    2.70010   68.25440  958.03830 1981.25590
 11069.50000   48.39670   92.70870   12.41280   -0.01070    5.35840    0.00980    0.01210    8.63510    2.69650   79.45230 1071.82400 2921.21510
 11070.00000   48.40570   92.78700   12.94140   -0.01120    5.25270    0.01110    0.01210    8.62490    2.69240   92.48750 1046.49000 2453.54270
 11070.50000   48.45280   92.81840   13.03400   -0.01160    5.11620    0.01130    0.01210    8.62240    2.69520  106.91320  964.52660 2007.86660
 11071.00000   48.93130   92.84970   13.09970   -0.01180    5.06980    0.00300    0.01210    8.61140    2.70560  116.40910 1175.39220 2699.86400
 11071.50000   49.26570   92.88100   12.79040   -0.01180    5.02350   -0.00510    0.01210    8.60030    2.71600  106.78640 1432.87960 3835.87080
 11072.00000   49.60000   92.91230   12.19580   -0.01080    5.04660   -0.00560    0.01460    8.60100    2.71920   93.26940 1555.46910 1041.19970
 11072.50000   49.67090   92.88630   12.24980   -0.00900    5.10150   -0.00500    0.01770    8.61690    2.71810   96.39900 1503.43840  888.06860
 11073.00000   49.44940   92.69200   13.09260   -0.00710    5.14960   -0.00240    0.02210    8.63040    2.71540  101.52940  991.62330  718.04600
 11073.50000   48.86570   92.56370   14.58890   -0.00540    5.15270    0.00100    0.02260    8.64420    2.71270   79.45250  694.99800  475.42530
 11074.00000   48.20460   92.58440   15.04950   -0.00490    5.05530    0.00810    0.02010    8.66310    2.69640   69.15980  574.07900  499.44950
 11074.50000   47.99880   92.60510   14.96290   -0.00490    5.04840    0.01280    0.01110    8.68200    2.68650   72.47840  763.90230 1333.64290
 11075.00000   47.86330   92.62580   14.51080   -0.00520    5.07200    0.01510    0.00500    8.69260    2.68350   98.31450 1224.34750 5843.19240
 11075.50000   47.81600   92.64650   14.05870   -0.00590    5.06390    0.01640    0.00470    8.68560    2.68270  127.93490 1701.00740 13382.48730
 11076.00000   47.77660   92.66720   13.74050   -0.00650    5.04220    0.01700    0.00480    8.68280    2.68230  134.78320 1839.64500 9670.01460
 11076.50000   47.87200   92.68790   13.91590   -0.00720    5.02430    0.01460    0.00480    8.66450    2.68370  110.08640 1724.97580 6897.06100
 11077.00000   48.00120   92.69220   13.95380   -0.00780    5.02430    0.01150    0.00490    8.64280    2.68930   90.72420 1621.84310 5717.85840
 11077.50000   48.00710   92.69180   13.99000   -0.00840    5.09450    0.01040    0.00500    8.62100    2.69540   88.62110 1615.61820 6250.84860
