~Version ---------------------------------------------------
VERS.   2.0 : CWLS log ASCII Standard -VERSION 2.0
WRAP.    NO : One line per depth step
DLM . SPACE : Column Data Section Delimiter
~Well ------------------------------------------------------
STRT .F                  186.0 : START DEPTH
STOP .F                11503.0 : STOP DEPTH
STEP .F                    0.5 : STEP
NULL .                -9999.25 : NULL VALUE
COMP .                         : COMPANY
WELL .                         : WELL
FLD  .                         : FIELD
LOC  .                         : LOCATION
PROV .                         : PROVINCE
CNTY .                         : COUNTY
STAT .                         : STATE
CTRY .                         : COUNTRY
SRVC .                         : SERVICE COMPANY
DATE .                         : DATE
UWI  .                         : UNIQUE WELL ID
API  .                         : API NUMBER
SLAT .WGS84 0.7799653344071054 : SURFACE LATITUDE
SLON .WGS84  6.896152414964007 : SURFACE LONGITUDE
DATUM.F                2947.61 : DEPTH DATUM ELEV
~Curve Information -----------------------------------------
DEPT   .F     : 1 MEASURED DEPTH
DTCO   .US/F  : DELTA-T COMPRESSIONAL
DTSM   .US/F  : DELTA-T SHEAR
HSGRD  .GAPI  : HNGS STANDARD GAMMA RAY FROM DENSITY LOG
TNPH_LS.DEC   : THERMAL NEUTRON POROSITY [LIMESTONE]
PEFZ   .B/E   : HRDD STANDARD RESOLUTION FORMATION PHOTOELECTRIC FACTOR
DPHZ_LS.DEC   : HGRD STANDARD RESOLUTION DENSITY POROSITY
HDRA   .G/C3  : HRDD SPINE AND RIBS DENSITY CORRECTION
HCALD  .IN    : HRCC CALIPER CALIBRATED FROM DENSITY LOG
RHOZ   .G/C3  : HRDD STANDARD RESOLUTION FORMATION DENSITY
RXOZ   .OHMM  : INVADED FORMATION RESISTIVITY FILTERED AT 18 INCHES
RLA4   .OHMM  : APPARENT RESISTIVITY FROM COMPUTED FOCUSING MODE 4
RLA5   .OHMM  : APPARENT RESISTIVITY FROM COMPUTED FOCUSING MODE 5
~Params ----------------------------------------------------
~Other -----------------------------------------------------
~ASCII -----------------------------------------------------
# ...
 9510.00000   -9999.25   -9999.25   83.26180    0.06910    5.66680    0.08160    0.19150    9.06270    2.56270    1.54370   36.95800   52.76560
 9510.50000   -9999.25   -9999.25   92.35390    0.08090    5.75240    0.09940    0.20570    9.90490    2.58540    0.78620   17.45470   22.41210
 9511.00000   -9999.25   -9999.25   98.90810    0.10000    5.43980    0.08930    0.22180   10.72120    2.63800    0.71500   13.80000   16.65270
 9511.50000   -9999.25   -9999.25   99.62310    0.11770    5.24650    0.05180    0.24150   10.88110    2.64210    0.83580   15.43650   18.47410
 9512.00000   -9999.25   -9999.25   97.63620    0.13420    5.08470    0.04430    0.24590   11.06700    2.61860    2.31780   16.29410   20.07490
 9512.50000   -9999.25   -9999.25   99.75260    0.15070    5.18530    0.07690    0.23340   11.35270    2.54320    1.51610   15.00690   17.59600
 9513.00000   -9999.25   -9999.25  104.95570    0.17680    5.34230    0.10690    0.21660   11.96900    2.50590    1.16960   13.20560   14.77020
 9513.50000   -9999.25   -9999.25  110.15890    0.20320    5.42000    0.13090    0.20230   12.61970    2.47850    0.93500   10.77070   12.78080
 9514.00000   -9999.25   -9999.25  115.12180    0.21930    5.32450    0.14530    0.18810   13.26240    2.51800    0.66160   10.45370   11.53380
 9514.50000   -9999.25   -9999.25  115.51450    0.22040    5.19910    0.12140    0.18290   13.76150    2.55720    0.43410   11.10400   11.33620
 9515.00000   -9999.25   -9999.25  111.61490    0.21910    5.09300    0.09700    0.19130   13.84580    2.58480    0.44190   12.03270   13.10120
 9515.50000   -9999.25   -9999.25  107.58080    0.20200    5.11210    0.07680    0.19970   13.87870    2.59330    0.66380   14.38720   15.82230
 9516.00000   -9999.25   -9999.25  103.54670    0.17300    5.17930    0.07630    0.20200   13.84210    2.58600    1.23890   17.22000   19.10850
 9516.50000   -9999.25   -9999.25  104.03370    0.15750    5.24650    0.08460    0.20000   13.78080    2.58100    1.75130   20.45880   21.44500
 9517.00000   -9999.25   -9999.25  106.36240    0.14950    5.32300    0.08240    0.20210   13.71030    2.57790    1.42180   21.57360   22.28690
 9517.50000   -9999.25   -9999.25  108.69110    0.14280    5.51750    0.08180    0.20590   13.63700    2.57480    1.16140   20.17740   21.60140
 9518.00000   -9999.25   -9999.25  109.38470    0.15060    5.74430    0.08590    0.20990   13.34410    2.56040    1.19520   16.55150   19.46210
 9518.50000   -9999.25   -9999.25  109.37500    0.16940    5.97110    0.09180    0.21370   12.96560    2.54600    1.17060   13.54030   17.53450
 9519.00000   -9999.25   -9999.25  109.36540    0.18790    6.30880    0.10990    0.21760   12.99790    2.50610    1.48020   11.62960   15.89660
 9519.50000   -9999.25   -9999.25  110.00310    0.20230    6.75410    0.15150    0.21900   13.39420    2.44470    1.01730   10.52320   14.57060
 9520.00000   -9999.25   -9999.25  110.87270    0.20560    6.96720    0.17080    0.20880   13.88360    2.42550    0.37910   10.58770   14.68350
 9520.50000   -9999.25   -9999.25  111.74230    0.20750    7.08590    0.17550    0.19260   14.47300    2.43100    0.22690   11.26440   15.13560
 9521.00000   -9999.25   -9999.25  111.70870    0.21130    7.17440    0.16330    0.17660   14.89890    2.44510    0.19850   11.38500   14.23120
 9521.50000   -9999.25   -9999.25  110.91770    0.22140    7.03160    0.16570    0.16610   15.42540    2.46590    0.19710    9.99320   13.32050
 9522.00000   -9999.25   -9999.25  109.89960    0.23300    6.88610    0.15450    0.16480   15.94240    2.50730    0.20070   10.28670   13.08830
 9522.50000   -9999.25   -9999.25  107.83390    0.24600    6.75620    0.11920    0.17300   16.72130    2.54860    0.27760   11.12360   12.83190
 9523.00000   -9999.25   -9999.25  107.55160    0.25960    6.79090    0.09600    0.18140   16.39910    2.55280    0.45100   11.42390   12.92920
 9523.50000   -9999.25   -9999.25  107.13030    0.27430    6.98490    0.11790    0.18240   16.29460    2.51740    0.70560   11.51300   13.83330
 9524.00000   -9999.25   -9999.25  105.93330    0.29470    7.19590    0.16220    0.17190   16.55050    2.39680    0.53650   11.60270   12.94460
 9524.50000   -9999.25   -9999.25  104.11210    0.30280    7.35780    0.19400    0.16140   16.78270    2.38760    0.30710   11.43910   13.05680
 9525.00000   -9999.25   -9999.25  102.47650    0.31250    7.42060    0.19970    0.15680   16.64270    2.35870    0.21610   11.43510   14.39010
 9525.50000   -9999.25   -9999.25  103.27900    0.31110    7.46160    0.21950    0.15540   16.32970    2.29650    0.19650   11.94060   15.83530
 9526.00000   -9999.25   -9999.25  104.94750    0.29310    7.50400    0.23270    0.15540   16.15700    2.25300    0.19580   12.24050   15.96780
 9526.50000   -9999.25   -9999.25  103.54110    0.28020    7.45700    0.25470    0.15830   16.24500    2.27090    0.19520   12.48100   13.58010
 9527.00000   -9999.25   -9999.25   99.62650    0.26460    7.26160    0.28630    0.16340   16.16200    2.33950    0.19460   13.66130   15.19220
 9527.50000   -9999.25   -9999.25   95.22430    0.24640    7.08200    0.19190    0.16840   15.13090    2.40820    0.19590   21.00800   24.11400
 9528.00000   -9999.25   -9999.25   91.27490    0.17760    6.67280    0.10460    0.17100   14.12060    2.59020    0.25790   28.06430   29.40060
 9528.50000   -9999.25   -9999.25   90.42910    0.14350    6.15250    0.07450    0.17090   13.46950    2.59260    1.18680   26.71930   27.61030
 9529.00000   -9999.25   -9999.25   89.85800    0.12250    6.11540    0.07140    0.15520   12.81840    2.60220    1.44260   26.77980   27.82520
 9529.50000   -9999.25   -9999.25   88.72760    0.10230    5.98530    0.06890    0.12530   12.04520    2.63970    1.33910   30.57620   36.56330
 9530.00000   -9999.25   -9999.25   85.02050    0.08850    5.32750    0.02980    0.11700   11.27330    2.67750    2.00190   44.11940   50.15210
 9530.50000   -9999.25   -9999.25   80.02400    0.07470    4.03410   -0.00590    0.11450   10.31570    2.71620    4.48600   42.13480   49.88500
 9531.00000   -9999.25   -9999.25   76.16390    0.06160    3.43950   -0.02030    0.10240    9.12830    2.74350    8.16650   35.12070   39.55220
 9531.50000   -9999.25   -9999.25   73.24440    0.05030    3.17960   -0.00920    0.09050    8.82470    2.73490   10.02480   38.82300   41.39410
 9532.00000   -9999.25   -9999.25   74.41970    0.04720    2.87320    0.02000    0.05620    8.85530    2.63800   11.21740   35.99860   44.20690
 9532.50000   -9999.25   -9999.25   78.61080    0.04950    2.79770    0.04520    0.03590    8.88130    2.62440   13.73950   27.41930   32.68460
 9533.00000   -9999.25   -9999.25   82.48980    0.06080    2.76510    0.05590    0.01960    8.87590    2.61090    6.50230   26.58170   27.42500
 9533.50000   -9999.25   -9999.25   84.15940    0.06710    2.71970    0.06150    0.01600    8.87040    2.60630    3.14210   27.10040   27.80730
 9534.00000   -9999.25   -9999.25   84.28940    0.07110    2.69560    0.06220    0.01300    8.86490    2.60760    3.77260   25.06770   26.46350
 9534.50000   -9999.25   -9999.25   83.96370    0.06970    2.67220    0.06210    0.01010    8.85950    2.61290    5.03210   25.32440   28.28510
 9535.00000   -9999.25   -9999.25   81.49720    0.06380    2.63820    0.05880    0.00800    8.85400    2.61850   12.07420   42.83260   48.79040
 9535.50000   -9999.25   -9999.25   73.06160    0.05720    2.64950    0.05120    0.00760    8.84850    2.62410    8.59940   60.76200   65.42420
 9536.00000   -9999.25   -9999.25   64.07790    0.05070    2.65290    0.04350    0.00720    8.84310    2.62970   10.08550   56.50240   82.22400
 9536.50000   -9999.25   -9999.25   56.87670    0.04680    2.57960    0.04020    0.00680    8.83760    2.63280   36.75730   35.60120   36.92410
 9537.00000   -9999.25   -9999.25   60.74910    0.04740    2.46810    0.04210    0.00630    8.83280    2.63330   41.78170   34.86980   35.13830
 9537.50000   -9999.25   -9999.25   68.86890    0.05520    2.34780    0.04980    0.00590    8.82870    2.62300   26.90290   32.85850   33.91930
