~Version ---------------------------------------------------
VERS.   2.0 : CWLS log ASCII Standard -VERSION 2.0
WRAP.    NO : One line per depth step
DLM . SPACE : Column Data Section Delimiter
~Well ------------------------------------------------------
STRT .F                  186.0 : START DEPTH
STOP .F                11503.0 : STOP DEPTH
STEP .F                    0.5 : STEP
NULL .                -9999.25 : NULL VALUE
COMP .                         : COMPANY
WELL .                         : WELL
FLD  .                         : FIELD
LOC  .                         : LOCATION
PROV .                         : PROVINCE
CNTY .                         : COUNTY
STAT .                         : STATE
CTRY .                         : COUNTRY
SRVC .                         : SERVICE COMPANY
DATE .                         : DATE
UWI  .                         : UNIQUE WELL ID
API  .                         : API NUMBER
SLAT .WGS84 0.7799653344071054 : SURFACE LATITUDE
SLON .WGS84  6.896152414964007 : SURFACE LONGITUDE
DATUM.F                2947.61 : DEPTH DATUM ELEV
~Curve Information -----------------------------------------
DEPT   .F     : 1 MEASURED DEPTH
DTCO   .US/F  : DELTA-T COMPRESSIONAL
DTSM   .US/F  : DELTA-T SHEAR
HSGRD  .GAPI  : HNGS STANDARD GAMMA RAY FROM DENSITY LOG
TNPH_LS.DEC   : THERMAL NEUTRON POROSITY [LIMESTONE]
PEFZ   .B/E   : HRDD STANDARD RESOLUTION FORMATION PHOTOELECTRIC FACTOR
DPHZ_LS.DEC   : HGRD STANDARD RESOLUTION DENSITY POROSITY
HDRA   .G/C3  : HRDD SPINE AND RIBS DENSITY CORRECTION
HCALD  .IN    : HRCC CALIPER CALIBRATED FROM DENSITY LOG
RHOZ   .G/C3  : HRDD STANDARD RESOLUTION FORMATION DENSITY
RXOZ   .OHMM  : INVADED FORMATION RESISTIVITY FILTERED AT 18 INCHES
RLA4   .OHMM  : APPARENT RESISTIVITY FROM COMPUTED FOCUSING MODE 4
RLA5   .OHMM  : APPARENT RESISTIVITY FROM COMPUTED FOCUSING MODE 5
~Params ----------------------------------------------------
~Other -----------------------------------------------------
~ASCII -----------------------------------------------------
# ...
 8334.00000   -9999.25   -9999.25  133.13060    0.19990    3.23200    0.04450    0.01890    8.96400    2.63360    5.84180    7.73080    7.98780
 8334.50000   -9999.25   -9999.25  134.24450    0.20290    3.12220    0.05300    0.01220    8.96400    2.62460    5.66660    7.52280    7.69790
 8335.00000   -9999.25   -9999.25  134.92930    0.20520    3.01300    0.05460    0.00930    8.96400    2.62130    5.62000    7.38350    7.66100
 8335.50000   -9999.25   -9999.25  136.13610    0.20660    2.96040    0.05600    0.00420    8.96360    2.61890    5.59130    7.53770    7.79860
 8336.00000   -9999.25   -9999.25  136.37920    0.20740    3.02070    0.05410    0.00380    8.95990    2.62690    5.80170    7.71910    7.95050
 8336.50000   -9999.25   -9999.25  136.02190    0.20590    3.08040    0.05330    0.00460    8.95630    2.62930    6.00440    7.76190    8.00710
 8337.00000   -9999.25   -9999.25  134.88550    0.20360    3.10090    0.05620    0.00430    8.95260    2.61890    6.20510    7.68410    7.94490
 8337.50000   -9999.25   -9999.25  133.32130    0.20300    3.12130    0.06520    0.00440    8.94890    2.60600    6.13230    7.60710    7.88710
 8338.00000   -9999.25   -9999.25  132.84650    0.20260    3.18530    0.07350    0.00450    8.94520    2.59190    5.87140    7.54330    7.83260
 8338.50000   -9999.25   -9999.25  131.39580    0.20550    3.80990    0.06310    0.00780    8.94150    2.60890    5.91940    7.59060    7.93950
 8339.00000   -9999.25   -9999.25  126.61130    0.20620    4.43190    0.03590    0.01300    8.93780    2.66000    6.60420    8.40210    8.97090
 8339.50000   -9999.25   -9999.25  121.60380    0.20630    4.92290    0.00770    0.02630    8.93410    2.70350    5.66660    9.14030    9.83930
 8340.00000   -9999.25   -9999.25  120.76320    0.20590    4.72810    0.00340    0.04200    8.93370    2.69610    4.96690    8.09100    8.50070
 8340.50000   -9999.25   -9999.25  123.66940    0.20340    4.25900    0.02140    0.03680    8.93360    2.66730    5.25830    7.73530    8.08360
 8341.00000   -9999.25   -9999.25  127.38170    0.19570    3.72460    0.04490    0.02930    8.94590    2.64130    6.22220    7.71830    8.09310
 8341.50000   -9999.25   -9999.25  130.11050    0.19030    3.51240    0.05120    0.01510    8.96650    2.62730    6.40790    7.74750    8.10250
 8342.00000   -9999.25   -9999.25  132.29800    0.19330    3.33420    0.05290    0.00860    8.98710    2.62600    6.48290    7.77690    8.11200
 8342.50000   -9999.25   -9999.25  134.23950    0.20200    3.18350    0.05270    0.00610    9.00770    2.62800    6.57130    7.80640    8.12140
 8343.00000   -9999.25   -9999.25  134.95420    0.20930    3.07200    0.05170    0.00530    9.02830    2.62910    6.66850    7.83590    8.13090
 8343.50000   -9999.25   -9999.25  134.32680    0.21440    3.01190    0.05230    0.00450    9.04890    2.62640    6.79440    7.88670    8.16080
 8344.00000   -9999.25   -9999.25  134.83020    0.21180    2.95460    0.05300    0.00450    9.06950    2.62330    6.96710    7.98440    8.39580
 8344.50000   -9999.25   -9999.25  135.59720    0.20690    2.91870    0.05220    0.00520    9.07540    2.63030    7.07490    8.06000    8.63760
 8345.00000   -9999.25   -9999.25  135.38080    0.20070    2.90950    0.04640    0.00540    9.07990    2.64030    7.02000    8.12300    8.78250
 8345.50000   -9999.25   -9999.25  133.86250    0.19900    2.91650    0.04550    0.00590    9.08450    2.64040    6.91280    8.09950    8.64340
 8346.00000   -9999.25   -9999.25  132.34430    0.19790    2.92340    0.04860    0.00630    9.08900    2.62980    6.80040    8.06210    8.43000
 8346.50000   -9999.25   -9999.25  131.01530    0.19530    2.93100    0.05150    0.00670    9.09350    2.62520    6.83700    8.02490    8.31140
 8347.00000   -9999.25   -9999.25  129.74570    0.18810    2.97100    0.05300    0.00720    9.09810    2.62860    6.99200    8.21460    8.66730
 8347.50000   -9999.25   -9999.25  128.54850    0.17370    3.05560    0.04880    0.00720    9.10260    2.63330    7.18280    8.58490    9.11660
 8348.00000   -9999.25   -9999.25  127.13590    0.16910    3.18650    0.04940    0.00680    9.10720    2.63750    7.09740    8.77550    9.28280
 8348.50000   -9999.25   -9999.25  127.20270    0.16880    3.29540    0.05570    0.00640    9.11170    2.62890    6.94080    8.50120    8.85560
 8349.00000   -9999.25   -9999.25  129.33360    0.17780    3.30000    0.06400    0.00600    9.11620    2.60440    6.83970    8.19420    8.63740
 8349.50000   -9999.25   -9999.25  131.88290    0.18610    3.24160    0.06710    0.00550    9.12080    2.61580    6.74540    8.12590    8.56830
 8350.00000   -9999.25   -9999.25  132.86810    0.19050    3.21260    0.05960    0.00580    9.12250    2.62580    6.65350    8.08040    8.41710
 8350.50000   -9999.25   -9999.25  132.40090    0.18970    3.18510    0.05310    0.00720    9.12030    2.62590    6.64670    8.10330    8.33780
 8351.00000   -9999.25   -9999.25  130.98580    0.18740    3.16050    0.05390    0.00810    9.12970    2.62140    6.70880    8.12620    8.43780
 8351.50000   -9999.25   -9999.25  130.17600    0.18570    3.18520    0.05620    0.00890    9.13910    2.61610    6.72630    8.14910    8.61890
 8352.00000   -9999.25   -9999.25  130.17270    0.19030    3.22310    0.05680    0.00840    9.14200    2.61840    6.66870    8.17220    8.70810
 8352.50000   -9999.25   -9999.25  130.87860    0.19520    3.23310    0.05280    0.00780    9.13830    2.62740    6.62400    8.17640    8.58730
 8353.00000   -9999.25   -9999.25  132.48000    0.19980    3.23200    0.04920    0.00740    9.11110    2.63630    6.60180    8.13930    8.58560
 8353.50000   -9999.25   -9999.25  130.25760    0.20110    3.17010    0.04470    0.00710    9.10030    2.64320    6.56400    8.31920    8.93980
 8354.00000   -9999.25   -9999.25  125.05860    0.19970    3.19190    0.03970    0.00880    9.09090    2.64760    6.96280    9.49590   10.48420
 8354.50000   -9999.25   -9999.25  121.34000    0.19410    3.35510    0.03680    0.01260    9.08160    2.65100    7.39260    9.93220   10.87100
 8355.00000   -9999.25   -9999.25  121.86490    0.18720    3.43440    0.03910    0.01600    9.07220    2.65100    7.58010    8.99210    9.49630
 8355.50000   -9999.25   -9999.25  127.32760    0.18510    3.40340    0.04920    0.01290    9.12840    2.63500    7.58010    8.87140    9.19440
 8356.00000   -9999.25   -9999.25  131.23070    0.18700    3.29330    0.05660    0.00790    9.13460    2.62130    7.41470    8.82680    9.11210
 8356.50000   -9999.25   -9999.25  131.71570    0.18890    3.19330    0.05970    0.00440    9.15420    2.61400    7.33520    8.78540    9.05860
 8357.00000   -9999.25   -9999.25  130.87100    0.18860    3.10690    0.05910    0.00450    9.13310    2.61350    7.25550    8.74410    9.00540
 8357.50000   -9999.25   -9999.25  132.32920    0.18780    3.02430    0.05670    0.00450    9.13930    2.61620    7.09320    8.70300    8.95260
 8358.00000   -9999.25   -9999.25  136.16380    0.18600    2.97610    0.05590    0.00430    9.14390    2.62020    6.91170    8.66220    8.90000
 8358.50000   -9999.25   -9999.25  136.38180    0.18240    2.94030    0.05380    0.00420    9.10410    2.62420    6.75020    8.62150    8.84780
 8359.00000   -9999.25   -9999.25  135.23930    0.17690    2.97490    0.05270    0.00430    9.10930    2.62670    6.74220    8.58620    8.84100
 8359.50000   -9999.25   -9999.25  132.91410    0.17290    2.99130    0.05250    0.00440    9.09420    2.62710    6.68730    8.56410    8.84100
 8360.00000   -9999.25   -9999.25  133.09510    0.17300    3.02500    0.05550    0.00450    9.08820    2.62470    6.63280    8.54200    8.80930
 8360.50000   -9999.25   -9999.25  133.08790    0.17840    3.06930    0.05470    0.00460    9.07900    2.62230    6.56210    8.42350    8.60420
 8361.00000   -9999.25   -9999.25  131.24450    0.18720    3.21830    0.05550    0.00810    9.06970    2.62160    6.50180    8.28310    8.40380
 8361.50000   -9999.25   -9999.25  128.24780    0.19600    3.51060    0.05220    0.01160    9.06050    2.63730    6.41140    8.14510    8.50130
