~Version ---------------------------------------------------
VERS.   2.0 : CWLS log ASCII Standard -VERSION 2.0
WRAP.    NO : One line per depth step
DLM . SPACE : Column Data Section Delimiter
~Well ------------------------------------------------------
STRT .F                  186.0 : START DEPTH
STOP .F                11503.0 : STOP DEPTH
STEP .F                    0.5 : STEP
NULL .                -9999.25 : NULL VALUE
COMP .                         : COMPANY
WELL .                         : WELL
FLD  .                         : FIELD
LOC  .                         : LOCATION
PROV .                         : PROVINCE
CNTY .                         : COUNTY
STAT .                         : STATE
CTRY .                         : COUNTRY
SRVC .                         : SERVICE COMPANY
DATE .                         : DATE
UWI  .                         : UNIQUE WELL ID
API  .                         : API NUMBER
SLAT .WGS84 0.7799653344071054 : SURFACE LATITUDE
SLON .WGS84  6.896152414964007 : SURFACE LONGITUDE
DATUM.F                2947.61 : DEPTH DATUM ELEV
~Curve Information -----------------------------------------
DEPT   .F     : 1 MEASURED DEPTH
DTCO   .US/F  : DELTA-T COMPRESSIONAL
DTSM   .US/F  : DELTA-T SHEAR
HSGRD  .GAPI  : HNGS STANDARD GAMMA RAY FROM DENSITY LOG
TNPH_LS.DEC   : THERMAL NEUTRON POROSITY [LIMESTONE]
PEFZ   .B/E   : HRDD STANDARD RESOLUTION FORMATION PHOTOELECTRIC FACTOR
DPHZ_LS.DEC   : HGRD STANDARD RESOLUTION DENSITY POROSITY
HDRA   .G/C3  : HRDD SPINE AND RIBS DENSITY CORRECTION
HCALD  .IN    : HRCC CALIPER CALIBRATED FROM DENSITY LOG
RHOZ   .G/C3  : HRDD STANDARD RESOLUTION FORMATION DENSITY
RXOZ   .OHMM  : INVADED FORMATION RESISTIVITY FILTERED AT 18 INCHES
RLA4   .OHMM  : APPARENT RESISTIVITY FROM COMPUTED FOCUSING MODE 4
RLA5   .OHMM  : APPARENT RESISTIVITY FROM COMPUTED FOCUSING MODE 5
~Params ----------------------------------------------------
~Other -----------------------------------------------------
~ASCII -----------------------------------------------------
# ...
 11442.00000   90.48410  167.35170  125.65130    0.30400    3.96640    0.20120    0.03640    8.54050    2.39290    7.76350   10.59870   11.56410
 11442.50000   91.28930  172.17830  122.80920    0.32730    4.46610    0.20810    0.06010    8.54940    2.37770    2.01700    8.69600    9.54000
 11443.00000   91.97730  173.61380  121.73350    0.34540    5.47400    0.19620    0.07900    8.61430    2.38650    0.92630    7.13480    7.97100
 11443.50000   92.25710  174.57040  123.16380    0.33830    5.66680    0.20040    0.09050    8.70470    2.40790    0.59310    6.49180    7.19500
 11444.00000   92.53700  175.09890  127.19370    0.32380    5.69260    0.18260    0.10360    8.75190    2.42000    0.51010    6.04030    6.49440
 11444.50000   93.25330  175.10410  131.23060    0.31970    5.64860    0.18630    0.11350    8.75190    2.42760    0.37250    5.66050    5.99390
 11445.00000   92.98870  175.09410  132.13170    0.33850    5.55700    0.17690    0.11220    8.75190    2.43120    0.39500    5.62130    5.90360
 11445.50000   93.37860  175.92520  130.45440    0.35780    5.30270    0.18550    0.10270    8.80000    2.41110    0.41310    5.83660    6.08830
 11446.00000   94.80340  177.90780  128.84840    0.36170    5.00970    0.19480    0.08750    8.84840    2.40120    0.44250    6.37330    6.59000
 11446.50000   95.67420  179.43020  128.33480    0.35910    4.81970    0.18930    0.07970    8.94000    2.41200    0.36460    6.65410    6.97170
 11447.00000   95.69530  180.14490  128.58240    0.35590    4.76560    0.18210    0.08040    9.35710    2.42290    0.31120    6.02810    6.37090
 11447.50000   95.70450  180.16180  128.08380    0.35380    5.05650    0.16990    0.08480    9.54620    2.45190    0.32260    5.48960    5.74170
 11448.00000   95.00300  179.34320  126.61960    0.34620    5.38380    0.14720    0.08960    9.45810    2.48370    0.41630    5.56370    6.04800
 11448.50000   93.96540  178.29830  123.68720    0.33690    5.51330    0.13110    0.09420    9.10140    2.50860    0.69250    6.51080    7.29920
 11449.00000   92.58210  176.20980  123.63610    0.32950    5.61840    0.12850    0.09800    8.71010    2.47970    1.84410    7.19920    7.84170
 11449.50000   91.34690  174.07460  127.61550    0.32490    5.90920    0.14990    0.10190    8.52650    2.42760    1.58490    6.74980    7.15380
 11450.00000   91.91820  171.87150  131.95000    0.32940    6.27950    0.16710    0.10570    8.54320    2.42700    0.86920    6.15430    6.47320
 11450.50000   93.88590  170.80200  134.13650    0.34190    6.64990    0.17550    0.11080    8.66400    2.45080    0.56250    5.20950    5.77390
 11451.00000   96.33560  174.06480  132.83740    0.34570    6.83270    0.15460    0.11870    8.81000    2.47690    0.44120    4.25600    5.22020
 11451.50000   97.34130  177.31900  131.24600    0.33930    6.43300    0.12740    0.12770    8.87920    2.50890    0.46400    5.05470    5.70910
 11452.00000   97.23210  178.83320  132.23810    0.33260    5.63940    0.11060    0.13050    8.78500    2.52970    0.54050    6.39190    7.13540
 11452.50000   96.90210  179.18350  140.51120    0.33460    5.32530    0.12220    0.11430    8.66830    2.49250    0.66920    7.99830    8.91810
 11453.00000   96.75170  177.98590  158.71490    0.34480    4.53860    0.13340    0.08550    8.55170    2.49250    1.40090    9.32290   10.06610
 11453.50000   96.90270  176.53130  216.02850    0.35350    3.90120    0.13960    0.06880    8.51650    2.50780    3.54700    8.64560    9.41900
 11454.00000   97.04380  175.90970  259.01150    0.35250    3.73940    0.12650    0.08770    8.51310    2.52480    7.25560    7.61240    8.18610
 11454.50000   97.55450  175.68650  293.10220    0.34650    3.12940    0.10890    0.12970    8.51080    2.53640    5.86580    6.70270    7.11460
 11455.00000   97.69340  175.48610  255.42300    0.34380    2.85860    0.11610    0.15660    8.53190    2.53400    5.12130    6.38610    6.49670
 11455.50000   -9999.25   -9999.25  210.81300    0.34380    2.78750    0.13760    0.15610    8.55060    2.47560    4.86690    6.52270    7.04040
 11456.00000   -9999.25   -9999.25  141.77650    0.33910    3.00830    0.16300    0.13910    8.56780    2.43920    3.42120    6.61710    6.95030
 11456.50000   -9999.25   -9999.25  119.47870    0.32490    4.91480    0.17420    0.12110    8.57920    2.42840    0.96080    6.29880    6.76270
 11457.00000   -9999.25   -9999.25  114.53370    0.31780    5.63710    0.17870    0.13140    8.58120    2.42120    0.77920    6.13150    6.56890
 11457.50000   -9999.25   -9999.25  114.47680    0.31380    6.10130    0.17190    0.14990    8.58120    2.43640    0.55410    6.50620    6.77990
 11458.00000   -9999.25   -9999.25  115.79330    0.31270    6.52460    0.15270    0.15600    8.52790    2.46890    0.56960    6.78650    7.07470
 11458.50000   -9999.25   -9999.25  116.85670    0.31510    6.65810    0.14630    0.16270    8.45420    2.47860    0.78940    6.97140    7.38230
 11459.00000   -9999.25   -9999.25  116.61670    0.32200    6.78740    0.15850    0.16960    8.38770    2.42890    1.36460    7.05540    7.49140
 11459.50000   -9999.25   -9999.25  114.93310    0.32670    7.13000    0.18480    0.16630    8.44530    2.39580    1.08760    7.05540    7.46490
 11460.00000   -9999.25   -9999.25  114.25340    0.32070    7.48670    0.19700    0.15890    8.76000    2.40480    0.90400    7.05500    7.28540
 11460.50000   -9999.25   -9999.25  114.63560    0.31220    7.84340    0.18890    0.16370    9.16090    2.42660    0.81260    6.94580    7.09410
 11461.00000   -9999.25   -9999.25  115.28590    0.31590    7.88930    0.17370    0.18610    9.56440    2.44330    0.58420    6.63230    6.89720
 11461.50000   -9999.25   -9999.25  114.26330    0.33690    7.84560    0.17050    0.18510    9.71360    2.44330    0.51440    5.74180    6.71580
 11462.00000   -9999.25   -9999.25  112.84740    0.34260    7.86830    0.19630    0.16480    9.39320    2.39890    0.49400    4.54140    5.01610
 11462.50000   -9999.25   -9999.25  111.22950    0.34210    7.96120    0.21280    0.12260    9.11980    2.35670    0.51620    4.36810    4.47240
 11463.00000   -9999.25   -9999.25  109.76980    0.34230    8.08680    0.22140    0.11790    8.96450    2.35810    0.41540    4.47990    4.52730
 11463.50000   -9999.25   -9999.25  109.88060    0.34480    8.10190    0.21030    0.11580    8.80730    2.38510    0.48340    4.60690    4.76330
 11464.00000   -9999.25   -9999.25  111.35850    0.34240    8.11690    0.19310    0.13590    8.63100    2.41210    0.83690    4.73740    5.01160
 11464.50000   -9999.25   -9999.25  112.83640    0.33520    8.12130    0.17280    0.15920    8.61050    2.43840    1.60680    4.99780    5.27280
 11465.00000   -9999.25   -9999.25  114.10420    0.33670    8.28000    0.15160    0.18440    8.67770    2.47650    1.00590    5.31950    5.80240
 11465.50000   -9999.25   -9999.25  114.16370    0.34100    8.85090    0.14020    0.20740    8.74810    2.48820    0.79680    6.28940    7.11810
 11466.00000   -9999.25   -9999.25  113.74490    0.34310    9.43930    0.13940    0.21200    8.81860    2.47830    0.63220    7.57560    8.88790
 11466.50000   -9999.25   -9999.25  113.55850    0.33510    9.76810    0.14730    0.20900    8.84980    2.46840    0.58090    6.24360    6.72060
 11467.00000   -9999.25   -9999.25  114.44230    0.32220    9.96060    0.15280    0.20320    8.87040    2.46540    0.57270    5.59650    6.16260
 11467.50000   -9999.25   -9999.25  115.44990    0.31110    9.96450    0.15170    0.19770    8.88820    2.46520    0.57090    6.40030    6.80720
 11468.00000   -9999.25   -9999.25  115.92950    0.30690    9.96420    0.14870    0.19800    8.89630    2.47270    0.57480    7.06740    7.25380
 11468.50000   -9999.25   -9999.25  114.62340    0.30440   -9999.25    0.14450    0.20200    8.90440    2.48020    0.57870    7.09530    7.32640
 11469.00000   -9999.25   -9999.25  111.98550    0.30660   -9999.25    0.14400    0.20750    8.90920    2.48740    0.58160    6.91600    7.31800
 11469.50000   -9999.25   -9999.25  108.03840    0.31490   -9999.25    0.14380    0.21160    8.91240    2.48650    0.58030    6.56970    6.94480
