~Version ---------------------------------------------------
VERS.   2.0 : CWLS log ASCII Standard -VERSION 2.0
WRAP.    NO : One line per depth step
DLM . SPACE : Column Data Section Delimiter
~Well ------------------------------------------------------
STRT .F                  186.0 : START DEPTH
STOP .F                11503.0 : STOP DEPTH
STEP .F                    0.5 : STEP
NULL .                -9999.25 : NULL VALUE
COMP .                         : COMPANY
WELL .                         : WELL
FLD  .                         : FIELD
LOC  .                         : LOCATION
PROV .                         : PROVINCE
CNTY .                         : COUNTY
STAT .                         : STATE
CTRY .                         : COUNTRY
SRVC .                         : SERVICE COMPANY
DATE .                         : DATE
UWI  .                         : UNIQUE WELL ID
API  .                         : API NUMBER
SLAT .WGS84 0.7799653344071054 : SURFACE LATITUDE
SLON .WGS84  6.896152414964007 : SURFACE LONGITUDE
DATUM.F                2947.61 : DEPTH DATUM ELEV
~Curve Information -----------------------------------------
DEPT   .F     : 1 MEASURED DEPTH
DTCO   .US/F  : DELTA-T COMPRESSIONAL
DTSM   .US/F  : DELTA-T SHEAR
HSGRD  .GAPI  : HNGS STANDARD GAMMA RAY FROM DENSITY LOG
TNPH_LS.DEC   : THERMAL NEUTRON POROSITY [LIMESTONE]
PEFZ   .B/E   : HRDD STANDARD RESOLUTION FORMATION PHOTOELECTRIC FACTOR
DPHZ_LS.DEC   : HGRD STANDARD RESOLUTION DENSITY POROSITY
HDRA   .G/C3  : HRDD SPINE AND RIBS DENSITY CORRECTION
HCALD  .IN    : HRCC CALIPER CALIBRATED FROM DENSITY LOG
RHOZ   .G/C3  : HRDD STANDARD RESOLUTION FORMATION DENSITY
RXOZ   .OHMM  : INVADED FORMATION RESISTIVITY FILTERED AT 18 INCHES
RLA4   .OHMM  : APPARENT RESISTIVITY FROM COMPUTED FOCUSING MODE 4
RLA5   .OHMM  : APPARENT RESISTIVITY FROM COMPUTED FOCUSING MODE 5
~Params ----------------------------------------------------
~Other -----------------------------------------------------
~ASCII -----------------------------------------------------
# ...
 9118.00000   -9999.25   -9999.25  132.26060    0.18630    3.29000    0.05290    0.00900    9.19450    2.63410    6.61580   11.66040   12.65010
 9118.50000   -9999.25   -9999.25  131.80110    0.18590    3.38640    0.04900    0.01140    9.19370    2.63610    6.68270   11.29470   11.59990
 9119.00000   -9999.25   -9999.25  132.60000    0.18330    3.36100    0.05020    0.01200    9.19720    2.62610    6.45910   11.06770   11.52520
 9119.50000   -9999.25   -9999.25  132.64170    0.17560    3.20730    0.06050    0.00560    9.20390    2.61100    7.15780   10.68560   12.51620
 9120.00000   -9999.25   -9999.25  128.94420    0.16170    3.34040    0.06660    0.00520    9.21050    2.61460    6.61300   11.71530   13.70750
 9120.50000   -9999.25   -9999.25  125.71500    0.15430    3.77440    0.05670    0.01420    9.21710    2.62540    5.34550   11.98500   13.26550
 9121.00000   -9999.25   -9999.25  124.99900    0.15240    3.89840    0.05190    0.02580    9.22380    2.63140    5.88520   11.53990   12.30610
 9121.50000   -9999.25   -9999.25  125.58020    0.15870    3.97660    0.04460    0.03650    9.23050    2.63280    4.80030   12.69690   13.06790
 9122.00000   -9999.25   -9999.25  126.55900    0.16400    4.03750    0.05010    0.04180    9.23740    2.63430    5.48440   11.71260   12.48320
 9122.50000   -9999.25   -9999.25  125.30950    0.16020    4.13430    0.05110    0.04560    9.25060    2.64610    5.11070   10.62760   11.48550
 9123.00000   -9999.25   -9999.25  114.24240    0.15150    4.36520    0.03490    0.04280    9.27740    2.67460    6.66530   12.01530   12.71510
 9123.50000   -9999.25   -9999.25  104.63520    0.14290    4.59630    0.01050    0.04290    9.30410    2.74030    8.81680   15.19930   17.09270
 9124.00000   -9999.25   -9999.25   96.12390    0.13660    4.81470   -0.01730    0.05860    9.33080    2.74800    3.73230   16.54610   22.32910
 9124.50000   -9999.25   -9999.25  103.61490    0.15590    4.57710   -0.01920    0.07330    9.37060    2.71000    3.37620   11.85510   12.87690
 9125.00000   -9999.25   -9999.25  115.20840    0.18390    4.09810    0.00760    0.06380    9.46790    2.64830    4.35620   11.17850   11.57790
 9125.50000   -9999.25   -9999.25  127.66940    0.18820    3.64310    0.04240    0.03930    9.53210    2.62740    6.86070   10.73070   10.97550
 9126.00000   -9999.25   -9999.25  133.26970    0.18690    3.45460    0.06000    0.02000    9.54830    2.61110    6.73850   10.30080   10.45370
 9126.50000   -9999.25   -9999.25  137.56270    0.18780    3.41750    0.06490    0.01050    9.57960    2.60550    6.54700   10.02630   10.36690
 9127.00000   -9999.25   -9999.25  136.86670    0.18940    3.40230    0.06570    0.00970    9.56020    2.60110    6.39330   10.02630   10.38360
 9127.50000   -9999.25   -9999.25  133.24120    0.19040    3.47550    0.06660    0.00670    9.52380    2.59790    6.48310   10.15040   10.80890
 9128.00000   -9999.25   -9999.25  127.89390    0.18210    3.99300    0.07270    0.00760    9.48690    2.59620    8.09710   11.60040   12.84000
 9128.50000   -9999.25   -9999.25  123.79170    0.17310    4.63240    0.06700    0.01540    9.46760    2.59750    8.17840   13.31790   14.50520
 9129.00000   -9999.25   -9999.25  123.18810    0.17280    4.89190    0.04760    0.03950    9.45780    2.66590    2.73100   10.95290   12.14190
 9129.50000   -9999.25   -9999.25  127.01190    0.17510    4.69000    0.01870    0.06040    9.47690    2.67900    2.54440    9.60290   10.41500
 9130.00000   -9999.25   -9999.25  130.79840    0.17660    3.63070    0.02130    0.05070    9.46760    2.65590    4.54650    9.94840   10.36760
 9130.50000   -9999.25   -9999.25  132.13360    0.17130    3.42830    0.04170    0.02830    9.46080    2.63280    6.82320   10.72820   11.04880
 9131.00000   -9999.25   -9999.25  130.75800    0.16460    3.31440    0.05250    0.01320    9.49370    2.62940    7.83300   11.61120   11.93810
 9131.50000   -9999.25   -9999.25  127.85100    0.16040    3.29260    0.04720    0.01200    9.49380    2.63080    8.92730   11.90280   12.28780
 9132.00000   -9999.25   -9999.25  127.49580    0.15920    3.27070    0.04660    0.01130    9.49300    2.63320    7.90280   11.77240   12.17330
 9132.50000   -9999.25   -9999.25  127.61440    0.15770    3.24890    0.05130    0.01170    9.48530    2.63210    8.16450   11.66270   12.05990
 9133.00000   -9999.25   -9999.25  127.38530    0.15580    3.24280    0.05010    0.01200    9.47770    2.62870    7.60440   11.60220   12.05130
 9133.50000   -9999.25   -9999.25  126.80510    0.15930    3.22940    0.05540    0.01080    9.47380    2.61640    7.60440   11.50790   11.84920
 9134.00000   -9999.25   -9999.25  127.39490    0.16930    3.21600    0.06350    0.00710    9.47400    2.59870    7.51420   11.37800   11.58560
 9134.50000   -9999.25   -9999.25  128.16490    0.17950    3.20260    0.06910    0.00260    9.45860    2.60140    7.96240   11.16400   11.39150
 9135.00000   -9999.25   -9999.25  128.88720    0.18440    3.17780    0.06790    0.00480    9.42270    2.60740    7.13600   11.08830   11.33070
 9135.50000   -9999.25   -9999.25  130.30180    0.18350    3.18730    0.06330    0.00720    9.39640    2.61330    7.45810   11.13460   11.42930
 9136.00000   -9999.25   -9999.25  131.61570    0.17610    3.19430    0.05760    0.00900    9.34410    2.62110    7.37260   11.05690   11.41170
 9136.50000   -9999.25   -9999.25  131.71560    0.17110    3.15980    0.05200    0.01090    9.33680    2.63000    7.15540   10.74020   11.03500
 9137.00000   -9999.25   -9999.25  131.30880    0.17130    3.10960    0.04810    0.01100    9.35000    2.63330    6.95370   10.38680   10.55840
 9137.50000   -9999.25   -9999.25  129.82540    0.17300    3.04040    0.04930    0.00930    9.35620    2.63530    6.72340   10.13340   10.52400
 9138.00000   -9999.25   -9999.25  122.84790    0.16420    3.02770    0.04740    0.01180    9.33720    2.65180    6.68510   10.41750   11.00770
 9138.50000   -9999.25   -9999.25  113.83420    0.14490    3.58430    0.03300    0.01590    9.27940    2.67930    8.57570   14.07850   19.82340
 9139.00000   -9999.25   -9999.25  105.31600    0.12710    3.75080    0.01640    0.01910    9.21430    2.68740    7.36310   18.04510   32.24500
 9139.50000   -9999.25   -9999.25  101.16380    0.12100    3.63620    0.02060    0.01780    9.17450    2.65730    6.39060   10.96170   13.12780
 9140.00000   -9999.25   -9999.25  111.33850    0.15020    3.36710    0.04160    0.01650    9.16280    2.63000    5.39410    9.34660   10.04670
 9140.50000   -9999.25   -9999.25  121.15330    0.16030    3.41560    0.06150    0.01090    9.15680    2.60910    6.18350    9.42570   11.19180
 9141.00000   -9999.25   -9999.25  117.82080    0.14440    3.86660    0.06020    0.00800    9.15450    2.60840    9.18330   14.58960   18.59060
 9141.50000   -9999.25   -9999.25  110.89180    0.12950    4.31770    0.04100    0.02490    9.15210    2.65380    5.64570   21.31790   28.60200
 9142.00000   -9999.25   -9999.25  109.24700    0.13650    4.23090    0.02170    0.04020    9.14970    2.68360    3.61870   11.16870   12.72670
 9142.50000   -9999.25   -9999.25  119.29700    0.15100    3.77520    0.02390    0.04980    9.14730    2.68160    3.19950   10.03710   10.66870
 9143.00000   -9999.25   -9999.25  130.84710    0.16550    3.43120    0.04690    0.03340    9.14490    2.63290    6.29030   10.17430   10.77060
 9143.50000   -9999.25   -9999.25  135.99410    0.17750    3.22650    0.06300    0.01360    9.11250    2.61300    6.62170   10.26720   10.61230
 9144.00000   -9999.25   -9999.25  137.21790    0.18290    3.04680    0.06330    0.00440    9.11250    2.60800    6.43050    9.95810   10.31510
 9144.50000   -9999.25   -9999.25  134.06020    0.17860    2.94480    0.06260    0.00410    9.10290    2.61160    6.41830    9.89450   10.65630
 9145.00000   -9999.25   -9999.25  128.52600    0.16620    3.13890    0.05330    0.00550    9.08540    2.63710    8.21380   11.16150   13.51680
 9145.50000   -9999.25   -9999.25  123.11940    0.16080    3.37310    0.03620    0.01920    9.08630    2.66260    5.24240   14.99000   16.46190
