~Version ---------------------------------------------------
VERS.   2.0 : CWLS log ASCII Standard -VERSION 2.0
WRAP.    NO : One line per depth step
DLM . SPACE : Column Data Section Delimiter
~Well ------------------------------------------------------
STRT .F                  186.0 : START DEPTH
STOP .F                11503.0 : STOP DEPTH
STEP .F                    0.5 : STEP
NULL .                -9999.25 : NULL VALUE
COMP .                         : COMPANY
WELL .                         : WELL
FLD  .                         : FIELD
LOC  .                         : LOCATION
PROV .                         : PROVINCE
CNTY .                         : COUNTY
STAT .                         : STATE
CTRY .                         : COUNTRY
SRVC .                         : SERVICE COMPANY
DATE .                         : DATE
UWI  .                         : UNIQUE WELL ID
API  .                         : API NUMBER
SLAT .WGS84 0.7799653344071054 : SURFACE LATITUDE
SLON .WGS84  6.896152414964007 : SURFACE LONGITUDE
DATUM.F                2947.61 : DEPTH DATUM ELEV
~Curve Information -----------------------------------------
DEPT   .F     : 1 MEASURED DEPTH
DTCO   .US/F  : DELTA-T COMPRESSIONAL
DTSM   .US/F  : DELTA-T SHEAR
HSGRD  .GAPI  : HNGS STANDARD GAMMA RAY FROM DENSITY LOG
TNPH_LS.DEC   : THERMAL NEUTRON POROSITY [LIMESTONE]
PEFZ   .B/E   : HRDD STANDARD RESOLUTION FORMATION PHOTOELECTRIC FACTOR
DPHZ_LS.DEC   : HGRD STANDARD RESOLUTION DENSITY POROSITY
HDRA   .G/C3  : HRDD SPINE AND RIBS DENSITY CORRECTION
HCALD  .IN    : HRCC CALIPER CALIBRATED FROM DENSITY LOG
RHOZ   .G/C3  : HRDD STANDARD RESOLUTION FORMATION DENSITY
RXOZ   .OHMM  : INVADED FORMATION RESISTIVITY FILTERED AT 18 INCHES
RLA4   .OHMM  : APPARENT RESISTIVITY FROM COMPUTED FOCUSING MODE 4
RLA5   .OHMM  : APPARENT RESISTIVITY FROM COMPUTED FOCUSING MODE 5
~Params ----------------------------------------------------
~Other -----------------------------------------------------
~ASCII -----------------------------------------------------
# ...
 9902.00000   -9999.25   -9999.25   91.08660    0.08720    3.40040    0.02940    0.02860    8.90280    2.62580    7.08790   33.59450   45.26920
 9902.50000   -9999.25   -9999.25   86.67500    0.08270    3.12250    0.04320    0.02450    8.91800    2.62510   49.61050   37.11160   41.12050
 9903.00000   -9999.25   -9999.25   83.07290    0.08100    2.84170    0.05440    0.01440    8.93320    2.63680   21.20030   32.85750   39.74000
 9903.50000   -9999.25   -9999.25   80.62450    0.08840    2.91570    0.04400    0.01460    8.91940    2.64720    4.94110   46.41970   66.09650
 9904.00000   -9999.25   -9999.25   78.80770    0.09570    4.13090    0.04300    0.03510    8.88720    2.63080    3.03800   23.16750   26.85620
 9904.50000   -9999.25   -9999.25   78.90350    0.09830    5.34610    0.07800    0.00300    8.85510    2.58650    3.74950   21.34780   22.15360
 9905.00000   -9999.25   -9999.25   86.50100    0.10350    6.55020    0.11300    0.00360    8.82300    2.54250    5.25960   21.14990   21.77190
 9905.50000   -9999.25   -9999.25   95.10660    0.13040    7.41210    0.12620   -0.03490    8.85370    2.51030    2.54850   19.65740   21.13790
 9906.00000   -9999.25   -9999.25  104.81080    0.15150    7.45580    0.10950   -0.03600    9.02540    2.55350    1.17490   11.04540   14.28750
 9906.50000   -9999.25   -9999.25  112.91360    0.14170    6.27050    0.09290   -0.02350    9.19720    2.61910    0.65690    8.82320   10.26910
 9907.00000   -9999.25   -9999.25  118.28510    0.12050    4.78030    0.05950    0.00210    9.16110    2.63030    0.64430   11.27770   12.71180
 9907.50000   -9999.25   -9999.25  112.37780    0.10190    4.43940    0.04800    0.02000    8.98860    2.62480    2.80050   16.00330   18.82890
 9908.00000   -9999.25   -9999.25  103.05890    0.09130    4.57530    0.05410    0.02380    8.85150    2.61800    4.84130   17.77610   21.96840
 9908.50000   -9999.25   -9999.25   99.64810    0.11240    4.83840    0.06060    0.02680    8.85080    2.61600    1.86180   11.43730   13.75360
 9909.00000   -9999.25   -9999.25  108.96800    0.14580    5.00220    0.05490    0.02540    8.91350    2.61550    2.29180    8.30190    9.03330
 9909.50000   -9999.25   -9999.25  124.99290    0.22150    4.96300    0.05360    0.02140    8.98770    2.61640    2.09450    8.13430    8.82220
 9910.00000   -9999.25   -9999.25  135.60270    0.23490    3.76220    0.05990    0.01780    9.03760    2.61910    5.54320    8.25360    9.03200
 9910.50000   -9999.25   -9999.25  139.75660    0.23280    3.50560    0.05840    0.01460    9.03740    2.62390    5.85070    8.60850    9.36260
 9911.00000   -9999.25   -9999.25  137.40030    0.21920    3.41490    0.05590    0.01190    9.00680    2.62140    5.94040    8.97860    9.70390
 9911.50000   -9999.25   -9999.25  135.03390    0.20970    3.33990    0.05620    0.01070    8.95320    2.61510    6.04980    9.29500    9.87370
 9912.00000   -9999.25   -9999.25  132.73550    0.20180    3.27810    0.05970    0.00870    8.91350    2.61610    6.19900    9.59320   10.07480
 9912.50000   -9999.25   -9999.25  129.52160    0.19540    3.24620    0.05670    0.00760    8.90780    2.62170    6.35180    9.92650   10.33880
 9913.00000   -9999.25   -9999.25  123.55990    0.18660    3.22390    0.05280    0.00660    8.90210    2.62720    6.65830   10.33380   10.84900
 9913.50000   -9999.25   -9999.25  115.55380    0.16620    3.23740    0.04880    0.00740    8.89270    2.63280    7.14810   11.28560   12.36210
 9914.00000   -9999.25   -9999.25  106.51650    0.12510    3.51560    0.03980    0.00820    8.87820    2.67570    8.22610   13.27710   19.06340
 9914.50000   -9999.25   -9999.25   82.28040    0.08130    3.74990    0.01590    0.01120    8.86530    2.72050   11.05520   22.17470   46.03210
 9915.00000   -9999.25   -9999.25   60.07770    0.03640    3.75620   -0.00950    0.02340    8.85460    2.74010   23.04760   94.07910  261.21560
 9915.50000   -9999.25   -9999.25   50.91280    0.01990    3.73120   -0.01550    0.02860    8.84390    2.73290   66.37510  301.18820  476.97920
 9916.00000   -9999.25   -9999.25   44.57810    0.01100    3.79670   -0.00440    0.01870    8.84150    2.72440  274.91010  256.88830  460.27590
 9916.50000   -9999.25   -9999.25   44.24710    0.02190    4.01980    0.00170    0.00740    8.84200    2.71240  348.07590  161.23890  222.27720
 9917.00000   -9999.25   -9999.25   49.04730    0.05170    4.41840    0.00760    0.00530    8.84260    2.67650  180.36320  149.54830   84.82730
 9917.50000   -9999.25   -9999.25   64.77830    0.09970    4.88430    0.03350    0.01240    8.84310    2.57480  143.43620   14.73240   11.69710
 9918.00000   -9999.25   -9999.25   82.77100    0.14600    5.36840    0.06770    0.02240    8.82300    2.45940    2.00260    7.18610    8.65340
 9918.50000   -9999.25   -9999.25  108.66000    0.17910    5.87900    0.10980    0.01640    8.79050    2.39290    1.97500   10.16310   10.73420
 9919.00000   -9999.25   -9999.25  114.15300    0.20340    7.15440    0.16900    0.00320    8.84680    2.38580    4.34140    9.86040   11.22330
 9919.50000   -9999.25   -9999.25  112.59530    0.20330    8.70660    0.18970   -0.01600    8.98870    2.39190   12.17180    9.54950   15.90770
 9920.00000   -9999.25   -9999.25  111.26690    0.18550    9.92220    0.18060    0.00700    9.14310    2.43130    4.42610   13.48440   15.63490
 9920.50000   -9999.25   -9999.25  113.55080    0.17890    9.92220    0.16820    0.03590    9.23660    2.47080    1.06060   10.46670   12.47650
 9921.00000   -9999.25   -9999.25  118.48670    0.21640    9.89430    0.13760    0.04540    9.36650    2.53400    0.41840   10.01410   10.83860
 9921.50000   -9999.25   -9999.25  126.01560    0.23050    8.25680    0.08670    0.04750    9.36230    2.65960    0.37660    9.93660   10.67970
 9922.00000   -9999.25   -9999.25  130.71170    0.24050    7.85350    0.03410    0.07220    9.23450    2.66550    0.65350   10.20450   11.19530
 9922.50000   -9999.25   -9999.25  124.54500    0.24720    7.93020    0.04930    0.09070    9.08080    2.59110    1.98960   10.81460   11.75270
 9923.00000   -9999.25   -9999.25  116.58150    0.22830    8.28170    0.08860    0.08820    9.01290    2.49940    5.07850   12.60270   13.60620
 9923.50000   -9999.25   -9999.25  113.58750    0.22040    8.70200    0.12720    0.08460    9.01310    2.50510    0.97540   10.49830   13.27290
 9924.00000   -9999.25   -9999.25  119.88690    0.22180    9.12240    0.09780    0.09390    9.06520    2.55260    0.42900    8.87950   10.41280
 9924.50000   -9999.25   -9999.25  129.21190    0.22330    9.47130    0.09460    0.11360    9.13380    2.54990    0.37210    9.84690   10.36190
 9925.00000   -9999.25   -9999.25  137.46800    0.22050    9.57250    0.14220    0.10180    9.20520    2.46880    0.55550   10.98510   11.53730
 9925.50000   -9999.25   -9999.25  141.25700    0.21420    9.60980    0.19030    0.06110    9.27650    2.40480    3.46250   11.07500   12.30770
 9926.00000   -9999.25   -9999.25  136.29520    0.20780    9.59420    0.17310    0.02230    9.34440    2.44020    0.64420   10.25220   10.88970
 9926.50000   -9999.25   -9999.25  128.37390    0.20660    8.77150    0.14320    0.01960    9.37530    2.51700    0.43340   10.42840   11.83080
 9927.00000   -9999.25   -9999.25  123.64160    0.20860    8.00670    0.11460    0.04160    9.33490    2.57730    0.36390   12.42700   15.35420
 9927.50000   -9999.25   -9999.25  121.38370    0.22760    7.73000    0.08060    0.07060    9.26890    2.62050    0.75290   10.07570   13.70400
 9928.00000   -9999.25   -9999.25  120.91910    0.23500    7.35710    0.04850    0.09200    9.26020    2.66270    0.77970   11.14770   12.56140
 9928.50000   -9999.25   -9999.25  120.84590    0.26180    7.27710    0.02340    0.09340    9.25150    2.65910    1.35190   10.64980   12.18700
 9929.00000   -9999.25   -9999.25  120.57510    0.29350    7.94210    0.08170    0.06130    9.24280    2.51920    1.47910   11.32770   12.81920
 9929.50000   -9999.25   -9999.25  120.44590    0.35020    9.08000    0.19040    0.04120    9.23410    2.41660    4.93020   11.99120   13.31940
