~Version ---------------------------------------------------
VERS.   2.0 : CWLS log ASCII Standard -VERSION 2.0
WRAP.    NO : One line per depth step
DLM . SPACE : Column Data Section Delimiter
~Well ------------------------------------------------------
STRT .F                  186.0 : START DEPTH
STOP .F                11503.0 : STOP DEPTH
STEP .F                    0.5 : STEP
NULL .                -9999.25 : NULL VALUE
COMP .                         : COMPANY
WELL .                         : WELL
FLD  .                         : FIELD
LOC  .                         : LOCATION
PROV .                         : PROVINCE
CNTY .                         : COUNTY
STAT .                         : STATE
CTRY .                         : COUNTRY
SRVC .                         : SERVICE COMPANY
DATE .                         : DATE
UWI  .                         : UNIQUE WELL ID
API  .                         : API NUMBER
SLAT .WGS84 0.7799653344071054 : SURFACE LATITUDE
SLON .WGS84  6.896152414964007 : SURFACE LONGITUDE
DATUM.F                2947.61 : DEPTH DATUM ELEV
~Curve Information -----------------------------------------
DEPT   .F     : 1 MEASURED DEPTH
DTCO   .US/F  : DELTA-T COMPRESSIONAL
DTSM   .US/F  : DELTA-T SHEAR
HSGRD  .GAPI  : HNGS STANDARD GAMMA RAY FROM DENSITY LOG
TNPH_LS.DEC   : THERMAL NEUTRON POROSITY [LIMESTONE]
PEFZ   .B/E   : HRDD STANDARD RESOLUTION FORMATION PHOTOELECTRIC FACTOR
DPHZ_LS.DEC   : HGRD STANDARD RESOLUTION DENSITY POROSITY
HDRA   .G/C3  : HRDD SPINE AND RIBS DENSITY CORRECTION
HCALD  .IN    : HRCC CALIPER CALIBRATED FROM DENSITY LOG
RHOZ   .G/C3  : HRDD STANDARD RESOLUTION FORMATION DENSITY
RXOZ   .OHMM  : INVADED FORMATION RESISTIVITY FILTERED AT 18 INCHES
RLA4   .OHMM  : APPARENT RESISTIVITY FROM COMPUTED FOCUSING MODE 4
RLA5   .OHMM  : APPARENT RESISTIVITY FROM COMPUTED FOCUSING MODE 5
~Params ----------------------------------------------------
~Other -----------------------------------------------------
~ASCII -----------------------------------------------------
# ...
 10266.00000   67.35680  115.07060  107.71010    0.12490    3.06030    0.03980    0.00860    8.48400    2.65920   14.57220   17.23440   18.13810
 10266.50000   67.83030  116.52760   96.51500    0.11110    2.97760    0.03450    0.00990    8.48420    2.66740   14.68770   21.02210   23.81820
 10267.00000   68.95460  119.14490   90.04760    0.09480    2.89000    0.02450    0.01080    8.49630    2.67380   21.65100   31.94250   38.52190
 10267.50000   70.83390  122.03000   84.76220    0.07840    2.75450    0.02340    0.01170    8.50140    2.67310   30.37070   37.98000   44.61870
 10268.00000   72.24980  124.45390   85.23420    0.07640    2.62840    0.03460    0.01520    8.50100    2.62560   20.69730   22.40950   29.48650
 10268.50000   73.32240  126.88180   96.57070    0.09380    2.59640    0.04830    0.00980    8.50070    2.61910   15.32700   16.93360   18.78490
 10269.00000   73.67890  129.41020  110.53250    0.11540    2.55600    0.05520    0.00640    8.51070    2.61790   12.72300   14.36330   15.68870
 10269.50000   73.74400  129.25930  114.61590    0.13400    2.55030    0.05680    0.00540    8.53740    2.61720   11.81400   13.21160   14.13730
 10270.00000   73.13020  126.17350  117.48740    0.15080    2.60580    0.05780    0.00600    8.56400    2.61920   11.62180   12.25110   12.84980
 10270.50000   72.19950  121.94900  118.97690    0.15900    2.66760    0.05780    0.00740    8.59070    2.63490   11.80120   12.24600   17.23950
 10271.00000   70.34140  117.30820  119.97700    0.16610    2.76870    0.05150    0.00870    8.61290    2.65270   11.48740   25.86830   27.77420
 10271.50000   67.77790  112.60920  118.34480    0.17100    2.93020    0.04000    0.01010    8.63370    2.67040   10.70570   28.51150   29.70860
 10272.00000   65.93480  108.91790  111.74260    0.15190    3.01100    0.02230    0.02110    8.64220    2.67430   11.79480   30.29530   31.18310
 10272.50000   64.62200  105.41500  104.62620    0.13080    3.01330    0.02690    0.02110    8.63310    2.63720   16.26620   32.14810   33.34430
 10273.00000   63.80450  103.52870   89.40060    0.10400    2.81990    0.03710    0.01930    8.60200    2.62380   24.25990   34.63820   38.67560
 10273.50000   62.87930  103.65490   79.26830    0.07690    2.65060    0.05690    0.01750    8.57090    2.62380   33.48590   43.24570   49.86990
 10274.00000   62.52710  106.44720   70.53510    0.05970    2.55480    0.05590    0.01540    8.55500    2.62550   38.23100   53.99210   60.81960
 10274.50000   63.02860  110.17360   66.08200    0.05240    2.55060    0.05380    0.01340    8.55490    2.62850   41.60560   57.69200   63.96710
 10275.00000   64.69150  116.50270   65.39280    0.04610    2.60080    0.05070    0.01250    8.54800    2.63970   44.00900   61.39590   67.97590
 10275.50000   69.22230  125.69710   63.82730    0.04560    2.77500    0.04250    0.01150    8.54120    2.65240   45.13840   71.09150   82.00630
 10276.00000   74.06720  134.86880   65.02810    0.05440    3.00290    0.03290    0.01050    8.53430    2.66270   44.48510   92.44930  121.06420
 10276.50000   76.83630  139.56860   72.70620    0.06760    3.05390    0.03110    0.00950    8.53780    2.65740   38.49070   54.19390   73.06440
 10277.00000   77.47860  141.45360   90.12030    0.09230    2.98540    0.03700    0.00850    8.55820    2.64180   21.27010   28.71280   39.94770
 10277.50000   77.74250  142.36090  107.50410    0.12660    2.86940    0.04400    0.00820    8.59030    2.63400   13.64740   15.97650   18.43490
 10278.00000   77.82990  142.71520  121.16360    0.15110    2.79310    0.04960    0.00790    8.62470    2.63160   12.24600   13.56460   15.43250
 10278.50000   77.82460  142.40260  125.82180    0.17060    2.78590    0.04820    0.00760    8.65910    2.63160   11.07390   12.72250   14.43730
 10279.00000   77.81010  141.65620  127.29370    0.17710    2.83720    0.04830    0.00720    8.69350    2.63560   10.25580   12.33230   13.64530
 10279.50000   77.50520  140.54270  129.64690    0.18030    2.89870    0.04430    0.00700    8.69540    2.64160   10.34040   12.27310   13.30290
 10280.00000   76.73630  138.34120  134.24100    0.18330    2.97230    0.04140    0.00720    8.69660    2.64790   11.38400   12.19860   13.09820
 10280.50000   75.65760  136.13970  137.03300    0.18600    3.05490    0.03980    0.00730    8.69650    2.65830   10.74420   11.93500   12.69930
 10281.00000   74.45120  133.93820  137.13610    0.18810    3.09450    0.02980    0.00720    8.66300    2.66480   11.00180   11.57200   12.72780
 10281.50000   73.32910  131.98880  136.94140    0.18710    3.04140    0.03370    0.00710    8.62970    2.66260   11.17780   11.51170   12.96820
 10282.00000   72.34040  130.74260  136.88580    0.18510    2.96650    0.04100    0.00700    8.61750    2.64440   10.56110   11.49580   12.10320
 10282.50000   71.78700  131.05960  135.11520    0.17550    2.89160    0.04800    0.00680    8.61730    2.63340   10.68400   11.78840   13.13400
 10283.00000   71.47380  131.91740  127.80130    0.15710    2.80960    0.04330    0.00670    8.61710    2.63440   13.45780   15.53150   18.46700
 10283.50000   71.79960  133.99660  119.82410    0.13850    2.72530    0.03480    0.00660    8.61690    2.65680   15.99570   20.65450   24.49450
 10284.00000   73.40340  136.51140  114.04740    0.14160    2.73250    0.02630    0.00640    8.61670    2.67250   15.14080   17.58830   21.42610
 10284.50000   75.00300  138.53380  116.45750    0.15030    2.75900    0.02720    0.00580    8.61660    2.66730   13.44840   14.61280   15.57680
 10285.00000   75.77220  139.13910  121.45460    0.15790    2.80000    0.03230    0.00520    8.61640    2.65470   12.29760   13.50720   13.77030
 10285.50000   75.76720  138.20010  126.45180    0.16050    2.83590    0.03670    0.00560    8.62620    2.64410   12.26860   13.33560   13.73220
 10286.00000   75.26330  135.92250  128.50690    0.16310    2.85300    0.04620    0.00600    8.63670    2.63670   12.81070   13.69400   14.14310
 10286.50000   74.66350  134.09910  129.45480    0.16820    2.87850    0.04730    0.00670    8.64720    2.63230   12.68340   13.43510   14.02810
 10287.00000   74.06370  133.55250  127.11640    0.17670    2.93510    0.04800    0.00940    8.65770    2.64120   11.81580   12.19700   13.06270
 10287.50000   73.92210  133.65530  122.45250    0.16880    2.94550    0.04080    0.01220    8.64610    2.65810   10.09960   11.27280   12.31370
 10288.00000   73.76640  133.06710  116.56060    0.15750    2.97930    0.02710    0.01380    8.62140    2.67490   11.60300   15.73310   20.88020
 10288.50000   73.32910  131.58150  109.42910    0.14620    3.03100    0.01530    0.01510    8.59670    2.68620   15.92960   26.56260   29.02540
 10289.00000   72.30810  128.63630  108.55510    0.14210    2.98770    0.02370    0.01560    8.57950    2.68670   19.81100   22.58060   26.53960
 10289.50000   70.43890  126.00800  114.56790    0.15330    2.90470    0.03920    0.01350    8.57250    2.62320   13.40460   15.54050   18.38540
 10290.00000   68.63400  122.68320  121.34420    0.16620    2.79480    0.05950    0.01030    8.57060    2.62130   11.83730   12.26000   12.74330
 10290.50000   67.51460  118.05720  121.50110    0.16710    2.76300    0.05380    0.00580    8.57070    2.62910   10.96760   11.63770   12.12880
 10291.00000   66.67270  113.53730  113.40090    0.14420    2.84710    0.04690    0.00140    8.57070    2.64030   11.20190   12.50510   15.12830
 10291.50000   66.39700  111.75300  103.81010    0.10620    2.93730    0.04100   -0.00070    8.57080    2.65100   15.35520   18.42000   22.95350
 10292.00000   66.24350  111.20230   94.69540    0.09240    2.89100    0.03600    0.00040    8.56890    2.65490   21.84080   27.13280   31.57210
 10292.50000   66.18790  110.47000   88.23570    0.08350    2.74650    0.03510    0.00290    8.56610    2.65490   31.73890   34.24850   39.52720
 10293.00000   65.86340  109.75300   87.81460    0.08160    2.59980    0.03650    0.00550    8.56340    2.64840   30.17280   31.66080   35.33080
 10293.50000   64.78360  108.66730   90.08840    0.08740    2.46120    0.04260    0.00640    8.56060    2.64130   21.85100   24.68830   26.93200
