~Version ---------------------------------------------------
VERS.   2.0 : CWLS log ASCII Standard -VERSION 2.0
WRAP.    NO : One line per depth step
DLM . SPACE : Column Data Section Delimiter
~Well ------------------------------------------------------
STRT .FT                9030.0 : START DEPTH
STOP .FT               14506.0 : STOP DEPTH
STEP .FT                   0.5 : STEP
NULL .                -9999.25 : NULL VALUE
COMP .                         : COMPANY
WELL .                         : WELL
FLD  .                         : FIELD
LOC  .                         : LOCATION
PROV .                         : PROVINCE
CNTY .                         : COUNTY
STAT .                         : STATE
CTRY .                         : COUNTRY
SRVC .                         : SERVICE COMPANY
DATE .                         : DATE
UWI  .                         : UNIQUE WELL ID
API  .                         : API NUMBER
SLAT .WGS84  6.322563454980489 : SURFACE LATITUDE
SLON .WGS84 3.3663320787108972 : SURFACE LONGITUDE
DATUM.F                    nan : DEPTH DATUM ELEV
~Curve Information -----------------------------------------
DEPT   .FT    : 
AT10   .OHMM  : ARRAY INDUCTION TWO FOOT RESISTIVITY A10
AT30   .OHMM  : ARRAY INDUCTION TWO FOOT RESISTIVITY A30
AT90   .OHMM  : ARRAY INDUCTION TWO FOOT RESISTIVITY A90
C1S    .IN    : DELAYED CALIPER FOR FILM PRESENTATION
DPHZ_LS.DEC   : HGRD STANDARD RESOLUTION DENSITY POROSITY
DTCO   .US/F  : DELTA-T COMPRESSIONAL
DTSM   .US/F  : DELTA-T SHEAR
ECGRS  .GAPI  : ENVIRONMENTALLY CORRECTED GAMMA RAY FROM SONIC LOG
PEFZ   .B/E   : HRDD STANDARD RESOLUTION FORMATION PHOTOELECTRIC FACTOR
SPR    .MV    : SPONTANEOUS POTENTIAL FROM RESISTIVITY LOG
TNPH_LS.DEC   : THERMAL NEUTRON POROSITY [LIMESTONE]
~Params ----------------------------------------------------
~Other -----------------------------------------------------
~ASCII -----------------------------------------------------
# ...
 9914.50000    5.14900    5.29800    6.19960    9.78800    0.05500   75.31630  155.46770   69.51370    3.40070  -44.78670    0.17620
 9915.00000    5.37250    5.52800    6.04700   10.22720    0.05590   73.24890  154.78240   67.06440    3.31520  -45.14210    0.17200
 9915.50000    5.94700    6.11910    6.87310   10.42450    0.05480   71.53810  154.25210   66.08470    3.20150  -47.66740    0.16780
 9916.00000    7.11700    7.32300    8.93830   10.39190    0.05100   72.89800  153.58130   66.83610    3.17120  -48.85510    0.16280
 9916.50000    5.05960    6.12480    7.46130    9.93890    0.04720   70.96810  154.12000   65.41030    3.18490  -51.29540    0.15540
 9917.00000    6.20180    7.07030   14.68080    9.56150    0.04290   75.44430  155.70760   62.37900    3.22590  -51.17680    0.13740
 9917.50000   12.62970   14.58110   28.28840    9.93060    0.03950   73.31050  152.38390   60.77320    3.24220  -50.30510    0.11090
 9918.00000   20.77310   28.68880   32.91170    9.38340    0.03480   72.78760  149.59060   61.34970    3.27270  -50.40880    0.07410
 9918.50000   25.52630   29.04840   35.29920    8.67400    0.02970   72.75390  149.46770   61.86200    3.28140  -50.51250    0.05550
 9919.00000   28.12000   64.67340   40.64460    8.30800    0.02920   74.05480  147.38180   62.19200    3.25820  -50.61620    0.04520
 9919.50000   35.77240  100.29840   44.92100    8.33270    0.03430   74.44240  145.31410   63.13730    3.23500  -50.71990    0.04860
 9920.00000   38.24370  121.67450   65.41790    8.23010    0.04450   73.97250  151.03500   64.11690    3.20370  -50.82360    0.05360
 9920.50000   35.51710   95.64050   77.72000    8.74950    0.05140   74.59770  152.92910   68.43520    3.13980  -50.92730    0.06110
 9921.00000   30.15790   63.09390   59.14390   10.06250    0.05320   75.06230  155.97910   71.64310    3.09390  -51.03100    0.06830
 9921.50000   25.22310   30.54730   35.91730    9.37230    0.04940   75.53760  159.24340   74.11360    3.07090  -49.47680    0.07270
 9922.00000   23.92840   33.59740   42.03060    8.42470    0.04670   75.07410  161.48280   72.72950    3.07110  -49.21250    0.07490
 9922.50000   25.05960   38.59300   49.67120    8.43330    0.04430   74.25380  163.77100   72.12610    3.10370  -40.75530    0.07560
 9923.00000   22.60870   33.09620   31.63760    8.70720    0.04070   73.80050  165.66620   71.28940    3.17410  -45.14540    0.07340
 9923.50000   18.52140   27.59930   21.89290    8.04840    0.03290   75.71300  168.12000   67.72670    3.23450  -46.76690    0.07480
 9924.00000   14.43400   22.10240   17.67410    7.09630    0.02450   74.59500  169.24410   64.49790    3.24380  -48.38830    0.07670
 9924.50000   13.25670   16.60550   14.32960    6.40210    0.01930   75.96240  168.66120   62.58390    3.21120  -50.00980    0.07850
 9925.00000   12.80700   16.60770   14.48200    6.84370    0.02110   75.65480  167.44470   63.34240    3.17870  -51.01210    0.08160
 9925.50000   12.35720   16.61020   14.63450    6.76490    0.02750   75.64830  166.40520   64.54060    3.15210  -51.06730    0.08410
 9926.00000   11.65380   16.09080   14.25860    6.79690    0.03060   75.05320  165.24890   66.27210    3.14410  -51.12260    0.08710
 9926.50000   10.78120   13.48460   13.24060    7.32780    0.03010   74.55760  161.74220   68.07950    3.11790  -51.16750    0.09460
 9927.00000    9.90870   10.87830   12.22260    7.37930    0.02910   73.99510  158.14690   66.85660    3.08990  -54.36400    0.10490
 9927.50000   11.81650   22.92430   14.43390    8.17190    0.03250   74.01520  157.37960   65.73720    3.07130  -57.21820    0.10330
 9928.00000   22.22480   43.00000   26.50460    8.33900    0.03810   73.64810  155.29970   64.01420    3.07200  -56.95470    0.08720
 9928.50000   32.63320   63.07570   38.57520    9.00460    0.04230   72.58650  152.88810   63.16180    3.07270  -55.34940    0.06110
 9929.00000   30.32830   54.50100   43.95180    9.19200    0.04360   72.12960  148.96340   63.19250    3.14690  -54.17040    0.04180
 9929.50000   23.01610   37.54940   37.36990    8.92650    0.04280   72.02430  147.45310   63.08800    3.22200  -54.69670    0.03690
 9930.00000   19.83200   27.38010   33.42280    9.04680    0.04280   71.96150  145.67580   65.95330    3.18090  -55.22300    0.04080
 9930.50000   16.64800   26.25620   32.60020    8.83410    0.04400   72.03850  146.28100   66.26290    3.13980  -55.86930    0.05200
 9931.00000   12.63920   20.63470   25.30190    8.54590    0.04370   72.23850  147.69960   65.46700    3.10400  -55.98760    0.07090
 9931.50000   11.81010   15.01320   18.00360    8.14100    0.04020   72.26480  149.13540   64.38620    3.07640  -55.71040    0.08730
 9932.00000   12.18300   12.53580   15.05810    7.59480    0.03440   72.66170  151.49620   63.33790    3.07560  -55.43320    0.08670
 9932.50000   15.82530   16.28370   22.22580    7.41360    0.02760   73.12260  153.21660   64.36590    3.07470  -55.15600    0.07440
 9933.00000   16.95480   17.44590   23.61450    8.37430    0.02320   74.23270  155.09820   64.07750    3.07390  -54.87890    0.06490
 9933.50000   15.31760   15.76130   17.55290    8.26450    0.02380   74.58570  155.90790   61.29810    3.07310  -54.60170    0.06460
 9934.00000   13.98890   14.39410   16.81350    7.81160    0.02880   74.23090  155.39230   60.83820    3.07230  -51.44270    0.07540
 9934.50000   12.41330   12.77280   15.62560    7.54910    0.03030   74.50740  154.42760   62.12370    3.07150  -47.27110    0.08360
 9935.00000    9.77330   10.05630   12.64400    7.28660    0.02890   74.82960  153.28750   64.35510    3.06760  -43.09950    0.08900
 9935.50000    7.13330    7.33990    9.66230    7.15390    0.02670   74.02510  151.79170   63.48730    3.05140  -44.11720    0.09870
 9936.00000    6.70230    6.89640    7.58440    6.97180    0.03140   74.04140  149.68670   61.49760    3.03520  -46.78060    0.10940
 9936.50000    6.99430    7.20190    7.58440    7.82530    0.03450   74.27490  148.79790   61.02520    3.01890  -49.91730    0.12310
 9937.00000    8.03360    8.29690    8.94730    7.01560    0.03730   75.42090  147.51540   60.14330    3.05970  -53.35420    0.12760
 9937.50000    9.07290    9.39190   10.65100    8.30570    0.04280   74.43800  145.71050   61.93960    3.24030  -54.44340    0.12350
 9938.00000   10.11230   11.66530   13.44710   10.20560    0.04460   73.65540  145.02670   63.20240    3.54130  -56.04090    0.10620
 9938.50000   17.89880   72.74900   19.21780    9.29390    0.03760   73.24410  146.53630   63.59200    3.92090  -54.66760    0.08260
 9939.00000   33.28660  148.46160   43.51920    9.54090    0.02470   74.49860  150.85380   63.98160    4.22460  -55.59440    0.04330
 9939.50000   48.67440  224.17420  102.51810    9.22250    0.01610   74.91400  153.59440   64.26260    4.19210  -56.52130    0.02030
 9940.00000   49.63780  299.88690  148.06340    9.36600    0.01700   75.50230  157.09480   66.39880    4.08930  -57.44810    0.01490
 9940.50000   48.26760  310.27470  121.40920    9.47230    0.01750   75.05640  157.61280   66.34170    4.08240  -58.87990    0.01470
 9941.00000   50.66230  308.14750   98.84600    8.95080    0.01370   74.16870  158.55300   67.12700    4.17720  -62.07110    0.01480
 9941.50000   52.88800  306.02040  105.20190    9.13840    0.01000   74.14540  159.20140   66.66980    4.25510  -62.81600    0.01570
 9942.00000   56.40020  303.89330  109.71160    8.60770    0.00630   74.22900  159.57900   64.30810    4.22810  -62.98350    0.01660
 9942.50000   59.94680  307.32170  116.28600    8.73990    0.00820   74.29180  159.55030   60.82820    4.16750  -63.56700    0.01500
 9943.00000   61.11800  315.02940  130.02930    9.07060    0.01500   74.25330  159.24370   60.83260    4.16300  -62.46990    0.01230
 9943.50000   63.29400  258.07370  136.67600    9.37110    0.02040   74.73970  157.41530   61.14390    4.17090  -62.28030    0.00950
 9944.00000   66.39560  292.49720  173.96420    9.33770    0.01860   74.37100  154.92550   64.68330    4.17870  -60.01380    0.00910
 9944.50000   70.29270  464.61460  207.02390    9.07370    0.01680   73.48620  151.32130   65.65430    4.21510  -62.59750    0.00880
