~Version ---------------------------------------------------
VERS.   2.0 : CWLS log ASCII Standard -VERSION 2.0
WRAP.    NO : One line per depth step
DLM . SPACE : Column Data Section Delimiter
~Well ------------------------------------------------------
STRT .FT                9030.0 : START DEPTH
STOP .FT               14506.0 : STOP DEPTH
STEP .FT                   0.5 : STEP
NULL .                -9999.25 : NULL VALUE
COMP .                         : COMPANY
WELL .                         : WELL
FLD  .                         : FIELD
LOC  .                         : LOCATION
PROV .                         : PROVINCE
CNTY .                         : COUNTY
STAT .                         : STATE
CTRY .                         : COUNTRY
SRVC .                         : SERVICE COMPANY
DATE .                         : DATE
UWI  .                         : UNIQUE WELL ID
API  .                         : API NUMBER
SLAT .WGS84  6.322563454980489 : SURFACE LATITUDE
SLON .WGS84 3.3663320787108972 : SURFACE LONGITUDE
DATUM.F                    nan : DEPTH DATUM ELEV
~Curve Information -----------------------------------------
DEPT   .FT    : 
AT10   .OHMM  : ARRAY INDUCTION TWO FOOT RESISTIVITY A10
AT30   .OHMM  : ARRAY INDUCTION TWO FOOT RESISTIVITY A30
AT90   .OHMM  : ARRAY INDUCTION TWO FOOT RESISTIVITY A90
C1S    .IN    : DELAYED CALIPER FOR FILM PRESENTATION
DPHZ_LS.DEC   : HGRD STANDARD RESOLUTION DENSITY POROSITY
DTCO   .US/F  : DELTA-T COMPRESSIONAL
DTSM   .US/F  : DELTA-T SHEAR
ECGRS  .GAPI  : ENVIRONMENTALLY CORRECTED GAMMA RAY FROM SONIC LOG
PEFZ   .B/E   : HRDD STANDARD RESOLUTION FORMATION PHOTOELECTRIC FACTOR
SPR    .MV    : SPONTANEOUS POTENTIAL FROM RESISTIVITY LOG
TNPH_LS.DEC   : THERMAL NEUTRON POROSITY [LIMESTONE]
~Params ----------------------------------------------------
~Other -----------------------------------------------------
~ASCII -----------------------------------------------------
# ...
 9609.50000    6.60500    7.36370    8.12500    9.35750    0.01140   55.10230  103.91710   32.35050    4.68240  -99.93280    0.11640
 9610.00000    5.95670    6.39010    7.16780    9.35140    0.01790   54.82120  104.56870   33.83360    4.63530 -100.23520    0.13850
 9610.50000    5.87580    6.11860    6.51180    9.34540    0.02660   55.68300  104.97080   33.06280    4.67740 -100.53770    0.14750
 9611.00000    5.90010    6.35160    6.88630    9.34480    0.03220   56.72230  105.87180   29.74930    4.74450 -100.65870    0.15790
 9611.50000    6.92800    7.46400    8.35060    9.31300    0.02770   57.60900  107.21290   24.92690    4.78110 -100.65870    0.14120
 9612.00000    7.95580    8.35390    9.22920    9.42080    0.01870   59.31740  109.47960   22.56490    4.73440 -100.65870    0.12980
 9612.50000    5.87040    7.01600    7.52520    9.56530    0.01760   60.46760  111.74640   26.97780    4.61750 -101.16390    0.13580
 9613.00000    5.35200    5.60860    5.82130    9.52430    0.02770   61.32840  113.38100   33.62850    4.50060 -101.74460    0.15000
 9613.50000    5.14470    5.45480    5.70700    9.49650    0.03640   62.18340  115.74020   39.66770    4.41150 -102.32530    0.15800
 9614.00000    5.14470    5.42990    5.66490    9.46690    0.03840   63.09320  117.85880   40.43820    4.33560 -102.90600    0.16140
 9614.50000    5.14470    5.40500    5.62270    9.43720    0.03600   64.35750  119.49510   39.10590    4.32500 -103.63380    0.16350
 9615.00000    5.14470    5.38010    5.58050    9.40820    0.03260   65.15600  120.81910   40.28840    4.34650 -104.42460    0.16470
 9615.50000    5.14470    5.35520    5.53840    9.38650    0.03460   65.72960  121.73300   42.10580    4.41010 -103.17730    0.16860
 9616.00000    4.77420    5.46600    5.60780    9.55550    0.03450   65.77060  122.36960   41.50090    4.42530 -102.43720    0.16550
 9616.50000    5.73890    6.11960    6.44600    9.64930    0.03230   65.64300  122.79220   40.35350    4.50460 -103.43740    0.15920
 9617.00000    6.12470    6.38700    7.28430    9.63600    0.02920   65.42100  122.56730   38.78630    4.52520 -105.59940    0.14690
 9617.50000    5.45750    5.76320    6.43260    9.55790    0.03130   65.59650  121.84530   39.04900    4.53240 -106.20960    0.13370
 9618.00000    4.79020    5.13930    5.01310    9.45460    0.03380   65.58560  121.91760   40.39600    4.53970 -106.81980    0.13740
 9618.50000    4.62380    4.82920    4.95100    9.64780    0.03790   65.79500  121.90320   41.47000    4.53990 -106.11860    0.14770
 9619.00000    4.59910    4.88970    5.01310    9.66240    0.03870   66.19670  121.83420   43.24940    4.53060 -105.51900    0.15310
 9619.50000    5.17700    5.41900    6.06540    9.67270    0.03890   66.38890  122.06660   44.64930    4.53700 -106.67720    0.14780
 9620.00000    5.75470    6.04260    6.75970    9.70450    0.03810   66.40100  122.38340   43.61080    4.52470 -107.83540    0.14170
 9620.50000    5.29730    5.58400    5.94150    9.74170    0.03380   66.46990  122.70020   43.04000    4.50950 -107.83240    0.13470
 9621.00000    4.95390    6.02580    6.74050    9.77890    0.02490   66.67760  122.88040   43.13450    4.50560 -107.53910    0.12030
 9621.50000   10.27900    9.15420   11.55580    9.92810    0.01670   67.27590  122.75970   46.21400    4.55690 -107.46180    0.10270
 9622.00000   15.60410   12.28270   16.37120    9.73950    0.00700   67.85330  123.45300   48.68650    4.67460 -107.38450    0.08290
 9622.50000   20.92920   20.07470   21.43060    9.62040    0.00120   67.62060  124.48470   49.53890    4.85850 -106.87620    0.06200
 9623.00000   26.25430   27.86670   30.48320    9.74560   -0.00250   67.52840  125.18500   49.69940    5.01570 -106.92160    0.03380
 9623.50000   31.57940   46.07400   54.85770    9.57060   -0.00770   67.53680  125.33080   50.11320    5.17290 -106.96700    0.01960
 9624.00000   34.21680  105.94260   54.73920    9.59850   -0.01230   68.01600  125.27680   49.50770    5.21560 -106.23360    0.01310
 9624.50000   36.81410  104.21650   57.75820    9.72920   -0.01660   68.06710  125.73610   48.13390    5.09860 -107.47310    0.01430
 9625.00000   39.89680  101.34620   65.97290    9.79260   -0.01240   68.52570  125.89150   47.02100    5.02840 -105.53640    0.01680
 9625.50000   39.79100  136.61870   78.12740    9.72400   -0.00640   68.32660  125.95780   48.05910    5.07910 -104.14160    0.01600
 9626.00000   40.59840  138.58640   87.84980    9.67230   -0.00370   68.47120  126.02410   48.91750    5.15710 -104.88130    0.01530
 9626.50000   45.80020  101.47110   77.89130    9.91790   -0.00680   68.95350  125.61360   49.55490    5.20840 -105.26170    0.01450
 9627.00000   35.40160   73.38440   67.93280   10.09320   -0.00330   68.84060  125.21400   50.49240    5.27770 -105.19990    0.01380
 9627.50000   24.07410   45.29780   55.64830    9.96910    0.00750   69.16270  125.67330   53.55730    5.37490 -105.53640    0.01800
 9628.00000   17.98670   29.00870   39.87450    9.83960    0.01510   69.07830  125.79340   54.50650    5.46580 -105.36530    0.02520
 9628.50000   13.82000   20.58480   24.10080    9.92170    0.01710   69.27190  125.74590   53.49700    5.56900 -104.50930    0.03430
 9629.00000   12.11550   15.52940   22.33350    9.92170    0.01350   68.96780  125.88260   52.23570    5.61540 -103.65340    0.03520
 9629.50000   16.33720   21.20310   26.27110    9.98130    0.00610   67.50290  125.96520   54.80430    5.53230 -102.79750    0.02400
 9630.00000   31.09930   67.94060   68.66990   10.05930    0.00110   68.38640  125.39650   55.03590    5.45580 -102.70820    0.01350
 9630.50000   45.86140  114.67810  120.07500   10.09750   -0.00430   67.70340  124.78410   52.42580    5.40230 -103.82510    0.00640
 9631.00000   53.26710  224.08910  171.48010    9.99460   -0.00730   66.89980  123.84800   50.77860    5.37640 -105.68580    0.00310
 9631.50000   48.85770  373.87000  202.32320   10.01650   -0.01010   66.25410  122.91190   48.97930    5.31700 -106.13350    0.00290
 9632.00000   51.49090  309.09020  161.66480   10.08840   -0.00940   67.11760  122.63680   45.96530    5.28590 -104.65090    0.00380
 9632.50000   53.34330  350.11270  153.22330    9.93640   -0.00830   67.47470  122.30080   42.44860    5.31710 -104.09670    0.00490
 9633.00000   52.31090  437.30940  150.13750   10.09250   -0.00770   67.56530  122.75390   42.33120    5.34830 -103.53050    0.00540
 9633.50000   54.08970  484.11200  160.03320    9.88550   -0.00770   66.84730  123.12210   46.37080    5.37320 -103.16120    0.00730
 9634.00000   54.88710  438.16550  169.92890    9.97290   -0.00690   65.76370  122.47340   51.55980    5.32410 -102.92300    0.00980
 9634.50000   55.01210  328.96270  151.89800   10.36670   -0.00650   65.52430  121.92260   56.07650    5.27210 -102.68480    0.01240
 9635.00000   53.06530  236.39590  124.28110   10.61360   -0.00490   66.50080  122.82060   58.10720    5.23910 -102.44670    0.01520
 9635.50000   54.52340  166.47890   96.66430   10.44510   -0.00610   67.11690  123.95790   52.02550    5.19780 -102.20850    0.01810
 9636.00000   48.71440  130.53650   74.79100   10.30160   -0.01010   67.75220  125.62380   46.48650    5.12740 -101.59220    0.02040
 9636.50000   42.03580   94.59410   56.74670   10.12420   -0.01820   68.60610  126.95760   46.25490    5.02660 -100.26800    0.02450
 9637.00000   35.77580   65.11140   62.81170   10.63880   -0.02340   69.37550  128.07000   53.81450    4.92580  -99.58270    0.02830
 9637.50000   34.67870   53.31830   70.39290   10.83750   -0.02600   69.43560  129.33820   61.49440    4.83020  -99.21050    0.03220
 9638.00000   34.48830   52.00580   71.01840   10.81710   -0.02280   70.00110  130.73590   65.35900    4.74080  -98.83840    0.03390
 9638.50000   29.19210   44.80930   53.80250   10.81730   -0.02020   71.57530  130.68750   64.74820    4.66920  -98.54070    0.03530
 9639.00000   24.52150   34.67320   38.64220   10.85170   -0.01150   71.96210  130.58040   64.04500    4.68410  -98.30250    0.03750
 9639.50000   19.72090   26.09110   31.70470   10.88600   -0.00500   71.94900  130.85240   61.96420    4.81570  -97.22900    0.03970
