~Version ---------------------------------------------------
VERS.   2.0 : CWLS log ASCII Standard -VERSION 2.0
WRAP.    NO : One line per depth step
DLM . SPACE : Column Data Section Delimiter
~Well ------------------------------------------------------
STRT .FT                9030.0 : START DEPTH
STOP .FT               14506.0 : STOP DEPTH
STEP .FT                   0.5 : STEP
NULL .                -9999.25 : NULL VALUE
COMP .                         : COMPANY
WELL .                         : WELL
FLD  .                         : FIELD
LOC  .                         : LOCATION
PROV .                         : PROVINCE
CNTY .                         : COUNTY
STAT .                         : STATE
CTRY .                         : COUNTRY
SRVC .                         : SERVICE COMPANY
DATE .                         : DATE
UWI  .                         : UNIQUE WELL ID
API  .                         : API NUMBER
SLAT .WGS84  6.322563454980489 : SURFACE LATITUDE
SLON .WGS84 3.3663320787108972 : SURFACE LONGITUDE
DATUM.F                    nan : DEPTH DATUM ELEV
~Curve Information -----------------------------------------
DEPT   .FT    : 
AT10   .OHMM  : ARRAY INDUCTION TWO FOOT RESISTIVITY A10
AT30   .OHMM  : ARRAY INDUCTION TWO FOOT RESISTIVITY A30
AT90   .OHMM  : ARRAY INDUCTION TWO FOOT RESISTIVITY A90
C1S    .IN    : DELAYED CALIPER FOR FILM PRESENTATION
DPHZ_LS.DEC   : HGRD STANDARD RESOLUTION DENSITY POROSITY
DTCO   .US/F  : DELTA-T COMPRESSIONAL
DTSM   .US/F  : DELTA-T SHEAR
ECGRS  .GAPI  : ENVIRONMENTALLY CORRECTED GAMMA RAY FROM SONIC LOG
PEFZ   .B/E   : HRDD STANDARD RESOLUTION FORMATION PHOTOELECTRIC FACTOR
SPR    .MV    : SPONTANEOUS POTENTIAL FROM RESISTIVITY LOG
TNPH_LS.DEC   : THERMAL NEUTRON POROSITY [LIMESTONE]
~Params ----------------------------------------------------
~Other -----------------------------------------------------
~ASCII -----------------------------------------------------
# ...
 9518.00000   11.38190   12.84930   13.24800    9.50650    0.01040   59.29090  114.03780   28.72200    4.88010 -104.21660    0.06530
 9518.50000   11.57460   12.89650   13.41350    9.49180    0.01120   59.30430  113.68430   27.95780    4.88530 -103.59390    0.06390
 9519.00000   11.76720   12.94370   13.46990    9.46810    0.01340   59.31770  113.65280   28.28470    4.90890 -106.49210    0.06240
 9519.50000   11.85050   12.82870   13.49900    9.43190    0.01660   59.40870  113.62130   29.24540    4.94530 -106.28210    0.06210
 9520.00000   11.76970   12.67310   13.52800    9.37050    0.01660   59.44390  113.58980   29.25550    5.00440 -106.53980    0.06270
 9520.50000   11.68900   12.51760   13.55710    9.37020    0.01390   59.56480  113.58640   29.26560    5.01380 -106.76530    0.06330
 9521.00000   11.60820   12.36200   13.58620    9.35280    0.01350   59.61950  113.59810   29.27570    4.97680 -106.99070    0.06400
 9521.50000   11.52740   12.20650   13.61530    9.35050    0.01350   59.69960  114.06300   29.28580    4.93000 -107.21620    0.06420
 9522.00000   11.44670   12.05090   13.44770    9.28030    0.01500   59.71160  114.28710   27.38080    4.92400 -107.44160    0.06550
 9522.50000   11.78870   12.31950   13.28010    9.17370    0.01240   59.72370  114.06710   27.34180    4.91200 -107.66710    0.06560
 9523.00000   12.13060   13.06870   14.16140    9.14020    0.00940   59.79640  114.06710   29.35790    4.87290 -107.89250    0.06470
 9523.50000   12.47260   13.81790   15.04280    9.09410    0.00620   59.80170  114.07890   30.67900    4.81800 -108.11800    0.06160
 9524.00000   12.81460   14.56700   15.72960    9.02220    0.00310   59.80710  114.11470   29.10990    4.77670 -108.34340    0.06000
 9524.50000   13.15650   15.31620   16.41640    8.98800    0.00180   59.72260  114.07070   27.33090    4.76130 -108.56890    0.05960
 9525.00000   13.24630   15.61590   16.45770    8.98160    0.00310   59.78990  113.97360   28.40570    4.75940 -108.79440    0.05840
 9525.50000   13.12870   15.02290   15.64620    8.97510    0.00590   59.78870  113.87640   28.65000    4.79460 -109.01980    0.05750
 9526.00000   12.86910   14.42980   14.83480    8.99450    0.00700   59.62970  113.77920   27.97910    4.81150 -109.24530    0.05870
 9526.50000   12.60950   14.31120   14.67250    8.97800    0.00710   59.60660  113.68200   27.84460    4.82840 -109.40920    0.06000
 9527.00000   12.35000   14.31120   14.85650    8.90800    0.00930   59.53550  113.59610   28.80140    4.84520 -109.48090    0.06250
 9527.50000   12.09040   13.46760   14.32120    8.84040    0.01280   59.64520  113.84210   29.25960    4.86350 -109.55250    0.06410
 9528.00000   11.88280   12.77950   13.61530    8.78090    0.01680   59.78540  114.36440   29.46780    4.86650 -109.62420    0.06500
 9528.50000   11.83680   12.71350   13.61530    8.75610    0.01410   59.78670  114.47020   26.73140    4.86130 -109.69580    0.06400
 9529.00000   11.79080   12.64750   13.52390    8.72420    0.01330   59.78790  114.11550   26.14510    4.87500 -109.76750    0.06370
 9529.50000   11.74480   12.56510   13.37150    8.81280    0.01380   59.72010  113.74290   26.09410    4.88930 -109.83920    0.06370
 9530.00000   11.73560   12.47870   13.11560    8.82840    0.01310   59.66400  113.63680   27.39570    4.87230 -109.91080    0.06440
 9530.50000   11.73560   12.39230   13.20620    8.75590    0.01020   59.54810  113.28770   28.77390    4.82380 -109.98250    0.06520
 9531.00000   11.73560   12.32320   13.62790    8.85940    0.00710   59.33600  112.87770   30.58210    4.75080 -110.05420    0.06680
 9531.50000   12.30900   12.92530   14.04960    8.87300    0.00710   59.34220  112.46780   30.84130    4.72250 -110.12580    0.06730
 9532.00000   12.88240   13.52740   14.70660    8.83810    0.00980   59.07870  112.04690   28.56230    4.73170 -110.68300    0.06740
 9532.50000   13.45570   14.12950   15.42250    8.80780    0.01100   58.87040  111.89270   25.83520    4.74080 -111.36160    0.06750
 9533.00000   13.79980   14.49070   14.51580    8.78950    0.00940   58.65090  111.73840   26.72300    4.74990 -111.80360    0.06750
 9533.50000   12.64000   13.45470   13.62120    8.78640    0.00900   58.75400  111.61260   28.33920    4.75210 -111.29900    0.06800
 9534.00000   11.48020   12.41860   12.72670    8.78840    0.01010   58.95710  111.60050   30.98850    4.75440 -110.79440    0.06830
 9534.50000   10.32050   11.38250   11.83210    8.81720    0.01350   58.95030  111.55600   29.37760    4.75660 -110.28980    0.07130
 9535.00000    9.55880   10.34640   10.93750    8.80800    0.01130   59.10770  111.75320   30.55920    4.71830 -109.78520    0.07290
 9535.50000    9.26110    9.72480   10.09530    8.81190    0.01130   59.15380  111.91660   30.72630    4.71600 -109.28050    0.08010
 9536.00000    9.89580   10.30200   12.00050    8.87470    0.01590   59.22030  111.95460   32.64600    4.71370 -108.77590    0.08790
 9536.50000    9.41470   10.51250   11.92990    8.86790    0.02600   59.43840  112.14130   32.50670    4.67360 -108.27130    0.09000
 9537.00000    7.89460    8.67920    9.77300    8.89970    0.03570   59.52130  112.42700   32.58660    4.60440 -108.26290    0.09120
 9537.50000    6.98260    7.57920    8.58790    8.93150    0.03850   59.50990  112.71270   32.46190    4.55070 -108.36610    0.09480
 9538.00000    8.17590    8.69290    8.86050    8.91620    0.03060   59.52840  112.44460   32.69490    4.46010 -108.91590    0.10030
 9538.50000    7.93610    8.54440    8.91230    8.94230    0.02380   59.74510  113.14610   31.72990    4.36950 -109.46570    0.10500
 9539.00000    7.33680    8.17320    8.67960    8.97880    0.01870   59.67470  114.37610   31.72500    4.27880 -110.01550    0.10890
 9539.50000    6.73750    7.80190    8.44690    8.78950    0.02090   59.67760  114.08960   32.88790    4.15750 -110.01550    0.11850
 9540.00000    6.13820    7.57920    8.21420    8.94480    0.02640   59.65600  113.37260   35.34400    4.06460 -110.01550    0.12790
 9540.50000    6.55350    7.57920    8.36530    9.05170    0.02830   59.34120  113.37610   35.83860    3.97670 -110.16760    0.13640
 9541.00000    7.59200    8.58990    9.35310    9.11320    0.02650   59.46640  113.52560   34.81570    3.96310 -110.16760    0.14090
 9541.50000    8.63050    9.60060   10.34090    9.17480    0.01650   59.73590  113.76180   32.89330    4.06750 -110.16760    0.13170
 9542.00000    9.87510   10.61130   11.32880    9.20680    0.00060   59.90620  114.13370   32.12600    4.26050 -110.16760    0.11150
 9542.50000   10.62190   10.65520   11.11440    9.21690   -0.00680   60.46660  114.50560   31.99790    4.45350 -110.16760    0.09120
 9543.00000    9.20010    9.75430   10.09860    9.22770    0.00040   60.60690  114.80340   32.89560    4.42770 -110.16760    0.08720
 9543.50000    7.77830    8.85330    9.08280    9.24180    0.01380   60.69120  114.67570   34.40090    4.31630 -110.16760    0.10600
 9544.00000    7.22560    7.95240    8.00530    9.25830    0.02500   60.43760  114.62030   34.39300    4.31240 -110.16760    0.12390
 9544.50000    6.67300    7.05150    7.22980    9.32290    0.02960   61.31410  114.73370   35.53300    4.33150 -110.16760    0.13650
 9545.00000    6.39710    6.60820    7.27770    9.32850    0.02670   60.18340  114.41280   37.27250    4.33000 -110.16760    0.13170
 9545.50000    6.52230    6.75990    7.32560    9.37920    0.01920   60.42760  114.54290   39.85980    4.33180 -110.07430    0.12720
 9546.00000    6.64760    6.91170    7.37350    9.60020    0.02000   60.82220  114.35140   41.61940    4.33360 -109.84090    0.12770
 9546.50000    6.59620    7.03310    7.25230    9.50620    0.02080   61.21800  114.38250   41.68890    4.33530 -109.60750    0.13030
 9547.00000    6.42700    6.85170    7.01850    9.62090    0.02340   61.52920  114.19320   41.51410    4.33710 -109.37410    0.13340
 9547.50000    6.25780    6.67030    6.78460    9.63580    0.02450   61.37880  114.10630   42.75890    4.33880 -109.75410    0.13500
 9548.00000    6.08860    6.48900    6.63040    9.65070    0.02240   62.29230  114.12900   43.33680    4.32210 -110.28730    0.13360
