~Version ---------------------------------------------------
VERS.   2.0 : CWLS log ASCII Standard -VERSION 2.0
WRAP.    NO : One line per depth step
DLM . SPACE : Column Data Section Delimiter
~Well ------------------------------------------------------
STRT .FT                9030.0 : START DEPTH
STOP .FT               14506.0 : STOP DEPTH
STEP .FT                   0.5 : STEP
NULL .                -9999.25 : NULL VALUE
COMP .                         : COMPANY
WELL .                         : WELL
FLD  .                         : FIELD
LOC  .                         : LOCATION
PROV .                         : PROVINCE
CNTY .                         : COUNTY
STAT .                         : STATE
CTRY .                         : COUNTRY
SRVC .                         : SERVICE COMPANY
DATE .                         : DATE
UWI  .                         : UNIQUE WELL ID
API  .                         : API NUMBER
SLAT .WGS84  6.322563454980489 : SURFACE LATITUDE
SLON .WGS84 3.3663320787108972 : SURFACE LONGITUDE
DATUM.F                    nan : DEPTH DATUM ELEV
~Curve Information -----------------------------------------
DEPT   .FT    : 
AT10   .OHMM  : ARRAY INDUCTION TWO FOOT RESISTIVITY A10
AT30   .OHMM  : ARRAY INDUCTION TWO FOOT RESISTIVITY A30
AT90   .OHMM  : ARRAY INDUCTION TWO FOOT RESISTIVITY A90
C1S    .IN    : DELAYED CALIPER FOR FILM PRESENTATION
DPHZ_LS.DEC   : HGRD STANDARD RESOLUTION DENSITY POROSITY
DTCO   .US/F  : DELTA-T COMPRESSIONAL
DTSM   .US/F  : DELTA-T SHEAR
ECGRS  .GAPI  : ENVIRONMENTALLY CORRECTED GAMMA RAY FROM SONIC LOG
PEFZ   .B/E   : HRDD STANDARD RESOLUTION FORMATION PHOTOELECTRIC FACTOR
SPR    .MV    : SPONTANEOUS POTENTIAL FROM RESISTIVITY LOG
TNPH_LS.DEC   : THERMAL NEUTRON POROSITY [LIMESTONE]
~Params ----------------------------------------------------
~Other -----------------------------------------------------
~ASCII -----------------------------------------------------
# ...
 9274.00000   19.76700   25.25500   29.00870    9.08300   -0.00160   55.96250  106.14530   22.13220    4.98530  -13.91570    0.03610
 9274.50000   18.54490   24.67170   26.79190    9.12080   -0.00500   55.35060  105.35680   23.12830    4.90150  -17.69900    0.03870
 9275.00000   16.56460   23.11490   24.46980    9.13000   -0.00700   54.77290  104.63100   21.51480    4.82450  -16.55030    0.04100
 9275.50000   15.77250   21.55820   22.53070    9.13920   -0.00570   55.01480  103.69250   21.75590    4.83480  -17.99200    0.04160
 9276.00000   15.77250   21.02370   22.12360    9.10320   -0.00390   55.37340  103.96310   22.39400    4.84030  -18.23110    0.04220
 9276.50000   15.84970   20.74480   21.71650    9.10200   -0.00150   55.33560  104.23240   23.91090    4.83940  -18.02900    0.04280
 9277.00000   15.24710   20.46600   21.30950    9.12160   -0.00220   55.02730  104.45620   23.39220    4.81360  -17.82690    0.04340
 9277.50000   15.24480   20.18710   20.98380    9.10160   -0.00340   54.72380  104.68000   22.13330    4.77680  -16.60640    0.04430
 9278.00000   15.64290   19.96400   21.39870    9.07280   -0.00710   54.28820  103.76940   20.64860    4.74310  -17.95730    0.04420
 9278.50000   16.04100   20.32830   22.43580    9.04390   -0.00880   53.36600  102.76740   20.26880    4.73480  -16.62660    0.04130
 9279.00000   16.43910   21.23920   23.47300    9.05220   -0.01070   53.56890  102.00870   21.10700    4.76470  -15.30040    0.03660
 9279.50000   16.83720   22.15000   23.89590    9.05930   -0.01140   54.04490  101.67640   21.03040    4.82240  -12.33910    0.03050
 9280.00000   16.68220   22.75730   25.66110    9.05440   -0.01140   54.14260  102.44010   19.28930    4.89870  -12.52750    0.02770
 9280.50000   17.42970   24.44900   29.21440    9.09420   -0.01210   54.24970  102.70330   17.61660    4.97500  -14.60190    0.02780
 9281.00000   19.55820   30.78160   34.53490    9.13400   -0.01620   54.26470  103.12360   16.16450    5.05140  -18.77680    0.02850
 9281.50000   20.82140   28.29490   32.70380    9.16030   -0.01950   54.25310  103.06460   17.51560    5.10250  -20.01600    0.02920
 9282.00000   21.86830   30.42640   32.98670    9.16490   -0.02130   54.21430  103.00570   20.62190    5.06940  -20.12120    0.04120
 9282.50000   22.07770   33.26830   36.15820    9.22450   -0.02310   54.17160  102.94670   23.34870    4.93440  -20.22650    0.04430
 9283.00000   22.74820   30.82300   33.17920    9.15230   -0.02310   54.33860  103.73980   23.37070    4.85380  -19.31060    0.04100
 9283.50000   22.46660   27.76640   30.20020    9.10390   -0.02070   54.98760  104.90460   20.41560    4.80370  -19.50100    0.03570
 9284.00000   21.96160   25.93250   36.74140    9.12430   -0.01840   55.65600  106.74360   18.80450    4.79440  -18.22400    0.03560
 9284.50000   22.35440   38.35940   43.87060    9.06860   -0.01510   56.17000  108.10190   20.53480    4.78520  -19.37290    0.03950
 9285.00000   13.58280   24.58710   31.18140    9.04660   -0.01120   57.50580  109.96330   23.32460    4.74000  -20.01020    0.04730
 9285.50000   11.82210   13.28050   18.49220    9.04010   -0.00210   58.09950  111.84130   26.26600    4.69480  -18.84170    0.05510
 9286.00000   10.06140   11.83680   12.89510    9.04060    0.00300   59.09970  113.42410   27.61190    4.64960  -15.35100    0.06540
 9286.50000    8.93060   10.39300   11.15580    9.03930    0.00880   59.84560  114.65710   29.31620    4.62130  -14.83680    0.07420
 9287.00000    8.95060    9.57990    9.93770    9.03660    0.01080   61.20700  116.52970   30.43950    4.58100  -15.25800    0.08010
 9287.50000    8.67870    9.18730    9.61200    9.03380    0.01040   62.06140  118.73610   30.41690    4.62030  -14.92100    0.08250
 9288.00000    8.46120    9.07120    9.47520    9.03200    0.00980   62.56260  120.21510   30.25530    4.62160  -14.94170    0.08440
 9288.50000    8.55270    9.02420    9.33850    9.03340    0.00920   63.21150  120.76940   29.14710    4.65260  -17.33270    0.08640
 9289.00000    8.63840    8.91300    9.16140    9.03490    0.01060   63.61910  121.81900   30.14840    4.65130  -16.11230    0.08900
 9289.50000    8.45740    8.70560    8.98420    9.09480    0.01030   63.55720  122.72110   30.85470    4.62460  -16.25460    0.09030
 9290.00000    8.27630    8.49820    8.80710    9.09070    0.00930   63.67780  123.17740   31.12260    4.65280  -13.66720    0.08970
 9290.50000    8.09520    8.29090    8.63000    9.09660    0.01020   63.61240  122.91510   30.96500    4.68880  -10.17600    0.08910
 9291.00000    7.95040    8.08350    8.45280    9.13990    0.01410   63.73220  123.07260   30.64350    4.72490  -11.08220    0.09200
 9291.50000    7.94890    8.05360    8.47760    9.18330    0.01820   63.62140  123.16170   30.01060    4.76100  -15.75860    0.09310
 9292.00000    7.94540    8.08260    8.50850    9.18020    0.01970   63.52430  123.15260   29.05280    4.75450  -17.54030    0.09380
 9292.50000    7.94180    8.11170    8.53950    9.18460    0.01700   63.40010  123.31710   29.10500    4.70650  -16.58440    0.09150
 9293.00000    7.93820    8.14070    8.57040    9.25680    0.01250   63.12380  123.29290   29.68090    4.64490  -15.62850    0.09100
 9293.50000    7.93470    8.16970    8.60140    9.25960    0.01070   63.29030  123.26860   31.42030    4.62270  -14.57260    0.09050
 9294.00000    7.93110    8.19880    8.63230    9.24510    0.00970   63.26260  123.23190   32.39530    4.61970  -18.57860    0.09040
 9294.50000    7.92750    8.22780    8.66320    9.23050    0.00840   63.40050  123.27410   31.96280    4.59380  -22.33240    0.09170
 9295.00000    7.92400    8.25680    8.69420    9.20010    0.00540   63.41950  123.31620   31.48270    4.54690  -20.79120    0.09290
 9295.50000    7.92040    8.28590    8.72510    9.18170    0.00780   63.51960  123.28260   31.28290    4.55540  -21.61490    0.09370
 9296.00000    7.91690    8.31490    8.75610    9.21410    0.01210   63.45790  123.22840   32.37980    4.58610  -22.35110    0.09350
 9296.50000    7.91330    8.34390    8.77460    9.23100    0.01720   63.42720  123.50510   31.63020    4.62600  -23.97950    0.09500
 9297.00000    7.90970    8.37300    8.77460    9.21600    0.01620   63.47630  123.35210   30.92650    4.66590  -25.42740    0.09470
 9297.50000    7.90620    8.40200    8.77460    9.20110    0.01090   63.33870  123.57700   31.44780    4.66860  -25.97660    0.09410
 9298.00000    7.90260    8.43100    8.77460    9.22580    0.00610   63.46960  123.49550   32.76880    4.63440  -26.52590    0.09310
 9298.50000    7.89900    8.46010    8.77460    9.23480    0.00730   63.41430  123.39960   33.22930    4.62100  -27.79830    0.09130
 9299.00000    7.89550    8.48910    8.77460    9.22840    0.01010   63.46820  123.60530   32.37940    4.65850  -28.29160    0.09130
 9299.50000    7.89190    8.51810    8.77460    9.22320    0.01300   63.52760  123.73020   32.24590    4.67970  -28.02570    0.09120
 9300.00000    7.88830    8.54710    8.77460    9.27460    0.01490   63.43370  123.71190   32.90290    4.69810  -29.58140    0.09110
 9300.50000    7.88480    8.54280    8.77460    9.28000    0.01610   63.43290  123.69360   33.01720    4.70820  -32.21340    0.09120
 9301.00000    7.88120    8.51620    8.77460    9.28550    0.01670   63.47740  123.67530   32.99600    4.71780  -32.40440    0.09150
 9301.50000    7.87760    8.48960    8.77460    9.29420    0.01490   63.47810  123.70290   32.18120    4.67480  -32.28740    0.09220
 9302.00000    7.87410    8.46300    8.77460    9.30780    0.01180   63.52750  123.90260   31.42860    4.70360  -29.95670    0.09270
 9302.50000    7.87050    8.43640    8.77460    9.25430    0.01360   63.45600  124.04010   30.26190    4.74210  -26.86270    0.09140
 9303.00000    7.86690    8.40980    8.77460    9.26370    0.01760   63.63280  124.10890   29.64430    4.78060  -29.04440    0.08910
 9303.50000    7.86340    8.38320    8.77460    9.27740    0.02220   63.63800  124.07940   30.61000    4.81720  -31.22620    0.08890
 9304.00000    7.85980    8.35660    8.77460    9.26070    0.02130   63.63800  123.65670   31.39530    4.77600  -33.40790    0.09030
