~Version ---------------------------------------------------
VERS.   2.0 : CWLS log ASCII Standard -VERSION 2.0
WRAP.    NO : One line per depth step
DLM . SPACE : Column Data Section Delimiter
~Well ------------------------------------------------------
STRT .FT                9030.0 : START DEPTH
STOP .FT               14506.0 : STOP DEPTH
STEP .FT                   0.5 : STEP
NULL .                -9999.25 : NULL VALUE
COMP .                         : COMPANY
WELL .                         : WELL
FLD  .                         : FIELD
LOC  .                         : LOCATION
PROV .                         : PROVINCE
CNTY .                         : COUNTY
STAT .                         : STATE
CTRY .                         : COUNTRY
SRVC .                         : SERVICE COMPANY
DATE .                         : DATE
UWI  .                         : UNIQUE WELL ID
API  .                         : API NUMBER
SLAT .WGS84  6.322563454980489 : SURFACE LATITUDE
SLON .WGS84 3.3663320787108972 : SURFACE LONGITUDE
DATUM.F                    nan : DEPTH DATUM ELEV
~Curve Information -----------------------------------------
DEPT   .FT    : 
AT10   .OHMM  : ARRAY INDUCTION TWO FOOT RESISTIVITY A10
AT30   .OHMM  : ARRAY INDUCTION TWO FOOT RESISTIVITY A30
AT90   .OHMM  : ARRAY INDUCTION TWO FOOT RESISTIVITY A90
C1S    .IN    : DELAYED CALIPER FOR FILM PRESENTATION
DPHZ_LS.DEC   : HGRD STANDARD RESOLUTION DENSITY POROSITY
DTCO   .US/F  : DELTA-T COMPRESSIONAL
DTSM   .US/F  : DELTA-T SHEAR
ECGRS  .GAPI  : ENVIRONMENTALLY CORRECTED GAMMA RAY FROM SONIC LOG
PEFZ   .B/E   : HRDD STANDARD RESOLUTION FORMATION PHOTOELECTRIC FACTOR
SPR    .MV    : SPONTANEOUS POTENTIAL FROM RESISTIVITY LOG
TNPH_LS.DEC   : THERMAL NEUTRON POROSITY [LIMESTONE]
~Params ----------------------------------------------------
~Other -----------------------------------------------------
~ASCII -----------------------------------------------------
# ...
 9762.00000    3.98720    4.10270    4.32860    8.84950    0.03820   66.75090  118.42760   73.48050    3.91060  -80.32460    0.20740
 9762.50000    4.03900    4.15600    4.34550    8.97850    0.04090   66.72010  118.15330   75.14290    3.93030  -81.16640    0.20910
 9763.00000    4.09090    4.20940    4.36250    9.06560    0.04100   66.73720  118.27970   75.14290    3.91270  -81.25290    0.20840
 9763.50000    4.14270    4.26270    4.37950    9.12780    0.04110   67.88840  118.87440   75.14290    3.94810  -81.33950    0.20610
 9764.00000    4.28540    4.40950    4.62160    9.29550    0.04240   68.64610  119.34800   76.27520    3.98370  -81.42600    0.20230
 9764.50000    4.56410    4.69630    4.92000    9.40420    0.04250   69.80480  120.31390   77.11850    4.05230  -81.51260    0.19890
 9765.00000    4.78720    4.92580    5.21840    9.52030    0.04180   70.46470  121.66120   75.67340    4.05310  -81.59910    0.19990
 9765.50000    4.64690    4.78150    5.07340    9.30910    0.04020   70.08530  123.00850   74.22840    4.04420  -81.64010    0.20270
 9766.00000    4.41320    4.54100    4.71090    9.35010    0.03910   70.00180  124.52740   73.95940    4.03520  -83.02080    0.20560
 9766.50000    4.22620    4.34860    4.49350    9.36340    0.03810   70.48550  125.41110   74.93710    4.04160  -83.17160    0.20850
 9767.00000    4.36210    4.48840    4.65400    9.35600    0.03720   70.61780  125.68220   74.59390    4.06620  -81.39120    0.20640
 9767.50000    4.49790    4.62820    4.73950    9.35230    0.04250   70.57850  125.80030   75.35050    4.09090  -81.39120    0.20020
 9768.00000    4.26440    4.38790    4.52490    9.26210    0.05080   70.79400  126.06440   76.72590    4.11560  -80.34280    0.20140
 9768.50000    4.04220    4.15920    4.31030    9.33840    0.05710   71.30220  126.43570   76.58400    4.14020  -80.21850    0.21560
 9769.00000    3.81990    3.93050    4.09570    9.15260    0.05520   70.88970  126.56710   75.67740    4.15400  -81.75940    0.23120
 9769.50000    3.79090    3.90070    4.00740    9.16490    0.05080   70.87130  126.32400   76.93650    4.15750  -81.44130    0.23700
 9770.00000    3.89070    4.00340    4.10870    9.10170    0.04750   71.09490  126.08080   78.02610    4.14010  -81.43910    0.22890
 9770.50000    3.95440    4.06900    4.16190    9.01390    0.04620   71.48640  125.83760   77.69180    4.07060  -81.43690    0.22080
 9771.00000    3.87360    3.98580    4.14310    9.04680    0.04550   72.09900  126.90760   76.44920    4.09150  -81.34840    0.22070
 9771.50000    3.79280    3.90260    4.12430    8.93430    0.04830   72.55370  127.75480   75.12270    4.14020  -79.82880    0.22140
 9772.00000    3.98060    4.09590    4.29790    8.79370    0.05010   73.11250  128.22340   73.79620    4.19880  -79.61070    0.22210
 9772.50000    4.23570    4.35830    4.59980    8.60380    0.05080   72.97330  128.28090   72.75510    4.25740  -80.04750    0.22230
 9773.00000    4.38460    4.51160    4.72060    8.61610    0.04910   70.95540  128.24460   74.33640    4.29600  -81.07760    0.22060
 9773.50000    4.22330    4.34560    4.72060    9.56840    0.04700   71.64210  129.33490   79.13730    4.31470  -79.86500    0.21590
 9774.00000    4.38560    4.51260    4.72060    9.37760    0.04500   73.35350  130.89530   79.34990    4.30590  -81.11880    0.21080
 9774.50000    4.65630    4.79110    5.02330    8.93490    0.04390   72.93290  131.04300   76.97780    4.34170  -81.56030    0.20520
 9775.00000    4.92700    5.06960    5.40320    8.88980    0.04420   72.69530  131.19060   75.55460    4.36810  -82.64790    0.20420
 9775.50000    5.06730    5.21400    5.41220    8.96750    0.04490   72.76960  132.00310   76.99200    4.39250  -80.84050    0.20460
 9776.00000    4.95700    5.10050    5.32840    8.70070    0.04470   73.01050  132.59590   78.53130    4.38420  -80.06180    0.20400
 9776.50000    4.84670    4.98710    5.24460    9.60960    0.04270   73.54550  132.99710   78.52950    4.35470  -79.28310    0.20400
 9777.00000    4.69750    4.83340    5.05580    8.15370    0.03780   73.99160  130.60770   73.29890    4.26200  -75.29560    0.20390
 9777.50000    4.48960    4.61960    4.79690    8.03940    0.03460   73.52570  129.72600   68.70940    4.14390  -77.86080    0.20400
 9778.00000    4.28180    4.40570    4.53800   10.04870    0.03170   72.30770  136.33180   75.24150    4.02570  -80.92210    0.20240
 9778.50000    4.11550    4.23460    4.48620    9.62180    0.03300   74.72910  139.10700   76.20920    3.92700  -79.88390    0.20520
 9779.00000    4.05580    4.17320    4.35620    9.08800    0.03610   75.33820  141.89660   77.02040    3.88940  -81.63790    0.21310
 9779.50000    3.90720    4.02030    4.19430    9.25270    0.03900   75.28550  142.31430   77.59690    3.86690  -82.79800    0.21730
 9780.00000    3.90270    4.01560    4.19670    9.43110    0.03840   75.18020  142.73190   78.17330    3.85320  -81.88340    0.21710
 9780.50000    4.11420    4.23330    4.24580    8.77230    0.03760   75.16210  142.85530   78.74980    3.84650  -79.93860    0.21450
 9781.00000    3.93680    4.05070    4.14220    9.08340    0.03600   74.17350  141.87900   79.32620    3.84250  -79.41490    0.21220
 9781.50000    3.94080    4.05480    4.09190    9.44490    0.03600   73.21700  139.22890   79.67210    3.84250  -78.57760    0.20870
 9782.00000    4.06580    4.18340    4.25550    9.25720    0.03650   72.47070  140.08970   78.24680    3.84250  -77.74030    0.20570
 9782.50000    4.15670    4.27700    4.41910    8.84100    0.03870   72.42630  140.50880   76.82160    3.84180  -77.06130    0.20610
 9783.00000    4.11120    4.23020    4.48450    8.97820    0.03920   73.10570  139.92600   75.96640    3.83840  -75.53430    0.20600
 9783.50000    4.06580    4.18340    4.42460    9.25270    0.03840   74.47540  138.36360   79.47140    3.83500  -75.89820    0.21050
 9784.00000    4.02030    4.13670    4.34970    8.95190    0.03470   73.69820  137.27130   79.03400    3.83230  -78.07320    0.21160
 9784.50000    3.97490    4.08990    4.27490    8.99130    0.03470   80.06990  137.00100   77.20160    3.86210  -78.57760    0.21230
 9785.00000    3.92940    4.04320    4.20000    8.79140    0.03730   77.60060  135.25090   74.91420    3.87830  -81.08190    0.20780
 9785.50000    3.88400    3.99640    4.12510    8.40330    0.03950   76.07240  134.39230   71.16270    3.90190  -80.05120    0.21150
 9786.00000    3.88460    3.99700    4.15430    8.64320    0.04080   74.92370  132.49690   67.82590    3.90540  -81.61160    0.21180
 9786.50000    3.93160    4.04540    4.20960    8.52870    0.04230   73.23400  129.90550   60.62810    3.90900  -79.85400    0.21460
 9787.00000    3.97860    4.09380    4.26480    8.21820    0.04190   70.74690  124.85310   52.25660    3.91400  -78.86780    0.21260
 9787.50000    4.02570    4.14220    4.32010    8.11840    0.04420   67.80820  120.53610   45.94600    3.94230  -77.88170    0.21440
 9788.00000    4.04500    4.16210    4.23360    8.24190    0.04550   66.03830  114.33700   46.28740    3.96760  -79.20600    0.21270
 9788.50000    3.95350    4.06800    4.19250    8.32010    0.04710   65.37010  109.91170   49.54180    3.97190  -78.57760    0.21370
 9789.00000    3.86210    3.97390    4.15130    8.33450    0.04740   63.78530  104.77190   49.16000    3.96060  -81.17180    0.21650
 9789.50000    3.77070    3.87980    4.11010    8.25200    0.04370   60.81960  100.94680   45.86150    3.94530  -82.94870    0.21770
 9790.00000    3.85840    3.97010    4.12750    8.25820    0.04210   56.92470   97.81130   43.44640    3.93000  -82.08010    0.21910
 9790.50000    3.94620    4.06040    4.14500    8.27180    0.03970   56.58880   97.30220   42.75180    3.94150  -81.30500    0.22110
 9791.00000    3.86470    3.97660    4.16240    8.28530    0.04240   54.39990   96.87880   43.76390    3.96780  -81.11110    0.22320
 9791.50000    3.69960    3.80660    4.03590    8.25470    0.04540   53.04630   96.84410   46.48470    3.99470  -78.30560    0.22710
 9792.00000    3.58980    3.69370    3.90930    8.25630    0.04900   55.77150   97.15690   47.03790    4.03070  -77.06410    0.23040
