~Version ---------------------------------------------------
VERS.   2.0 : CWLS log ASCII Standard -VERSION 2.0
WRAP.    NO : One line per depth step
DLM . SPACE : Column Data Section Delimiter
~Well ------------------------------------------------------
STRT .FT                9030.0 : START DEPTH
STOP .FT               14506.0 : STOP DEPTH
STEP .FT                   0.5 : STEP
NULL .                -9999.25 : NULL VALUE
COMP .                         : COMPANY
WELL .                         : WELL
FLD  .                         : FIELD
LOC  .                         : LOCATION
PROV .                         : PROVINCE
CNTY .                         : COUNTY
STAT .                         : STATE
CTRY .                         : COUNTRY
SRVC .                         : SERVICE COMPANY
DATE .                         : DATE
UWI  .                         : UNIQUE WELL ID
API  .                         : API NUMBER
SLAT .WGS84  6.322563454980489 : SURFACE LATITUDE
SLON .WGS84 3.3663320787108972 : SURFACE LONGITUDE
DATUM.F                    nan : DEPTH DATUM ELEV
~Curve Information -----------------------------------------
DEPT   .FT    : 
AT10   .OHMM  : ARRAY INDUCTION TWO FOOT RESISTIVITY A10
AT30   .OHMM  : ARRAY INDUCTION TWO FOOT RESISTIVITY A30
AT90   .OHMM  : ARRAY INDUCTION TWO FOOT RESISTIVITY A90
C1S    .IN    : DELAYED CALIPER FOR FILM PRESENTATION
DPHZ_LS.DEC   : HGRD STANDARD RESOLUTION DENSITY POROSITY
DTCO   .US/F  : DELTA-T COMPRESSIONAL
DTSM   .US/F  : DELTA-T SHEAR
ECGRS  .GAPI  : ENVIRONMENTALLY CORRECTED GAMMA RAY FROM SONIC LOG
PEFZ   .B/E   : HRDD STANDARD RESOLUTION FORMATION PHOTOELECTRIC FACTOR
SPR    .MV    : SPONTANEOUS POTENTIAL FROM RESISTIVITY LOG
TNPH_LS.DEC   : THERMAL NEUTRON POROSITY [LIMESTONE]
~Params ----------------------------------------------------
~Other -----------------------------------------------------
~ASCII -----------------------------------------------------
# ...
 9670.50000   21.18380   21.79730   27.88760    9.20140   -0.00100   53.30850   97.36670   26.05650    5.45790  -97.92690    0.00010
 9671.00000   25.99080   26.74350   54.45720    9.24730   -0.01330   53.71650   97.58700   21.76770    5.44520  -96.98560    0.00410
 9671.50000   23.15540   23.82600   64.27890    9.24800   -0.01630   54.17650   98.38660   20.42820    5.39510  -96.04430    0.01420
 9672.00000   18.87810   20.43780   48.29190    9.23280   -0.01180   54.80830   99.45480   21.85970    5.15810  -94.98470    0.02800
 9672.50000   14.60080   17.04960   32.30480    9.28260   -0.00630   55.18950  100.07040   24.54750    4.90420  -94.49270    0.04330
 9673.00000   11.47680   13.66150   16.31780    9.24910    0.00130   55.59050  100.66070   26.65630    4.71590  -94.39430    0.07150
 9673.50000    9.12150   10.82180   11.94920    9.19340    0.00530   55.52150  100.88950   26.50680    4.59750  -94.23660    0.10160
 9674.00000    8.98630   10.17630   11.07410    9.17500    0.00890   55.51620  101.63690   29.15370    4.51660  -93.41400    0.13300
 9674.50000    9.32220    9.65770   10.04270    9.27350    0.00730   56.58100  103.18030   34.07890    4.50290  -92.59140    0.13920
 9675.00000    7.63680    8.56400    8.77700    9.21270    0.00500   58.55610  105.11500   37.92300    4.48200  -91.76890    0.14170
 9675.50000    6.91340    7.42740    7.51130    9.23320    0.00790   59.63650  107.63670   35.64390    4.49940  -91.73930    0.14610
 9676.00000    6.33460    6.51810    7.25820    9.24830    0.01770   60.67540  109.77800   30.55330    4.50380  -90.90300    0.14940
 9676.50000    6.35760    6.85120    6.92030    9.24720    0.03320   61.25830  111.60780   30.54140    4.50690  -90.71700    0.15670
 9677.00000    5.53440    5.83230    6.12460    9.29330    0.03920   62.31360  115.61680   37.36120    4.54520  -90.40570    0.17690
 9677.50000    4.71970    4.85640    5.32880    9.27200    0.05160   63.03940  117.50710   46.22800    4.57840  -90.34540    0.19990
 9678.00000    4.03520    4.15200    4.59270    9.20700    0.05760   64.19850  119.21280   47.07340    4.61380  -90.28510    0.21100
 9678.50000    3.73520    3.84340    4.09490    9.14200    0.05780   64.99600  120.92950   43.53610    4.56450  -90.14200    0.22090
 9679.00000    3.61530    3.72000    3.79630    9.07700    0.04440   66.04410  122.11650   42.17210    4.43880  -89.98910    0.22380
 9679.50000    3.75770    3.86650    4.04820    9.01200    0.03180   66.11540  122.38150   48.31160    4.31300  -90.00780    0.22530
 9680.00000    3.94060    4.05470    4.30020    8.98940    0.03280   64.99610  121.76840   49.89940    4.18730  -90.02650    0.22290
 9680.50000    3.91920    4.03270    4.25160    8.95170    0.03540   64.62980  121.15520   50.07130    4.23140  -90.04520    0.21220
 9681.00000    3.89790    4.01080    4.19140    8.91410    0.03670   63.98310  117.99710   46.94500    4.22090  -90.06390    0.20720
 9681.50000    3.87650    3.98880    4.13110    8.87650    0.04020   64.29070  114.83900   49.55150    4.17530  -90.08260    0.20870
 9682.00000    3.85520    3.96680    4.07090    8.84640    0.04480   62.26170  111.04610   49.52990    4.14900  -88.40190    0.21810
 9682.50000    3.89100    4.00370    4.08610    8.83510    0.04620   60.73350  109.33700   45.79460    4.19090  -87.50880    0.23120
 9683.00000    4.01260    4.12880    4.21460    8.82430    0.04650   58.58100  107.42230   40.77660    4.23280  -88.40190    0.24400
 9683.50000    3.93850    4.05260    4.22320    8.81340    0.04920   63.44270  104.32260   37.16240    4.25930  -87.50880    0.24300
 9684.00000    3.81550    3.92600    4.05200    8.83030    0.04880   55.65450  102.85180   33.14160    4.21170  -85.92340    0.22930
 9684.50000    3.95660    4.07120    4.23830    8.84380    0.04570   55.14530  102.72760   28.63950    4.20890  -87.05580    0.21990
 9685.00000    4.23330    4.35590    4.54960    8.80310    0.03910   55.80960  105.14320   23.27140    4.20600  -87.65020    0.20800
 9685.50000    4.50990    4.64050    4.95460    8.72790    0.03640   55.50470  107.59970   20.21740    4.22550  -87.85320    0.20080
 9686.00000    5.12150    5.26980    5.62200    8.62990    0.03200   55.48250  108.84380   19.71290    4.32350  -88.10520    0.17970
 9686.50000    5.73300    5.89910    6.62640    8.68350    0.02450   55.83360  109.81130   25.80550    4.35910  -88.47700    0.16200
 9687.00000    5.46210    5.62030    6.40130    8.85860    0.02450   56.48390  111.25370   33.42720    4.31980  -88.84880    0.16370
 9687.50000    4.57710    4.70970    5.28370    8.81590    0.03230   58.30550  113.16110   35.45500    4.22870  -89.22070    0.18630
 9688.00000    4.15970    4.28020    4.52280    8.76490    0.04030   59.49680  114.74880   32.09300    4.17200  -89.29500    0.19670
 9688.50000    4.06270    4.18030    4.36210    9.01890    0.04150   60.63070  117.09050   32.80480    4.09630  -89.29500    0.20200
 9689.00000    3.98620    4.10170    4.29890    9.15530    0.04440   60.81030  117.15880   41.73080    4.08370  -90.18820    0.19740
 9689.50000    3.89290    4.00560    4.23570    9.20170    0.05180   61.21440  117.20970   49.57010    4.11420  -89.25480    0.20290
 9690.00000    3.70840    3.81580    4.01470    9.09220    0.05490   61.33560  117.12770   49.21080    4.16560  -89.36760    0.21500
 9690.50000    3.50110    3.60250    3.75430    8.90950    0.04790   61.73540  116.84640   47.40210    4.21700  -90.29680    0.22280
 9691.00000    3.29380    3.38920    3.53150    9.01250    0.03920   62.90280  116.56500   47.04040    4.28640  -90.57640    0.23200
 9691.50000    3.16940    3.26120    3.45920    9.01250    0.03860   64.38730  116.31660   50.93350    4.24470  -90.27750    0.22990
 9692.00000    3.10900    3.19900    3.37350    9.10490    0.04460   65.07450  116.05790   52.87410    4.15940  -90.11460    0.22740
 9692.50000    3.18010    3.27220    3.40860    9.25890    0.05330   64.80790  115.80620   55.11120    4.07200  -90.02270    0.22460
 9693.00000    3.25110    3.34530    3.46700    9.31340    0.06300   64.81720  115.50930   54.45300    4.05650  -89.93070    0.23000
 9693.50000    3.43190    3.53130    3.69280    9.41060    0.06230   64.54450  115.21250   51.94010    4.15460  -90.08400    0.23570
 9694.00000    3.53020    3.63250    4.16970    9.50780    0.05890   64.37650  115.03430   50.10400    4.31180  -90.18820    0.23800
 9694.50000    3.09480    3.14500    3.37350    9.17040    0.05670   64.43330  117.09020   51.18480    4.47720  -90.41140    0.23190
 9695.00000    3.32260    3.66630    4.17860    9.30620    0.05280   65.05360  120.51680   53.80750    4.60450  -90.43360    0.21370
 9695.50000    4.07110    5.67400    5.78050    9.47610    0.04610   66.59260  125.03980   56.04850    4.76660  -90.09830    0.19020
 9696.00000    6.33540    7.68160    8.27580    9.63140    0.02910   68.88490  129.83700   58.13040    4.98520  -89.05140    0.13720
 9696.50000    8.59970   16.03080   18.72680   10.06270    0.00880   70.43840  134.24750   62.99660    5.02910  -88.64550    0.08420
 9697.00000   20.07030   23.87260   29.39090   10.37820   -0.01220   72.13280  137.93030   70.71000    4.92970  -87.68740    0.04930
 9697.50000   12.04010   16.43000   30.63070    9.39000   -0.02430   77.16580  144.88960   76.24010    4.64180  -86.55710    0.04480
 9698.00000   10.42780   11.78170   13.21940   10.14140   -0.02490   80.10640  149.71100   82.96740    4.41150  -85.72250    0.06160
 9698.50000    8.81560    9.89730   10.83800   10.81040   -0.01940   80.93340  150.96730   87.23800    4.26230  -85.72250    0.08680
 9699.00000    8.74520    9.51230   11.18870   10.33000   -0.01070   82.21810  151.51660   81.92460    4.19480  -85.72250    0.11210
 9699.50000    9.37530   10.43420   11.39380   10.59770   -0.00420   82.79390  151.69200   78.67230    4.25410  -85.72250    0.11550
 9700.00000    9.33900   10.41860   10.70100   10.53600    0.00080   82.96280  152.73580   75.21650    4.24630  -84.79220    0.11620
 9700.50000    8.93330    9.91850   10.23690   10.47420    0.00520   83.25680  152.10740   72.46660    4.23850  -83.86190    0.11740
