~Version ---------------------------------------------------
VERS.   2.0 : CWLS log ASCII Standard -VERSION 2.0
WRAP.    NO : One line per depth step
DLM . SPACE : Column Data Section Delimiter
~Well ------------------------------------------------------
STRT .FT                9030.0 : START DEPTH
STOP .FT               14506.0 : STOP DEPTH
STEP .FT                   0.5 : STEP
NULL .                -9999.25 : NULL VALUE
COMP .                         : COMPANY
WELL .                         : WELL
FLD  .                         : FIELD
LOC  .                         : LOCATION
PROV .                         : PROVINCE
CNTY .                         : COUNTY
STAT .                         : STATE
CTRY .                         : COUNTRY
SRVC .                         : SERVICE COMPANY
DATE .                         : DATE
UWI  .                         : UNIQUE WELL ID
API  .                         : API NUMBER
SLAT .WGS84  6.322563454980489 : SURFACE LATITUDE
SLON .WGS84 3.3663320787108972 : SURFACE LONGITUDE
DATUM.F                    nan : DEPTH DATUM ELEV
~Curve Information -----------------------------------------
DEPT   .FT    : 
AT10   .OHMM  : ARRAY INDUCTION TWO FOOT RESISTIVITY A10
AT30   .OHMM  : ARRAY INDUCTION TWO FOOT RESISTIVITY A30
AT90   .OHMM  : ARRAY INDUCTION TWO FOOT RESISTIVITY A90
C1S    .IN    : DELAYED CALIPER FOR FILM PRESENTATION
DPHZ_LS.DEC   : HGRD STANDARD RESOLUTION DENSITY POROSITY
DTCO   .US/F  : DELTA-T COMPRESSIONAL
DTSM   .US/F  : DELTA-T SHEAR
ECGRS  .GAPI  : ENVIRONMENTALLY CORRECTED GAMMA RAY FROM SONIC LOG
PEFZ   .B/E   : HRDD STANDARD RESOLUTION FORMATION PHOTOELECTRIC FACTOR
SPR    .MV    : SPONTANEOUS POTENTIAL FROM RESISTIVITY LOG
TNPH_LS.DEC   : THERMAL NEUTRON POROSITY [LIMESTONE]
~Params ----------------------------------------------------
~Other -----------------------------------------------------
~ASCII -----------------------------------------------------
# ...
 10006.00000   60.34500  200.88210  147.13320    9.22780    0.00820   77.18230  148.43660   61.21630    4.48600 -125.00310    0.01150
 10006.50000   56.80590  164.52510  117.52010    9.18790    0.00590   75.40710  147.54560   61.53510    4.46870 -124.39440    0.01250
 10007.00000   63.06150  179.33650  141.46910    9.08110    0.00590   73.19670  142.66900   64.87100    4.38400 -121.54010    0.01350
 10007.50000   65.63450  226.42830  171.39720   10.33700    0.00670   72.57130  134.63450   69.09220    4.26830 -126.38160    0.01490
 10008.00000   66.10100  245.30260  171.93140    9.03370    0.00700   69.80220  133.11790   69.66340    4.16380 -128.15200    0.01620
 10008.50000   68.48870  216.60550  164.66570    7.70980    0.01140   63.69380  130.18390   66.13600    4.15140 -129.46630    0.01650
 10009.00000   73.69870  262.55440  190.61370    8.08590    0.01360   60.30550  127.54370   64.87030    4.20380 -130.78060    0.01660
 10009.50000   80.47630  346.29160  208.75260    8.11980    0.01280   61.78160  124.96140   63.72330    4.24800 -133.02090    0.01660
 10010.00000   79.30900  487.29980  211.41540    8.10090    0.01050   59.04450  122.27640   64.65880    4.27890 -136.65020    0.01660
 10010.50000   74.76570  398.63260  208.79820    8.00740    0.01030   54.01110  119.72220   65.77580    4.30980 -140.27950    0.01700
 10011.00000   66.16400  287.79860  170.47080    8.23630    0.01070   53.49020  116.36420   69.15340    4.27060 -143.90880    0.01810
 10011.50000   54.91190  176.96460  123.51500    8.65570    0.01640   53.70270  114.45370   72.77090    4.20300 -147.53810    0.02320
 10012.00000   43.80510  101.46940   76.55920    8.91760    0.02260   54.77760  115.66110   76.74860    4.10810 -152.37040    0.03160
 10012.50000   43.53550   78.98240   69.40090    9.12920    0.02360   55.29610  115.86490   80.72620    4.07070 -154.08250    0.03500
 10013.00000   47.18710   94.65540   80.56490    9.73470    0.02150   61.95210  117.43850   84.22030    4.13570 -156.73750    0.03450
 10013.50000   52.93720  125.80680   97.70620   10.09920    0.01430   75.18240  120.07430   87.39230    4.18350 -158.68070    0.02690
 10014.00000   67.62380  284.82880  182.38070   10.18210    0.00850   75.80390  122.71020   90.21580    4.21510 -161.17120    0.01470
 10014.50000   89.83550  885.97210  354.90620    9.89350    0.00790   77.07960  126.56460   92.16790    4.19480 -164.50170    0.00520
 10015.00000   98.13310 1487.11550  527.43160    9.84970    0.00900   75.85100  129.17800   92.01680    4.28760 -167.83220   -0.00080
 10015.50000  100.60010 1992.72410  688.25130    9.53250    0.01390   70.69490  133.34510   88.89070    4.42950 -171.63030   -0.00400
 10016.00000  100.45890 1968.03010  802.24800    9.70710    0.01880   70.20020  136.11830   88.82330    4.52040 -176.36140   -0.00300
 10016.50000  100.47250 2007.66160  832.13910   10.24300    0.01880   70.57380  136.46590   91.47170    4.63520 -180.23790    0.00160
 10017.00000  100.48610   -9999.25  830.71150   10.09910    0.01880   72.15460  137.10120   87.95720    4.69800 -183.32990    0.00190
 10017.50000  100.49960   -9999.25  808.40470    9.25610    0.01600   73.00620  142.96060   83.67710    4.76100 -186.42180    0.00280
 10018.00000  100.51320   -9999.25  806.02170    8.41550    0.01400   74.39580  146.43080   77.64280    4.86000 -189.51380    0.00380
 10018.50000  100.52670   -9999.25  803.63880    8.64610    0.00990   76.88320  148.04900   78.46570    4.98130 -192.60580    0.00270
 10019.00000  100.54030   -9999.25  887.98300    8.14100    0.00440   75.56710  152.32360   79.87920    4.93400 -196.24850    0.00110
 10019.50000  100.55390   -9999.25  986.27210    8.39790    0.00770   75.83550  154.76670   82.61860    4.70800 -199.61360   -0.00060
 10020.00000  100.56740   -9999.25 1084.56110    8.91020    0.01610   76.26650  151.87640   85.29720    4.47220 -204.21790   -0.00100
 10020.50000  100.58100   -9999.25 1182.85020    9.19220    0.02420   76.45300  152.04770   85.97340    4.25640 -208.39740   -0.00090
 10021.00000  100.59460   -9999.25 1280.77860    9.68500    0.03230   76.90730  152.69460   85.07740    4.20530 -212.99440   -0.00080
 10021.50000  100.60810   -9999.25 1303.95580   10.49780    0.02650   76.63300  153.34150   86.79480    4.21170 -216.99500   -0.00080
 10022.00000  100.62170   -9999.25 1262.60580   11.10560    0.02540   76.56310  154.40500   87.95130    4.30400 -220.99550   -0.00070
 10022.50000  100.63520   -9999.25 1197.11360   10.61650    0.01890   76.76290  155.73090   87.70120    4.39060 -224.54130   -0.00060
 10023.00000  100.64880   -9999.25 1123.90300    9.82420    0.01750   76.57200  154.88260   84.00800    4.44960 -226.22710   -0.00050
 10023.50000  100.66240   -9999.25 1104.85350    9.46770    0.01540   76.58930  150.76430   81.30520    4.49600 -227.79900   -0.00030
 10024.00000  100.67590   -9999.25 1094.54540    8.78640    0.01350   77.03100  149.12000   80.89660    4.54250 -229.37280    0.00000
 10024.50000  100.68950   -9999.25 1113.82930    8.97910    0.01500   78.70090  148.08060   84.29170    4.57270 -229.24080    0.00030
 10025.00000  100.70310   -9999.25 1155.50700    9.54190    0.01190   76.36600  159.47800   87.54680    4.65830 -231.81050    0.00050
 10025.50000  100.71660   -9999.25 1191.38870    9.82930    0.00420   76.90820  161.80310   89.74510    4.71950 -233.67050    0.00000
 10026.00000  100.73020   -9999.25 1274.10620    9.65190    0.00090   78.59220  160.21570   89.58250    4.68980 -236.25100   -0.00040
 10026.50000  100.74370   -9999.25 1323.98010    9.18550    0.00480   78.48510  164.79180   88.94160    4.60790 -238.17300   -0.00090
 10027.00000  100.70080   -9999.25 1351.79770    8.95080    0.00970   76.51110  165.29460   89.70850    4.56180 -236.66250   -0.00140
 10027.50000  100.65790   -9999.25 1350.90560    9.44490    0.00950   74.10940  163.95480   92.02450    4.63780 -236.98790   -0.00190
 10028.00000  100.61490   -9999.25 1308.62950    9.70560    0.00370   78.66560  152.08690   91.14130    4.69760 -236.36480   -0.00230
 10028.50000  100.57200   -9999.25 1253.40340    9.63240   -0.00020   85.85750  128.01630   89.38760    4.61700 -233.09960   -0.00270
 10029.00000  100.52900   -9999.25 1169.63470    9.44940    0.00590   87.16280  126.44990   86.74270    4.53650 -232.19680   -0.00300
 10029.50000  100.48610   -9999.25 1116.02530    9.21010    0.01450   85.87080  122.58920   82.86480    4.41860 -232.19680   -0.00280
 10030.00000  100.44310   -9999.25 1081.97110    8.93310    0.01820   84.61600  119.09750   80.82610    4.37900 -232.04180   -0.00260
 10030.50000  100.40020   -9999.25 1123.72730    9.32130    0.01410   85.36510  115.52550   81.10960    4.28640 -231.65430   -0.00380
 10031.00000  100.35720   -9999.25 1195.95900    9.17490    0.00910   88.03650  114.42410   82.83500    4.16430 -231.19620   -0.00390
 10031.50000  100.31430   -9999.25 1345.70080    8.99190    0.00410   94.13130  115.63440   85.73380    3.94960 -230.07160   -0.00390
 10032.00000  100.27140   -9999.25 1514.82020    9.25270    0.00900   93.96060  118.00410   87.86490    3.95350 -228.50780   -0.00380
 10032.50000  100.22840   -9999.25 1629.90170    8.58020    0.01930   73.97210  121.65910   84.07050    4.10700 -227.64050   -0.00380
 10033.00000  100.18550   -9999.25 1673.64670    8.92790    0.01830   62.85270  123.36250   77.85490    4.26040 -226.77310   -0.00370
 10033.50000   99.24740   -9999.25 1593.85940    9.24470    0.01650   62.17210  118.31270   72.67260    4.35480 -225.90570   -0.00360
 10034.00000   98.30930   -9999.25 1477.72590    9.34400    0.01480   64.00470  118.53550   75.04690    4.34380 -224.74480   -0.00340
 10034.50000   97.37120   -9999.25 1355.91670    8.75860    0.01310   63.63320  122.01170   75.26900    4.29900 -222.58640   -0.00150
 10035.00000   96.43310   -9999.25 1225.59410    7.61350    0.01240   64.01630  124.86820   74.14620    4.27500 -221.21710   -0.00060
 10035.50000   95.49500   -9999.25 1070.06650    7.65650    0.00960   64.82960  128.26050   76.47270    4.25580 -219.34000   -0.00070
