~Version ---------------------------------------------------
VERS.   2.0 : CWLS log ASCII Standard -VERSION 2.0
WRAP.    NO : One line per depth step
DLM . SPACE : Column Data Section Delimiter
~Well ------------------------------------------------------
STRT .FT                9030.0 : START DEPTH
STOP .FT               14506.0 : STOP DEPTH
STEP .FT                   0.5 : STEP
NULL .                -9999.25 : NULL VALUE
COMP .                         : COMPANY
WELL .                         : WELL
FLD  .                         : FIELD
LOC  .                         : LOCATION
PROV .                         : PROVINCE
CNTY .                         : COUNTY
STAT .                         : STATE
CTRY .                         : COUNTRY
SRVC .                         : SERVICE COMPANY
DATE .                         : DATE
UWI  .                         : UNIQUE WELL ID
API  .                         : API NUMBER
SLAT .WGS84  6.322563454980489 : SURFACE LATITUDE
SLON .WGS84 3.3663320787108972 : SURFACE LONGITUDE
DATUM.F                    nan : DEPTH DATUM ELEV
~Curve Information -----------------------------------------
DEPT   .FT    : 
AT10   .OHMM  : ARRAY INDUCTION TWO FOOT RESISTIVITY A10
AT30   .OHMM  : ARRAY INDUCTION TWO FOOT RESISTIVITY A30
AT90   .OHMM  : ARRAY INDUCTION TWO FOOT RESISTIVITY A90
C1S    .IN    : DELAYED CALIPER FOR FILM PRESENTATION
DPHZ_LS.DEC   : HGRD STANDARD RESOLUTION DENSITY POROSITY
DTCO   .US/F  : DELTA-T COMPRESSIONAL
DTSM   .US/F  : DELTA-T SHEAR
ECGRS  .GAPI  : ENVIRONMENTALLY CORRECTED GAMMA RAY FROM SONIC LOG
PEFZ   .B/E   : HRDD STANDARD RESOLUTION FORMATION PHOTOELECTRIC FACTOR
SPR    .MV    : SPONTANEOUS POTENTIAL FROM RESISTIVITY LOG
TNPH_LS.DEC   : THERMAL NEUTRON POROSITY [LIMESTONE]
~Params ----------------------------------------------------
~Other -----------------------------------------------------
~ASCII -----------------------------------------------------
 9030.00000   -9999.25   -9999.25   -9999.25   -9999.25   -9999.25   -9999.25   -9999.25   10.36470   -9999.25   -9999.25    0.14980
 9030.50000   -9999.25   -9999.25   -9999.25   -9999.25   -9999.25   -9999.25   -9999.25   10.50480   -9999.25   -9999.25    0.13000
 9031.00000   -9999.25   -9999.25   -9999.25   -9999.25   -9999.25   -9999.25   -9999.25   11.19690   -9999.25   -9999.25    0.12570
 9031.50000   -9999.25   -9999.25   -9999.25   -9999.25   -9999.25   -9999.25   -9999.25   12.60020   -9999.25   -9999.25    0.12780
 9032.00000   -9999.25   -9999.25   -9999.25   -9999.25   -9999.25   -9999.25   -9999.25   15.36930   -9999.25   -9999.25    0.12850
 9032.50000   -9999.25   -9999.25   -9999.25   -9999.25   -9999.25   -9999.25   -9999.25   19.39080   -9999.25   -9999.25    0.12740
 9033.00000   -9999.25   -9999.25   -9999.25   -9999.25   -9999.25   -9999.25   -9999.25   21.71820   -9999.25   -9999.25    0.12910
 9033.50000   -9999.25   -9999.25   -9999.25   -9999.25   -9999.25   -9999.25   -9999.25   21.88520   -9999.25   -9999.25    0.15010
 9034.00000   -9999.25   -9999.25   -9999.25   -9999.25   -9999.25   -9999.25   -9999.25   19.55470   -9999.25   -9999.25    0.17450
 9034.50000   -9999.25   -9999.25   -9999.25   -9999.25   -9999.25   -9999.25   -9999.25   18.00660   -9999.25   -9999.25    0.19650
 9035.00000   -9999.25   -9999.25   -9999.25   -9999.25   -9999.25   -9999.25   -9999.25   17.75340   -9999.25   -9999.25    0.19400
 9035.50000   -9999.25   -9999.25   -9999.25   -9999.25   -9999.25   -9999.25   -9999.25   18.85040   -9999.25   -9999.25    0.19390
 9036.00000   -9999.25   -9999.25   -9999.25   -9999.25   -9999.25   -9999.25   -9999.25   20.24000   -9999.25   -9999.25    0.20650
 9036.50000   -9999.25   -9999.25   -9999.25   -9999.25   -9999.25   -9999.25   -9999.25   20.45780   -9999.25   -9999.25    0.17400
 9037.00000   -9999.25   -9999.25   -9999.25   -9999.25   -9999.25   -9999.25   -9999.25   20.44060   -9999.25   -9999.25    0.16130
 9037.50000   -9999.25   -9999.25   -9999.25   -9999.25   -9999.25   -9999.25   -9999.25   19.77760   -9999.25   -9999.25    0.16120
 9038.00000    7.40600    4.96950    6.88650   -9999.25   -0.03030   -9999.25   -9999.25   19.66100    9.17500   36.87880    0.18280
 9038.50000    7.38880    4.96950    6.92220   -9999.25    0.01750   -9999.25   -9999.25   19.24560    7.91970   36.87880    0.19860
 9039.00000    7.37160    4.96950    6.86810   -9999.25    0.03080   -9999.25   -9999.25   19.90630    7.36880   36.87880    0.16300
 9039.50000    7.35440    4.96950    6.67890   -9999.25    0.02550   -9999.25   -9999.25   22.41290    6.71550   36.87880    0.13100
 9040.00000    7.33720    4.96950    6.48980   -9999.25   -0.00110   -9999.25   -9999.25   22.81400    6.06220   36.35720    0.10160
 9040.50000    7.32000    4.94650    6.30070   -9999.25    0.01900   -9999.25   -9999.25   21.59900    5.77370   33.62030    0.08820
 9041.00000    7.30280    4.80830    6.11160   -9999.25    0.08120   -9999.25   -9999.25   17.43800    5.84150   30.88340    0.08370
 9041.50000    7.28560    4.67020    5.76620   -9999.25    0.14150   -9999.25   -9999.25   13.63910    6.44070   30.41090    0.09830
 9042.00000    6.88650    4.53200    5.31670   -9999.25    0.16560   -9999.25   -9999.25   12.47730    7.03980   30.33610    0.11730
 9042.50000    6.52680    4.39390    4.86720   -9999.25    0.11970   -9999.25   -9999.25   14.54650    7.20490   29.53040    0.12870
 9043.00000    6.36950    4.25560    4.41760   -9999.25    0.05380   -9999.25   -9999.25   17.70190    6.83600   29.51030    0.08000
 9043.50000    6.21210    4.25480    4.71080   -9999.25   -0.00590   -9999.25   -9999.25   21.33480    6.34560   29.51110    0.05120
 9044.00000    6.05480    4.79310    5.44480    3.31030   -0.01240   62.76240  131.17400   23.11270    5.85510   29.52320    0.03100
 9044.50000    6.11030    5.46600    6.17890    3.31800    0.00390   63.92690  129.89650   25.51030    5.88220   29.44290    0.03700
 9045.00000    8.15940    5.73460    6.91290    3.32570    0.04970   63.07160  132.50220   27.34570    6.50630   29.30760    0.06190
 9045.50000   10.05440    4.97480    5.95710    3.33340    0.11670   62.39410  130.89510   30.03800    7.13030   29.17230    0.10250
 9046.00000   10.05290    4.21490    4.52410    3.34110    0.24810   61.98840  126.64840   32.14680    8.09980   29.03690    0.14300
 9046.50000    9.12500    3.45510    4.70480    3.34880    0.30060   61.78770  124.11970   33.56900    8.38930   28.90160    0.18350
 9047.00000    6.25880    3.15070    4.25900    3.35650    0.30040   59.94550  121.51650   31.54430    8.18220   28.76630    0.19250
 9047.50000    7.77220    3.31110    3.07250    3.36410    0.30020   58.24410  121.77000   26.78500    7.41860   28.63100    0.21270
 9048.00000   11.74530    4.37770    3.35650    3.37180    0.21330   57.00430  123.10870   21.29750    6.63290   28.54980    0.23760
 9048.50000   11.59440    5.72730    4.77890    3.37130    0.10480   55.70380  119.95870   18.79560    6.06650   28.91320    0.22140
 9049.00000   16.95050    7.07690    6.20130    3.35990    0.05200   57.10260  113.63910   18.64260    5.97720   28.65360    0.16970
 9049.50000   13.40170    7.13540    6.07230    3.35560    0.03260   61.99610   93.93330   23.97260    6.24880   28.47120    0.13950
 9050.00000    8.43170    6.73060    5.38340    3.35170    0.04000   64.45950   74.22750   29.72360    6.68790   28.17390    0.14700
 9050.50000    8.24610    7.12260    5.28970    3.34850    0.04610   65.30280   70.82060   32.62540    7.48900   27.62700    0.14800
 9051.00000    8.12230    7.43630    5.34490    3.34590    0.03700   66.74440   66.96330   32.34240    8.12080   27.38270    0.13350
 9051.50000    8.05040    6.87900    5.96610    3.34340    0.05650   68.20260   67.96530   34.08600    8.57870   27.12250    0.11380
 9052.00000    6.81270    6.18250    7.43630    3.34080    0.09280   69.66080  146.73300   36.36400    8.81940   26.85840    0.10540
 9052.50000    5.52770    5.48590    6.98030    3.34540    0.12990   70.61270  150.86700   36.43170    8.89560   26.59430    0.11150
 9053.00000    4.42540    4.86640    5.84050    3.34140    0.16020   68.55770  149.24100   32.32120    8.93720   26.33020    0.12360
 9053.50000    3.49060    4.55520    4.87060    3.34200    0.13110   65.75560  149.43730   29.00290    8.49350   26.11890    0.15950
 9054.00000    3.48840    4.24400    4.58000    3.34020    0.09470   64.58620  149.01960   28.00950    7.87190   26.40950    0.18580
 9054.50000    3.53890    4.24400    4.40570    3.33840    0.05380   63.33470  148.61840   30.10410    7.18790   26.69840    0.20230
 9055.00000    3.78310    4.52490    4.79570    3.33660    0.02780   63.71480  148.37770   28.69730    6.48940   26.30770    0.19910
 9055.50000    3.87330    4.80580    5.28330    3.33470    0.01590   64.79640  151.22120   26.42770    6.09830   26.78820    0.21040
 9056.00000    4.09360    5.08670    5.77080    3.33620    0.01670   64.60430  155.96030   23.47160    5.78970   26.61240    0.20140
 9056.50000    4.01830    5.31140    5.65730    3.33990    0.02610   65.98690  162.03130   23.37160    5.55930   25.67420    0.19690
 9057.00000    3.87740    5.18960    5.31140    3.35630    0.04710   65.90890  175.23970   24.75570    5.58210   25.91000    0.19530
 9057.50000    3.76650    5.25230    5.54510    3.35160    0.09350   67.77140  175.06780   26.97420    5.96940   25.43430    0.19800
 9058.00000    3.75180    5.59190    5.93450    3.34680    0.12620   68.93880  174.95460   26.85740    6.37370   25.14260    0.19380
 9058.50000    3.84200    5.78540    6.32390    3.34210    0.14870   70.52000  174.98510   28.55370    6.93290   24.85090    0.18930
 9059.00000    3.97560    5.73410    6.00560    3.34090    0.12640   70.37240  174.85350   29.48870    7.12450   24.55920    0.18610
 9059.50000    3.89130    5.91890    6.31570    3.34310    0.10620   70.35080  174.59290   32.20050    7.05840   23.75530    0.18350
 9060.00000    3.94060    5.70420    6.26760    3.34160    0.10960   71.68630  174.33220   33.61930    6.80310   23.52620    0.18350
