~Version ---------------------------------------------------
VERS.   2.0 : CWLS log ASCII Standard -VERSION 2.0
WRAP.    NO : One line per depth step
DLM . SPACE : Column Data Section Delimiter
~Well ------------------------------------------------------
STRT .FT                9030.0 : START DEPTH
STOP .FT               14506.0 : STOP DEPTH
STEP .FT                   0.5 : STEP
NULL .                -9999.25 : NULL VALUE
COMP .                         : COMPANY
WELL .                         : WELL
FLD  .                         : FIELD
LOC  .                         : LOCATION
PROV .                         : PROVINCE
CNTY .                         : COUNTY
STAT .                         : STATE
CTRY .                         : COUNTRY
SRVC .                         : SERVICE COMPANY
DATE .                         : DATE
UWI  .                         : UNIQUE WELL ID
API  .                         : API NUMBER
SLAT .WGS84  6.322563454980489 : SURFACE LATITUDE
SLON .WGS84 3.3663320787108972 : SURFACE LONGITUDE
DATUM.F                    nan : DEPTH DATUM ELEV
~Curve Information -----------------------------------------
DEPT   .FT    : 
AT10   .OHMM  : ARRAY INDUCTION TWO FOOT RESISTIVITY A10
AT30   .OHMM  : ARRAY INDUCTION TWO FOOT RESISTIVITY A30
AT90   .OHMM  : ARRAY INDUCTION TWO FOOT RESISTIVITY A90
C1S    .IN    : DELAYED CALIPER FOR FILM PRESENTATION
DPHZ_LS.DEC   : HGRD STANDARD RESOLUTION DENSITY POROSITY
DTCO   .US/F  : DELTA-T COMPRESSIONAL
DTSM   .US/F  : DELTA-T SHEAR
ECGRS  .GAPI  : ENVIRONMENTALLY CORRECTED GAMMA RAY FROM SONIC LOG
PEFZ   .B/E   : HRDD STANDARD RESOLUTION FORMATION PHOTOELECTRIC FACTOR
SPR    .MV    : SPONTANEOUS POTENTIAL FROM RESISTIVITY LOG
TNPH_LS.DEC   : THERMAL NEUTRON POROSITY [LIMESTONE]
~Params ----------------------------------------------------
~Other -----------------------------------------------------
~ASCII -----------------------------------------------------
# ...
 10246.00000   -9999.25   87.64540  213.39950    8.18110    0.01690   55.42680   95.16240   51.65880    4.04100 -214.14130   -9999.25
 10246.50000   -9999.25  102.91370  287.24110    8.18180    0.01710   55.65330   95.09960   53.94970    3.97690 -212.03800   -9999.25
 10247.00000   -9999.25  120.78540  378.31600    8.17430    0.01720   55.70760   95.03680   55.12190    3.97620 -210.49700   -9999.25
 10247.50000   -9999.25  102.67570  403.96430    8.16480    0.01740   55.76030   94.96160   54.18320    3.99320 -209.23720   -9999.25
 10248.00000   -9999.25  101.70610  379.47760    8.15780    0.01780   55.86830   94.75530   52.08870    4.02190 -209.05970   -9999.25
 10248.50000   -9999.25  100.73660  365.89010    8.16500    0.01870   56.12210   94.75130   50.32030    4.05060 -209.11860   -9999.25
 10249.00000   -9999.25  100.50220  347.29610    8.21290    0.01970   56.37590   94.61490   51.14600    4.12190 -210.37140   -9999.25
 10249.50000   -9999.25  100.26790  379.93370    8.26380    0.02070   56.73500   94.30590   52.25510    4.22270 -210.54790   -9999.25
 10250.00000   -9999.25  100.03360  334.09780    8.26590    0.02160   57.07680   94.27900   52.80070    4.34090 -210.88520   -9999.25
 10250.50000   -9999.25   91.11660  263.12200    8.27420   -9999.25   57.14160   94.34030   51.88850   -9999.25 -211.22250   -9999.25
 10251.00000   -9999.25   83.14740  239.93450    8.25240   -9999.25   57.13700   94.13680   52.59990   -9999.25 -211.55980   -9999.25
 10251.50000   -9999.25   96.12690  277.94280    8.23070   -9999.25   56.94230   94.09610   50.94530   -9999.25 -211.89720   -9999.25
 10252.00000   -9999.25  103.92930  296.86670    8.22270   -9999.25   56.44980   94.03390   51.79050   -9999.25 -215.25510   -9999.25
 10252.50000   -9999.25   96.94620  293.46650    8.23850   -9999.25   55.98440   93.88530   52.25830   -9999.25 -218.07720   -9999.25
 10253.00000   -9999.25   79.43980  254.66080    8.22780   -9999.25   55.89680   93.73680   52.16750   -9999.25 -220.23210   -9999.25
 10253.50000   -9999.25   68.94590  210.02780    8.24230   -9999.25   55.51920   93.64440   50.94880   -9999.25 -221.24970   -9999.25
 10254.00000   -9999.25   94.49210  339.24160    8.24620   -9999.25   55.50880   93.63660   50.23000   -9999.25 -223.24520   -9999.25
 10254.50000   -9999.25  128.55250  495.22410    8.25010   -9999.25   55.40170   93.41890   50.43140   -9999.25 -225.35710   -9999.25
 10255.00000   -9999.25  123.69350  448.09140    8.25410   -9999.25   55.09190   93.30970   48.81530   -9999.25 -227.79010   -9999.25
 10255.50000   -9999.25   91.15510  252.09930    8.25800   -9999.25   55.26890   93.35420   45.62410   -9999.25 -230.61020   -9999.25
 10256.00000   -9999.25  100.15460  183.91870    8.25810   -9999.25   55.10660   93.15590   44.73360   -9999.25 -233.49570   -9999.25
 10256.50000 2014.91540  135.20620  234.84210    8.24260   -9999.25   55.18750   93.04620   48.48950   -9999.25 -236.38120   -9999.25
 10257.00000 1595.64280  170.25790  285.76550    8.18530   -9999.25   55.21120   93.29050   51.55410   -9999.25 -239.26670   -9999.25
 10257.50000  875.52830  205.30950  316.36140    8.18140   -9999.25   55.30740   93.54660   51.51360   -9999.25 -242.15220   -9999.25
 10258.00000  436.81520  201.96340  301.08180    8.17740   -9999.25   55.45160   93.51340   50.90830   -9999.25 -244.13070   -9999.25
 10258.50000  420.20430  149.99000  323.14810    8.17350   -9999.25   55.45120   93.56400   50.13090   -9999.25 -246.80870   -9999.25
 10259.00000  337.54220  105.74580  283.23330    8.18360   -9999.25   55.52820   93.61450   52.01600   -9999.25 -249.64990   -9999.25
 10259.50000  241.04880  104.47150  237.82650    8.19700   -9999.25   55.32090   93.66910   53.57530   -9999.25 -252.80550   -9999.25
 10260.00000  310.40170  103.98490  295.55680    8.23790   -9999.25   55.34470   93.72950   53.81500   -9999.25 -255.96100   -9999.25
 10260.50000  397.07950  103.49350  367.70650    8.21290   -9999.25   55.36860   94.28000   53.20170   -9999.25 -259.11660   -9999.25
 10261.00000  363.30810  103.00200  350.35550    8.21180   -9999.25   55.20600   94.28260   50.93610   -9999.25 -262.09590   -9999.25
 10261.50000  316.88400  102.51050  309.30350    8.21080   -9999.25   54.59890   94.18400   50.18110   -9999.25 -266.03710   -9999.25
 10262.00000  253.74750  102.01910  226.54410    8.19930   -9999.25   54.25490   94.14140   50.32720   -9999.25 -269.97820   -9999.25
 10262.50000  288.85650  106.05440  223.78390    8.19440   -9999.25   53.93550   94.19070   51.37120   -9999.25 -271.75920   -9999.25
 10263.00000  496.92060  126.15160  389.12570    8.19930   -9999.25   54.31970   94.26330   49.62480   -9999.25 -274.70270   -9999.25
 10263.50000  704.98470  140.15010  566.45030    8.22540   -9999.25   55.06480   94.33600   46.69010   -9999.25 -279.49140   -9999.25
 10264.00000  913.04880  154.14870  743.77490    8.23770   -9999.25   55.62140   94.27830   44.80500   -9999.25 -281.68500   -9999.25
 10264.50000   -9999.25   -9999.25   -9999.25    8.23880   -9999.25   56.04680   94.12640   44.95650   -9999.25 -285.76290   -9999.25
 10265.00000   -9999.25   -9999.25   -9999.25    8.24000   -9999.25   56.85530   94.03160   46.52740   -9999.25 -287.83350   -9999.25
 10265.50000   -9999.25   -9999.25   -9999.25    8.21380   -9999.25   57.93550   93.93680   46.53280   -9999.25 -290.00780   -9999.25
 10266.00000   -9999.25   -9999.25   -9999.25    8.21360   -9999.25   58.34430   93.84200   48.07870   -9999.25 -292.33770   -9999.25
 10266.50000   -9999.25   -9999.25   -9999.25    8.21330   -9999.25   58.35570   93.78870   49.56350   -9999.25 -294.66760   -9999.25
 10267.00000   -9999.25   -9999.25   -9999.25    8.21310   -9999.25   58.47850   93.74590   53.82490   -9999.25 -296.99750   -9999.25
 10267.50000   -9999.25   -9999.25   -9999.25    8.18130   -9999.25   58.25580   93.78390   56.00660   -9999.25 -299.32750   -9999.25
 10268.00000   -9999.25   -9999.25   -9999.25    8.14150   -9999.25   57.21820   94.00550   55.90950   -9999.25 -301.30910   -9999.25
 10268.50000   -9999.25   -9999.25   -9999.25    8.03360   -9999.25   56.13550   94.19310   54.96760   -9999.25 -303.20360   -9999.25
 10269.00000   -9999.25   -9999.25   -9999.25    7.95230   -9999.25   56.39200   94.33700   54.58420   -9999.25 -305.09820   -9999.25
 10269.50000   -9999.25   -9999.25   -9999.25    8.04380   -9999.25   55.19270   94.25050   53.54700   -9999.25 -306.99270   -9999.25
 10270.00000   -9999.25   -9999.25   -9999.25    8.16840   -9999.25   54.69350   94.14250   52.09670   -9999.25 -309.07170   -9999.25
 10270.50000   -9999.25   -9999.25   -9999.25    8.22870   -9999.25   54.43490   94.01720   50.87010   -9999.25 -311.42740   -9999.25
 10271.00000   -9999.25   -9999.25   -9999.25    8.22020   -9999.25   54.10930   94.09000   50.08300   -9999.25 -313.78300   -9999.25
 10271.50000   -9999.25   -9999.25   -9999.25    8.16090   -9999.25   53.56010   94.16290   47.75770   -9999.25 -316.13870   -9999.25
 10272.00000   -9999.25   -9999.25   -9999.25    8.14100   -9999.25   53.95490   94.23580   44.93100   -9999.25 -318.49440   -9999.25
 10272.50000   -9999.25   -9999.25   -9999.25    8.14270   -9999.25   54.23410   94.30860   43.40760   -9999.25   -9999.25   -9999.25
 10273.00000   -9999.25   -9999.25   -9999.25    8.14490   -9999.25   55.09430   94.46110   43.38740   -9999.25   -9999.25   -9999.25
 10273.50000   -9999.25   -9999.25   -9999.25    8.14700   -9999.25   55.82170   94.54520   43.85060   -9999.25   -9999.25   -9999.25
 10274.00000   -9999.25   -9999.25   -9999.25    8.14920   -9999.25   57.09480   94.54830   44.45980   -9999.25   -9999.25   -9999.25
 10274.50000   -9999.25   -9999.25   -9999.25    8.15130   -9999.25   57.63620   94.66360   46.25130   -9999.25   -9999.25   -9999.25
 10275.00000   -9999.25   -9999.25   -9999.25    8.15560   -9999.25   58.30770   94.94730   47.84050   -9999.25   -9999.25   -9999.25
 10275.50000   -9999.25   -9999.25   -9999.25    8.15600   -9999.25   58.53780   94.71650   49.83550   -9999.25   -9999.25   -9999.25
