~Version ---------------------------------------------------
VERS.   2.0 : CWLS log ASCII Standard -VERSION 2.0
WRAP.    NO : One line per depth step
DLM . SPACE : Column Data Section Delimiter
~Well ------------------------------------------------------
STRT .FT                9030.0 : START DEPTH
STOP .FT               14506.0 : STOP DEPTH
STEP .FT                   0.5 : STEP
NULL .                -9999.25 : NULL VALUE
COMP .                         : COMPANY
WELL .                         : WELL
FLD  .                         : FIELD
LOC  .                         : LOCATION
PROV .                         : PROVINCE
CNTY .                         : COUNTY
STAT .                         : STATE
CTRY .                         : COUNTRY
SRVC .                         : SERVICE COMPANY
DATE .                         : DATE
UWI  .                         : UNIQUE WELL ID
API  .                         : API NUMBER
SLAT .WGS84  6.322563454980489 : SURFACE LATITUDE
SLON .WGS84 3.3663320787108972 : SURFACE LONGITUDE
DATUM.F                    nan : DEPTH DATUM ELEV
~Curve Information -----------------------------------------
DEPT   .FT    : 
AT10   .OHMM  : ARRAY INDUCTION TWO FOOT RESISTIVITY A10
AT30   .OHMM  : ARRAY INDUCTION TWO FOOT RESISTIVITY A30
AT90   .OHMM  : ARRAY INDUCTION TWO FOOT RESISTIVITY A90
C1S    .IN    : DELAYED CALIPER FOR FILM PRESENTATION
DPHZ_LS.DEC   : HGRD STANDARD RESOLUTION DENSITY POROSITY
DTCO   .US/F  : DELTA-T COMPRESSIONAL
DTSM   .US/F  : DELTA-T SHEAR
ECGRS  .GAPI  : ENVIRONMENTALLY CORRECTED GAMMA RAY FROM SONIC LOG
PEFZ   .B/E   : HRDD STANDARD RESOLUTION FORMATION PHOTOELECTRIC FACTOR
SPR    .MV    : SPONTANEOUS POTENTIAL FROM RESISTIVITY LOG
TNPH_LS.DEC   : THERMAL NEUTRON POROSITY [LIMESTONE]
~Params ----------------------------------------------------
~Other -----------------------------------------------------
~ASCII -----------------------------------------------------
# ...
 9121.50000    3.52350    3.42930    3.22420    9.55550    0.05440   73.95320  150.70740   37.94380    4.41560   21.67180    0.14880
 9122.00000    3.45110    3.27110    3.04260    9.69100    0.04960   66.98670  145.04910   39.18130    4.53930   21.96280    0.14800
 9122.50000    3.79500    3.39070    3.20750   10.10710    0.03210   52.19140  138.65590   36.62270    4.79700   21.64840    0.11200
 9123.00000   14.35050    5.80460    4.15980    9.48940    0.00080   50.23560  133.16390   29.95560    5.06830   20.70410    0.05270
 9123.50000   31.58890   14.04780   11.21940    9.32540   -0.01300   51.33790  128.56860   22.98200    5.30950   18.56230    0.02120
 9124.00000   48.82730   24.74170   20.93950    9.28520   -0.01210   53.05320  118.48160   19.02460    5.43010   17.48410    0.01140
 9124.50000   66.06570   39.11150   35.28440    9.23560   -0.00930   52.63960  113.74970   18.48720    5.51600   17.24740    0.01490
 9125.00000   50.13750   42.94600   36.24610    9.29140   -0.00650   54.57310  110.16800   18.52830    5.48880   17.22110    0.01780
 9125.50000   37.25170   33.37850   26.71000    9.28300   -0.01360   56.85310  109.14150   18.44360    5.38480   17.19470    0.02690
 9126.00000   35.00260   23.81110   19.75080    9.26140   -0.01090   58.37370  109.26860   16.66530    5.27180   17.90510    0.03580
 9126.50000   24.45380   16.49730   14.50980    9.25670   -0.00650   59.72770  111.92900   20.44620    5.04570   18.61560    0.06380
 9127.00000   16.67100   12.56400    9.90920    9.24600    0.00090   60.51950  113.95980   26.47820    4.84190   19.32600    0.07990
 9127.50000   10.73210    8.63080    7.87060    9.30860    0.00740   61.48480  116.25900   33.61840    4.72710   19.49610    0.10370
 9128.00000    8.25310    7.65110    7.18920    9.31550    0.01390   61.05040  117.56520   36.55750    4.61230   19.53110    0.12000
 9128.50000    8.89350    8.41130    7.87340    9.23560    0.01540   61.99190  117.62630   36.12520    4.53930   19.56620    0.11360
 9129.00000   11.36300   10.31170    9.35870    9.22930    0.01340   61.99690  118.66420   32.45010    4.55280   19.60130    0.10020
 9129.50000   13.83240   12.21210   10.84400    9.10390    0.00970   61.51270  118.84960   29.25440    4.59350   19.37940    0.08680
 9130.00000   13.92900   12.44650   11.42970    9.11950    0.00880   61.02850  119.00200   28.24680    4.63300   18.69770    0.07900
 9130.50000   12.44360   11.71810   11.00340    9.09070    0.01090   60.34150  118.18830   27.72980    4.69480   18.39460    0.08010
 9131.00000   11.55230   10.98970   10.57720    9.11830    0.01360   59.38420  116.97370   27.91300    4.76060   17.05090    0.08170
 9131.50000   12.12300   11.13530   10.96930    9.09540    0.01390   59.43850  116.48690   27.60560    4.77260   16.60830    0.08000
 9132.00000   13.51950   11.86380   11.36140    9.07860    0.01230   59.42100  116.00020   29.01460    4.79390   16.05010    0.07880
 9132.50000   14.73020   12.59220   11.75350    9.05550    0.00960   59.40360  115.51350   30.81980    4.78380   15.49190    0.07470
 9133.00000   15.19760   12.79450   11.94700    9.08820    0.00850   58.87980  114.80130   31.98600    4.79990   14.93370    0.07240
 9133.50000   14.92010   12.99680   12.09090    9.08700    0.01120   58.39860  113.75110   31.15370    4.84140   13.92890    0.06920
 9134.00000   14.35670   13.19900   12.23480    9.06380    0.01440   58.28400  112.92550   28.29060    4.93030   14.18730    0.06610
 9134.50000   14.55680   13.40130   12.37870    9.04790    0.01330   58.00640  112.17150   25.43940    5.01920   14.51020    0.06250
 9135.00000   16.54720   15.73150   13.78900    9.09830    0.00480   58.53130  112.23040   23.66560    5.05500   14.83320    0.05540
 9135.50000   19.73110   18.06160   17.17060    9.11410   -0.00210   58.21920  112.50700   23.73030    5.07740   15.15610    0.05120
 9136.00000   21.26800   18.99370   16.84440    9.08850   -0.00130   58.57540  112.42990   23.90730    5.05980   14.86960    0.05170
 9136.50000   17.59670   15.09140   14.33820    9.04230    0.00250   58.39160  112.22380   25.44550    4.94950   14.68580    0.06070
 9137.00000   13.92540   12.75000   11.83190    9.09480    0.00790   58.37930  112.47990   26.35600    4.83910   14.46480    0.06450
 9137.50000   13.63690   12.95550   11.89130    9.14820    0.01130   58.07140  112.76920   27.38340    4.80140   12.85410    0.06610
 9138.00000   13.72710   13.21240   12.23450    9.10620    0.01580   58.03860  113.05850   27.61570    4.82450   12.34590    0.06690
 9138.50000   13.81720   13.46940   12.57770    9.06420    0.01190   58.50170  113.34790   28.51830    4.81610   12.14260    0.06610
 9139.00000   13.90740   13.72630   12.92090    9.04640    0.00700   58.89400  113.66460   27.54450    4.79050   10.87170    0.06590
 9139.50000   14.27890   13.98320   13.26410    9.04630    0.00290   58.68460  114.22590   26.08650    4.76490   11.28780    0.06570
 9140.00000   14.45560   13.57690   12.91700    9.04620    0.00420   59.03400  114.38110   26.69180    4.73940   11.55890    0.06660
 9140.50000   13.55520   12.72850   11.70630    9.04610    0.00440   58.66770  114.19410   27.31920    4.72380   11.32760    0.07100
 9141.00000   12.65480   11.88010   10.97990    9.04600    0.00660   58.79280  114.02940   27.99330    4.73320   11.09640    0.07360
 9141.50000   12.29460   11.54080   11.32480    9.04600    0.00530   58.80640  114.69140   26.42780    4.75320   10.86510    0.07390
 9142.00000   13.09470   12.43630   11.73720    9.04590    0.00590   58.97290  114.70970   26.66330    4.77610   10.63380    0.07260
 9142.50000   12.79390   11.84300   11.26390    9.04580    0.00710   59.14850  114.26110   26.79420    4.76540   10.40260    0.07180
 9143.00000   11.55230   11.39800   11.17160    9.04570    0.00860   59.20030  114.52600   25.81020    4.76180    9.53810    0.07110
 9143.50000   12.68750   12.07400   11.65100    9.04560    0.00800   59.11270  114.79100   24.86230    4.73480    9.50060    0.07030
 9144.00000   13.82260   12.75000   12.13030    9.03440    0.00650   58.97170  114.80370   24.61090    4.72130    9.46320    0.06900
 9144.50000   14.27670   12.48390   11.76640    9.04970    0.00760   58.58330  114.28020   26.77550    4.71900    8.72390    0.06920
 9145.00000   13.39580   12.04030   11.40240    9.01800    0.01010   58.92190  114.07460   29.35620    4.73490    8.59570    0.07570
 9145.50000   12.29460   11.68540   11.38790    9.06760    0.01210   59.03400  114.08550   30.07160    4.75070    7.69780    0.07810
 9146.00000   13.06750   12.45070   12.04320    9.15660    0.01100   59.00430  113.61720   28.35820    4.76340    7.08150    0.07610
 9146.50000   13.40610   12.90980   12.20610    9.16490    0.00650   59.17820  114.31400   25.54950    4.75320    6.33720    0.07210
 9147.00000   12.96420   12.31950   11.63060    9.14770    0.00610   59.18580  114.65030   26.45390    4.74480    5.59290    0.07250
 9147.50000   12.52240   11.72910   11.05510    9.14980    0.00850   59.19330  114.59580   28.41020    4.75120    4.99750    0.07170
 9148.00000   12.08050   11.25680   10.75480    9.17040    0.00970   59.20090  114.69140   28.51830    4.73800    4.99750    0.07050
 9148.50000   12.73660   11.71690   10.97990    9.16190    0.00790   59.20850  114.61580   26.67770    4.71620    4.99750    0.06940
 9149.00000   12.53250   11.50640   11.09460    9.14790    0.00420   59.21610  114.54020   24.91170    4.67280    4.99750    0.06830
 9149.50000   12.45260   11.45540   11.04950    9.14310    0.00440   59.42990  114.75010   25.25820    4.68050    4.99750    0.06980
 9150.00000   12.49690   11.52730   10.96460    9.16070    0.00400   59.24030  115.38820   26.51090    4.71370    4.32770    0.07160
 9150.50000   12.20850   11.59920   10.87960    9.15380    0.00440   59.21110  115.43700   28.33410    4.76760    3.46650    0.07220
 9151.00000   12.53870   11.67110   10.79470    9.18590    0.00530   59.28850  115.06110   29.49970    4.79100    2.91360    0.07360
 9151.50000   12.24170   11.51400   10.70970    9.20590    0.00770   59.30590  115.19130   29.31700    4.81450    1.91650    0.07720
