~Version ---------------------------------------------------
VERS.   2.0 : CWLS log ASCII Standard -VERSION 2.0
WRAP.    NO : One line per depth step
DLM . SPACE : Column Data Section Delimiter
~Well ------------------------------------------------------
STRT .FT                9030.0 : START DEPTH
STOP .FT               14506.0 : STOP DEPTH
STEP .FT                   0.5 : STEP
NULL .                -9999.25 : NULL VALUE
COMP .                         : COMPANY
WELL .                         : WELL
FLD  .                         : FIELD
LOC  .                         : LOCATION
PROV .                         : PROVINCE
CNTY .                         : COUNTY
STAT .                         : STATE
CTRY .                         : COUNTRY
SRVC .                         : SERVICE COMPANY
DATE .                         : DATE
UWI  .                         : UNIQUE WELL ID
API  .                         : API NUMBER
SLAT .WGS84  6.322563454980489 : SURFACE LATITUDE
SLON .WGS84 3.3663320787108972 : SURFACE LONGITUDE
DATUM.F                    nan : DEPTH DATUM ELEV
~Curve Information -----------------------------------------
DEPT   .FT    : 
AT10   .OHMM  : ARRAY INDUCTION TWO FOOT RESISTIVITY A10
AT30   .OHMM  : ARRAY INDUCTION TWO FOOT RESISTIVITY A30
AT90   .OHMM  : ARRAY INDUCTION TWO FOOT RESISTIVITY A90
C1S    .IN    : DELAYED CALIPER FOR FILM PRESENTATION
DPHZ_LS.DEC   : HGRD STANDARD RESOLUTION DENSITY POROSITY
DTCO   .US/F  : DELTA-T COMPRESSIONAL
DTSM   .US/F  : DELTA-T SHEAR
ECGRS  .GAPI  : ENVIRONMENTALLY CORRECTED GAMMA RAY FROM SONIC LOG
PEFZ   .B/E   : HRDD STANDARD RESOLUTION FORMATION PHOTOELECTRIC FACTOR
SPR    .MV    : SPONTANEOUS POTENTIAL FROM RESISTIVITY LOG
TNPH_LS.DEC   : THERMAL NEUTRON POROSITY [LIMESTONE]
~Params ----------------------------------------------------
~Other -----------------------------------------------------
~ASCII -----------------------------------------------------
# ...
 9853.50000    4.02430    4.14080    4.42970    8.40440    0.04370   74.44940  154.79020   68.14930    4.20560  -65.18040    0.19470
 9854.00000    3.94570    4.05990    4.30970    9.19070    0.04410   77.64310  153.87250   68.65760    4.20030  -64.73380    0.19940
 9854.50000    3.94030    4.05430    4.21380    9.04360    0.04490   80.70850  153.81150   70.29650    4.19500  -65.59700    0.20510
 9855.00000    3.98360    4.09890    4.30970    9.11570    0.04490   77.83390  155.14180   69.20650    4.18980  -67.75890    0.21050
 9855.50000    4.02700    4.14350    4.40570    9.43120    0.04220   79.07560  155.72300   71.27000    4.15920  -69.64600    0.20860
 9856.00000    4.07040    4.18820    4.50170    9.06860    0.03880   78.63790  156.14820   69.15850    4.14490  -69.58190    0.20360
 9856.50000    4.11370    4.23280    4.59770    8.61910    0.03830   77.14740  153.55770   67.52880    4.13870  -67.39530    0.19460
 9857.00000    4.15710    4.27740    4.58090    9.49840    0.04160   76.13760  148.29460   65.96570    4.14040  -70.79860    0.19300
 9857.50000    4.21800    4.34010    4.56420    9.43710    0.04310   75.38490  147.96470   64.90540    4.14130  -72.00550    0.19580
 9858.00000    4.21800    4.34010    4.54740    9.41610    0.04190   74.63260  146.57460   64.77520    4.13290  -71.44730    0.19860
 9858.50000    4.12690    4.24630    4.47220    9.42230    0.03770   73.97870  144.78140   67.79170    4.10540  -70.88910    0.20200
 9859.00000    3.97500    4.09000    4.35800    8.65590    0.03680   72.91300  142.61000   65.91250    4.09540  -70.04430    0.20970
 9859.50000    3.96360    4.07830    4.37370    8.61740    0.03490   71.74590  141.43610   62.86330    4.09680  -68.75290    0.20950
 9860.00000    4.31870    4.44370    4.90940    9.32120    0.03530   71.30430  140.18690   61.32900    4.09550  -67.77620    0.19960
 9860.50000    4.95730    5.10080    5.40840    9.02180    0.03250   70.62850  139.92140   62.48890    4.09420  -70.72280    0.18210
 9861.00000    5.32680    5.48100    5.89830    8.10130    0.03000   69.40170  140.40010   63.15640    4.06770  -71.43930    0.15600
 9861.50000    5.48880    5.64770    6.01200    9.24580    0.02550   68.67220  140.69960   66.99000    3.94050  -73.66900    0.14260
 9862.00000    5.53790    5.69810    6.20150    9.20210    0.02400   68.42170  139.77590   66.81690    3.88960  -74.33890    0.14560
 9862.50000    6.74000    6.93500    9.73310    9.11760    0.02550   69.01420  139.05880   68.68420    3.95070  -72.71370    0.14920
 9863.00000    7.23380    7.44320    9.42460    8.12050    0.03980   72.25280  139.84240   66.58820    4.01170  -68.90640    0.16390
 9863.50000    4.61320    4.74680    6.80740    8.67400    0.05960   69.34360  139.97210   68.69240    4.26260  -65.79450    0.19820
 9864.00000    4.08780    4.20620    4.56140    9.43810    0.07170   70.21470  140.97220   70.50240    4.42340  -63.75160    0.22530
 9864.50000    3.56240    3.66550    3.80020    9.43810    0.06740   72.50640  142.28390   72.65860    4.60400  -64.98850    0.25450
 9865.00000    3.20470    3.29740    3.42290   10.10380    0.05600   73.34120  142.98530   75.34170    4.61320  -64.97220    0.24230
 9865.50000    3.09840    3.18810    3.30320   10.34400    0.07260   73.86930  142.99040   76.37010    4.55170  -65.18060    0.25400
 9866.00000    2.99530    3.08200    3.19060   10.06950    0.09240   73.75250  143.37340   74.21870    4.71050  -68.89140    0.26010
 9866.50000    2.90490    2.98890    3.07790   11.17430    0.09760   73.93820  143.66250   74.83640    4.99000  -70.96420    0.26660
 9867.00000    2.81440    2.89590    3.01320   10.01240    0.08920   74.06890  145.22790   75.86570    5.25980  -70.52050    0.27230
 9867.50000    2.80180    2.88290    3.02720    9.81900    0.07690   73.89330  146.79330   78.79400    5.49810  -70.42620    0.27530
 9868.00000    2.81530    2.89680    3.04130   10.75920    0.07200   74.24250  147.14720   81.07990    5.68030  -68.44050    0.27480
 9868.50000    2.82890    2.91080    3.05530   11.29100    0.07050   74.35830  145.94640   83.53470    5.62940  -67.86000    0.26710
 9869.00000    2.84250    2.92480    3.06940   11.32870    0.06780   74.24230  145.69590   83.48740    5.51000  -65.14000    0.26190
 9869.50000    2.85600    2.93870    3.08350   10.73160    0.06960   74.59090  147.77330   80.48300    5.33560  -62.42000    0.25780
 9870.00000    2.90030    2.98420    3.17640   10.47400    0.07660   74.98670  148.09860   78.82480    5.03700  -63.24620    0.25930
 9870.50000    3.06720    3.15590    3.33110   10.62220    0.08420   75.95810  147.54600   78.54820    4.62800  -67.71280    0.26410
 9871.00000    3.38750    3.48560    3.72510   11.04230    0.07360   76.05660  147.75750   76.78460    4.21890  -70.42290    0.24870
 9871.50000    3.93810    4.05210    4.82400   11.10740    0.05740   76.24740  148.05390   74.18710    3.94040  -70.40030    0.21950
 9872.00000    4.56460    4.69670    5.92300   11.28800    0.04290   76.67720  148.60590   71.64780    3.66190  -69.35470    0.17470
 9872.50000    5.49490    5.65390    7.02190    9.09080    0.04470   74.72380  148.24940   68.41940    3.55050  -68.59590    0.14950
 9873.00000    6.05310    6.22830    7.02190    9.29860    0.04500   70.87990  147.37810   66.45760    3.68620  -66.08300    0.14060
 9873.50000    5.28650    5.43950    6.43000    9.81940    0.04630   73.13700  146.39520   65.74540    3.88960  -66.71090    0.14940
 9874.00000    5.11630    5.26440    5.69010   10.00040    0.04940   77.82380  147.02880   67.41280    3.96140  -66.64850    0.17010
 9874.50000    5.01120    5.15630    5.54210    9.24210    0.04740   77.96900  147.77760   70.54960    3.94550  -66.16220    0.15380
 9875.00000    4.83290    4.97270    5.82530    8.98120    0.04520   77.93470  147.38080   73.09370    3.92950  -65.67580    0.11980
 9875.50000    5.40550    5.56200    6.59380    9.17510    0.04430   77.26160  147.02100   73.85000    3.98320  -65.28500    0.10010
 9876.00000    5.97810    6.15120    7.10730    9.41790    0.05620   74.72230  146.66120   69.78050    4.31560  -64.84100    0.09280
 9876.50000    5.11560    5.26360    5.74080    8.93980    0.06100   72.66860  145.24940   67.26410    4.60860  -63.74350    0.11560
 9877.00000    3.67790    3.78440    4.37420    9.50890    0.05090   75.04490  143.38610   69.48260    4.56580  -63.44200    0.14780
 9877.50000    4.02450    4.14100    4.60930   10.28800    0.04520   77.45350  143.04440   72.57890    4.35150  -60.86230    0.18820
 9878.00000    4.60220    4.73540    5.00100    9.97380    0.04730   79.55880  143.36130   75.67520    4.08550  -60.50650    0.19350
 9878.50000    4.50980    4.66500    5.06290   10.77210    0.05350   79.31610  143.41310   78.35670    3.81750  -58.78310    0.19430
 9879.00000    4.04760    4.31260    4.46880   11.26210    0.05750   77.75730  144.47540   78.14350    3.67680  -59.29910    0.19970
 9879.50000    3.60430    3.96030    4.39000   11.37330    0.05470   75.52130  145.97020   78.54070    3.69180  -60.80500    0.20440
 9880.00000    3.23660    3.60790    4.11860   10.91620    0.04780   73.24380  145.89090   77.89610    3.77310  -60.17650    0.20740
 9880.50000    3.05140    3.32610    3.74860   10.98230    0.03940   70.78270  145.97080   79.02220    3.85450  -59.54800    0.21150
 9881.00000    3.50130    4.23570    4.73080   10.83160    0.03860   71.52080  146.17020   78.04480    3.93580  -58.91960    0.21180
 9881.50000    4.76950    5.37260    7.25560   11.18880    0.04000   72.91880  145.83290   80.45810    3.98790  -57.78270    0.21200
 9882.00000    4.87530    5.62550    7.02220   10.30230    0.03860   73.57210  146.38180   76.64920    4.02060  -58.79640    0.20900
 9882.50000    4.34770    5.12030    5.54510   10.24220    0.03470   72.96950  145.43340   75.30160    4.04130  -57.58390    0.20980
 9883.00000    3.82010    5.15010    6.03000   10.43190    0.03170   73.42350  144.23930   75.55590    4.01410  -57.97600    0.20190
 9883.50000    4.83470    5.80320    6.28210   10.64760    0.02540   74.96240  144.68060   77.01290    3.98690  -57.51970    0.19620
