~Version ---------------------------------------------------
VERS.   2.0 : CWLS log ASCII Standard -VERSION 2.0
WRAP.    NO : One line per depth step
DLM . SPACE : Column Data Section Delimiter
~Well ------------------------------------------------------
STRT .FT                9030.0 : START DEPTH
STOP .FT               14506.0 : STOP DEPTH
STEP .FT                   0.5 : STEP
NULL .                -9999.25 : NULL VALUE
COMP .                         : COMPANY
WELL .                         : WELL
FLD  .                         : FIELD
LOC  .                         : LOCATION
PROV .                         : PROVINCE
CNTY .                         : COUNTY
STAT .                         : STATE
CTRY .                         : COUNTRY
SRVC .                         : SERVICE COMPANY
DATE .                         : DATE
UWI  .                         : UNIQUE WELL ID
API  .                         : API NUMBER
SLAT .WGS84  6.322563454980489 : SURFACE LATITUDE
SLON .WGS84 3.3663320787108972 : SURFACE LONGITUDE
DATUM.F                    nan : DEPTH DATUM ELEV
~Curve Information -----------------------------------------
DEPT   .FT    : 
AT10   .OHMM  : ARRAY INDUCTION TWO FOOT RESISTIVITY A10
AT30   .OHMM  : ARRAY INDUCTION TWO FOOT RESISTIVITY A30
AT90   .OHMM  : ARRAY INDUCTION TWO FOOT RESISTIVITY A90
C1S    .IN    : DELAYED CALIPER FOR FILM PRESENTATION
DPHZ_LS.DEC   : HGRD STANDARD RESOLUTION DENSITY POROSITY
DTCO   .US/F  : DELTA-T COMPRESSIONAL
DTSM   .US/F  : DELTA-T SHEAR
ECGRS  .GAPI  : ENVIRONMENTALLY CORRECTED GAMMA RAY FROM SONIC LOG
PEFZ   .B/E   : HRDD STANDARD RESOLUTION FORMATION PHOTOELECTRIC FACTOR
SPR    .MV    : SPONTANEOUS POTENTIAL FROM RESISTIVITY LOG
TNPH_LS.DEC   : THERMAL NEUTRON POROSITY [LIMESTONE]
~Params ----------------------------------------------------
~Other -----------------------------------------------------
~ASCII -----------------------------------------------------
# ...
 10096.00000   98.01740   -9999.25  920.05690   12.01140    0.02700   73.55550  188.90550   96.24720    4.09250 -271.43390   -0.00120
 10096.50000   98.71110   -9999.25  861.99100   10.35070    0.02900   75.11120  189.48260   92.01870    4.01260 -272.51920   -0.00080
 10097.00000   99.40470   -9999.25  803.92500   10.23060    0.03940   75.88110  191.36250   93.25500    3.83910 -273.60440    0.00220
 10097.50000  100.09840   -9999.25  858.76990   10.39450    0.05010   75.30280  191.84900   93.63810    3.82380 -274.68970    0.00600
 10098.00000  100.23930   -9999.25  886.43120   10.66640    0.05590   75.57320  191.37710   96.26050    4.03020 -275.69270    0.00970
 10098.50000  100.24200   -9999.25  899.35410   10.21340    0.05630   76.19620  194.81080  100.29310    4.33500 -276.74630    0.01350
 10099.00000  100.24470   -9999.25  908.73490   10.66640    0.06230   76.62570  194.10850  103.45020    4.54710 -277.87560    0.01580
 10099.50000  100.24740   -9999.25  906.23650   10.46050    0.06100   77.07280  192.68810  104.99420    4.71600 -279.53300    0.01860
 10100.00000  100.25010 2015.19450  899.99050   10.00390    0.05460   75.97330  191.26770  101.59230    4.89180 -281.76920    0.02010
 10100.50000  100.25290 2002.71120  886.38850    9.60470    0.04350   76.35040  189.95180   97.85460    4.98130 -282.79300    0.02150
 10101.00000   98.52460 1921.22120  922.03160   10.00740    0.03930   76.75350  188.63600   96.11410    4.93150 -284.53460    0.02290
 10101.50000   94.81450 1563.70440  812.48820   10.04580    0.04790   75.95210  187.32010   98.16670    4.75070 -285.13540    0.02430
 10102.00000   91.10450 1206.18760  485.16490   10.06160    0.05640   73.82510  186.53040   99.01300    4.69130 -285.54140    0.02240
 10102.50000   87.39440  991.68620  419.71390   10.45660    0.06030   69.30730  188.07180  100.81660    4.74400 -285.94740    0.02000
 10103.00000   90.30340 1603.16970  602.87340    9.72000    0.04470   68.77930  192.83420   94.76600    4.92640 -286.35330    0.01520
 10103.50000   95.14590 2042.99840  786.03280    9.62120    0.03060   70.95780  173.00460   90.46790    5.07110 -286.86390    0.01040
 10104.00000   99.06490   -9999.25  926.10490    9.45860    0.02270   70.10700  146.70950   87.66500    5.07430 -287.79280    0.00560
 10104.50000   99.28960   -9999.25 1048.97250    9.51560    0.02230   70.43780  136.14310   88.30560    4.86600 -287.57130    0.00290
 10105.00000   99.51430   -9999.25 1146.10980   10.06130    0.01930   73.05570  121.18680   93.37570    4.59280 -288.46440    0.00170
 10105.50000   99.73890   -9999.25 1243.24710   10.84380    0.01750   73.17580  109.58490   95.56220    4.40310 -287.25870   -0.00040
 10106.00000   99.96360   -9999.25 1351.20790   10.24660    0.01750   71.72110  105.70030   94.61710    4.27160 -287.43230   -0.00110
 10106.50000  100.18830   -9999.25 1486.58290   10.62750    0.02100   69.91990  102.45520   97.34980    4.13150 -288.28930   -0.00280
 10107.00000  100.37100   -9999.25 1616.46410   11.00810    0.02870   71.97630  110.81480   98.82390    4.06510 -288.40450   -0.00340
 10107.50000  100.38620   -9999.25 1598.17100    8.86770    0.02820   73.38660  121.41480   94.66350    4.15410 -287.57130   -0.00310
 10108.00000  100.40140   -9999.25 1629.10980    8.06000    0.02440   72.26280  129.57020   85.94270    4.27310 -288.28390   -0.00110
 10108.50000  100.41650   -9999.25 1409.69150    8.07340    0.02150   71.78850  128.70010   86.61010    4.30720 -288.49970    0.00190
 10109.00000  100.43170   -9999.25  876.76510    8.59820    0.02140   76.65140  130.81610   91.06560    4.38820 -288.71550    0.00220
 10109.50000  100.44680   -9999.25 1144.62150    9.16110    0.01910   79.69860  132.97850   94.93770    4.48510 -288.93130    0.00180
 10110.00000  100.46200   -9999.25 1652.26140    9.91220    0.01800   80.10080  137.64770   97.17400    4.44850 -289.94030    0.00140
 10110.50000  105.21270   -9999.25 1492.78120   10.09210    0.01740   81.07670  142.31680   97.25850    4.25070 -290.24780    0.00110
 10111.00000  105.95310   -9999.25 1333.30110   10.12440    0.01980   82.46740  146.07080   99.16530    3.98870 -290.22780    0.00070
 10111.50000  106.69360   -9999.25 1173.82090   10.11050    0.02620   82.81490  137.41160   99.91320    3.95320 -291.36810    0.00030
 10112.00000  106.34550   -9999.25 1014.34070   10.12980    0.02520   77.60740  142.96110   97.21110    3.97390 -291.09860   -0.00010
 10112.50000  105.27170   -9999.25  854.86060    9.99290    0.02550   68.60960  148.51070   90.80670    3.85070 -288.98860   -0.00030
 10113.00000  104.19790   -9999.25  822.96450    9.68300    0.02310   68.07390  154.40600   91.27110    3.66570 -289.20870    0.00030
 10113.50000  103.12400   -9999.25  846.66460    9.34350    0.02450   67.39140  159.19120   92.31220    3.55450 -290.17210    0.00080
 10114.00000  102.75980   -9999.25  868.97500    9.34030    0.02100   70.85090  138.74570   93.88150    3.46760 -290.15110    0.00130
 10114.50000  102.57280   -9999.25  897.93750    9.26250    0.02160   74.39860  122.17780   89.86820    3.54210 -290.13020    0.00180
 10115.00000  102.38590   -9999.25  844.05490    9.29180    0.02160   71.29480  120.39520   90.56060    3.65060 -290.10920    0.00150
 10115.50000  102.19900   -9999.25  863.87550    9.21970    0.01520   70.05230  120.80540   93.07680    3.74210 -290.08830    0.00090
 10116.00000  102.01210   -9999.25  873.09770    9.20380    0.00950   68.43190  144.38420   96.29320    3.75320 -287.92810    0.00040
 10116.50000  101.82520   -9999.25  804.46960    9.28540    0.01700   67.84870  142.90320   97.35840    3.75620 -288.20010   -0.00020
 10117.00000  101.63830   -9999.25  735.84150    9.45630    0.02320   67.36640  140.27070   96.24250    3.93470 -286.52150   -0.00090
 10117.50000  101.45140   -9999.25  667.44670    9.48820    0.01520   66.83640  141.56200   94.52610    4.23030 -288.14600   -0.00060
 10118.00000  101.26450   -9999.25  624.62840   10.10060    0.00760   66.37590  139.35840   95.24400    4.19650 -289.46070   -0.00060
 10118.50000  101.07760   -9999.25  618.16690    8.73800    0.01120   65.95460  142.81980   91.25720    3.93030 -291.39810   -0.00120
 10119.00000  100.89070   -9999.25  703.67850    8.60500    0.02060   65.53650  157.73050   91.42630    3.49680 -293.14540   -0.00070
 10119.50000  100.70370   -9999.25  836.03190    8.83210    0.03680   65.62550  143.53760   92.71410    3.14990 -293.15160    0.00080
 10120.00000  100.51680   -9999.25  974.50970    9.61030    0.04240   65.81670  142.34550   97.31020    3.37760 -292.69620    0.00520
 10120.50000  102.65310   -9999.25 1110.49370    9.56250    0.02930   65.98900  141.15350   97.09410    3.94680 -291.54810    0.00370
 10121.00000  106.22820   -9999.25 1245.66740    9.15490    0.01200   67.03310  126.71860   94.77820    4.40890 -290.40010   -0.00010
 10121.50000  106.66670   -9999.25 1318.21170    8.60420    0.00240   68.55660  114.66940   92.33000    4.66340 -289.27890   -0.00210
 10122.00000  105.85890   -9999.25 1383.44000    8.68440    0.00570   69.17270  116.79550   96.47590    4.63260 -288.82380   -0.00100
 10122.50000  102.62080   -9999.25 1419.64200    8.83950    0.00810   69.46000  122.56770  100.71320    4.52090 -288.50840   -0.00050
 10123.00000  100.96350   -9999.25 1393.36480    8.87210    0.00720   68.70660  128.98700  100.38420    4.50200 -286.08410   -0.00120
 10123.50000  101.15080   -9999.25 1219.62090    9.05360    0.00970   66.84070  126.17150   94.64920    4.51630 -288.33330   -0.00270
 10124.00000  101.33820   -9999.25  998.16730    8.78650    0.01630   64.20660  120.46670   81.59100    4.54220 -288.14040   -0.00210
 10124.50000  101.52560   -9999.25  873.31380    8.64910    0.01470   61.41230  115.15550   69.87260    4.51160 -286.39670   -0.00100
 10125.00000  101.71300   -9999.25  777.45210    8.64850    0.01070   59.44410  111.41820   61.14370    4.38620 -287.22720   -0.00210
 10125.50000  101.83070   -9999.25  747.37000    8.31360    0.00760   57.60490  110.44590   57.28360    4.19020 -285.19100   -0.00340
