~Version ---------------------------------------------------
VERS.   2.0 : CWLS log ASCII Standard -VERSION 2.0
WRAP.    NO : One line per depth step
DLM . SPACE : Column Data Section Delimiter
~Well ------------------------------------------------------
STRT .FT                9030.0 : START DEPTH
STOP .FT               14506.0 : STOP DEPTH
STEP .FT                   0.5 : STEP
NULL .                -9999.25 : NULL VALUE
COMP .                         : COMPANY
WELL .                         : WELL
FLD  .                         : FIELD
LOC  .                         : LOCATION
PROV .                         : PROVINCE
CNTY .                         : COUNTY
STAT .                         : STATE
CTRY .                         : COUNTRY
SRVC .                         : SERVICE COMPANY
DATE .                         : DATE
UWI  .                         : UNIQUE WELL ID
API  .                         : API NUMBER
SLAT .WGS84  6.322563454980489 : SURFACE LATITUDE
SLON .WGS84 3.3663320787108972 : SURFACE LONGITUDE
DATUM.F                    nan : DEPTH DATUM ELEV
~Curve Information -----------------------------------------
DEPT   .FT    : 
AT10   .OHMM  : ARRAY INDUCTION TWO FOOT RESISTIVITY A10
AT30   .OHMM  : ARRAY INDUCTION TWO FOOT RESISTIVITY A30
AT90   .OHMM  : ARRAY INDUCTION TWO FOOT RESISTIVITY A90
C1S    .IN    : DELAYED CALIPER FOR FILM PRESENTATION
DPHZ_LS.DEC   : HGRD STANDARD RESOLUTION DENSITY POROSITY
DTCO   .US/F  : DELTA-T COMPRESSIONAL
DTSM   .US/F  : DELTA-T SHEAR
ECGRS  .GAPI  : ENVIRONMENTALLY CORRECTED GAMMA RAY FROM SONIC LOG
PEFZ   .B/E   : HRDD STANDARD RESOLUTION FORMATION PHOTOELECTRIC FACTOR
SPR    .MV    : SPONTANEOUS POTENTIAL FROM RESISTIVITY LOG
TNPH_LS.DEC   : THERMAL NEUTRON POROSITY [LIMESTONE]
~Params ----------------------------------------------------
~Other -----------------------------------------------------
~ASCII -----------------------------------------------------
# ...
 10156.00000  105.34310 2050.25720 1448.11450    8.11900    0.01760   57.24570  100.08220   46.97720    4.05480 -261.90200   -0.00410
 10156.50000  106.41470 2072.30740 1501.79790    8.13110    0.02440   56.62870   98.45140   42.66290    4.07000 -259.57150   -0.00430
 10157.00000  107.06590 1944.28310 1349.03700    8.08970    0.02920   55.11220   96.99560   40.57720    4.05530 -258.99090   -0.00530
 10157.50000  107.99220 1778.74010 1158.01310    8.07020    0.03350   52.57300   95.32400   39.95040    4.12450 -261.12680   -0.00640
 10158.00000  105.78420 1613.19710  936.12820    8.03260    0.03100   50.12560   94.77350   41.27610    4.32700 -258.99090   -0.00680
 10158.50000  103.57620 1440.66740  714.24330    8.03220    0.01490   48.89670   94.66290   41.92720    4.59140 -259.38120   -0.00620
 10159.00000  101.36820 1266.39100  548.86220    8.03180    0.00360   55.85650   95.27620   42.09180    4.73770 -259.31900   -0.00420
 10159.50000   99.16010 1092.11460  454.73040    8.06910   -0.00060   56.56740   96.04340   42.10780    4.67490 -259.25670   -0.00270
 10160.00000   99.89820 1009.93200  449.22010    8.07590    0.01330   56.71220   97.42350   41.84220    4.24260 -258.75950   -0.00200
 10160.50000  102.60020 1035.14090  539.34230    8.11000    0.02350   57.39340   98.33740   42.20000    3.96480 -257.61020   -0.00220
 10161.00000  105.30230 1186.79810  637.85160    7.97560    0.02840   57.08050   98.72790   43.44840    4.12250 -256.78160   -0.00310
 10161.50000  108.00440 1333.12920  736.36080    7.79000    0.01830   53.51710   99.11830   47.91860    4.31960 -256.07650   -0.00470
 10162.00000  110.70650 1508.40400  873.91840    7.78550    0.00760   57.99610   99.05830   55.02880    4.41750 -255.37140   -0.00590
 10162.50000  111.23210 1683.67890 1021.23800    7.78990    0.00580   58.92300   99.03770   61.48460    4.30670 -254.66630   -0.00420
 10163.00000  110.03040 1795.07860 1033.74290    7.83880    0.01380   60.22990   98.83100   67.56840    4.28560 -252.35510   -0.00320
 10163.50000  104.11150 1810.66560  946.30460    7.89880    0.01440   61.24720   99.30400   70.56520    4.35920 -252.00010   -0.00220
 10164.00000   97.38450 1826.25270  791.68420    7.90300    0.01270   60.85420  100.09330   72.15970    4.42030 -250.58260   -0.00120
 10164.50000   87.42480 1727.91640  637.06390    7.88500    0.01300   60.00310  101.76630   72.34620    4.41220 -248.67290   -0.00020
 10165.00000   82.19380 1796.81430  533.15510    7.93840    0.01460   60.16280  102.91410   72.33460    4.28920 -244.47750    0.00080
 10165.50000   80.11510 2027.83420  522.41860    8.00420    0.01290   60.59850  103.79660   71.46180    4.12500 -244.41390    0.00200
 10166.00000   80.11780 2010.89850  500.60610    7.92220    0.01280   60.89210  104.67910   69.27080    3.96350 -243.80760    0.00330
 10166.50000   80.12040 1876.17610  469.70380    7.84020    0.02070   60.40660  105.70620   66.41380    3.81000 -241.50710    0.00500
 10167.00000   80.75280 1998.47510  465.48700    7.81140    0.02690   59.48010  107.31150   63.75810    3.68430 -239.20660    0.00680
 10167.50000   82.32980 2050.40660  577.00090    7.92130    0.03050   59.08630  109.97820   60.66590    3.68960 -239.08680    0.00670
 10168.00000   83.90680 2018.23470  737.73660    7.94330    0.02470   58.69770  112.69760   57.86530    3.77630 -238.74650    0.00530
 10168.50000   85.48370   -9999.25  750.42520    7.91390    0.01550   58.48970  114.60040   57.53570    3.87070 -237.25800    0.00500
 10169.00000   87.06070   -9999.25  679.79110    7.88450    0.01190   58.46700  114.60040   60.73640    3.90120 -240.53280    0.00500
 10169.50000   89.99670   -9999.25  648.58790    7.86190    0.01150   58.59450  111.08330   65.99550    3.92770 -244.84960    0.00500
 10170.00000   91.50100   -9999.25  613.69220    7.83880    0.01380   59.05630   96.92390   70.45200    3.95420 -248.50880    0.00490
 10170.50000   97.82020   -9999.25  614.25540    7.81570    0.01580   59.10490   88.49150   72.80030    3.98070 -249.03320    0.00480
 10171.00000  104.13940   -9999.25  614.81870    7.87300    0.01790   59.30640   87.89620   77.49180    3.93730 -248.05870    0.00350
 10171.50000  110.45860 2019.44150  615.38190    7.97390    0.01870   59.56840   87.57120   81.78440    3.85120 -246.86310    0.00350
 10172.00000  119.36980 1956.64600  615.94520    7.94460    0.01440   60.20450   88.86480   85.61340    3.75610 -247.80320    0.00350
 10172.50000  137.55640 1682.78410  616.50840    7.80880    0.01010   60.54820   91.21730   86.00530    3.68840 -248.74340    0.00300
 10173.00000  158.19300 1356.15560  630.77060    8.10660    0.00620   60.39640   97.86530   87.32920    3.73640 -249.68350    0.00240
 10173.50000  193.42650 1024.30840  583.71870    7.78750    0.00970   59.59830  111.25380   89.35310    3.85910 -248.27330    0.00200
 10174.00000  231.76950  691.15650  483.17250    7.24200    0.01090   58.82090  114.99880   89.14670    3.87490 -250.41370    0.00090
 10174.50000  265.74200  358.00460  382.62620    7.44520    0.01230   56.95360  117.99440   87.55940    3.86120 -250.36630    0.00110
 10175.00000  219.89450  247.87230  357.48310    8.14790    0.01410   55.92390  116.34580   88.47300    3.84750 -250.31880    0.00170
 10175.50000  137.88890  223.08090  378.46570    8.12600    0.01580   54.26000  118.10570   83.29470    3.86230 -250.27140    0.00230
 10176.00000  118.87450  258.23660  372.80690    8.01680    0.01640   52.80730  118.63410   77.62190    3.90900 -248.50470    0.00290
 10176.50000  117.24040  279.30540  336.70250    7.90750    0.01290   51.44780  117.77930   68.86500    3.97380 -245.80600    0.00290
 10177.00000   97.34510  194.64050  301.05780    7.88060    0.00840   48.93740  113.95290   64.82290    3.97420 -243.65410    0.00230
 10177.50000   84.81130  220.52480  354.28700    7.87470    0.00630   47.97880  109.22090   63.77000    3.96980 -241.82940    0.00170
 10178.00000   85.51300  392.63220  308.88170    7.86870    0.00350   47.64910  107.70210   64.08690    3.92820 -239.23030    0.00170
 10178.50000   94.66880 1249.45090  438.88500    7.86280    0.00490   47.72140  100.95750   60.47420    3.93510 -235.32280    0.00190
 10179.00000   99.48950 2028.41890  837.29400    7.78760    0.00370   47.97730   97.80460   55.17340    3.97510 -231.30370    0.00280
 10179.50000   96.60340 1729.03940  752.03000    7.72270    0.00470   48.17690   97.80080   46.93860    4.03660 -229.23660    0.00370
 10180.00000   92.98920 1354.71650  592.26890    7.72270    0.00650   48.68350   94.66800   42.71190    4.09860 -227.60760    0.00460
 10180.50000   90.47450 1345.56100  436.21190    7.84110    0.01140   49.04290   93.53500   38.75290    4.16070 -227.64620    0.00550
 10181.00000   85.58950 1663.65380  330.85280    7.97770    0.01450   49.32850   92.85040   36.91170    4.16310 -227.68480    0.00570
 10181.50000   85.75340 1749.15540  293.20610    8.14960    0.01470   49.19240   92.26100   33.96180    4.21200 -227.72340    0.00460
 10182.00000   85.91730 2029.92500  260.01530    8.15520    0.01380   49.11180   92.36130   32.64340    4.25540 -227.54000    0.00430
 10182.50000   86.90730   -9999.25  244.64790    8.16080    0.01130   49.24840   92.33710   32.86000    4.30180 -227.30120    0.00560
 10183.00000   91.54650   -9999.25  229.48980    8.16640    0.00820   49.32740   92.10070   31.86450    4.35340 -227.06240    0.00680
 10183.50000   99.40870   -9999.25  229.53790    8.17080    0.01050   49.32050   92.33400   29.44060    4.46500 -226.82360    0.00710
 10184.00000  117.10550   -9999.25  239.37860    8.15350    0.01350   49.31370   92.16650   28.68360    4.49240 -226.58480    0.00640
 10184.50000  134.48230   -9999.25  287.74220    8.15880    0.01520   49.21140   91.55380   32.38510    4.35330 -226.34600    0.00530
 10185.00000  177.94590   -9999.25  345.73650    8.16970    0.01520   49.47600   91.45950   36.24140    4.00380 -226.10720    0.00560
 10185.50000  249.21810 1992.26530  373.61150    8.18060    0.01830   49.56770   91.40740   38.96270    3.69890 -225.86840    0.00810
