~Version ---------------------------------------------------
VERS.   2.0 : CWLS log ASCII Standard -VERSION 2.0
WRAP.    NO : One line per depth step
DLM . SPACE : Column Data Section Delimiter
~Well ------------------------------------------------------
STRT .FT                9030.0 : START DEPTH
STOP .FT               14506.0 : STOP DEPTH
STEP .FT                   0.5 : STEP
NULL .                -9999.25 : NULL VALUE
COMP .                         : COMPANY
WELL .                         : WELL
FLD  .                         : FIELD
LOC  .                         : LOCATION
PROV .                         : PROVINCE
CNTY .                         : COUNTY
STAT .                         : STATE
CTRY .                         : COUNTRY
SRVC .                         : SERVICE COMPANY
DATE .                         : DATE
UWI  .                         : UNIQUE WELL ID
API  .                         : API NUMBER
SLAT .WGS84  6.322563454980489 : SURFACE LATITUDE
SLON .WGS84 3.3663320787108972 : SURFACE LONGITUDE
DATUM.F                    nan : DEPTH DATUM ELEV
~Curve Information -----------------------------------------
DEPT   .FT    : 
AT10   .OHMM  : ARRAY INDUCTION TWO FOOT RESISTIVITY A10
AT30   .OHMM  : ARRAY INDUCTION TWO FOOT RESISTIVITY A30
AT90   .OHMM  : ARRAY INDUCTION TWO FOOT RESISTIVITY A90
C1S    .IN    : DELAYED CALIPER FOR FILM PRESENTATION
DPHZ_LS.DEC   : HGRD STANDARD RESOLUTION DENSITY POROSITY
DTCO   .US/F  : DELTA-T COMPRESSIONAL
DTSM   .US/F  : DELTA-T SHEAR
ECGRS  .GAPI  : ENVIRONMENTALLY CORRECTED GAMMA RAY FROM SONIC LOG
PEFZ   .B/E   : HRDD STANDARD RESOLUTION FORMATION PHOTOELECTRIC FACTOR
SPR    .MV    : SPONTANEOUS POTENTIAL FROM RESISTIVITY LOG
TNPH_LS.DEC   : THERMAL NEUTRON POROSITY [LIMESTONE]
~Params ----------------------------------------------------
~Other -----------------------------------------------------
~ASCII -----------------------------------------------------
# ...
 9365.50000    8.34620    9.12050    9.50160    9.66850    0.01120   64.45170  127.21300   34.43220    4.72270  -46.20770    0.09580
 9366.00000    7.65880    8.66600    9.10870    9.64840    0.01130   64.70660  127.21780   35.08700    4.67890  -45.47230    0.10170
 9366.50000    8.02170    9.36770   10.17880    9.65740    0.00990   64.96140  127.06900   37.18040    4.67710  -48.20880    0.10660
 9367.00000    9.83640   10.42790   10.47540    9.67440    0.00930   65.06330  127.42890   37.49080    4.67530  -48.76160    0.10820
 9367.50000   10.09680   10.33610   10.51170    9.65490    0.01040   65.01060  127.30670   38.09160    4.72200  -46.96760    0.10610
 9368.00000    9.58360   10.24430   10.54810    9.68940    0.01230   64.95790  127.14440   37.75420    4.72270  -45.35850    0.10040
 9368.50000    9.87530   10.42180   10.75250    9.71250    0.01740   64.70690  126.82160   37.33250    4.76180  -44.30040    0.09940
 9369.00000   10.23990   11.00330   11.62920    9.73560    0.01740   64.15870  126.89270   37.55640    4.80100  -50.21680    0.09600
 9369.50000   10.60450   11.58470   12.50590    9.72860    0.01730   63.78870  126.86060   36.28660    4.82270  -53.84180    0.09140
 9370.00000   10.96910   12.16620   13.38250    9.76710    0.01600   63.68590  126.72830   37.63720    4.81830  -54.66760    0.09140
 9370.50000   11.33370   12.74760   14.08330    9.73630    0.01470   63.58320  126.59590   38.22540    4.85900  -55.49350    0.09450
 9371.00000   11.32260   12.57080   14.08130    9.75990    0.01660   63.48040  126.46360   38.30020    4.88550  -56.31930    0.09750
 9371.50000   11.11380   12.27760   13.58950    9.78340    0.01660   63.40700  126.43180   36.20740    4.87060  -57.39120    0.09990
 9372.00000   10.90510   11.98430   13.09770    9.79670    0.01420   63.18180  126.93070   36.75230    4.82200  -57.39440    0.09830
 9372.50000   10.69630   11.69100   12.60590    9.82010    0.01080   62.68030  127.54140   38.21470    4.77340  -57.39770    0.09560
 9373.00000   10.48750   11.39770   12.11420    9.86910    0.00780   62.73850  128.24020   41.64030    4.76360  -57.40100    0.09320
 9373.50000   10.48170   11.10440   12.10780    9.86400    0.00510   62.38630  127.60730   39.82590    4.76440  -56.01250    0.09080
 9374.00000   10.52670   11.42580   13.55380    9.83850    0.00420   62.24840  126.46000   38.18850    4.76520  -52.50680    0.08780
 9374.50000   10.57160   11.96270   14.42090    9.90780    0.00240   63.10260  127.73300   35.85710    4.76600  -54.86880    0.08540
 9375.00000   10.18460   11.57300   13.71480    9.93940    0.00470   62.81390  127.08010   37.05230    4.76680  -58.35060    0.09040
 9375.50000    9.69210   11.74290   13.00910    9.92650    0.00690   62.18360  124.55200   39.88390    4.76760  -59.50760    0.09830
 9376.00000    9.23760   11.74460   13.59540    9.97200    0.01010   61.69940  122.57340   42.31630    4.77560  -59.85470    0.10610
 9376.50000    8.87360   10.29450   12.56580   10.01750    0.01340   61.33550  120.96970   43.69810    4.76990  -60.20170    0.11240
 9377.00000   10.95210   12.31120   14.53800   10.07610    0.01250   62.39680  120.93800   44.54750    4.78190  -60.12940    0.10090
 9377.50000   13.55050   14.67110   17.00400   10.09980    0.00950   61.79540  122.47020   42.73510    4.81210  -58.42470    0.08170
 9378.00000   11.46030   14.25570   16.63890   10.05450    0.00540   62.09170  123.56650   38.60690    4.83460  -57.59840    0.06250
 9378.50000    6.65770    9.82510   12.02790   10.09110    0.00570   62.93500  125.42620   32.61780    4.75110  -57.53380    0.06190
 9379.00000    6.42940    7.01870    7.41690   10.23420    0.01280   63.14970  128.73000   33.38460    4.60220  -56.46770    0.08350
 9379.50000    5.91970    6.64870    7.32280   10.38550    0.02560   63.98250  131.42870   41.50670    4.51010  -57.14610    0.11710
 9380.00000    4.63850    5.71470    6.66170   10.54520    0.03570   66.51730  134.73690   52.40210    4.41810  -57.99180    0.15150
 9380.50000    3.61360    4.78060    5.15000   10.66500    0.04400   69.70630  135.76490   60.08500    4.34630  -58.83760    0.17180
 9381.00000    4.08080    4.46280    4.72710   10.77340    0.04950   72.75480  138.43750   64.99620    4.33410  -59.57370    0.17900
 9381.50000    4.12800    4.35700    4.57640   10.94790    0.05410   75.16810  143.32380   66.49440    4.26130  -59.87130    0.19080
 9382.00000    3.95300    4.17990    4.37280   11.23690    0.05590   76.63150  148.53210   68.52420    4.19230  -60.16890    0.20030
 9382.50000    3.77810    4.00290    4.16910   11.31970    0.05490   77.61290  153.74040   68.42540    4.13330  -60.46650    0.21160
 9383.00000    3.60870    3.82590    3.96540   11.34080    0.05620   78.76480  155.43540   69.83380    4.11420  -60.76400    0.22280
 9383.50000    3.44290    3.64890    3.76180   11.47820    0.06280   83.56500  155.91490   71.25610    4.10410  -61.06260    0.23800
 9384.00000    3.27710    3.47180    3.55810   11.50790    0.07160   82.54880  156.39450   71.82060    4.11820  -59.37450    0.24000
 9384.50000    3.11140    3.29480    3.35450   11.53760    0.07090   83.04210  156.45200   73.57380    4.20700  -56.87890    0.24360
 9385.00000    3.04060    3.15330    3.31440   11.60680    0.06490   83.57260  154.59020   77.21690    4.39070  -55.07060    0.23780
 9385.50000    3.04130    3.30600    3.60140   11.63300    0.05440   83.27440  151.27240   79.45560    4.55280  -56.29840    0.22810
 9386.00000    4.31920    4.59840    5.32970   11.59320    0.04080   84.02290  144.37200   77.88080    4.83570  -59.53520    0.21600
 9386.50000    5.83560    6.87620    9.14200   11.54070    0.02770   84.68820  138.05000   73.53670    5.03250  -60.69020    0.14280
 9387.00000   10.13310   12.05720   15.54710   12.00710    0.01140   86.95160  130.99100   65.75450    5.23190  -61.03700    0.07030
 9387.50000   15.18210   15.98210   17.54640   10.77220    0.02890   87.40430  123.74760   51.91960    5.77640  -60.16860    0.03320
 9388.00000   15.37460   17.83580   18.98210   10.44270    0.11610   78.48560  114.08840   39.74750    6.40720  -59.30030    0.03980
 9388.50000   12.79550   14.87790   16.43830   10.51350    0.19980   57.04530  110.92280   34.49930    7.01680  -58.43200    0.06480
 9389.00000    6.34460    9.57370   11.81520   10.57600    0.28340   57.08610  112.37570   38.05000    7.62110  -59.15850    0.10840
 9389.50000    3.71800    5.33040    7.19210   10.54800    0.30020   57.15400  114.29450   42.94800    7.90350  -60.31750    0.14180
 9390.00000    4.28530    5.97660    6.95070   10.30030    0.25740   57.22200  116.54230   49.48510    7.79490  -61.09170    0.16850
 9390.50000    6.35220    7.05310    8.08890   10.59820    0.21530   57.24700  118.98830   52.89310    7.32230  -61.82710    0.18460
 9391.00000    7.08060    8.12950   12.20970   10.80460    0.16630   56.65810  120.25350   54.98130    6.85110  -62.56240    0.16580
 9391.50000    9.78060   24.14850   20.80430   12.24690    0.09600   55.40610  121.51870   58.34880    6.37990  -62.99660    0.11880
 9392.00000   18.95170   43.90330   29.39880   11.57900    0.03260   54.97060  122.02470   55.16130    5.90870  -62.19280    0.07180
 9392.50000   22.33810   59.70620   31.69720   10.71010   -0.01090   54.39720  121.13390   44.49110    5.56120  -61.65690    0.03230
 9393.00000   18.76130   45.08340   26.00560   10.67000   -0.00570   54.44170  118.37900   31.55080    5.29890  -61.65690    0.02630
 9393.50000   17.72800   30.46190   20.92870   10.63530    0.00080   53.73360  113.71900   22.44240    5.24240  -62.20760    0.02440
 9394.00000   15.95040   34.14880   18.83570   10.64900    0.00300   54.25010  109.05890   22.08570    5.21250  -61.89930    0.02660
 9394.50000   20.90590   43.37270   24.98940   10.67840    0.00050   53.60520  104.66910   22.37260    5.21250  -61.59100    0.02490
 9395.00000   28.61700   56.04670   31.14310   10.70700   -0.00380   53.52850  102.17040   20.82860    5.27740  -61.44850    0.01690
 9395.50000   34.09360   75.90630   37.29680   10.68270   -0.00740   53.39690  100.74430   18.22280    5.37730  -62.84490    0.01170
