~Version ---------------------------------------------------
VERS.   2.0 : CWLS log ASCII Standard -VERSION 2.0
WRAP.    NO : One line per depth step
DLM . SPACE : Column Data Section Delimiter
~Well ------------------------------------------------------
STRT .FT                9030.0 : START DEPTH
STOP .FT               14506.0 : STOP DEPTH
STEP .FT                   0.5 : STEP
NULL .                -9999.25 : NULL VALUE
COMP .                         : COMPANY
WELL .                         : WELL
FLD  .                         : FIELD
LOC  .                         : LOCATION
PROV .                         : PROVINCE
CNTY .                         : COUNTY
STAT .                         : STATE
CTRY .                         : COUNTRY
SRVC .                         : SERVICE COMPANY
DATE .                         : DATE
UWI  .                         : UNIQUE WELL ID
API  .                         : API NUMBER
SLAT .WGS84  6.322563454980489 : SURFACE LATITUDE
SLON .WGS84 3.3663320787108972 : SURFACE LONGITUDE
DATUM.F                    nan : DEPTH DATUM ELEV
~Curve Information -----------------------------------------
DEPT   .FT    : 
AT10   .OHMM  : ARRAY INDUCTION TWO FOOT RESISTIVITY A10
AT30   .OHMM  : ARRAY INDUCTION TWO FOOT RESISTIVITY A30
AT90   .OHMM  : ARRAY INDUCTION TWO FOOT RESISTIVITY A90
C1S    .IN    : DELAYED CALIPER FOR FILM PRESENTATION
DPHZ_LS.DEC   : HGRD STANDARD RESOLUTION DENSITY POROSITY
DTCO   .US/F  : DELTA-T COMPRESSIONAL
DTSM   .US/F  : DELTA-T SHEAR
ECGRS  .GAPI  : ENVIRONMENTALLY CORRECTED GAMMA RAY FROM SONIC LOG
PEFZ   .B/E   : HRDD STANDARD RESOLUTION FORMATION PHOTOELECTRIC FACTOR
SPR    .MV    : SPONTANEOUS POTENTIAL FROM RESISTIVITY LOG
TNPH_LS.DEC   : THERMAL NEUTRON POROSITY [LIMESTONE]
~Params ----------------------------------------------------
~Other -----------------------------------------------------
~ASCII -----------------------------------------------------
# ...
 9426.50000   41.01960  104.38130   44.23460   10.38640   -0.00140   52.98160   99.65550   31.80700    5.30150  -71.53630    0.02150
 9427.00000   35.59130   60.73510   41.10140   10.25970   -0.00290   52.19390   97.01660   34.47820    5.28830  -70.64570    0.02140
 9427.50000   34.93530   56.54040   57.64650   10.17440   -0.00850   51.15680   95.57480   34.11300    5.36870  -70.26760    0.01650
 9428.00000   68.07490   82.45280  102.92750   10.19450   -0.01000   51.16780   95.64680   33.40410    5.40740  -73.32910    0.01020
 9428.50000   63.44010   74.55310  139.73130   10.21450   -0.01410   50.99430   95.12350   32.74430    5.40740  -72.09460    0.00410
 9429.00000   44.67230   54.81480  107.92280   10.24330   -0.01430   51.20600   94.53450   32.83550    5.14780  -70.86010    0.00130
 9429.50000   31.21570   37.26760   55.56500   10.31960   -0.01680   51.56940   95.74850   33.03100    4.82220  -69.62570    0.00510
 9430.00000   23.25050   28.48490   28.04260   10.29220   -0.00680   52.82100   97.64080   36.18690    4.30350  -68.10480    0.02090
 9430.50000   15.28520   19.70220   16.64620   10.18750    0.04290   56.31220  100.98080   41.75290    3.86090  -66.31390    0.04070
 9431.00000    7.32000   10.91960    9.16510   10.10170    0.10510   58.44840  102.56200   46.22730    4.10960  -69.25570    0.06230
 9431.50000    4.91620    5.06600    5.51530   10.04150    0.16730   58.92900  120.85970   51.57110    4.52440  -70.39100    0.13890
 9432.00000    3.56510    3.60620    3.69720   10.14490    0.18080   59.32690  122.24350   55.17390    4.93910  -70.15370    0.21540
 9432.50000    3.60910    3.74290    5.76770   10.20520    0.12070   59.80310  124.31080   67.21740    5.28440  -70.48470    0.23020
 9433.00000    5.42460    7.24650    9.21920   10.41940    0.05170   60.19940  128.07800   79.26100    5.25710  -71.81380    0.16290
 9433.50000    8.98190   10.75020   12.67060   10.99580    0.02070   60.22100  133.02270   85.85660    5.05350  -69.92480    0.11140
 9434.00000   10.43430   13.01310   14.52820   10.75620    0.01340   59.56230  134.05890   74.55600    4.85000  -69.35760    0.09130
 9434.50000   10.81740   13.01060   13.67620   10.35700    0.02140   58.94550  134.49760   61.42300    4.76930  -70.26810    0.07570
 9435.00000   13.51800   15.80560   16.40210   10.11740    0.02890   56.80480  134.22350   52.80630    4.84980  -71.17870    0.04730
 9435.50000   18.43380   23.18500   27.69660   10.23850    0.02040   56.20530  127.40670   50.10420    4.97380  -70.86890    0.03180
 9436.00000   26.16750   36.73600   44.24890   10.09420    0.01750   56.75720  120.58990   45.82480    5.13240  -72.25290    0.02930
 9436.50000   21.70150   35.27930   44.60980   10.06260    0.01760   57.59850  113.77310   36.49980    5.17440  -72.49890    0.03730
 9437.00000   20.31600   24.86680   29.88080   10.05170    0.02040   57.19910  108.75890   28.36380    5.16910  -73.78860    0.04660
 9437.50000   19.39190   44.15620   26.93210    9.99390    0.02000   56.41460  106.88170   23.85040    5.16820  -73.72700    0.04990
 9438.00000   31.63650   97.58890   55.23220    9.95390    0.01380   54.92180  105.79390   25.39940    5.22680  -73.66000    0.04200
 9438.50000   43.88140  151.02170  101.26890    9.92840    0.00620   53.75420  104.56320   26.71190    5.31930  -74.21820    0.02780
 9439.00000   46.51610  204.45440  133.79970    9.84590   -0.00030   53.17780  102.62950   24.64020    5.29920  -75.41110    0.02550
 9439.50000   45.73340  178.95240  127.43830    9.76330   -0.00470   52.86010  100.95640   19.45490    5.18630  -75.33460    0.02270
 9440.00000   51.96510  153.44690  119.49040    9.71510   -0.00450   52.90460  100.22630   16.38830    5.09160  -76.81270    0.01990
 9440.50000   58.23620  189.68450  111.54260    9.66940   -0.00690   51.85240   99.88050   15.94630    5.15750  -78.29080    0.01710
 9441.00000   64.51720  168.97730  103.59470    9.62830   -0.00720   51.18420   98.71650   17.58270    5.27140  -79.76880    0.01310
 9441.50000   68.28570  151.54420   97.93340    9.72990   -0.00820   50.60570   97.11130   20.63800    5.33730  -81.24690    0.00840
 9442.00000   67.15980  227.41010   93.79640    9.76770   -0.00690   49.74350   96.10510   22.62200    5.40820  -81.79220    0.00610
 9442.50000   74.06840  252.69880   89.65950    9.73430   -0.00400   49.28920   96.61370   21.36170    5.45450  -82.89650    0.00680
 9443.00000   48.79430   95.78260   54.83010    9.63860   -0.00170   49.30620   97.12220   17.29820    5.45310  -82.72200    0.00990
 9443.50000   22.33690   58.40020   40.29530    9.56400    0.00170   50.83930   97.63080   14.56030    5.43710  -81.56040    0.02290
 9444.00000   18.65330   25.05870   32.03860    9.59840   -0.00260   52.72620   98.44220   14.90780    5.41150  -81.56040    0.03450
 9444.50000   14.96970   17.96210   20.60330    9.64350    0.00170   53.70600  101.84000   16.61380    5.26240  -82.86110    0.06120
 9445.00000   17.37320   24.31500   28.22290    9.69410    0.00100   54.78410  104.30930   19.34700    5.13950  -83.74660    0.07060
 9445.50000   19.62020   34.14700   63.71910    9.70570    0.00380   55.16050  105.27540   23.80390    5.04120  -83.37140    0.04860
 9446.00000   20.11580   30.85610   53.06700    9.61080   -0.00760   56.31260  105.54310   29.07180    5.11890  -82.17910    0.03370
 9446.50000   13.29390   22.09410   24.08210    9.60060   -0.01660   55.78180  106.03180   30.64320    5.31280  -81.54810    0.01610
 9447.00000   11.26860   15.64730   18.18750    9.47720   -0.00250   56.36960  106.52040   28.91800    5.54480  -80.91720    0.02190
 9447.50000   13.32910   18.64680   20.86180    9.57440    0.00090   59.30870  106.24840   26.64730    5.64820  -79.91830    0.03160
 9448.00000   10.25490   14.08050   15.68760    9.60160    0.01460   61.29410  107.30990   23.84260    5.68120  -78.26820    0.04740
 9448.50000    6.41220    8.37270    9.86230    9.64150    0.06630   50.82450  113.25090   20.29680    5.68690  -76.60320    0.08790
 9449.00000    2.56950    2.63180    4.03690    9.69460    0.10400   49.53950  119.19180   18.74450    5.67670  -74.82310    0.14120
 9449.50000    2.50620    2.57770    2.76640    9.67830    0.13470   49.04680  128.37280   24.43000    5.53550  -73.47850    0.28010
 9450.00000    2.53770    2.66480    3.15360    9.72800    0.10510   48.56680  136.64280   37.77110    5.32870  -74.18260    0.28060
 9450.50000    3.29350    3.98630    6.51040   10.34650    0.06220   48.18470  139.50550   57.17600    5.16320  -74.60510    0.25100
 9451.00000   10.08910   25.53440   17.65910   11.40830    0.01740   47.74420  141.66380   73.57310    5.20380  -75.52300    0.16860
 9451.50000   18.36740   60.40280   28.80780   11.75350   -0.00630   47.37870  145.46220   82.99910    5.32040  -75.83840    0.07460
 9452.00000   32.26710   95.27120   61.04240   11.35640   -0.01330   46.93620  145.59930   82.90460    5.40060  -75.88690    0.02360
 9452.50000   47.55590  130.13950  107.33430   11.19470   -0.01170   46.54850  144.25060   76.04650    5.41430  -76.33740    0.00770
 9453.00000   50.61350  138.82390   94.08210   11.09170   -0.00850   46.16960  140.05500   60.82820    5.41430  -76.78790    0.00740
 9453.50000   43.44420   96.45790   56.56590   10.56530   -0.00980   46.35940  114.71490   41.94720    5.41120  -77.33590    0.00710
 9454.00000   37.52170   80.19690   44.63320   10.01030   -0.01140   47.38190   94.40700   25.44390    5.39680  -77.95710    0.00690
 9454.50000   41.49610  145.42100   48.38100    9.68770   -0.01470   48.48630  103.79390   15.82630    5.38250  -77.52990    0.00720
 9455.00000   44.67550  194.33330   48.33930    9.66560   -0.02040   49.16260   98.66600   13.47960    5.36810  -76.85800    0.00850
 9455.50000   40.63500  106.81360   71.67500    9.70520   -0.02390   48.06690   96.55860   14.05070    5.34270  -75.38640    0.01080
 9456.00000   35.12970   69.54320   53.51290    9.74680   -0.02450   48.44790   95.20620   15.17380    5.29240  -76.14330    0.01650
 9456.50000   27.32700   32.27290   36.48950    9.74200   -0.02010   46.14890   94.12430   16.47480    5.23130  -77.60290    0.02040
