~Version ---------------------------------------------------
VERS.   2.0 : CWLS log ASCII Standard -VERSION 2.0
WRAP.    NO : One line per depth step
DLM . SPACE : Column Data Section Delimiter
~Well ------------------------------------------------------
STRT .FT                9030.0 : START DEPTH
STOP .FT               14506.0 : STOP DEPTH
STEP .FT                   0.5 : STEP
NULL .                -9999.25 : NULL VALUE
COMP .                         : COMPANY
WELL .                         : WELL
FLD  .                         : FIELD
LOC  .                         : LOCATION
PROV .                         : PROVINCE
CNTY .                         : COUNTY
STAT .                         : STATE
CTRY .                         : COUNTRY
SRVC .                         : SERVICE COMPANY
DATE .                         : DATE
UWI  .                         : UNIQUE WELL ID
API  .                         : API NUMBER
SLAT .WGS84  6.322563454980489 : SURFACE LATITUDE
SLON .WGS84 3.3663320787108972 : SURFACE LONGITUDE
DATUM.F                    nan : DEPTH DATUM ELEV
~Curve Information -----------------------------------------
DEPT   .FT    : 
AT10   .OHMM  : ARRAY INDUCTION TWO FOOT RESISTIVITY A10
AT30   .OHMM  : ARRAY INDUCTION TWO FOOT RESISTIVITY A30
AT90   .OHMM  : ARRAY INDUCTION TWO FOOT RESISTIVITY A90
C1S    .IN    : DELAYED CALIPER FOR FILM PRESENTATION
DPHZ_LS.DEC   : HGRD STANDARD RESOLUTION DENSITY POROSITY
DTCO   .US/F  : DELTA-T COMPRESSIONAL
DTSM   .US/F  : DELTA-T SHEAR
ECGRS  .GAPI  : ENVIRONMENTALLY CORRECTED GAMMA RAY FROM SONIC LOG
PEFZ   .B/E   : HRDD STANDARD RESOLUTION FORMATION PHOTOELECTRIC FACTOR
SPR    .MV    : SPONTANEOUS POTENTIAL FROM RESISTIVITY LOG
TNPH_LS.DEC   : THERMAL NEUTRON POROSITY [LIMESTONE]
~Params ----------------------------------------------------
~Other -----------------------------------------------------
~ASCII -----------------------------------------------------
# ...
 9182.50000   33.38360  107.59900   64.55380    9.22330   -0.00860   49.64930   96.48860   15.84270    5.10180  -11.64160    0.02260
 9183.00000   37.27630   92.26220   60.66880    9.23150   -0.00040   49.66540   97.28490   14.30850    5.22370  -11.15040    0.01620
 9183.50000   32.34200   73.09470   42.18750    9.24880    0.00520   50.59130   99.16950   13.81320    5.34020  -10.33170    0.00990
 9184.00000   30.57950   32.51280   50.28770    9.30210    0.00520   51.17150  100.16320   14.73260    5.34360   -9.51300    0.00900
 9184.50000   23.90670   37.45100   42.73430    9.28230    0.00970   51.38780  101.39680   16.05790    5.29520   -8.69430    0.01410
 9185.00000   17.23390   28.75520   32.40110    9.29060    0.01010   51.95500  104.48060   18.67470    5.24670   -7.87560    0.02010
 9185.50000   15.18200   20.05950   24.26860    9.32580    0.00810   54.37830  107.56450   21.29140    5.23230   -7.05690    0.02970
 9186.00000   13.45660   19.01580   19.74050    9.36100    0.00740   55.63870  110.10810   23.57170    5.16090   -6.50130    0.03890
 9186.50000   11.71140   14.27630   18.54500    9.35990    0.00950   57.37100  111.90180   26.45150    4.99650   -4.20030    0.05300
 9187.00000   10.44430   13.92990   15.90870    9.35840    0.01420   58.94260  113.32840   30.04960    4.80110   -1.81710    0.06460
 9187.50000    8.36150   10.98690   13.70270    9.35870    0.01260   60.06710  115.76530   33.37900    4.64780   -1.78000    0.07430
 9188.00000    9.15070   11.31130   12.44300    9.35450    0.01020   60.94970  117.36450   35.92340    4.54530   -1.74280    0.08520
 9188.50000   10.18390   12.12420   13.43520    9.36070    0.00660   60.71300  115.97420   36.00030    4.47650   -0.92400    0.09380
 9189.00000   10.08600   12.28580   14.42740    9.36690    0.00420   60.09050  117.93220   35.95530    4.40780   -0.92400    0.09310
 9189.50000    9.98820   11.54970   13.19120    9.45770    0.00470   59.61160  117.56910   35.26020    4.38030   -0.92400    0.09120
 9190.00000    9.94850   10.63020   11.39790    9.55710    0.00870   58.28840  115.33960   36.83970    4.39120   -0.92400    0.08590
 9190.50000   10.58020   10.87540   11.68540    9.47570    0.00860   57.86180  113.11010   38.08790    4.45960   -0.92400    0.08120
 9191.00000   11.63310   11.94840   12.82940    9.39420    0.00340   59.00170  114.62570   35.21060    4.59370   -0.39670    0.06210
 9191.50000   12.14240   12.59220   13.40130    9.36230   -0.00530   60.34990  120.38800   30.33810    4.76000   -0.03060    0.05000
 9192.00000    7.97180    9.50250   10.21190    9.34610    0.00460   56.57230  123.51980   27.56670    4.94690   -0.47710    0.04950
 9192.50000    7.56400    8.72070    9.26140    9.37300    0.03340   53.19120  124.89800   33.11540    5.07710   -0.76740    0.07360
 9193.00000    5.08990    7.09530    8.07620    9.39650    0.05120   49.81010  125.72480   40.81280    5.20730   -0.71530    0.12730
 9193.50000    3.93970    5.13200    5.77670    9.40910    0.05460   47.07200  123.51670   47.24740    5.31250   -0.92370    0.17640
 9194.00000    3.94580    4.83650    5.45980    9.91840    0.04680   50.70330  121.61300   47.54170    5.38030   -1.09220    0.16340
 9194.50000    7.41800    9.24930   10.32440    9.82230    0.04020   57.71130  124.53310   41.38010    5.36050   -0.92370    0.10920
 9195.00000   11.53030   13.66210   15.66260    9.31330    0.03030   64.18730  128.18320   29.27120    5.27700   -0.92370    0.05490
 9195.50000   14.63680   17.19240   22.89550    9.30320    0.01290   66.96350  131.43170   19.77490    5.19360   -1.32530    0.03560
 9196.00000   10.15830   13.72260   18.83950    9.29310    0.00580   66.61670  133.07340   19.58960    5.06830   -1.82730    0.04610
 9196.50000    5.67980    9.65150   12.07950    9.28310    0.00860   65.22440  134.71500   25.46270    4.93270   -2.32930    0.07420
 9197.00000    4.59040    5.58040    6.09690    9.49180    0.02350   65.19580  134.38000   35.18460    4.77960   -2.85880    0.12430
 9197.50000    4.57870    4.76620    4.94760    9.33510    0.04470   66.24080  133.36940   45.74460    4.56210   -3.60310    0.18000
 9198.00000    5.60960    5.84380    6.54520    9.43800    0.05270   68.08230  135.33340   50.85010    4.53180   -3.84210    0.19160
 9198.50000    6.64040    7.11610    8.14280    9.99390    0.04190   69.63580  137.60000   50.23250    4.58810   -4.08100    0.16670
 9199.00000    6.44570    6.89870    7.14090    9.37110    0.03280   70.56110  139.97900   39.62190    4.64440   -4.75340    0.13610
 9199.50000    6.12100    6.54840    6.84140    9.36690    0.02870   71.06940  140.81220   35.17680    4.58420   -4.75340    0.13720
 9200.00000    5.97820    6.10680    6.46200    9.37170    0.03630   70.94220  139.08330   37.29060    4.55440   -5.93520    0.14850
 9200.50000    5.70340    5.74530    6.44100    9.42440    0.04400   69.53390  135.86760   41.84230    4.54120   -6.68230    0.16140
 9201.00000    6.52000    6.77660    7.25730    9.52680    0.04800   68.04240  134.33230   44.63930    4.54980   -4.65210    0.15790
 9201.50000    6.72180    7.31160    7.92020    9.48570    0.04470   66.58220  132.03220   42.84670    4.60900   -6.60370    0.14480
 9202.00000    6.51380    7.51560    8.30070    9.38650    0.03780   66.07650  128.87210   39.04630    4.72140   -6.72820    0.12650
 9202.50000    9.54300    9.85370   12.86330    9.39170    0.02880   64.35180  125.71200   31.64130    4.83380   -6.85260    0.09880
 9203.00000   14.45560   15.79190   20.21420    9.38560    0.01810   62.43600  122.55190   27.81280    4.94620   -6.97710    0.06630
 9203.50000   13.76590   15.42690   17.65830    9.38660    0.00660   60.30230  119.68260   24.75600    4.99710   -7.10150    0.04930
 9204.00000   15.98820   14.08590   21.62650    9.38760    0.00510   58.31870  115.45700   25.29500    5.03440   -7.22600    0.04670
 9204.50000   22.83720   24.97450   35.80680    9.38080    0.00130   56.46250  111.23130   25.16860    5.07170   -7.35040    0.04470
 9205.00000   26.45240   33.68530   45.34240    9.31850    0.00070   54.85800  108.20120   23.46470    5.10900   -7.47490    0.04270
 9205.50000   26.95280   28.48680   36.29880    9.29400   -0.00190   52.86280  105.47010   22.20460    5.20130   -7.59930    0.03490
 9206.00000   21.26800   29.74030   30.11310    9.31720   -0.00440   53.04480  104.01920   20.02100    5.25550   -7.72380    0.02590
 9206.50000   24.78570   29.22440   32.79280    9.27740   -0.00740   53.49790  104.67700   16.10590    5.29890   -7.84820    0.01510
 9207.00000   32.87630   40.60510   44.30420    9.30040   -0.01100   54.59880  107.26900   11.96150    5.27520   -6.45320    0.01040
 9207.50000   31.62070   36.08490   40.47410    9.25990   -0.00720   54.30190  108.10150   11.13630    5.21580   -5.05810    0.00990
 9208.00000   12.00210   15.99760   26.77350    9.23670    0.00220   55.42140  109.61980   14.75290    5.08850   -3.66300    0.02410
 9208.50000    8.19930    8.72690   13.07290    9.23000    0.01250   55.73080  112.10970   20.54080    4.94360   -2.26800    0.04080
 9209.00000    6.67810    7.49050    8.06600    9.22330    0.01660   56.73460  114.14500   24.55700    4.84690   -0.49000    0.06380
 9209.50000    8.50320    9.88120   10.43290    9.22500    0.01450   57.52310  116.19320   27.32290    4.83500    1.60380    0.06650
 9210.00000   10.78450   12.27190   13.21660    9.23930    0.00940   58.94180  117.79360   26.57780    4.86840   -0.16190    0.06040
 9210.50000   11.20410   11.73140   13.73260    9.18350    0.00930   60.76140  119.24510   23.53720    4.90200   -1.23410    0.05460
 9211.00000    9.17490   10.45800   11.96090    9.18430    0.01130   61.54060  121.27830   23.04090    4.93810   -0.92680    0.05510
 9211.50000    8.46260    9.66890   10.18920    9.18510    0.01390   62.32730  121.94990   26.04720    4.93580    1.15400    0.06100
 9212.00000    7.28650    9.60620   10.08830    9.17840    0.01800   61.86080  121.29020   30.67400    4.81580    2.11650    0.07460
 9212.50000    7.28650    9.54340   10.13040    9.25940    0.02410   62.20400  120.42020   33.29670    4.69580    3.21240    0.08770
