~Version ---------------------------------------------------
VERS.   2.0 : CWLS log ASCII Standard -VERSION 2.0
WRAP.    NO : One line per depth step
DLM . SPACE : Column Data Section Delimiter
~Well ------------------------------------------------------
STRT .F                   20.5 : START DEPTH
STOP .F                11651.5 : STOP DEPTH
STEP .F                    0.5 : STEP
NULL .                -9999.25 : NULL VALUE
COMP .                         : COMPANY
WELL .                         : WELL
FLD  .                         : FIELD
LOC  .                         : LOCATION
PROV .                         : PROVINCE
CNTY .                         : COUNTY
STAT .                         : STATE
CTRY .                         : COUNTRY
SRVC .                         : SERVICE COMPANY
DATE .                         : DATE
UWI  .                         : UNIQUE WELL ID
API  .                         : API NUMBER
SLAT .WGS84 2.2980986677276007 : SURFACE LATITUDE
SLON .WGS84  6.463845492429996 : SURFACE LONGITUDE
DATUM.F                 2692.0 : DEPTH DATUM ELEV
~Curve Information -----------------------------------------
DEPT.F     : 
CALD.IN    : CALIPER FROM DENSITY LOG
DPHI.DEC   : DENSITY POROSITY LIMESTONE
DRHO.G/C3  : DENSITY CORRECTION
TEND.LBS   : TENSION FORM DENSITY LOG
GRD .GAPI  : GAMMA RAY FROM DENSITY LOG
SPR .MV    : SPONTANEOUS POTENTIAL
TENR.LBS   : TENSION FROM RESISTIVITY LOG
ILD .OHMM  : INDUCTION LOG DEEP RESISTIVITY
ILM .OHMM  : INDUCTION LOG MEDIUM RESISTIVITY
SFLU.OHMM  : SPHERICALLY FOCUSED LOG UNAVERAGED RES.
DTST.US/F  : DELTA TIME STONELEY
DTCO.US/F  : DELTA TIME COMPRESSIONAL
DTSM.US/F  : DELTA TIME SHEAR
NPHI.DEC   : NEUTRON POROSITY LIMESTONE
PEF .B/E   : PHOTOELECTRIC FACTOR
~Params ----------------------------------------------------
~Other -----------------------------------------------------
~ASCII -----------------------------------------------------
# ...
 9013.50000    9.09330    0.12440    0.00320 3337.92700   82.67620  -31.52330 2564.39140   26.14610   28.19010   46.40220  211.41920   80.04030  128.78920    0.19370    2.51670
 9014.00000    9.09410    0.12730    0.00770 3337.24150   87.55510  -31.79860 2563.20510   25.61670   25.92430   48.01620  211.55670   80.20070  129.68610    0.20050    2.50280
 9014.50000    9.09500    0.13330    0.00480 3336.51000   89.79070  -32.07810 2561.85640   25.26950   23.66130   44.15030  211.57960   80.64060  130.28400    0.20700    2.51830
 9015.00000    9.09570    0.13830   -0.00100 3335.69680   88.94270  -32.05700 2560.73190   25.09710   21.29380   30.22240  211.43710   80.64200  130.88190    0.21320    2.51920
 9015.50000    9.09640    0.13270   -0.00390 3335.01120   88.53530  -32.04020 2559.64360   24.42210   21.44860   24.63930  210.84540   80.64350  131.20140    0.22050    2.57920
 9016.00000    9.09710    0.12140   -0.00530 3334.31130   90.77920  -32.02340 2558.45780   23.60410   21.60460   23.65480  209.95300   82.43600  131.81860    0.22410    2.60960
 9016.50000    9.11260    0.11840   -0.00530 3333.46630   94.77700  -31.70960 2571.91530   21.31220   21.30660   25.52850  209.88540   83.63140  132.79430    0.22220    2.62490
 9017.00000    9.12800    0.12380   -0.00370 3347.61430   97.71810  -31.39290 2570.78860   18.03910   20.00320   28.63510  210.86280   83.03590  134.03060    0.21990    2.58170
 9017.50000    9.12870    0.12850   -0.00070 3332.11130  100.13770  -31.07980 2569.66410   15.90270   17.37900   29.03070  211.46740   83.03730  135.26740    0.22050    2.59750
 9018.00000    9.14410    0.12850   -0.00210 3331.23610  100.61120  -30.76670 2576.08640   15.79430   14.76650   25.33700  211.77260   82.71980  136.26310    0.22460    2.62780
 9018.50000    9.15970    0.12540   -0.00650 3330.64530   99.98350  -31.04620 2582.25220   15.79380   13.68430   20.10110  212.07790   82.78170  135.06730    0.23280    2.70240
 9019.00000    9.16040    0.11720   -0.00790 3329.86350   98.60800  -31.32560 2578.92480   15.57890   14.48090   17.18860  212.06100   83.04160  135.52530    0.27760    2.88030
 9019.50000    9.16110    0.07500   -0.00630 3329.17920   94.55120  -31.30460 2564.79080   14.85410   16.32570   18.03050  211.40930   80.17660  135.96410    0.30070    3.41230
 9020.00000    9.18380    0.01000   -0.00190 3328.44630   85.77370  -31.28780 2563.75950   13.05160   16.56050   32.84110  210.77940   77.86900  132.07770    0.28320    4.25380
 9020.50000    9.12550   -0.02100   -0.00410 3327.63310   48.80230  -30.97460 2562.61180   11.38990   15.22250   68.54900  209.84900   70.57150  121.01640    0.19310    4.53490
 9021.00000    9.09660   -0.03510   -0.00770 3326.97970   40.46530  -30.65730 2561.23070   10.64000   13.13260   50.80340  208.31940   64.61730  112.94470    0.14390    4.40300
 9021.50000    9.03840   -0.04020   -0.00750 3340.92480   48.87670  -30.64050 2560.10620   10.35390   10.86100   19.57710  207.50560   61.97560  107.86250    0.11070    4.11190
 9022.00000    9.03910   -0.03190   -0.00240 3340.17650   63.88760  -30.62370 2558.98170   10.21350    9.17410   13.27900  207.46460   60.36450  118.62480    0.12110    3.50510
 9022.50000    9.03960    0.00510    0.00130 3324.88920   83.74450  -30.60680 2572.70120   10.21310    8.73110   11.12490  208.38870   68.72410  139.25260    0.16720    3.03400
 9023.00000    9.08420    0.06710    0.00360 3349.36230   91.27480  -30.58960 2586.40650   10.14350    8.79850   10.18370  209.78480   75.29270  139.25260    0.24160    2.85780
 9023.50000    9.12890    0.08350    0.00120 3352.66990   92.18060  -31.16160 2600.11650   10.12970    9.64390   10.11550  212.13880   79.77180  137.32030    0.26350    2.95310
 9024.00000    9.15890    0.06210   -0.00150 3351.81230   86.49510  -32.62620 2583.87520    9.67080   10.94930   10.75690  213.34220   81.26580  130.75950    0.29150    3.68570
 9024.50000    9.18870    0.00710   -0.00290 3351.17330   75.98530  -33.55300 2567.82080    9.34690   11.50480   19.86160  212.74920   77.68510  123.40570    0.30550    4.33550
 9025.00000    9.07170   -0.02720   -0.00210 3350.43970   47.58260  -34.07410 2566.76510    8.73150   10.72520   32.88650  211.85680   72.31340  116.43530    0.21390    4.63130
 9025.50000    9.07230   -0.04590    0.00240 3364.41670   30.65530  -34.05630 2565.57930    8.26840    9.92780   30.30890  210.36560   65.03470  113.84160    0.16210    4.54360
 9026.00000    9.13170   -0.03490    0.01650 3378.39260   29.07190  -34.37960 2564.25850    8.43870    9.51850   19.46790  211.56900   62.76410  118.56360    0.16440    4.45620
 9026.50000    9.16160   -0.00590    0.03130 3377.53490   48.97510  -34.61330 2563.13400    8.91070   10.73170   11.06150  214.58330   65.26730  122.27400    0.22660    3.80810
 9027.00000    9.20700    0.04110    0.05050 3376.83350   65.12390  -34.89190 2576.85550    9.53810   10.28560   10.05650  215.17370   71.20240  129.38710    0.24850    3.36640
 9027.50000    9.26570    0.07280    0.05360 3376.09990   82.77810  -34.87410 2590.50420   10.14040   10.00600   12.33890  214.83560   79.08630  134.46940    0.24550    2.89090
 9028.00000    9.31030    0.10060    0.04250 3380.07100   86.56970  -34.85630 2589.31840   10.14820    9.92150   15.98660  213.86000   80.20270  132.37670    0.23250    2.71910
 9028.50000    9.36970    0.08630    0.02270 3389.29590   82.85240  -34.83850 2588.13090   10.63450    9.87070   18.70080  212.33040   80.68210  129.98500    0.21760    2.80870
 9029.00000    9.36190    0.07720    0.00800 3403.25730   79.36120  -34.81990 2580.06050   11.61820   11.93990   20.73190  210.90460   80.38510  127.89240    0.21050    2.89800
 9029.50000    9.34130    0.07390    0.00220 3402.39970   75.42950  -34.60140 2556.08400   14.15340   13.46100   22.48370  210.59190   79.19280  125.50070    0.20630    2.98800
 9030.00000    9.28310    0.08460    0.00520 3401.75930   76.34360  -34.78520 2554.69820   16.12180   16.32940   24.73760  210.41920   78.00020  123.70700    0.20570    3.13580
 9030.50000    9.25420    0.08900    0.00820 3401.02640   71.97970  -35.06160 2572.40890   19.22500   19.42200   27.12920  210.42510   77.40470  121.23380    0.19680    3.28420
 9031.00000    9.21080    0.08280    0.00970 3400.29300   65.84530  -35.04480 2582.40530   21.87880   20.84300   29.97730  210.43230   75.61510  117.40840    0.18020    3.49150
 9031.50000    9.19640    0.06620    0.00760 3399.55980   57.72850  -35.02790 2580.99850   24.39560   22.36810   32.27820  210.13870   73.52700  112.94710    0.15530    3.72830
 9032.00000    9.19710    0.05200    0.00390 3398.79660   50.84580  -35.30740 2579.59400   26.83410   25.04060   38.80130  209.84430   72.03590  110.31440    0.14570    3.87690
 9032.50000    9.19760    0.04860   -0.00040 3398.09380   45.90860  -34.99010 2578.46970   29.71770   31.82220   53.81640  209.85090   69.05220  108.56000    0.13810    4.03990
 9033.00000    9.19830    0.04610   -0.00930 3382.59060   42.85790  -34.97320 2577.34520   31.16710   36.90090   76.95240  209.55730   63.91770  107.32390    0.11970    4.18830
 9033.50000    9.19880    0.04610   -0.01210 3381.90360   40.46810  -34.95640 2576.26150   32.46540   37.42990   93.47270  209.56310   62.44820  106.52750    0.09030    4.29230
 9034.00000    9.18460    0.04310   -0.00910 3381.21800   41.75040  -35.23590 2560.23630   32.71750   35.89040   91.59350  209.56890   61.53380  106.68600    0.08290    4.32290
 9034.50000    9.17040    0.03660   -0.00240 3365.69750   50.23410  -35.51540 2573.96950   31.12600   34.13560   58.83190  209.57490   60.99830  108.46040    0.09180    4.26470
 9035.00000    9.17100    0.03360    0.00450 3365.10300   54.67240  -36.08690 2557.72830   27.01170   28.46140   43.83990  209.58080   61.09990  108.16140    0.10000    4.02960
 9035.50000    9.17150    0.03330    0.01020 3364.32500   59.11070  -35.77480 2556.67700   21.87210   24.04080   40.45780  209.58680   61.83780  105.17190    0.12130    3.97140
 9036.00000    9.17210    0.03710    0.00590 3363.63940   59.59250  -35.46070 2555.47920   17.95320   15.53940   40.46430  209.59280   63.05400  118.62480    0.14500    3.94270
