~Version ---------------------------------------------------
VERS.   2.0 : CWLS log ASCII Standard -VERSION 2.0
WRAP.    NO : One line per depth step
DLM . SPACE : Column Data Section Delimiter
~Well ------------------------------------------------------
STRT .F                   20.5 : START DEPTH
STOP .F                11651.5 : STOP DEPTH
STEP .F                    0.5 : STEP
NULL .                -9999.25 : NULL VALUE
COMP .                         : COMPANY
WELL .                         : WELL
FLD  .                         : FIELD
LOC  .                         : LOCATION
PROV .                         : PROVINCE
CNTY .                         : COUNTY
STAT .                         : STATE
CTRY .                         : COUNTRY
SRVC .                         : SERVICE COMPANY
DATE .                         : DATE
UWI  .                         : UNIQUE WELL ID
API  .                         : API NUMBER
SLAT .WGS84 2.2980986677276007 : SURFACE LATITUDE
SLON .WGS84  6.463845492429996 : SURFACE LONGITUDE
DATUM.F                 2692.0 : DEPTH DATUM ELEV
~Curve Information -----------------------------------------
DEPT.F     : 
CALD.IN    : CALIPER FROM DENSITY LOG
DPHI.DEC   : DENSITY POROSITY LIMESTONE
DRHO.G/C3  : DENSITY CORRECTION
TEND.LBS   : TENSION FORM DENSITY LOG
GRD .GAPI  : GAMMA RAY FROM DENSITY LOG
SPR .MV    : SPONTANEOUS POTENTIAL
TENR.LBS   : TENSION FROM RESISTIVITY LOG
ILD .OHMM  : INDUCTION LOG DEEP RESISTIVITY
ILM .OHMM  : INDUCTION LOG MEDIUM RESISTIVITY
SFLU.OHMM  : SPHERICALLY FOCUSED LOG UNAVERAGED RES.
DTST.US/F  : DELTA TIME STONELEY
DTCO.US/F  : DELTA TIME COMPRESSIONAL
DTSM.US/F  : DELTA TIME SHEAR
NPHI.DEC   : NEUTRON POROSITY LIMESTONE
PEF .B/E   : PHOTOELECTRIC FACTOR
~Params ----------------------------------------------------
~Other -----------------------------------------------------
~ASCII -----------------------------------------------------
# ...
 8576.50000    9.72110    0.08100   -0.00530 3222.28810   84.00450  -32.26050 2502.06690    5.40320    5.30480    6.39610  209.54940   70.28920  120.14130    0.14740    2.55740
 8577.00000    9.69310    0.07750   -0.00160 3221.11400   85.34480  -31.95030 2501.57640    5.55300    5.41850    6.98650  209.25460   71.84500  120.37090    0.15760    2.55820
 8577.50000    9.66510    0.07570   -0.00520 3234.60330   80.97050  -31.64280 2501.08670    5.80750    5.81420    7.57990  209.86020   73.40080  120.37090    0.16900    2.61780
 8578.00000    9.62280    0.07030   -0.00220 3247.89160   74.24080  -31.33540 2500.10280    6.63080    6.74120    8.27960  210.47900   73.09330  120.68010    0.17230    2.72180
 8578.50000    9.58000    0.04780    0.00150 3246.92020   56.79730  -31.62050 2470.31200    7.54830    8.03930    9.94560  211.06440   71.85410  120.83210    0.16250    2.79610
 8579.00000    9.55210    0.02480    0.00380 3245.74800   52.19660  -31.90570 2469.82230    7.91780    9.23980   13.49910  211.41640   70.28940  120.81910    0.12520    2.88520
 8579.50000    9.53880    0.01760    0.00090 3244.57520   52.44170  -32.19080 2469.33280    8.54220   10.28770   18.95460  211.67170   68.99380  117.58890    0.09220    2.97450
 8580.00000    9.55520    0.02200   -0.00060 3243.21900   60.01470  -32.76950 2468.84300    9.32660   10.50810   23.23670  211.37660   67.39210  111.09740    0.09340    3.00450
 8580.50000    9.58590    0.05550   -0.00280 3242.11790   63.07030  -33.05480 2468.23050    9.71670   10.21690   21.13200  211.28670   65.53800  109.55180    0.09990    2.94620
 8581.00000    9.58760    0.06200   -0.00350 3241.01930   64.41670  -33.04060 2467.74100    9.85070    9.44940   14.84870  210.67610   64.34100  108.31530    0.10920    2.88810
 8581.50000    9.58900    0.06610   -0.00190 3239.88180   66.42390  -33.02950 2467.28490    9.78440    8.69060   12.44740  210.99750   63.79770  104.91500    0.12810    2.82870
 8582.00000    9.59040    0.07090    0.00100 3256.30520   69.39350  -32.72200 2466.76170    9.32920    8.27310   10.72150  213.03410   63.49020  103.36940    0.15920    2.75690
 8582.50000    9.57710    0.07140    0.00330 3267.04640   71.98640  -32.41460 2466.14920    9.01710    8.10060    9.88370  213.19610   64.36830  106.15150    0.17580    2.91980
 8583.00000    9.56380    0.07020    0.00550 3265.66970   72.88610  -32.10430 2480.49630    8.71550    8.04440    9.61940  213.02820   65.33790  109.90080    0.19060    3.06780
 8583.50000    9.56550    0.06930    0.00700 3264.47970   70.27400  -32.09320 2480.00680    8.36670    8.21690    9.75170  212.30770   67.09950  115.62700    0.18550    3.23320
 8584.00000    9.56690    0.06720    0.00780 3263.34250   66.69820  -32.38110 2479.51710    7.86060    8.10240   11.63450  210.81510   70.06960  119.83500    0.15380    3.33440
 8584.50000    9.56830    0.06430    0.00860 3262.16990   64.15630  -32.96000 2478.90450    7.30140    7.82270   12.62270  210.22000   70.25900  120.37090    0.13070    3.24680
 8585.00000    9.57000    0.06250    0.00860 3260.99680   63.74060  -33.83470 2478.41500    7.05710    7.49960   12.79610  209.92520   68.78930  119.28900    0.11830    3.14440
 8585.50000    9.57140    0.06370    0.00870 3279.12990   68.17690  -34.71520 2477.92530    6.77470    6.98120   11.95710  210.52880   66.92900  117.02050    0.11470    2.88730
 8586.00000    9.57270    0.07120    0.00580 3287.97750   77.27540  -34.70130 2507.12160    6.59290    6.33440    9.23940  212.03020   67.55310  115.11590    0.13360    2.55680
 8586.50000    9.57420    0.09320   -0.00530 3286.74830   82.77020  -34.09750 2521.45630    6.54850    5.65990    6.94820  212.63340   67.86670  115.86580    0.14960    2.57220
 8587.00000    9.57580    0.09850   -0.01630 3285.63130   81.91400  -32.89840 2520.84380    6.54900    5.86310    6.49270  212.93710   66.93800  117.12020    0.16150    2.61710
 8587.50000    9.53320    0.09910   -0.01850 3284.27510   77.31330  -31.70210 2520.35420    6.54950    6.20330    6.44910  212.92960   69.11500  118.70990    0.16030    2.78000
 8588.00000    9.49050    0.07190   -0.00880 3283.17430   70.07560  -30.50570 2505.04470    6.59470    6.70340    7.59060  211.44890   70.99630  120.68010    0.14310    2.89850
 8588.50000    9.46250    0.06120    0.00080 3282.11080   72.96390  -29.30940 2504.52510    6.69130    7.14250   11.80080  212.13860   71.91600  121.60740    0.13630    2.94340
 8589.00000    9.42020    0.04640    0.00890 3279.96040   79.37640  -28.11030 2489.08980    6.91800    7.50380   13.98400  213.01400   70.63850  121.91650    0.14370    2.91460
 8589.50000    9.40650    0.04520    0.00900 3250.27440   90.41440  -26.91390 2488.60010    7.15840    7.82820   15.69530  213.55840   69.69360  120.98920    0.16590    2.65040
 8590.00000    9.37890    0.06650    0.00530 3249.26730   92.20140  -26.01390 2488.11060    7.74280    8.49930   15.37990  213.17370   69.05810  119.13450    0.17890    2.45960
 8590.50000    9.36550    0.07420   -0.00130 3248.07470   86.94610  -25.41010 2487.61080    8.66520    9.60310   11.33300  212.06960   68.42260  117.27980    0.15640    2.43070
 8591.00000    9.32320    0.07480   -0.00570 3246.70020   83.44670  -24.50730 2487.00830    9.40450   10.30440   10.95550  212.79390   68.20450  116.35240    0.14010    2.43150
 8591.50000    9.32460    0.07360   -0.00490 3262.12040   84.79320  -23.60730 2486.51880    9.86480   10.97920   12.04840  213.14040   69.82070  116.98550    0.13300    2.43240
 8592.00000    9.32600    0.07120   -0.00270 3274.10210   95.39690  -23.29980 2486.02910   10.14390   11.29360   15.38410  212.53120   71.45770  121.71290    0.14220    2.43310
 8592.50000    9.32770    0.07470   -0.00110 3272.72750  104.45260  -22.99240 2485.53440   10.56230   10.90380   17.26680  211.75410   70.53600  122.84390    0.16730    2.46320
 8593.00000    9.32910    0.07950   -0.00110 3271.35300  123.19990  -22.38580 2484.92700   10.85500   11.05920   15.80980  211.49400   68.93580  117.30450    0.18510    2.56810
 8593.50000    9.33040    0.08270   -0.00480 3270.16090  127.63000  -22.37470 2484.49560   11.15580   11.45630   15.07720  211.49920   66.97880  116.04330    0.21650    2.84770
 8594.00000    9.33190    0.07410   -0.00840 3269.20850  123.25570  -22.36350 2483.97610   11.30970   11.70170   15.18080  212.10240   67.60300  118.21080    0.22480    3.02510
 8594.50000    9.33350    0.06400   -0.00540 3268.03420  114.02950  -22.05610 2483.45700   11.38800   12.12200   15.70610  212.70560   71.33270  123.08940    0.22030    3.04050
 8595.00000    9.33490    0.05900    0.00490 3266.86230  105.68430  -22.04210 2482.84550   11.31130   11.95310   15.81410  213.30880   73.50970  124.51790    0.20820    2.99310
 8595.50000    9.35100    0.06110    0.00790 3265.57930  102.14650  -22.03100 2482.35600   11.31210   11.87000   15.70790  213.91200   74.44430  125.30190    0.20460    2.76230
 8596.00000    9.36740    0.07460    0.00650 3264.47850   91.20270  -22.01980 2496.82620   11.31280   12.03930   15.08220  213.31750   74.75790  126.09960    0.18270    2.73330
 8596.50000    9.36880    0.08110   -0.00230 3263.34280   88.14390  -22.00860 2481.37670   11.39090   12.38410   14.09360  212.12430   74.13980  126.24420    0.16730    2.73420
 8597.00000    9.37010    0.08000   -0.01190 3262.17070   89.04970  -21.69840 2495.72390   11.39180   12.12620   14.48240  210.32630   73.21120  125.00770    0.16670    2.73490
 8597.50000    9.37150    0.07580   -0.01410 3260.90650   89.51510  -21.68730 2480.27440   11.23830   11.62540   15.81940  210.03730   71.29850  120.98920    0.17110    2.70610
 8598.00000    9.35820    0.07400   -0.00810 3259.80570   86.90300  -21.67610 2494.74460   10.86240   10.91220   17.04680  211.35450   69.34660  116.04330    0.17180    2.66280
 8598.50000    9.37460    0.07490    0.00360 3258.43120   85.16570  -21.96150 2494.13210   10.49900   10.31520   15.29370  212.89970   66.85220  115.88010    0.16760    2.60460
 8599.00000    9.37600    0.07810    0.01100 3257.33250   86.73240  -21.94730 2478.68360    9.94250    9.68260   13.53580  213.64370   65.76990  117.27980    0.16700    2.57580
