~Version ---------------------------------------------------
VERS.   2.0 : CWLS log ASCII Standard -VERSION 2.0
WRAP.    NO : One line per depth step
DLM . SPACE : Column Data Section Delimiter
~Well ------------------------------------------------------
STRT .F                   20.5 : START DEPTH
STOP .F                11651.5 : STOP DEPTH
STEP .F                    0.5 : STEP
NULL .                -9999.25 : NULL VALUE
COMP .                         : COMPANY
WELL .                         : WELL
FLD  .                         : FIELD
LOC  .                         : LOCATION
PROV .                         : PROVINCE
CNTY .                         : COUNTY
STAT .                         : STATE
CTRY .                         : COUNTRY
SRVC .                         : SERVICE COMPANY
DATE .                         : DATE
UWI  .                         : UNIQUE WELL ID
API  .                         : API NUMBER
SLAT .WGS84 2.2980986677276007 : SURFACE LATITUDE
SLON .WGS84  6.463845492429996 : SURFACE LONGITUDE
DATUM.F                 2692.0 : DEPTH DATUM ELEV
~Curve Information -----------------------------------------
DEPT.F     : 
CALD.IN    : CALIPER FROM DENSITY LOG
DPHI.DEC   : DENSITY POROSITY LIMESTONE
DRHO.G/C3  : DENSITY CORRECTION
TEND.LBS   : TENSION FORM DENSITY LOG
GRD .GAPI  : GAMMA RAY FROM DENSITY LOG
SPR .MV    : SPONTANEOUS POTENTIAL
TENR.LBS   : TENSION FROM RESISTIVITY LOG
ILD .OHMM  : INDUCTION LOG DEEP RESISTIVITY
ILM .OHMM  : INDUCTION LOG MEDIUM RESISTIVITY
SFLU.OHMM  : SPHERICALLY FOCUSED LOG UNAVERAGED RES.
DTST.US/F  : DELTA TIME STONELEY
DTCO.US/F  : DELTA TIME COMPRESSIONAL
DTSM.US/F  : DELTA TIME SHEAR
NPHI.DEC   : NEUTRON POROSITY LIMESTONE
PEF .B/E   : PHOTOELECTRIC FACTOR
~Params ----------------------------------------------------
~Other -----------------------------------------------------
~ASCII -----------------------------------------------------
# ...
 9450.50000    9.51560    0.07510    0.00170 3518.02030   91.79320  -12.13040 2669.28710    7.58010    7.73120   11.36230  230.15520   81.61720  138.79910    0.25130    3.06880
 9451.00000    9.51660    0.07750   -0.00120 3546.38330   93.13950  -12.40950 2667.95190    7.42590    7.61620   11.20860  229.97900   82.07740  143.18910    0.25380    3.06960
 9451.50000    9.53220    0.08220   -0.00410 3560.08540   94.26520  -12.68900 2666.52980    7.32450    7.36160   10.54200  229.98350   84.38240  146.14580    0.24720    3.05590
 9452.00000    9.53300    0.09200   -0.00400 3573.78540   98.09750  -12.66810 2680.11940    7.22460    7.00850    8.95190  232.98290   85.87000  148.16900    0.23690    2.99780
 9452.50000    9.56320    0.09930    0.00410 3572.57980  109.59320  -12.94810 2678.53150    6.98170    6.76690    8.24360  235.38250   86.29950  150.45560    0.23180    3.01330
 9453.00000    9.57900    0.11180    0.01070 3571.38210  110.50850  -12.93040 2692.10860    6.98080    6.72030    7.91890  235.98570   86.00600  153.44370    0.23300    3.07320
 9453.50000    9.59450    0.11500    0.01820 3585.32540  110.98270  -13.20610 2690.84910    6.97990    6.86490    7.91890  235.99000   85.71340  155.23600    0.23830    3.14790
 9454.00000    9.62470    0.12060    0.02880 3599.02560  111.46510  -13.18940 2704.42650    7.17160    7.16210    8.02750  234.49740   87.21240  155.83250    0.25080    3.14880
 9454.50000    9.65500    0.12360    0.04550 3568.47440  116.35100  -13.17260 2717.68730    7.36870    7.79470    9.07480  231.80710   89.60620  151.64570    0.26140    3.16430
 9455.00000    9.65600    0.12120    0.05660 3567.29640  120.35460  -13.15550 2716.42770    7.51950    8.49500   10.75970  230.31450   89.61200  148.35570    0.25670    3.15930
 9455.50000    9.68630    0.11500    0.06550 3537.00850  120.32150  -13.13490 2715.28150    7.72610    8.85030   12.24650  230.95610   89.31930  146.26160    0.25250    3.15960
 9456.00000    9.65750    0.10930    0.04860 3536.04790  111.60530  -13.11810 2713.90870    7.93830    8.54550   12.93250  233.12900   89.35310  146.26010    0.25020    3.15990
 9456.50000    9.59970    0.10750    0.01000 3592.01030  105.90300  -13.10130 2697.77370    8.16280    8.48640   11.75600  235.16530   89.62990  147.64250    0.25260    3.16020
 9457.00000    9.57110    0.10550   -0.00180 3589.12550  105.47570  -13.38090 2696.23680    8.44790    8.57890   11.13250  235.72160   89.63580  150.10870    0.25550    3.16050
 9457.50000    9.52810    0.10810   -0.00320 3559.95290  109.94770  -13.66040 2694.97730    8.72840    8.85560   10.83320  236.02480   89.94030  151.80550    0.25610    3.16080
 9458.00000    9.49950    0.11760    0.00130 3529.53560  115.27490  -13.93570 2693.71780    9.15320    9.17420   10.84000  235.62670   89.84280  150.98920    0.25550    3.02210
 9458.50000    9.48500    0.11640    0.00880 3499.11600  119.05780  -14.21940 2707.29490    9.80780    9.63900   11.13250  235.01430   89.40820  145.76280    0.25140    2.77790
 9459.00000    9.45700    0.10980    0.01180 3497.75000  120.63530  -14.64110 2705.72170   10.55680   10.63900   11.91730  234.40000   86.72180  144.61410    0.24180    2.76340
 9459.50000    9.45800    0.10150    0.00750 3489.07350  117.14680  -15.06640 2704.45950   11.14630   11.74320   13.47200  234.24700   83.95070  142.89600    0.22170    2.70470
 9460.00000    9.45880    0.09560    0.00160 3466.23850  110.12090  -15.34820 2718.35300   11.68870   12.96160   20.13670  233.65360   82.21010  133.69180    0.18170    2.60180
 9460.50000    9.48930    0.09210    0.00020 3465.10300   84.12450  -15.92590 2716.76680   12.01320   13.14720   23.87550  232.75970   81.32040  133.09240    0.16060    2.54310
 9461.00000    9.49000    0.09500    0.00180 3449.11790   77.09870  -16.49780 2715.20430   12.25610   12.78370   24.87160  229.47060   80.72920  135.48260    0.16360    2.54340
 9461.50000    9.49090    0.10270    0.00550 3433.36110   78.90460  -17.06920 2699.10790   12.08840   11.91650   22.89880  219.29540   80.73490  139.66650    0.18370    2.54370
 9462.00000    9.49180    0.11040    0.00710 3432.25780   84.89350  -17.05240 2697.92240   11.86220   11.42500   19.46240  203.73090   81.93480  140.86090    0.19790    2.58820
 9462.50000    9.52210    0.11330    0.00640 3430.90330   88.23530  -17.03560 2696.58690   11.68090   11.03130   16.86810  199.54360   83.73160  141.45740    0.21100    2.64750
 9463.00000    9.54290    0.11660    0.00360 3459.40870   94.45300  -17.01890 2695.25120   11.06000   10.80210   15.43850  198.35030   84.93140  142.35280    0.21930    2.76580
 9463.50000    9.55320    0.12040    0.00210 3487.38890   99.78010  -17.00150 2693.75340   10.76150   10.57770   13.79410  198.05530   85.84600  143.27470    0.22810    2.92840
 9464.00000    9.58370    0.12330    0.00440 3515.60210  103.78370  -16.98370 2707.33080   10.40000   10.57950   12.24650  198.35930   86.13730  144.14360    0.23860    3.01710
 9464.50000    9.58450    0.12270    0.00900 3528.89650  103.81670  -16.96440 2706.07130   10.25810   10.80680   11.91730  198.41450   86.14330  143.69120    0.24350    2.75190
 9465.00000    9.60660    0.12150    0.01270 3542.74150  100.32850  -16.94820 2704.74900   10.04910   11.11700   12.84470  198.96710   86.07940  142.20750    0.23940    2.81120
 9465.50000    9.61580    0.11980    0.01420 3525.21900   96.39090  -16.93040 2703.23610    9.91190   11.11060   14.82010  202.61870   85.85590  140.97110    0.23460    2.84100
 9466.00000    9.61660    0.11500    0.01430 3510.68190   95.06330  -16.91260 2701.97660   10.18420   10.96440   16.75360  211.35250   85.97020  140.55030    0.23200    2.84130
 9466.50000    9.58780    0.11260    0.01140 3509.59010  101.31800  -16.89480 2700.71700   10.75290   10.88890   16.98340  225.53550   86.59200  143.32200    0.24410    2.84160
 9467.00000    9.58880    0.11080    0.00780 3508.49830  109.73340  -16.87630 2699.40770   11.35290   11.20180   15.73330  226.67600   87.21370  143.83560    0.25480    2.78290
 9467.50000    9.56020    0.11080    0.00270 3477.80660  111.53100  -16.85930 2697.88160   11.50740   11.61020   14.82010  227.13320   87.83590  144.49250    0.26220    2.72420
 9468.00000    9.54150    0.11320   -0.00090 3476.83330  112.92500  -16.83860 2696.62210   11.58450   12.02270   14.42180  227.13860   87.97720  146.82180    0.26960    2.66550
 9468.50000    9.53260    0.11790   -0.00160 3475.62060  117.78180  -16.82180 2695.36250   11.19500   12.10920   14.82010  227.14290   87.98300  146.22250    0.27730    2.63630
 9469.00000    9.50410    0.12140   -0.00150 3474.48630  123.77060  -16.80590 2694.06540   10.87570   11.77450   16.86810  227.44670   87.39180  142.03570    0.27960    2.71040
 9469.50000    9.49040    0.12080    0.00010 3473.16040  127.99480  -16.78820 2677.69040   10.52670   11.36340   17.93460  227.15160   86.20360  141.37740    0.28650    2.84340
 9470.00000    9.47650    0.11430    0.00310 3471.97580  132.66840  -16.76730 2676.43090   10.31260   10.52300   17.57180  227.15600   86.50790  148.01190    0.26420    2.96170
 9470.50000    9.47750    0.10930    0.00760 3470.96680  134.46600  -16.75050 2675.17140   10.31130    9.94800   15.64670  227.16030   86.81210  150.10310    0.26240    3.05050
 9471.00000    9.47830    0.10450    0.01650 3469.79540  135.60200  -16.73380 2673.88840   10.38620    9.87910   12.93250  227.16470   87.11640  150.40060    0.26720    3.16880
 9471.50000    9.47920    0.09850    0.03450 3468.51660  135.63490  -16.71700 2672.33860   10.59280   10.52720   11.91730  227.16920   86.79020  147.77210    0.28200    3.28700
 9472.00000    9.45060    0.08760    0.04690 3496.77370  121.55850  -16.69600 2685.91600   10.73700   11.61980   11.67620  227.17360   85.19710  141.80990    0.28580    3.56760
 9472.50000    9.43690    0.08410    0.03440 3524.70780  113.65040  -16.67920 2684.71750   10.88280   12.38170   13.17370  227.17810   83.55170  138.81890    0.25170    3.46470
 9473.00000    9.42290    0.08350    0.02490 3523.61600  112.80000  -16.66250 2683.38260   11.03020   12.64770   16.52680  227.10900   84.45370  136.26930    0.23990    3.14040
