~Version ---------------------------------------------------
VERS.   2.0 : CWLS log ASCII Standard -VERSION 2.0
WRAP.    NO : One line per depth step
DLM . SPACE : Column Data Section Delimiter
~Well ------------------------------------------------------
STRT .F                   20.5 : START DEPTH
STOP .F                11651.5 : STOP DEPTH
STEP .F                    0.5 : STEP
NULL .                -9999.25 : NULL VALUE
COMP .                         : COMPANY
WELL .                         : WELL
FLD  .                         : FIELD
LOC  .                         : LOCATION
PROV .                         : PROVINCE
CNTY .                         : COUNTY
STAT .                         : STATE
CTRY .                         : COUNTRY
SRVC .                         : SERVICE COMPANY
DATE .                         : DATE
UWI  .                         : UNIQUE WELL ID
API  .                         : API NUMBER
SLAT .WGS84 2.2980986677276007 : SURFACE LATITUDE
SLON .WGS84  6.463845492429996 : SURFACE LONGITUDE
DATUM.F                 2692.0 : DEPTH DATUM ELEV
~Curve Information -----------------------------------------
DEPT.F     : 
CALD.IN    : CALIPER FROM DENSITY LOG
DPHI.DEC   : DENSITY POROSITY LIMESTONE
DRHO.G/C3  : DENSITY CORRECTION
TEND.LBS   : TENSION FORM DENSITY LOG
GRD .GAPI  : GAMMA RAY FROM DENSITY LOG
SPR .MV    : SPONTANEOUS POTENTIAL
TENR.LBS   : TENSION FROM RESISTIVITY LOG
ILD .OHMM  : INDUCTION LOG DEEP RESISTIVITY
ILM .OHMM  : INDUCTION LOG MEDIUM RESISTIVITY
SFLU.OHMM  : SPHERICALLY FOCUSED LOG UNAVERAGED RES.
DTST.US/F  : DELTA TIME STONELEY
DTCO.US/F  : DELTA TIME COMPRESSIONAL
DTSM.US/F  : DELTA TIME SHEAR
NPHI.DEC   : NEUTRON POROSITY LIMESTONE
PEF .B/E   : PHOTOELECTRIC FACTOR
~Params ----------------------------------------------------
~Other -----------------------------------------------------
~ASCII -----------------------------------------------------
# ...
 7242.50000   11.63550    0.07660   -0.00780 2780.23610   83.07940  -45.37740 2052.43090   10.89460   10.91520   11.92770  208.77320   69.20900  117.22200    0.17520    2.82900
 7243.00000   11.60690    0.07900   -0.00700 2778.49150   83.98510  -46.85610 2066.32080   10.89460   10.99240   12.18370  209.07850   69.21190  118.78390    0.18000    2.77110
 7243.50000   11.57840    0.08160   -0.00550 2777.10960   86.43940  -47.74220 2080.34130   10.96880   11.09800   12.86430  209.38380   69.06690  118.88080    0.18350    2.68400
 7244.00000   11.57980    0.08490   -0.00470 2805.22630   90.45360  -48.03570 2082.59690   11.04350   11.30640   13.58290  209.68910   65.44460  116.38280    0.18640    2.68510
 7244.50000   11.55080    0.08520   -0.00320 2803.84590   94.89310  -48.03220 2093.54610   11.27070   11.62940   14.34140  209.69490   63.84730  115.18230    0.18970    2.68620
 7245.00000   11.49160    0.08280   -0.00170 2831.85840   96.90490  -48.02940 2092.71040   11.81910   12.04610   14.73610  210.00020   66.96990  115.77810    0.19440    2.68730
 7245.50000   11.43230    0.07860   -0.00090 2830.23440   98.69550  -48.02660 2106.75070   12.39420   12.83420   15.88000  210.30550   69.61020  117.57160    0.20240    2.68870
 7246.00000   11.37340    0.07450   -0.00160 2828.85400  100.31900  -48.02320 2105.93430   13.44590   13.86780   17.26700  210.91380   70.56540  121.46090    0.20830    2.70460
 7246.50000   11.34280    0.07650   -0.00160 2827.43330  102.06060  -48.08760 2120.07670   14.50690   14.81040   19.60520  211.53110   70.72540  121.45790    0.21070    2.73520
 7247.00000   11.27030    0.08600   -0.00450 2825.74510  102.96630  -48.31460 2119.13960   15.61130   16.07790   21.41650  211.84840   71.19520  124.14960    0.20890    2.76580
 7247.50000   11.22620    0.09050   -0.00740 2824.36330  103.20820  -48.01480 2118.32320   16.82150   17.12980   23.08960  212.12570   72.52300  125.64370    0.20560    2.79660
 7248.00000   11.19730    0.09550   -0.01180 2822.98170  103.45530  -48.01130 2117.38400   18.24890   18.25050   23.39330  212.48300   73.42140  126.53890    0.20230    2.79780
 7248.50000   11.12320    0.10280   -0.01470 2821.25460  103.91850  -48.30550 2116.69170   19.66350   20.00000   24.36620  213.09970   73.72280  125.29180    0.20170    2.79890
 7249.00000   11.07910    0.11170   -0.01610 2819.87280  104.60290  -48.00640 2115.84570   20.48080   22.07210   26.64560  213.64070   73.72570  122.75260    0.20940    2.80000
 7249.50000   11.05020    0.12280   -0.01610 2818.49100  105.28760  -48.29930 2115.05910   20.90210   23.84970   40.30310  213.64670   73.42990  119.86570    0.21360    2.80130
 7250.00000   11.02120    0.12530   -0.01450 2817.10940  105.09190  -48.29570 2099.27830   20.90210   24.35910   41.41280  213.99850   72.53760  118.34310    0.20640    2.80250
 7250.50000   10.97750    0.12470   -0.01230 2830.47680  104.22770  -48.29290 2098.50930   20.90210   23.19070   40.57910  214.28900   72.24180  117.54190    0.20470    2.80360
 7251.00000   10.94820    0.11580   -0.00980 2814.00050  102.92090  -48.29010 2097.74020   20.90210   21.30480   36.39680  214.57960   72.54340  117.23950    0.20460    2.80490
 7251.50000   10.90450    0.09990   -0.00550 2812.61870  100.51320  -48.28740 2096.95830   20.77390   20.58060   29.27900  214.85030   72.84480  117.23650    0.20620    2.80600
 7252.00000   10.84360    0.09870   -0.00320 2811.20970   95.30470  -48.28440 2096.00880   21.20530   20.43820   24.36810  214.85030   72.24720  117.23350    0.20820    2.68010
 7252.50000   10.73990    0.10280   -0.00320 2809.51000   88.83200  -48.57810 2095.23970   22.24140   21.17420   22.61270  214.85030   71.32360  116.28830    0.21000    2.62980
 7253.00000   10.66530    0.10340   -0.00530 2823.22270   82.87660  -48.57460 2079.63400   23.50340   23.20710   23.87930  214.46660   70.07580  113.45790    0.21030    2.91100
 7253.50000   10.57560    0.08390   -0.00910 2836.28370   75.52360  -49.16440 2078.85770   23.97610   26.16180   28.11580  213.75690   67.50630  110.36580    0.20410    3.25110
 7254.00000   10.45580    0.06080   -0.01410 2834.51810   66.55220  -50.05050 2077.90330   23.98070   29.96670   44.05100  213.24150   63.00870  105.43550    0.12880    3.42890
 7254.50000   10.30530    0.06850   -0.01700 2833.13620   61.92730  -50.34400 2091.97020   23.98540   29.70600   57.83980  212.75450   63.31040  103.74550    0.11520    3.38710
 7255.00000   10.18520    0.08770   -0.01770 2831.75440   69.47040  -50.34050 2091.20090   23.66660   27.49560   59.02600  212.75450   63.69650  103.90710    0.11170    2.89980
 7255.50000   10.09550    0.10040   -0.01090 2815.62330   81.43840  -50.04140 2090.43020   22.87630   25.27110   45.89570  212.75450   64.90210  106.34660    0.13830    2.72370
 7256.00000   10.08160    0.10550   -0.00410 2799.14720   94.51510  -50.00660 2104.49980   21.09680   23.22660   27.74530  212.75450   67.04960  112.11920    0.16680    2.72450
 7256.50000   10.25010    0.09990   -0.00050 2797.76540   98.74230  -49.73880 2103.63500   18.17400   20.12690   18.44860  212.45510   69.36840  115.40970    0.19100    2.72540
 7257.00000   10.43350    0.09480   -0.00120 2785.78150   99.86960  -49.43970 2102.81910   15.13380   14.90930   15.55210  212.45510   71.36360  118.70020    0.19220    2.72640
 7257.50000   10.58650    0.09150   -0.00410 2784.66060   93.25340  -49.43690 2116.83670   12.51690   12.86160   12.26800  212.15570   70.48300  120.49360    0.17620    2.63870
 7258.00000   10.61820    0.09040   -0.00400 2783.28100   86.63730  -50.02670 2115.87450   10.35260   11.01730   10.70820  212.15570   68.57130  118.99370    0.15720    2.53630
 7258.50000   10.61980    0.09130   -0.00020 2782.16940   82.23880  -50.61580 2115.20780    9.02590    9.63900    9.86950  212.15570   69.00660  109.70930    0.15690    2.49290
 7259.00000   10.66660    0.09510   -0.00460 2781.05790   80.92720  -52.39080 2099.49980    8.85970    9.37250   10.00540  212.15570   68.71040  109.70640    0.15660    2.43500
 7259.50000   10.71340    0.11140   -0.00970 2779.94040   80.72700  -53.27690 2098.73900    9.10580    9.44010   10.85720  212.15570   67.51990  110.00280    0.15610    2.40610
 7260.00000   10.77640    0.13390   -0.01340 2808.33330   80.52680  -53.57040 2097.76930    9.42190    9.57550   13.49830  212.15570   67.14450  111.49690    0.15990    2.39220
 7260.50000   10.89840    0.14960   -0.01480 2807.22190   80.55310  -52.67800 2097.10690    9.81540    9.99010   14.44940  212.75450   68.71970  115.98500    0.17650    2.40800
 7261.00000   11.02110    0.16770   -0.01030 2820.85960   83.01300  -52.37900 2096.29100   10.22770   10.64510   15.25850  213.47780   69.91670  119.27840    0.18150    2.54350
 7261.50000   11.11340    0.17270    0.00750 2819.46920   89.44990  -51.78360 2095.46090   10.94620   11.58530   15.71050  221.13770   70.51660  120.47010    0.18740    2.58690
 7262.00000   11.17540    0.15210    0.10800 2818.08130  105.40020  -52.07710 2094.49980   11.63800   12.98680   16.78550  219.12570   71.11650  120.41470    0.19930    2.58770
 7262.50000   11.13150    0.15020    0.12730 2831.85840  109.40350  -52.37060 2093.73050   12.28970   13.91710   17.36730  214.95050   71.41800  118.85460    0.20880    2.55900
 7263.00000   10.81410    0.16970    0.12730 2830.67850  107.11220  -53.55230 2093.02660   13.06640   14.11640   16.78770  213.65270   71.42090  115.77540    0.21290    2.43990
 7263.50000   10.51190    0.18660    0.07790 2858.99710   92.19420  -55.32730 2092.19240   13.98680   14.52160   16.11110  215.08380   71.09670  110.99410    0.20010    2.36900
 7264.00000   10.42220    0.16790    0.00930 2901.85330   79.16220  -57.11940 2091.39450   15.23150   16.48610   16.00910  218.27780   69.82450  106.33660    0.17110    2.38480
 7264.50000   10.12030    0.12560   -0.02100 2944.99070   59.05040  -59.46910 2090.46090   16.13650   19.11600   18.72180  220.53890   67.72420  101.43860    0.14860    2.59210
 7265.00000    9.96980    0.09660   -0.01720 2943.87920   51.32810  -61.24410 2074.92530   15.92200   20.51400   26.30790  218.62280   64.67080   96.62260    0.08020    2.82890
