~Version ---------------------------------------------------
VERS.   2.0 : CWLS log ASCII Standard -VERSION 2.0
WRAP.    NO : One line per depth step
DLM . SPACE : Column Data Section Delimiter
~Well ------------------------------------------------------
STRT .F                   20.5 : START DEPTH
STOP .F                11651.5 : STOP DEPTH
STEP .F                    0.5 : STEP
NULL .                -9999.25 : NULL VALUE
COMP .                         : COMPANY
WELL .                         : WELL
FLD  .                         : FIELD
LOC  .                         : LOCATION
PROV .                         : PROVINCE
CNTY .                         : COUNTY
STAT .                         : STATE
CTRY .                         : COUNTRY
SRVC .                         : SERVICE COMPANY
DATE .                         : DATE
UWI  .                         : UNIQUE WELL ID
API  .                         : API NUMBER
SLAT .WGS84 2.2980986677276007 : SURFACE LATITUDE
SLON .WGS84  6.463845492429996 : SURFACE LONGITUDE
DATUM.F                 2692.0 : DEPTH DATUM ELEV
~Curve Information -----------------------------------------
DEPT.F     : 
CALD.IN    : CALIPER FROM DENSITY LOG
DPHI.DEC   : DENSITY POROSITY LIMESTONE
DRHO.G/C3  : DENSITY CORRECTION
TEND.LBS   : TENSION FORM DENSITY LOG
GRD .GAPI  : GAMMA RAY FROM DENSITY LOG
SPR .MV    : SPONTANEOUS POTENTIAL
TENR.LBS   : TENSION FROM RESISTIVITY LOG
ILD .OHMM  : INDUCTION LOG DEEP RESISTIVITY
ILM .OHMM  : INDUCTION LOG MEDIUM RESISTIVITY
SFLU.OHMM  : SPHERICALLY FOCUSED LOG UNAVERAGED RES.
DTST.US/F  : DELTA TIME STONELEY
DTCO.US/F  : DELTA TIME COMPRESSIONAL
DTSM.US/F  : DELTA TIME SHEAR
NPHI.DEC   : NEUTRON POROSITY LIMESTONE
PEF .B/E   : PHOTOELECTRIC FACTOR
~Params ----------------------------------------------------
~Other -----------------------------------------------------
~ASCII -----------------------------------------------------
# ...
 11195.00000    9.66280    0.00810   -0.00900 4079.42600   20.83020  -71.24390 3317.33520  252.19410  260.99300  501.70980  195.65870   51.93430   95.33570    0.00650    4.54790
 11195.50000    9.66340    0.00710   -0.01490 4078.05620   22.19430  -71.23110 3331.32740  233.45790  241.40550  447.00810  195.66170   51.94010   95.33280    0.00800    4.43030
 11196.00000    9.69330   -0.00050   -0.02370 4076.33980   22.22680  -71.21540 3330.56420  222.28240  226.77600  409.25610  195.66470   52.24590   95.33000    0.00860    4.35700
 11196.50000    9.69390   -0.00760   -0.02510 4074.97000   22.25930  -71.20280 3329.67380  216.15690  233.28550  387.65550  195.66770   51.95160   95.32710    0.00890    4.37200
 11197.00000    9.69450   -0.01320   -0.02150 4073.63920   21.85050  -71.19010 3328.78270  210.12770  239.98170  388.96870  195.67070   51.35770   95.32420    0.00860    4.53430
 11197.50000    9.69500   -0.01140   -0.01340 4072.16430   21.00870  -71.17750 3327.73660  204.40760  234.99670  447.37770  195.37480   51.36430   95.32130    0.00830    4.72610
 11198.00000    9.69570   -0.00550   -0.00520 4070.69140   20.37950  -71.16440 3326.89180  201.59170  228.39610  516.17540  195.37770   51.26230   95.31840    0.00710    4.78520
 11198.50000    9.69620   -0.00810   -0.00070 4069.14400   19.52950  -71.14900 3311.21040  213.31800  225.33530  488.93170  195.38060   51.07650   95.31540    0.00560    4.62360
 11199.00000    9.69680   -0.01210    0.00230 4067.74560   18.90030  -71.13640 3310.36570  224.13250  226.96550  404.21710  195.38350   51.38230   95.31240    0.00500    4.41670
 11199.50000    9.69740   -0.01850    0.00230 4066.05790   18.49150  -70.82740 3307.67090  230.57790  248.75580  377.35450  195.38630   51.38950   95.30940    0.00530    4.46220
 11200.00000    9.69800   -0.01990   -0.00800 4064.68800   19.41450  -70.81480 3293.62740  224.04590  278.45870  367.64170  195.38920   51.41250   95.60590    0.00620    4.66870
 11200.50000    9.69860   -0.00690   -0.01680 4063.31540   20.77050  -70.50270 3292.78300  213.38620  268.95070  435.89870  195.39090   51.47490   95.60240    0.00650    4.77200
 11201.00000    9.69910   -0.00070   -0.01970 4061.85640   22.57570  -70.19380 3306.98540  216.60850  249.00420  549.81100  195.39240   51.53730   95.45540    0.00650    4.77240
 11201.50000    9.69980    0.00130   -0.01890 4060.23190   23.26190  -70.18110 3313.16920  226.00870  240.48600  626.23790  195.39390   51.59970   95.18400    0.00590    4.75780
 11202.00000    9.70040    0.00250   -0.01960 4073.58690   23.52500  -70.16850 3319.92240  242.54800  258.15910  593.21360  195.39530   51.66210   95.02970    0.00650    4.68450
 11202.50000    9.70090    0.00160   -0.02100 4072.16530   25.42730  -70.15550 3318.86570  242.84030  299.42010  446.02310  195.69620   51.70910   94.87540    0.00800    4.52290
 11203.00000    9.70150   -0.00160   -0.02390 4085.57200   29.33430  -70.14010 3318.02100  226.20320  335.26180  313.26050  195.69770   51.71210   94.72110    0.01010    4.27280
 11203.50000    9.70210   -0.00570   -0.02460 4069.13090   32.45540  -70.42690 3332.22530  224.66180  326.08060  412.15870  195.69920   52.01560   94.56690    0.01040    4.09630
 11204.00000    9.70270   -0.01040   -0.02160 4067.74660   32.93680  -71.00680 3346.00540  237.74920  301.92730  632.04290  195.70060   52.01850   94.40960    0.00950    4.23710
 11204.50000    9.70320   -0.01160   -0.02220 4066.04740   26.57360  -71.58360 3344.94850  258.76360  308.49660  709.89040  195.40270   51.72110   93.81170    0.00830    4.58210
 11205.00000    9.70390   -0.00340   -0.02510 4050.29100   21.53300  -71.86720 3344.10380  289.69380  350.32360  691.18950  195.40420   51.72460   92.60630    0.00530    5.08270
 11205.50000    9.70450    0.00950   -0.02660 4091.02610   21.43970  -72.15090 3343.25930  319.76790  494.86880  488.82740  195.40570   51.72750   91.97740    0.00480    4.98030
 11206.00000    9.73430    0.01570   -0.02500 4104.27000   24.69530  -72.43460 3327.57790  345.59170  680.28270  534.36610  195.40720   51.43060   91.08910    0.00670    4.49990
 11206.50000    9.75100    0.01450   -0.02120 4117.46680   24.28700  -73.01130 3326.70700  345.78390  670.46860  896.56540  195.40870   51.43350   90.48030    0.00610    4.35340
 11207.00000    9.76490    0.00630   -0.01310 4115.58300   22.99640  -73.31180 3325.67820  338.55230  638.47710 1321.88780  195.41020   51.43650   90.22420    0.00490    4.44340
 11207.50000    9.76540    0.00360   -0.00870 4114.07470   20.37500  -73.87500 3309.99490  335.91210  558.74620 1359.04740  195.41170   51.13940   92.04520    0.00340    4.47490
 11208.00000    9.76600    0.00890   -0.00790 4112.52000   17.77630  -73.85910 3290.76250  334.01420  516.51340 1162.96440  195.41320   51.14240   93.88760    0.00220    4.44620
 11208.50000    9.76670    0.01270   -0.00490 4110.89890   16.92690  -73.74570 3289.68850  331.76620  446.42190  929.60970  195.41470   50.84560   94.40960    0.00080    4.15250
 11209.00000    9.76720    0.01160   -0.00260 4109.17680   16.95980  -74.02380 3288.38870  331.85400  382.50790  626.87240  195.41620   50.84860   94.40960   -0.00040    4.02100
 11209.50000    9.76780    0.00770    0.00040 4107.65820   17.44210  -74.30190 3287.33400  327.32510  371.99590  543.70560  195.41770   50.85160   94.00150   -0.00010    4.05730
 11210.00000    9.75360   -0.00010   -0.00260 4105.78760   18.35730  -74.57990 3286.27930  325.11610  382.81340  467.96370  195.41920   50.82470   93.57110    0.00220    4.42200
 11210.50000    9.79570   -0.00910   -0.00610 4104.27880   19.27260  -74.85340 3285.22490  316.17710  393.94560  536.97890  195.42070   50.51610   93.21380    0.00430    4.83620
 11211.00000    9.79710   -0.01150   -0.00830 4102.79930   20.64040  -75.42770 3283.90550  296.87390  377.79930  853.23010  195.42220   50.26060   93.21380    0.00520    5.04400
 11211.50000    9.81510   -0.01000   -0.00970 4100.88960   21.77310  -75.70580 3282.85080  278.73090  340.06570  978.07800  195.42360   50.26390   93.81880    0.00430    5.16320
 11212.00000    9.82950   -0.00440   -0.00970 4099.38380   22.46780  -76.27560 3281.79610  258.03970  303.95300  991.99650  195.42510   50.26690   95.33380    0.00340    4.86980
 11212.50000    9.83090   -0.00500   -0.00960 4097.93750   22.94180  -76.55820 3280.74170  247.43840  253.22860  890.25900  195.42670   50.26990   96.02940    0.00250    4.54650
 11213.00000    9.86200   -0.00500   -0.00810 4095.33300   22.98300  -76.83630 3279.67410  240.65090  210.94790  545.80300  195.42840   50.27290   95.00750    0.00220    4.16380
 11213.50000    9.86320   -0.00210   -0.00800 4065.03100   23.01590  -77.40610 3278.36990  242.41430  196.68330  442.26090  195.42990   50.27590   94.11060    0.00570    4.01840
 11214.00000    9.89410   -0.00090   -0.00800 4063.52220   23.04880  -77.97590 3277.31540  247.65120  198.15230  421.62990  195.13200   50.40090   93.51270    0.00690    3.96060
 11214.50000    9.91200   -0.00420   -0.00500 4062.00390   22.62450  -78.25850 3276.25850  254.81770  210.31500  326.01750  195.13320   50.58170   92.91480    0.00690    4.03560
 11215.00000    9.92660   -0.00920   -0.00420 4060.13310   21.79110  -78.82830 3275.20390  265.86240  255.55290  313.09980  195.13470   50.58470   92.91480    0.00690    4.11060
 11215.50000    9.95740   -0.01270   -0.00710 4058.62450   22.71460  -78.81000 3288.98630  275.45500  276.24440  368.86080  195.13640   50.88760   92.91480    0.00750    4.14160
 11216.00000    9.95990   -0.01660   -0.00780 4057.11890   26.71810  -78.79110 3302.50610  281.40570  282.22640  734.16860  195.13780   51.05780   93.21380    0.00780    4.26090
 11216.50000    9.98970   -0.02080   -0.00630 4055.23540   26.31810  -79.06980 3301.55790  287.48540  268.66340 1363.24080  195.13930   51.19400   93.81170    0.00690    4.73410
 11217.00000    9.99130   -0.02220   -0.00330 4048.63670   24.14510  -79.34790 3300.39700  281.55470  248.87730 1541.40030  195.14080   51.19690   94.11060    0.00540    5.00110
