~Version ---------------------------------------------------
VERS.   2.0 : CWLS log ASCII Standard -VERSION 2.0
WRAP.    NO : One line per depth step
DLM . SPACE : Column Data Section Delimiter
~Well ------------------------------------------------------
STRT .F                   20.5 : START DEPTH
STOP .F                11651.5 : STOP DEPTH
STEP .F                    0.5 : STEP
NULL .                -9999.25 : NULL VALUE
COMP .                         : COMPANY
WELL .                         : WELL
FLD  .                         : FIELD
LOC  .                         : LOCATION
PROV .                         : PROVINCE
CNTY .                         : COUNTY
STAT .                         : STATE
CTRY .                         : COUNTRY
SRVC .                         : SERVICE COMPANY
DATE .                         : DATE
UWI  .                         : UNIQUE WELL ID
API  .                         : API NUMBER
SLAT .WGS84 2.2980986677276007 : SURFACE LATITUDE
SLON .WGS84  6.463845492429996 : SURFACE LONGITUDE
DATUM.F                 2692.0 : DEPTH DATUM ELEV
~Curve Information -----------------------------------------
DEPT.F     : 
CALD.IN    : CALIPER FROM DENSITY LOG
DPHI.DEC   : DENSITY POROSITY LIMESTONE
DRHO.G/C3  : DENSITY CORRECTION
TEND.LBS   : TENSION FORM DENSITY LOG
GRD .GAPI  : GAMMA RAY FROM DENSITY LOG
SPR .MV    : SPONTANEOUS POTENTIAL
TENR.LBS   : TENSION FROM RESISTIVITY LOG
ILD .OHMM  : INDUCTION LOG DEEP RESISTIVITY
ILM .OHMM  : INDUCTION LOG MEDIUM RESISTIVITY
SFLU.OHMM  : SPHERICALLY FOCUSED LOG UNAVERAGED RES.
DTST.US/F  : DELTA TIME STONELEY
DTCO.US/F  : DELTA TIME COMPRESSIONAL
DTSM.US/F  : DELTA TIME SHEAR
NPHI.DEC   : NEUTRON POROSITY LIMESTONE
PEF .B/E   : PHOTOELECTRIC FACTOR
~Params ----------------------------------------------------
~Other -----------------------------------------------------
~ASCII -----------------------------------------------------
# ...
 5471.50000   11.17880    0.11370   -0.01560 2355.55440   70.11370  -29.96540 1702.36440    4.44930    4.33550    5.11130  202.04800   67.80460  116.97310    0.17530    2.37890
 5472.00000   11.18030    0.11870   -0.01480 2342.62010   71.76520  -30.52290 1703.85230    4.30190    4.18740    4.77760  202.00670   65.12240  116.97910    0.17670    2.39420
 5472.50000   11.21130    0.11930   -0.01400 2325.95120   74.56550  -31.66290 1690.50350    4.18760    4.27860    4.58820  201.75380   64.82830  116.98510    0.17670    2.48310
 5473.00000   11.21320    0.11250   -0.01250 2323.55220   70.67000  -32.51580 1685.65250    4.27520    4.43440    4.46660  201.82830   66.62390  116.99100    0.17140    2.58670
 5473.50000   11.22940    0.10570   -0.01250 2351.61060   63.02860  -33.37700 1679.01610    4.36430    4.56310    4.91420  202.82880   66.59140  116.69740    0.15420    2.70520
 5474.00000   11.21550    0.10270   -0.01240 2349.21170   55.19710  -33.33530 1680.87610    4.42520    4.50120    5.63620  204.05840   66.23540  116.28260    0.14240    2.69090
 5474.50000   11.15880    0.10710   -0.01390 2362.04150   56.83640  -32.99820 1682.36410    4.36340    4.31740    5.26330  204.87650   65.74130  114.94500    0.14150    2.64710
 5475.00000   11.11650    0.11360   -0.01680 2374.87130   62.63600  -32.66940 1669.38730    4.22210    4.16980    4.47300  205.06750   65.44720  114.17910    0.15000    2.57380
 5475.50000   11.11800    0.11630   -0.01820 2357.72290   67.40810  -32.04520 1670.87520    4.11000    4.11290    4.35450  204.77060   65.45220  115.09340    0.15890    2.53000
 5476.00000   11.13460    0.11300   -0.02040 2355.75290   73.08490  -31.42100 1672.40310    4.10810    4.38500    4.26800  204.62190   65.85470  115.70950    0.16800    2.48620
 5476.50000   11.15080    0.10830   -0.01960 2338.65530   74.25660  -30.78840 1659.38790    4.25460    4.51210    4.41720  204.47680   66.46870  116.13840    0.17400    2.44230
 5477.00000   11.16710    0.10410   -0.01660 2336.73580   70.80690  -30.75510 1654.31760    4.37280    4.48190    4.60240  204.48030   67.20730  116.14420    0.17520    2.42800
 5477.50000   11.16940    0.10170   -0.01210 2349.56540   69.68230  -30.72170 1647.52710    4.43370    4.39060    4.86130  204.78310   67.99520  116.14920    0.17660    2.44320
 5478.00000   11.18520    0.10140   -0.00600 2362.39530   70.17140  -30.98380 1664.22390    4.40450    4.30120    5.06510  204.78610   68.60930  116.15590    0.17990    2.47320
 5478.50000   11.20130    0.10440    0.00200 2359.99630   72.04180  -31.53290 1680.56450    4.31710    4.21310    5.17060  205.08890   68.76270  116.46030    0.18460    2.56220
 5479.00000   11.20290    0.10710   -0.00020 2358.07670   73.91760  -31.80330 1682.40860    4.22700    4.09790    4.57120  205.09180   68.76720  117.06310    0.18850    2.59210
 5479.50000   11.20480    0.11290   -0.00310 2355.67770   73.24570  -32.36080 1683.89810    4.09110    3.92890    4.24950  205.69440   69.07100  117.66600    0.18670    2.63670
 5480.00000   11.20980    0.10760   -0.00600 2353.75830   71.88040  -32.90990 1670.54920    4.00960    3.82260    4.01270  205.99720   69.07540  118.26880    0.18430    2.65200
 5480.50000   11.23730    0.10290   -0.00590 2351.83860   71.20850  -33.76280 1672.40920    3.92980    3.86130    3.92900  206.30000   69.07970  118.57320    0.18190    2.63760
 5481.00000   11.22400    0.09990   -0.00590 2349.85280   71.92870  -34.02480 1673.89720    3.93080    3.89710    3.86640  206.30290   69.08410  118.87760    0.17720    2.63810
 5481.50000   11.21080    0.10200   -0.00440 2332.77100   73.10570  -33.98320 1675.75710    3.93210    3.93400    3.92010  206.30580   69.08850  118.86510    0.17060    2.60740
 5482.00000   11.21270    0.10550   -0.00140 2316.10210   74.74580  -34.24520 1662.03630    4.01400    4.01880    4.02870  206.00890   69.09290  118.59070    0.16440    2.56510
 5482.50000   11.18470    0.10640    0.00090 2314.16040   72.92290  -34.50720 1664.26980    4.09770    4.22260    4.14040  205.71200   68.79880  118.59700    0.15990    2.55080
 5483.00000   11.18660    0.09900    0.00320 2341.76340   70.63300  -34.46550 1665.75780    4.38680    4.59570    4.55420  205.37460   68.80320  118.90150    0.15700    2.55130
 5483.50000   11.15860    0.07790    0.00470 2339.52880   68.54370  -34.73600 1667.24570    4.89200    5.25450    5.32750  205.06400   68.21050  118.90750    0.15050    2.71410
 5484.00000   11.10160    0.06930    0.00320 2337.46310   64.67210  -34.98970 1669.10570    4.92660    6.05010    9.23320  204.52140   67.31940  116.37170    0.14130    2.92100
 5484.50000   11.05900    0.06700    0.00030 2335.04420   60.76440  -34.94790 1670.59360    4.89420    5.91700   10.01890  204.14350   66.11730  112.56320    0.13240    3.00990
 5485.00000   11.01630    0.06870   -0.00260 2333.12450   58.70570  -35.50540 1657.24480    4.82970    5.40760    8.51320  203.23360   65.81080  111.05460    0.12770    2.75970
 5485.50000   10.99490    0.08060   -0.00550 2331.20700   58.49600  -36.07130 1644.26790    4.76290    5.00540    5.98100  202.73110   65.50490  110.15220    0.13800    2.47980
 5486.00000   10.98980    0.10280   -0.00690 2328.80620   63.37640  -36.91580 1645.75740    4.60820    4.56630    4.74840  203.57850   64.94890  110.38780    0.15660    2.39180
 5486.50000   10.99160    0.10960   -0.00840 2326.88870   68.02040  -37.76870 1647.61730    4.39530    4.03910    3.90580  204.53670   65.37620  113.11640    0.16520    2.37740
 5487.00000   10.99320    0.11580   -0.00980 2324.96900   71.28290  -38.61330 1649.10530    4.19230    3.49700    3.54700  204.23990   66.52520  115.25360    0.16820    2.39270
 5487.50000   10.99480    0.12760   -0.01340 2323.00930   71.53020  -39.17070 1650.59290    3.97160    3.62500    3.52340  204.56790   67.82320  116.91560    0.17000    2.39310
 5488.00000   10.99660    0.13710   -0.01560 2335.39990   69.70800  -39.43280 1652.45320    3.73730    3.77990    3.87570  206.27300   68.84780  117.76820    0.17320    2.37880
 5488.50000   10.99810    0.13830   -0.01700 2348.70870   69.96590  -39.69480 1639.02000    3.61340    3.62430    4.26300  209.94660   69.15070  118.07260    0.17700    2.37930
 5489.00000   11.01470    0.13670   -0.01850 2346.30980   71.37410  -39.35770 1640.96590    3.54140    3.59930    4.50890  210.84910   69.45370  117.77990    0.18150    2.37970
 5489.50000   11.03090    0.13470   -0.01840 2343.91090   72.78230  -39.32430 1627.24510    3.54240    3.60010    4.56410  210.55210   69.59530  117.78580    0.18650    2.38010
 5490.00000   11.03250    0.13350   -0.01840 2341.99120   72.31580  -38.70010 1629.08040    3.59840    3.65170    4.41260  208.15630   69.91070  117.79160    0.18940    2.39540
 5490.50000   11.00450    0.12810   -0.01690 2325.32280   72.13180  -37.47670 1630.96510    3.84540    3.81000    4.32410  205.76040   70.06420  118.99150    0.18970    2.46950
 5491.00000   10.99130    0.12220   -0.01530 2308.17460   75.62550  -36.26170 1632.45300    4.17300    4.10180    4.32500  205.76330   70.24290  120.19140    0.19270    2.55840
 5491.50000   10.97810    0.11390   -0.01230 2306.25490   79.40920  -35.04670 1633.97620    4.52860    4.60950    4.84590  206.06610   70.37250  120.79420    0.20160    2.60320
 5492.00000   10.95050    0.10560   -0.00790 2304.33540   85.84320  -32.64990 1635.80250    4.88690    5.16010    7.05560  206.06900   70.37690  121.09860    0.21190    2.63310
 5492.50000   10.92290    0.10030   -0.00340 2302.35940   90.94940  -30.83570 1637.29040    5.40640    5.65570    8.30620  206.07200   70.38120  121.40300    0.21820    2.66300
 5493.00000   10.89500    0.09790   -0.00040 2300.01680   95.13110  -30.21150 1624.31360    5.90700    6.02680    8.65310  206.06420   70.38560  121.11030    0.22080    2.66340
 5493.50000   10.86700    0.09670   -0.00180 2298.09740   96.53930  -30.17810 1610.59280    6.49800    6.33240    8.53770  205.75360   70.39000  120.45760    0.21840    2.67870
 5494.00000   10.83910    0.09310   -0.00330 2296.16580   93.79260  -30.14480 1612.46230    6.81610    6.65810    8.07870  205.10590   70.09550  119.24330    0.19940    2.69380
