~Version ---------------------------------------------------
VERS.   2.0 : CWLS log ASCII Standard -VERSION 2.0
WRAP.    NO : One line per depth step
DLM . SPACE : Column Data Section Delimiter
~Well ------------------------------------------------------
STRT .F                   20.5 : START DEPTH
STOP .F                11651.5 : STOP DEPTH
STEP .F                    0.5 : STEP
NULL .                -9999.25 : NULL VALUE
COMP .                         : COMPANY
WELL .                         : WELL
FLD  .                         : FIELD
LOC  .                         : LOCATION
PROV .                         : PROVINCE
CNTY .                         : COUNTY
STAT .                         : STATE
CTRY .                         : COUNTRY
SRVC .                         : SERVICE COMPANY
DATE .                         : DATE
UWI  .                         : UNIQUE WELL ID
API  .                         : API NUMBER
SLAT .WGS84 2.2980986677276007 : SURFACE LATITUDE
SLON .WGS84  6.463845492429996 : SURFACE LONGITUDE
DATUM.F                 2692.0 : DEPTH DATUM ELEV
~Curve Information -----------------------------------------
DEPT.F     : 
CALD.IN    : CALIPER FROM DENSITY LOG
DPHI.DEC   : DENSITY POROSITY LIMESTONE
DRHO.G/C3  : DENSITY CORRECTION
TEND.LBS   : TENSION FORM DENSITY LOG
GRD .GAPI  : GAMMA RAY FROM DENSITY LOG
SPR .MV    : SPONTANEOUS POTENTIAL
TENR.LBS   : TENSION FROM RESISTIVITY LOG
ILD .OHMM  : INDUCTION LOG DEEP RESISTIVITY
ILM .OHMM  : INDUCTION LOG MEDIUM RESISTIVITY
SFLU.OHMM  : SPHERICALLY FOCUSED LOG UNAVERAGED RES.
DTST.US/F  : DELTA TIME STONELEY
DTCO.US/F  : DELTA TIME COMPRESSIONAL
DTSM.US/F  : DELTA TIME SHEAR
NPHI.DEC   : NEUTRON POROSITY LIMESTONE
PEF .B/E   : PHOTOELECTRIC FACTOR
~Params ----------------------------------------------------
~Other -----------------------------------------------------
~ASCII -----------------------------------------------------
# ...
 7679.50000   10.49320    0.08650   -0.00870 2995.57500   74.86660  -67.45850 2280.27950    5.71900    5.80660    6.00280  233.00590   67.45900  114.62250    0.15990    2.41220
 7680.00000   10.52370    0.09480   -0.01230 2993.93970   72.61180  -67.43330 2278.70020    6.12230    5.89050    6.73780  233.01560   67.76120  115.21600    0.15040    2.41310
 7680.50000   10.55390    0.09860   -0.01300 3007.65230   73.08840  -67.40800 2277.59670    6.55400    6.18980    7.82880  229.73190   68.36190  115.81020    0.14500    2.42860
 7681.00000   10.55470    0.09950   -0.00850 3005.89970   75.61890  -67.08640 2276.17310    7.12360    6.74740    8.60520  225.25060   68.69340  117.00100    0.14300    2.43150
 7681.50000   10.52630    0.09830   -0.00470 3018.94780   74.50220  -66.74360 2274.90840    7.82410    7.70440    9.52870  224.96010   69.35210  118.19240    0.14090    2.47480
 7682.00000   10.50870    0.09740   -0.00320 3032.44870   71.10930  -66.14070 2273.59030    8.54870    8.38600   10.13020  230.06050   70.52060  120.57970    0.13910    2.62530
 7682.50000   10.46920    0.09830   -0.00830 3030.97310   68.62690  -64.33770 2272.06540    9.21400    9.06380   10.70170  231.26790   71.50730  124.76070    0.13800    2.82730
 7683.00000   10.45500    0.09950   -0.01120 3029.49880   71.38500  -62.83090 2270.80200    9.86700    9.65940   11.29550  230.97820   72.94540  126.84900    0.13740    3.02920
 7683.50000   10.43180    0.09830   -0.01110 3028.02340   76.99340  -61.62050 2269.53830   10.77720   10.31340   11.84660  230.98800   73.16040  128.64790    0.14270    3.15880
 7684.00000   10.41280    0.09000   -0.00760 3026.54910   96.73750  -59.21860 2268.24880   11.61590   11.60700   15.02510  230.99800   73.46270  129.84940    0.15610    3.21640
 7684.50000   10.38440    0.08400   -0.00460 3025.07370  107.66310  -58.00810 2266.69430   12.52000   12.45710   16.30680  230.70800   73.46640  130.42330    0.17820    3.02570
 7685.00000   10.35590    0.07930   -0.00160 3023.56470  114.94690  -57.09400 2265.43070   12.95430   12.99820   16.52710  230.66890   73.32510  129.22030    0.19540    2.89380
 7685.50000   10.33910    0.07780    0.00140 3021.95240  113.80880  -56.77240 2249.33060   12.95510   13.09360   15.23680  229.69980   73.17540  125.54230    0.19770    2.76210
 7686.00000   10.32320    0.08910    0.00140 3020.64920  108.80120  -57.05460 2248.06690   12.69420   13.09710   13.85740  227.94510   72.53190  121.93720    0.19710    2.68920
 7686.50000   10.29970    0.09290    0.00520 3019.17430   94.68890  -57.65400 2261.64010   12.43840   12.91830   13.21610  223.70270   69.60140  118.58800    0.19210    2.57200
 7687.00000   10.27130    0.09410    0.01630 3017.69870   90.36420  -58.17180 2260.06080   11.94140   12.12820   14.24290  220.65860   70.20210  115.12400    0.17020    2.46920
 7687.50000   10.25750    0.07450    0.03410 3016.22510   87.59560  -59.03540 2258.79740   11.30600   11.30660   14.43940  221.63550   67.81770  112.85830    0.15450    2.45570
 7688.00000   10.21420    0.06830    0.06220 3014.69820   83.08040  -59.30650 2257.53250   10.93160   10.91840   12.95510  226.79040   66.62730  110.83980    0.14350    2.48620
 7688.50000   10.21500    0.06500    0.06520 3028.06570   75.34140  -60.17010 2256.23100   10.35290   10.68830   11.08410  232.45910   64.54140  108.85230    0.16190    2.57560
 7689.00000   10.24540    0.06150    0.05270 3041.43310   71.24430  -60.13860 2254.68950    9.93920   10.25410   10.78860  234.26130   62.45550  107.62270    0.16390    2.71900
 7689.50000   10.26100    0.04460    0.04090 3024.95700   68.96810  -60.41590 2253.42600    9.47730    9.69510   12.35910  233.20550   60.07100  106.76000    0.14760    3.19690
 7690.00000   10.27650    0.02860    0.02850 3008.82590   63.05010  -60.68070 2252.16260    8.32810    9.03830   14.64650  231.41880   59.17920  107.35350    0.11600    3.52220
 7690.50000   10.27740    0.02830    0.00270 3007.09910   58.27010  -60.95170 2250.88990    7.72780    8.24990   15.25730  230.23090   59.49330  112.43140    0.10940    3.52440
 7691.00000   10.27840    0.03660   -0.00980 3020.81300   58.27010  -60.62380 2249.31960    7.02580    7.51990   11.47480  230.24070   61.06100  115.41650    0.10820    2.96360
 7691.50000   10.29390    0.04900   -0.00680 3034.18040   64.41580  -60.00600 2248.05470    6.47510    6.92240    7.58560  230.25040   63.47510  116.60800    0.11960    2.69890
 7692.00000   10.30940    0.05950   -0.00080 3032.44850   68.01730  -58.20290 2246.79130    6.13230    6.49900    7.08870  230.55950   65.90980  117.50050    0.13670    2.52280
 7692.50000   10.31050    0.08630    0.00370 3030.72680   72.61370  -56.39990 2245.52780    6.70020    6.23140    7.08970  230.86870   66.72480  118.69190    0.14110    2.55310
 7693.00000   10.31130    0.09430    0.00080 3029.34500   77.43770  -54.29420 2243.94820    7.52280    6.73560    7.18770  231.17780   67.04150  119.88330    0.14380    2.73110
 7693.50000   10.31210    0.09870   -0.00280 3028.02340   81.57890  -52.78750 2242.87820    8.10820    7.34170    7.64140  231.48700   67.35810  120.78060    0.15380    2.79100
 7694.00000   10.31290    0.09990   -0.00200 3026.54880   86.23840  -51.57710 2241.42140    8.62110    8.38370   10.87700  231.49700   67.97350  121.36940    0.16890    2.80630
 7694.50000   10.31380    0.08840    0.00690 3025.07400   92.83130  -50.95920 2255.31050    9.22910    9.25480   12.80290  231.17230   68.16790  120.99630    0.17840    2.79190
 7695.00000   10.31470    0.07800    0.02910 3008.72340   99.02100  -50.60770 2253.70900   10.01530    9.93260   14.46890  230.86840   68.17160  120.11470    0.18100    2.76390
 7695.50000   10.27150    0.06940    0.04980 3022.09080  102.02410  -50.30980 2252.15040   10.86850   10.43730   14.08320  230.62770   67.57420  119.19850    0.18220    2.73530
 7696.00000   10.18430    0.08090    0.05720 3079.70580  102.74000  -50.28450 2250.88700   11.09340   10.81930   12.80820  230.71850   66.48720  118.28160    0.17810    2.70680
 7696.50000   10.14080    0.08480    0.05280 3048.48050   89.59320  -51.14820 2249.62350   10.77630   10.89350   11.96930  231.13730   64.60150  118.05830    0.16680    2.69290
 7697.00000   10.17120    0.08630    0.04850 3017.60030   86.90590  -51.71560 2233.52290    9.61710   10.30030   11.41570  232.15390   64.90360  118.38390    0.15790    2.67900
 7697.50000   10.20860    0.07740    0.04850 3016.21850   86.49470  -52.60960 2231.94360    9.10800    9.53510   10.59580  230.89310   66.69830  120.09180    0.15670    2.65030
 7698.00000   10.23180    0.06820    0.05150 3102.98680   88.26940  -53.73280 2230.67870    8.16860    8.76490    8.88280  229.06250   68.04520  119.04060    0.16920    2.63740
 7698.50000   10.26220    0.06880    0.02650 3131.44870   90.67990  -54.89270 2229.41530    7.27640    8.16000    7.75630  228.43800   68.79510  114.74230    0.17360    2.63760
 7699.00000   10.26300    0.07220    0.00590 3070.72490   87.77600  -56.64520 2213.31520    6.66070    7.30290    6.86540  228.47290   68.79880  114.44840    0.17450    2.65310
 7699.50000   10.29320    0.07740   -0.00360 3069.32150   84.17810  -59.64590 2212.01760    6.22280    6.71300    6.68210  228.61460   68.20540  114.44310    0.15850    2.66860
 7700.00000   10.25010    0.08660   -0.00580 3061.29170   76.12820  -62.51430 2210.47220    5.85330    6.21430    6.77430  228.92380   67.01500  114.43870    0.14100    2.69940
 7700.50000   10.20680    0.08850   -0.00420 3036.87350   64.87100  -63.38430 2194.37180    5.54350    5.79340    7.10410  229.44210   66.41980  114.43440    0.13660    2.74560
 7701.00000   10.17820    0.08880   -0.00420 3035.35420   62.13960  -63.05640 2208.26100    5.27760    5.43160    7.11510  230.12930   68.26660  114.43000    0.13310    2.74570
 7701.50000   10.16440    0.08850   -0.00410 3003.72750   63.05010  -62.43610 2221.51710    5.04020    5.17880    6.37300  228.93610   70.90670  113.82770    0.13060    2.68450
 7702.00000   10.18010    0.08850   -0.00700 2973.24830   65.78150  -60.92550 2219.93770    5.07500    5.19740    6.03620  225.64710   70.91040  113.22540    0.12890    2.62330
