~Version ---------------------------------------------------
VERS.   2.0 : CWLS log ASCII Standard -VERSION 2.0
WRAP.    NO : One line per depth step
DLM . SPACE : Column Data Section Delimiter
~Well ------------------------------------------------------
STRT .F                   20.5 : START DEPTH
STOP .F                11651.5 : STOP DEPTH
STEP .F                    0.5 : STEP
NULL .                -9999.25 : NULL VALUE
COMP .                         : COMPANY
WELL .                         : WELL
FLD  .                         : FIELD
LOC  .                         : LOCATION
PROV .                         : PROVINCE
CNTY .                         : COUNTY
STAT .                         : STATE
CTRY .                         : COUNTRY
SRVC .                         : SERVICE COMPANY
DATE .                         : DATE
UWI  .                         : UNIQUE WELL ID
API  .                         : API NUMBER
SLAT .WGS84 2.2980986677276007 : SURFACE LATITUDE
SLON .WGS84  6.463845492429996 : SURFACE LONGITUDE
DATUM.F                 2692.0 : DEPTH DATUM ELEV
~Curve Information -----------------------------------------
DEPT.F     : 
CALD.IN    : CALIPER FROM DENSITY LOG
DPHI.DEC   : DENSITY POROSITY LIMESTONE
DRHO.G/C3  : DENSITY CORRECTION
TEND.LBS   : TENSION FORM DENSITY LOG
GRD .GAPI  : GAMMA RAY FROM DENSITY LOG
SPR .MV    : SPONTANEOUS POTENTIAL
TENR.LBS   : TENSION FROM RESISTIVITY LOG
ILD .OHMM  : INDUCTION LOG DEEP RESISTIVITY
ILM .OHMM  : INDUCTION LOG MEDIUM RESISTIVITY
SFLU.OHMM  : SPHERICALLY FOCUSED LOG UNAVERAGED RES.
DTST.US/F  : DELTA TIME STONELEY
DTCO.US/F  : DELTA TIME COMPRESSIONAL
DTSM.US/F  : DELTA TIME SHEAR
NPHI.DEC   : NEUTRON POROSITY LIMESTONE
PEF .B/E   : PHOTOELECTRIC FACTOR
~Params ----------------------------------------------------
~Other -----------------------------------------------------
~ASCII -----------------------------------------------------
# ...
 10317.50000    9.77130    0.08960   -0.01320 3787.92380   11.01210 -107.68170 2980.69680   18.23270   15.58720   28.77160  219.76740   57.65370  107.53330    0.05700    5.21430
 10318.00000    9.77250    0.08780   -0.00940 3786.70340   12.15560 -107.66610 2994.69680   19.42590   17.25630   36.00650  219.76540   57.66120  106.66670    0.05600    5.19870
 10318.50000    9.74380    0.08690   -0.00490 3785.56670   13.29910 -107.65350 2993.76810   21.89570   19.63090   45.98900  219.76350   57.96990  106.06880    0.06290    5.12680
 10319.00000    9.71390    0.08550   -0.00190 3769.47410   13.75970 -107.64100 2992.81350   25.20630   26.10840   49.22370  219.76160   57.97720  105.47090    0.06760    5.08300
 10319.50000    9.68720    0.08300   -0.00330 3768.48390   13.99280 -107.62810 2991.97660   28.21180   29.76720   50.58040  219.75960   57.68460  104.87290    0.06820    5.00990
 10320.00000    9.65870    0.07830   -0.00770 3767.30440   13.99940 -107.61270 2990.92990   31.79860   32.88150   48.71680  219.75760   57.69190  103.67710    0.05990    4.90530
 10320.50000    9.61580    0.07540   -0.00310 3766.12570   14.00480 -107.60020 2990.09300   38.72560   35.18800   43.55490  219.75570   57.39880  102.78030    0.05000    4.76050
 10321.00000    9.57260    0.06440    0.00140 3750.22070   14.23780 -107.58810 2989.25630   47.16230   46.16720   46.30260  219.75380   57.10640  101.88340    0.03620    4.71660
 10321.50000    9.50030    0.05220    0.00440 3748.90620   14.48580 -107.57480 2988.41970   53.91180   77.87600   64.16570  219.75180   56.21450  100.95290    0.03120    4.83490
 10322.00000    9.36890    0.03510    0.00150 3747.86520   18.34700 -107.26310 2987.37450   59.91680  163.26100  256.44950  219.74990   55.89300   99.71840    0.01550    4.89430
 10322.50000    9.22280    0.02740   -0.00730 3746.68580   43.61790 -106.95430 2986.53780   70.94410  339.94730  625.50810  219.74790   54.93570   98.43220    0.00810    4.88000
 10323.00000    9.20900    0.02680   -0.01900 3730.56350   64.79170 -106.94170 2985.70120   99.45550  980.66330 1294.49410  219.75620   53.08600   96.95130    0.00420    4.85090
 10323.50000    9.21450    0.02680   -0.01890 3714.72460   70.71510 -106.63260 2970.02560  131.79170 1358.53720 1687.44360  219.76500   51.30710   96.11050    0.00250    4.88090
 10324.00000    9.22590    0.01820   -0.01590 3713.61080   62.75520 -106.58640 2954.14400  186.05850  827.30110 1722.20700  219.77370   50.46680   95.90430    0.00100    4.76250
 10324.50000    9.22690    0.01490   -0.01580 3741.97310   50.69690 -106.30830 2968.35230  234.70300  788.78710  804.37400  219.78140   49.96120   95.90430    0.00040    4.60190
 10325.00000    9.22810    0.01380   -0.01570 3740.56420   45.92230 -106.29580 2982.35250  270.19050 1566.12380  878.68740  219.79120   49.97000   95.75490    0.00100    4.60240
 10325.50000    9.22900    0.01140   -0.01340 3754.45700   43.42390 -105.82620 2966.46880  275.97270 1294.71850 1303.32320  219.50050   49.67770   95.43660    0.00180    4.64700
 10326.00000    9.23020    0.00770   -0.00890 3753.16670   40.39700 -105.08240 2950.74150  272.13430  979.88790 1169.01390  219.50920   49.68520   95.30640    0.00330    4.73580
 10326.50000    9.23120    0.00660   -0.00960 3751.95310   26.59230 -105.06980 2949.75020  251.88290 1034.44300  625.50810  219.51790   49.99400   95.30640    0.00450    4.85410
 10327.00000    9.23220    0.01310   -0.01390 3736.08200   21.81770 -105.05730 2934.12430  217.30190 1756.87170  436.29010  219.22730   50.00120   95.30640    0.00600    4.94290
 10327.50000    9.23310    0.01610   -0.01530 3734.90410   20.91120 -105.04440 2948.07690  191.46460 1985.10010  804.37400  219.23650   50.00850   95.30640    0.00590    4.98750
 10328.00000    9.23410    0.01670   -0.01370 3733.72580   25.09040 -105.03110 2962.07670  166.34200 1816.24440  817.24120  219.29720   50.01580   95.30640    0.00530    5.01740
 10328.50000    9.23510    0.01490   -0.01370 3717.77120   30.93990 -105.01650 2976.07690  165.18640  914.90410  513.59890  219.55390   50.02250   95.30640    0.00390    5.03260
 10329.00000    9.23630    0.00720   -0.00990 3716.64160   31.85440 -105.00390 2975.07420  167.54150  560.95900  334.69270  219.56290   50.03000   95.90430    0.00330    4.97410
 10329.50000    9.23720    0.00420   -0.00470 3715.26730   27.99160 -104.99110 2974.18380  159.50000  390.38310  272.95140  219.87130   50.03760   95.28480    0.00710    4.87150
 10330.00000    9.26780    0.01130   -0.00010 3729.01270   20.03030 -104.97570 2973.29390  142.52700  952.59830  272.70490  219.76000   50.04500   94.66870    0.00940    4.73930
 10330.50000    9.29820    0.01960   -0.00150 3727.83570   18.01930 -104.96310 2972.40380  126.46720  745.84110  282.77400  218.30560   50.05250   95.18470    0.01030    4.59260
 10331.00000    9.28450    0.02490   -0.01470 3741.38600   17.81580 -105.24690 2971.47310  124.70820  460.41760  300.20210  216.15210   50.06000   97.17820    0.01060    4.54870
 10331.50000    9.27070    0.02550   -0.01840 3754.90770   18.14110 -105.23410 2970.62300  135.70640  258.43170  304.31110  215.71560   50.06750   97.69810    0.01000    4.68180
 10332.00000    9.24230    0.01600   -0.01600 3745.33180   22.22080 -105.21870 2969.59130  145.60850  341.37730  353.39670  215.42680   50.07500   97.69810    0.00910    5.21240
 10332.50000    9.18440    0.00890   -0.01370 3737.84960   34.31670 -104.91290 2968.84330  149.77470  418.48060  600.98070  215.73490   50.18520   97.56370    0.00730    5.33280
 10333.00000    9.12660    0.00470   -0.01290 3736.65940   50.05450 -106.08560 2967.95260  142.58840  362.38020 1503.29690  215.74370   50.81060   97.10020    0.00580    5.24280
 10333.50000    9.06890    0.00240   -0.01430 3735.36130   58.58500 -106.36620 2967.06200  143.60470  258.29270 1137.65750  215.75240   51.29680   96.62950    0.00340    4.94860
 10334.00000    9.04050    0.00120   -0.01570 3740.35280   61.28000 -105.46160 2966.03440  151.93000  220.90750  669.50410  215.76110   51.30430   96.20330    0.00580    4.83910
 10334.50000    9.01210   -0.00070   -0.01560 3748.04830   54.93890 -103.96760 2965.19780  166.49350  225.42720  506.66400  215.47050   51.48820   95.90430    0.00820    4.98260
 10335.00000    9.02800   -0.00120   -0.01550 3746.65800   48.14250 -101.58470 2964.36080  182.45600  244.53140  451.37300  215.47920   51.32060   95.90430    0.00880    5.05310
 10335.50000    8.97030    0.00470   -0.01400 3745.50780   39.10850  -97.63920 2963.50170  183.75650  323.01570  553.47300  215.48800   51.32790   95.90430    0.00790    4.97990
 10336.00000    8.92690    0.00650   -0.01100 3758.88380   30.91580  -94.14900 2962.47730  173.71020  552.34060  751.51510  215.47300   51.33510   95.60540    0.00580    4.50900
 10336.50000    8.89850    0.00410   -0.00790 3757.77000   29.12700  -91.46980 2961.64060  153.05600  714.90190 1357.57650  215.16570   51.04200   95.00750    0.00370    4.42110
 10337.00000    8.87030   -0.00210   -0.00340 3756.70140   29.15920  -89.38320 2975.66770  112.31360  628.24730 1587.30730  214.20190   51.04990   93.20170    0.00220    4.49520
 10337.50000    8.90090   -0.00420    0.00110 3740.79570   31.05080  -86.36070 2974.77780   94.20350  377.43020 1312.21250  212.67960   51.05710   92.81030    0.00130    4.53970
 10338.00000    8.90190   -0.00480   -0.00920 3739.61670   34.69430  -83.42900 2973.75710   79.57150  171.63220  358.23380  211.04060   51.07050   93.18040    0.00160    4.30460
 10338.50000    8.90280   -0.00250   -0.01200 3738.31590   37.68540  -81.34240 2972.92040   67.68670   70.00830  105.39040  212.95630   51.37180   93.55050    0.00460    3.99240
 10339.00000    8.90380    0.00640   -0.01790 3737.20210   38.85570  -79.25580 2972.08370   57.17430   56.32480   74.14650  213.15570   51.72270   93.92060    0.01050    3.79010
 10339.50000    8.90500    0.02150   -0.01850 3736.08180   37.71240  -76.77380 2986.08370   40.50390   47.20070   64.60340  213.16470   52.70900   94.29070    0.01870    3.71680
