~Version ---------------------------------------------------
VERS.   2.0 : CWLS log ASCII Standard -VERSION 2.0
WRAP.    NO : One line per depth step
DLM . SPACE : Column Data Section Delimiter
~Well ------------------------------------------------------
STRT .F                   20.5 : START DEPTH
STOP .F                11651.5 : STOP DEPTH
STEP .F                    0.5 : STEP
NULL .                -9999.25 : NULL VALUE
COMP .                         : COMPANY
WELL .                         : WELL
FLD  .                         : FIELD
LOC  .                         : LOCATION
PROV .                         : PROVINCE
CNTY .                         : COUNTY
STAT .                         : STATE
CTRY .                         : COUNTRY
SRVC .                         : SERVICE COMPANY
DATE .                         : DATE
UWI  .                         : UNIQUE WELL ID
API  .                         : API NUMBER
SLAT .WGS84 2.2980986677276007 : SURFACE LATITUDE
SLON .WGS84  6.463845492429996 : SURFACE LONGITUDE
DATUM.F                 2692.0 : DEPTH DATUM ELEV
~Curve Information -----------------------------------------
DEPT.F     : 
CALD.IN    : CALIPER FROM DENSITY LOG
DPHI.DEC   : DENSITY POROSITY LIMESTONE
DRHO.G/C3  : DENSITY CORRECTION
TEND.LBS   : TENSION FORM DENSITY LOG
GRD .GAPI  : GAMMA RAY FROM DENSITY LOG
SPR .MV    : SPONTANEOUS POTENTIAL
TENR.LBS   : TENSION FROM RESISTIVITY LOG
ILD .OHMM  : INDUCTION LOG DEEP RESISTIVITY
ILM .OHMM  : INDUCTION LOG MEDIUM RESISTIVITY
SFLU.OHMM  : SPHERICALLY FOCUSED LOG UNAVERAGED RES.
DTST.US/F  : DELTA TIME STONELEY
DTCO.US/F  : DELTA TIME COMPRESSIONAL
DTSM.US/F  : DELTA TIME SHEAR
NPHI.DEC   : NEUTRON POROSITY LIMESTONE
PEF .B/E   : PHOTOELECTRIC FACTOR
~Params ----------------------------------------------------
~Other -----------------------------------------------------
~ASCII -----------------------------------------------------
# ...
 6368.50000   11.92980    0.24740    0.20280 2589.28930   96.35250  -26.27050 1814.42200    6.57140    6.47380    8.87050  223.38440   80.35310  176.73230    0.30530    3.10180
 6369.00000   11.26890    0.30240    0.17330 2587.61080   80.06890  -26.24510 1813.01310    6.61630    8.32490   12.34220  223.44310   82.31640  177.33260    0.30390    2.87380
 6369.50000   10.97360    0.30550    0.14270 2585.84080   75.23650  -25.62670 1811.57240    6.61630    8.15310   18.00680  222.99280   80.78380  177.33400    0.27260    2.60000
 6370.00000   11.21190    0.29990    0.07510 2584.18140   79.89710  -25.59560 1825.03210    6.43710    7.54740   18.63340  222.53500   78.52760  167.15580    0.26810    2.11290
 6370.50000   11.53630    0.30010    0.02420 2597.05000   96.23220  -25.27390 1823.26950    6.13900    6.15500   12.82180  222.10480   76.08830  161.76810    0.26580    2.03710
 6371.00000   11.81650    0.29860    0.01240 2595.28050  102.46000  -24.95230 1837.04960    6.05600    5.38320    7.89580  222.00200   74.57910  159.37430    0.28820    2.22080
 6371.50000   11.97910    0.29970    0.01400 2593.26980  107.08640  -24.92700 1850.12510    6.09730    5.23750    6.28070  222.72300   74.75760  158.77700    0.31730    2.40990
 6372.00000   11.92110    0.30000    0.03470 2606.77760  105.73390  -24.30810 1848.71620    5.93350    5.46540    6.11330  223.33060   75.78620  158.84570    0.32760    2.70980
 6372.50000   12.12800    0.29970    0.09230 2619.45460  105.29380  -23.98110 1862.14430    5.61250    5.50550    6.86490  223.63870   77.88150  163.57030    0.31600    2.83240
 6373.00000   12.34940    0.28730    0.15300 2662.04540  105.32620  -23.95580 1860.38310    5.21370    5.39180    8.54100  223.94690   79.97690  159.09220    0.31220    2.74150
 6373.50000   12.54160    0.27190    0.19730 2674.72410  104.66900  -23.63420 1858.97420    5.17830    5.35540    9.45660  224.25510   84.75890  152.69150    0.33560    2.71150
 6374.00000   12.83660    0.28610    0.18400 2702.56570  101.70860  -23.31250 1857.56380    5.46810    5.87080    9.78620  224.56330   85.95870  152.19740    0.36630    2.86470
 6374.50000   13.01370    0.30530    0.14270 2699.96660   90.01910  -22.67300 1855.80270    6.61630    6.90480   13.20420  223.67390   85.06900  152.19910    0.35090    3.07870
 6375.00000   12.48530    0.31010    0.12500 2580.84400   71.44490  -22.07040 1854.39380    6.84540    8.96220   32.41750  216.49700   83.88080  149.70160    0.29810    3.41480
 6375.50000   11.54520    0.16310    0.12580 2667.68430   64.57940  -21.74880 1838.14790    6.79890    8.53350   54.37980  210.12210   82.39410  140.81650    0.15850    3.62870
 6376.00000   11.10480    0.11610    0.13550 2680.82540   68.28040  -21.13080 1851.92820    6.70700    7.29420   42.00390  205.97980   79.98320  132.91950    0.15250    3.55310
 6376.50000    9.72310    0.11760    0.15030 2678.70610   85.33550  -21.41730 1850.14830    6.61630    6.58020   14.94030  215.40420   75.80180  128.25300    0.18910    3.03090
 6377.00000    9.72410    0.12410    0.17690 2647.55080   94.98460  -22.55530 1847.34480    6.48260    6.39870    7.77800  218.68440   75.54600  129.37150    0.21790    2.74640
 6377.50000    9.65160    0.12350    0.18290 2631.14450   96.84800  -23.42520 1832.15870    6.34690    6.22310    6.65370  218.49790   77.23380  138.43590    0.23100    2.76220
 6378.00000    9.54950    0.11790    0.09870 2614.73850   97.79260  -23.39360 1830.86000    6.09730    6.09460    7.37030  217.36530   79.29400  139.13970    0.23010    2.93050
 6378.50000    9.49150    0.11990    0.01420 2597.91850  101.04070  -23.36820 1829.34080    5.69610    5.75440    8.05380  217.15730   80.79070  139.03740    0.23540    3.03790
 6379.00000    9.46290    0.12650   -0.01120 2581.51250  104.51210  -23.63920 1827.06860    5.21370    5.22310    8.11360  217.57870   81.63100  138.44030    0.24660    3.05370
 6379.50000    9.46390    0.14270   -0.01490 2579.85550  107.06460  -23.31130 1811.57340    4.80470    5.22450    7.78900  218.20030   82.44180  137.84300    0.25960    3.05430
 6380.00000    9.49420    0.18150   -0.01340 2578.17110  107.09030  -22.98960 1809.92530    4.90380    5.26290    7.68520  219.94120   80.29850  137.24560    0.26670    3.02230
 6380.50000    9.61270    0.22440   -0.01040 2576.12790  100.92040  -22.37170 1817.23160    4.90380    5.33900    7.95360  225.44070   77.84240  138.44470    0.26730    2.68970
 6381.00000    9.84900    0.29670   -0.00370 2589.63430   99.33820  -22.05010 1821.95860    4.93730    5.45980    8.01000  226.82040   78.57670  141.73950    0.25780    2.52260
 6381.50000   10.52630    0.41720    0.01340 2602.35940   98.21540  -21.72210 1835.37060    5.21370    5.97930    8.17770  227.39390   79.80590  143.56260    0.26550    2.44690
 6382.00000   11.66820    0.45570    0.04000 2600.24220   92.98750  -21.40050 1833.60950    5.54310    6.46250    9.05850  227.40270   80.38330  145.05990    0.26760    2.53910
 6382.50000   12.23380    0.44230    0.03120 2598.58520   81.96390  -21.67780 1832.20070    5.85330    6.74320   11.11210  227.41150   80.09060  144.53960    0.24830    2.87510
 6383.00000   11.47070    0.36360    0.01790 2582.17920   80.83470  -21.34990 1830.86040    5.93350    6.55770   13.26520  227.11980   78.90240  139.20330    0.21840    3.07380
 6383.50000   10.48580    0.18890    0.00690 2565.77290   84.31250  -21.32440 1844.21950    5.93350    6.19450   11.42510  226.82930   77.11720  133.66300    0.20330    2.96780
 6384.00000   10.05220    0.19160    0.01510 2578.45170   95.83010  -21.29290 1842.45690    5.89330    5.62000    8.02330  226.53890   76.52600  136.76550    0.24320    2.87690
 6384.50000   10.38450    0.23270    0.06160 2591.95780   98.61240  -20.97130 1855.88490    5.93350    5.50360    6.28220  226.24850   75.93430  143.29500    0.28440    2.84680
 6385.00000   10.65000    0.23680    0.07430 2605.05180   97.48960  -20.94590 1854.47600    6.01490    5.74310    6.27820  225.35960   76.53770  149.35770    0.30890    2.84760
 6385.50000   10.85670    0.23390    0.08900 2588.20070   95.62460  -20.62430 1853.11550    5.93350    6.07750    7.20190  224.47010   78.93150  154.32240    0.32020    2.81780
 6386.00000   10.35770    0.24100    0.08020 2586.15940   94.78460  -20.59850 1851.63210    5.81360    5.90760    8.71520  223.88010   84.01200  157.02390    0.31570    2.65070
 6386.50000   10.03500    0.24210    0.04480 2584.50270   98.26240  -20.86810 1849.89710    5.77420    5.82920    9.85290  223.58950   89.70630  152.85960    0.29680    2.54430
 6387.00000    9.97700    0.23710    0.01450 2582.84740  102.42290  -20.83830 1833.82800    5.85350    5.91390   10.12730  223.29890   90.61380  150.14100    0.28400    2.63670
 6387.50000    9.96340    0.20360   -0.00830 2580.77510  109.34420  -20.81300 1832.24080    6.05600    6.08440    9.52890  223.30840   90.89550  147.44780    0.28250    2.65250
 6388.00000    9.71420    0.14090   -0.00670 2579.11820  114.19380  -20.78820 1830.83190    6.26560    6.30420    8.60680  223.61680   90.90150  145.65290    0.30230    2.66830
 6388.50000    9.49440    0.13260   -0.00380 2577.46310  111.69920  -20.76150 1829.37670    6.30840    6.44050    8.15250  224.08050   90.77490  144.45680    0.31660    2.83670
 6389.00000    9.41780    0.13280   -0.00300 2575.81050  101.61770  -21.03330 1827.66200    6.26560    6.62670    8.72920  224.83100   89.69490  142.96120    0.32010    3.03540
 6389.50000    9.33450    0.15560   -0.00660 2559.29250   94.52250  -21.29790 1826.25310    6.17970    6.44440    9.86930  223.22130   86.16960  142.59100    0.30680    3.17320
 6390.00000    9.35010    0.22790   -0.01100 2542.58010   93.85910  -21.57520 1840.03320    5.89330    6.05030    9.60690  218.68260   83.65190  147.45510    0.26230    3.04670
 6390.50000    9.57150    0.32230   -0.01540 2540.92330  100.55290  -21.54360 1838.27940    5.81360    5.40710    8.73650  221.37580   83.29370  151.04940    0.26350    2.67140
 6391.00000   10.02840    0.48920   -0.00940 2539.23240  104.94310  -22.11080 1836.50950    5.85330    5.29540    7.32210  226.50870   85.17750  151.66170    0.27500    2.39760
