~Version ---------------------------------------------------
VERS.   2.0 : CWLS log ASCII Standard -VERSION 2.0
WRAP.    NO : One line per depth step
DLM . SPACE : Column Data Section Delimiter
~Well ------------------------------------------------------
STRT .F                   20.5 : START DEPTH
STOP .F                11651.5 : STOP DEPTH
STEP .F                    0.5 : STEP
NULL .                -9999.25 : NULL VALUE
COMP .                         : COMPANY
WELL .                         : WELL
FLD  .                         : FIELD
LOC  .                         : LOCATION
PROV .                         : PROVINCE
CNTY .                         : COUNTY
STAT .                         : STATE
CTRY .                         : COUNTRY
SRVC .                         : SERVICE COMPANY
DATE .                         : DATE
UWI  .                         : UNIQUE WELL ID
API  .                         : API NUMBER
SLAT .WGS84 2.2980986677276007 : SURFACE LATITUDE
SLON .WGS84  6.463845492429996 : SURFACE LONGITUDE
DATUM.F                 2692.0 : DEPTH DATUM ELEV
~Curve Information -----------------------------------------
DEPT.F     : 
CALD.IN    : CALIPER FROM DENSITY LOG
DPHI.DEC   : DENSITY POROSITY LIMESTONE
DRHO.G/C3  : DENSITY CORRECTION
TEND.LBS   : TENSION FORM DENSITY LOG
GRD .GAPI  : GAMMA RAY FROM DENSITY LOG
SPR .MV    : SPONTANEOUS POTENTIAL
TENR.LBS   : TENSION FROM RESISTIVITY LOG
ILD .OHMM  : INDUCTION LOG DEEP RESISTIVITY
ILM .OHMM  : INDUCTION LOG MEDIUM RESISTIVITY
SFLU.OHMM  : SPHERICALLY FOCUSED LOG UNAVERAGED RES.
DTST.US/F  : DELTA TIME STONELEY
DTCO.US/F  : DELTA TIME COMPRESSIONAL
DTSM.US/F  : DELTA TIME SHEAR
NPHI.DEC   : NEUTRON POROSITY LIMESTONE
PEF .B/E   : PHOTOELECTRIC FACTOR
~Params ----------------------------------------------------
~Other -----------------------------------------------------
~ASCII -----------------------------------------------------
# ...
 5034.50000    8.84300    0.02180   -9999.25   -9999.25   47.68000   -9999.25   -9999.25   -9999.25   -9999.25   -9999.25  225.91730   65.59000  118.41540    0.27750   -9999.25
 5035.00000    8.90290    0.13830   -9999.25   -9999.25   51.37370   -9999.25   -9999.25   -9999.25   -9999.25   -9999.25  226.26190   65.89580  119.61240    0.28220    9.99110
 5035.50000    8.99210    0.18440   -0.04990   -9999.25   56.91710   -9999.25   -9999.25   -9999.25   -9999.25   -9999.25  226.52620   65.90310  120.21230    0.28340    4.15250
 5036.00000    9.49370    0.16630   -0.04690   -9999.25   62.01820   -9999.25   -9999.25   -9999.25   -9999.25   -9999.25  225.24770   65.91040  114.84210    0.27220    3.29720
 5036.50000    9.97170    0.14730    0.08530 2245.62060   67.68860   -9999.25   -9999.25   -9999.25   -9999.25   -9999.25  221.95800   65.94290  110.36740    0.24580    3.52630
 5037.00000   10.23200    0.11950    0.11710 2246.40430   73.32950   -9999.25   -9999.25   -9999.25   -9999.25   -9999.25  219.37920   66.84590  113.35540    0.23310    3.57240
 5037.50000   10.48320    0.11280    0.06690 2247.18770   75.33320   -9999.25   -9999.25   -9999.25   -9999.25   -9999.25  218.04870   67.72390  118.13450    0.24290    3.48010
 5038.00000   10.73430    0.10430    0.06240 2247.97140   75.56690   -9999.25   -9999.25   -9999.25   -9999.25   -9999.25  217.44090   68.07980  119.62990    0.25970    3.42070
 5038.50000   10.91480    0.09140    0.06980 2248.75490   72.47040   -9999.25   -9999.25   -9999.25   -9999.25   -9999.25  216.95800   68.69680  120.22980    0.26210    3.51260
 5039.00000   11.08970    0.06760    0.07570 2249.53860   60.55080   -9999.25   -9999.25   -9999.25   -9999.25   -9999.25  216.96250   68.94030  118.41430    0.23990    3.65020
 5039.50000   11.22310    0.06030    0.05510 2250.32200   59.23590   -9999.25   -9999.25   -9999.25   -9999.25   -9999.25  216.96700   69.24630  117.19710    0.21830    3.83350
 5040.00000   11.35640    0.07260    0.03220 2250.95870   64.33690  -30.01760 1515.71400 1957.01100 2000.00000  197.96970  216.97150   69.15380  116.31880    0.20230    3.52900
 5040.50000   11.51190    0.08300    0.00780 2249.55790   69.44720  -30.58050 1529.08900 1828.61680 1843.59170   68.92900  216.80400   68.44010  116.06240    0.21610    3.20930
 5041.00000   11.65290    0.09350   -0.00400 2246.98800   69.67480  -29.65930 1542.46280  872.28390 1557.24620   54.73350  216.68070   67.22900  116.43020    0.22720    2.76760
 5041.50000   11.74200    0.09780   -0.00770 2241.31960   67.47490  -28.44900 1541.34570  195.74210 1006.56510   32.86150  216.08620   66.01820  116.74430    0.22830    2.56980
 5042.00000   11.86070    0.08530   -0.00910 2235.65140   63.06270  -26.05140 1525.45650   12.00390   17.93470   17.73880  214.59140   65.99940  117.05870    0.21410    2.47770
 5042.50000   12.09740    0.08290   -0.00990 2230.11600   59.08560  -23.95550 1524.33950   11.21640   17.19620   14.33090  212.79670   66.92740  117.26870    0.17890    2.41800
 5043.00000   12.21600    0.07840   -0.00980 2238.67600   57.33860  -21.85960 1523.19020   11.60460  102.87240   12.75710  209.50270   67.85540  116.91950    0.16320    2.44900
 5043.50000   12.30520    0.08090   -0.00980 2247.04000   55.13870  -19.76120 1521.82520   12.98770  464.32320   13.02910  208.00790   67.92540  114.53270    0.15970    2.51030
 5044.00000   12.37970    0.08720   -0.00690 2255.40410   54.92690  -17.66090 1535.75810   14.62130 1007.57430   14.33090  206.81290   65.13560  111.18810    0.16740    2.50950
 5044.50000   12.45440    0.09020   -0.00320 2263.76810   58.70360  -15.86040 1534.36210   15.23050  209.61800   15.13240  205.91780   62.15780  109.06480    0.18850    2.66360
 5045.00000   12.45520    0.09300   -0.00390 2272.13210   62.03780  -14.05990 1518.46350   14.42590   11.68730   16.19760  204.72280   62.46360  109.26380    0.21590    2.75540
 5045.50000   12.45600    0.09390   -0.00680 2281.81930   66.25390  -12.25950 1517.07680   13.11450   12.19410   18.06000  202.92810   63.36640  111.31700    0.23190    2.86250
 5046.00000   12.45690    0.08810   -0.00760 2279.37040   72.46110  -11.04290 1515.95850   12.85440   12.90330   23.38710  202.33280   64.26930  114.30500    0.24640    2.95430
 5046.50000   12.45770    0.08790   -0.00830 2276.46120   79.99570  -10.42410 1529.89150   13.39020   13.62020   26.07620  202.93700   66.66460  115.50190    0.26330    3.00040
 5047.00000   12.48820    0.09160   -0.00750 2273.55200   90.63080   -9.80530 1528.49540   14.13880   14.45470   27.16250  203.24140   68.16450  117.59440    0.27190    3.00080
 5047.50000   12.48900    0.10080   -0.00680 2270.64280  100.37780   -9.77740 1512.32730   15.13350   15.50590   25.03330  203.24590   69.36580  126.25400    0.28280    3.03170
 5048.00000   12.48980    0.11040   -0.00380 2267.73360  104.81510  -10.06860 1525.98120   15.77720   16.17820   23.38710  203.30230   71.76120  131.03310    0.30710    3.12350
 5048.50000   12.49090    0.11810   -0.00230 2264.82450  106.59750  -10.89620 1524.86290   15.98090   16.52700   22.45180  203.55470   73.89570  131.93150    0.30740    3.15430
 5049.00000   12.52120    0.11880   -0.00160 2261.91500  100.19730  -11.17070 1523.74580   15.23980   16.07120   21.84920  203.63510   76.00520  131.33740    0.29980    3.06330
 5049.50000   12.55150    0.11300   -0.00080 2259.00590   95.56370  -11.43820 1522.59990   13.76450   14.93210   21.26270  203.95180   76.55970  129.25080    0.28860    2.97220
 5050.00000   12.58170    0.10410   -0.00230 2271.47850   83.18690  -13.76660 1521.23160   11.07630   11.71190   17.33770  204.36740   76.26800  126.26870    0.26000    2.80490
 5050.50000   12.61220    0.10660   -0.00230 2270.20650   74.79230  -16.39050 1520.11450    8.61560    8.35460   10.19910  205.48390   75.61710  124.15700    0.24730    2.69860
 5051.00000   12.67200    0.10960   -0.00520 2269.02640   71.48940  -18.13510 1504.50550    7.47080    7.20760    7.56100  206.52360   75.01510  123.28940    0.23430    2.63620
 5051.50000   12.73170    0.11510   -0.00670 2267.84670   69.73200  -19.87970 1517.87930    6.17730    5.87750    6.14470  207.01600   74.11450  122.91660    0.22370    2.56220
 5052.00000   12.76240    0.12190   -0.00820 2266.66700   67.31090  -21.32880 1501.71220    5.21290    4.82700    4.85910  207.93230   73.11440  121.64780    0.21560    2.47110
 5052.50000   12.77780    0.12340   -0.00820 2235.78000   64.66850  -23.16030 1515.64510    4.60100    4.40560    4.44780  208.54810   71.49230  119.65160    0.22750    2.38000
 5053.00000   12.76370    0.12190   -0.00820 2234.66920   61.97150  -25.10640 1514.24790    4.11050    4.07810    4.21230  209.33660   70.09420  119.12200    0.22810    2.33460
 5053.50000   12.76470    0.12090   -0.00740 2233.62820   60.26880  -25.97180 1513.13090    3.97350    3.91020    4.15530  210.19730   68.88320  120.50050    0.22890    2.33510
 5054.00000   12.73530    0.12060   -0.00670 2232.44800   61.16930  -26.53470 1526.78370    3.92010    3.82920    4.21230  209.00230   68.11970  121.61970    0.22950    2.35070
 5054.50000   12.69290    0.12000   -0.00660 2227.43040   62.06680  -27.09060 1525.38770    3.92040    3.80310    4.32850  209.90620   67.65470  121.40320    0.22480    2.39680
 5055.00000   12.67880    0.11170   -0.00810 2222.41280   60.90760  -27.05570 1524.26950    4.02870    3.83090    4.47820  210.81020   66.91560  120.66680    0.21710    2.47330
 5055.50000   12.65040    0.10100   -0.00960 2217.39530   56.56400  -27.02780 1523.15250    4.22520    3.94120    4.63580  209.61520   67.99390  119.44950    0.19640    2.45430
 5056.00000   12.65130    0.09020   -0.01260 2212.37770   55.02470  -26.99980 1522.00890    4.46140    4.14110    5.02720  209.61960   67.70270  118.08960    0.17800    2.48480
 5056.50000   12.65230    0.08680   -0.01690 2207.36010   53.71290  -26.97190 1535.68810    4.61580    4.52150    5.95910  209.92390   65.62050  117.35220    0.16770    2.56100
 5057.00000   12.68260    0.08380   -0.01840 2202.34250   52.38180  -27.23940 1549.34220    4.64760    4.90580    6.46590  210.52800   64.73230  117.35580    0.16080    2.69820
