~Version ---------------------------------------------------
VERS.   2.0 : CWLS log ASCII Standard -VERSION 2.0
WRAP.    NO : One line per depth step
DLM . SPACE : Column Data Section Delimiter
~Well ------------------------------------------------------
STRT .F                   20.5 : START DEPTH
STOP .F                11651.5 : STOP DEPTH
STEP .F                    0.5 : STEP
NULL .                -9999.25 : NULL VALUE
COMP .                         : COMPANY
WELL .                         : WELL
FLD  .                         : FIELD
LOC  .                         : LOCATION
PROV .                         : PROVINCE
CNTY .                         : COUNTY
STAT .                         : STATE
CTRY .                         : COUNTRY
SRVC .                         : SERVICE COMPANY
DATE .                         : DATE
UWI  .                         : UNIQUE WELL ID
API  .                         : API NUMBER
SLAT .WGS84 2.2980986677276007 : SURFACE LATITUDE
SLON .WGS84  6.463845492429996 : SURFACE LONGITUDE
DATUM.F                 2692.0 : DEPTH DATUM ELEV
~Curve Information -----------------------------------------
DEPT.F     : 
CALD.IN    : CALIPER FROM DENSITY LOG
DPHI.DEC   : DENSITY POROSITY LIMESTONE
DRHO.G/C3  : DENSITY CORRECTION
TEND.LBS   : TENSION FORM DENSITY LOG
GRD .GAPI  : GAMMA RAY FROM DENSITY LOG
SPR .MV    : SPONTANEOUS POTENTIAL
TENR.LBS   : TENSION FROM RESISTIVITY LOG
ILD .OHMM  : INDUCTION LOG DEEP RESISTIVITY
ILM .OHMM  : INDUCTION LOG MEDIUM RESISTIVITY
SFLU.OHMM  : SPHERICALLY FOCUSED LOG UNAVERAGED RES.
DTST.US/F  : DELTA TIME STONELEY
DTCO.US/F  : DELTA TIME COMPRESSIONAL
DTSM.US/F  : DELTA TIME SHEAR
NPHI.DEC   : NEUTRON POROSITY LIMESTONE
PEF .B/E   : PHOTOELECTRIC FACTOR
~Params ----------------------------------------------------
~Other -----------------------------------------------------
~ASCII -----------------------------------------------------
# ...
 9887.50000    9.70590    0.10670   -0.00220 3724.31690  110.40440  -10.70320 2813.28490    9.41820   11.90620   14.53080  218.55880   88.18390  161.56090    0.36670    3.31880
 9888.00000    9.70710    0.08050   -0.00220 3664.29690  104.47460  -11.01610 2812.37210    8.85650   10.97370   15.24090  218.60500   89.07570  161.24880    0.35720    3.49690
 9888.50000    9.70840    0.06820   -0.00210 3633.87670  102.28950  -11.54430 2811.45920    8.55820    9.89320   14.91690  218.65120   87.99320  157.81040    0.32040    3.67500
 9889.00000    9.70950    0.05460   -0.00500 3588.79170  100.10440  -11.51450 2810.53490    8.37620    9.13380   12.95050  218.69750   86.25750  152.87520    0.26310    3.79550
 9889.50000    9.71060    0.04390   -0.00930 3633.13820   98.80170  -11.49050 2809.40430    8.15580    8.82880   11.07760  218.74370   84.44880  148.56570    0.23360    3.83970
 9890.00000    9.71750    0.04040   -0.01230 3718.29300   96.62180  -12.05930 2808.49120    7.88110    8.47640   10.92910  218.79000   82.90620  145.67580    0.22470    3.84080
 9890.50000    9.74240    0.04450   -0.01370 3746.79690   94.43150  -12.65960 2807.57840    7.46170    7.97360   10.85680  218.83620   80.43620  142.37710    0.22260    3.81240
 9891.00000    9.74360    0.05280   -0.01060 3745.42770   96.22230  -13.48700 2806.66550    6.96870    7.60330   10.78500  218.88250   79.20270  142.49040    0.22130    3.67760
 9891.50000    9.75940    0.06160   -0.00610 3714.73290   99.77250  -13.76540 2805.52340    6.73390    7.20110   10.56870  218.92870   78.58730  143.26590    0.21930    3.50520
 9892.00000    9.77550    0.07230   -0.00020 3684.31080  103.76910  -14.32810 2804.61060    6.64140    7.00780   10.21670  218.97010   79.51780  145.02650    0.23940    3.32930
 9892.50000    9.76190    0.07460    0.00580 3653.89090  103.34870  -15.80970 2803.69780    6.73090    6.91400    8.61310  218.49090   80.79470  151.94680    0.24680    3.09440
 9893.00000    9.74800    0.06810    0.01330 3652.78640   99.84010  -17.53360 2802.81860    7.10600    7.20260    8.33420  217.25660   83.90670  153.79860    0.25570    2.96280
 9893.50000    9.70970    0.05970    0.02730 3651.61280   95.89030  -19.58380 2801.85420    7.67520    7.60590    8.27880  215.72260   85.13870  154.10510    0.26340    3.00840
 9894.00000    9.69170    0.04740    0.03110 3650.44070   98.17190  -20.15250 2800.72970    8.42010    8.67950    8.45070  214.64310   84.95910  152.86520    0.25840    2.98000
 9894.50000    9.66340    0.04590    0.02080 3649.23390  101.67240  -20.72120 2799.81690    9.07270    9.78400    9.17010  214.32700   84.47870  148.93340    0.24040    2.92210
 9895.00000    9.63530    0.04500    0.01030 3647.86470  102.57560  -20.98760 2798.90410    9.84270   10.40240   10.79670  214.20660   84.89980  144.82220    0.21800    2.89380
 9895.50000    9.60700    0.04320    0.00320 3617.44480  102.59640  -20.96370 2812.83370   11.27580   11.28780   11.40160  214.21170   85.41270  141.40390    0.21300    2.92470
 9896.00000    9.63780    0.06190   -0.00110 3587.02270  103.53310  -20.93980 2826.75170   13.27320   12.58670   12.88720  214.21600   85.73740  142.26340    0.21540    2.92580
 9896.50000    9.63890    0.09650   -0.00180 3585.92360  111.90800  -20.91700 2825.60960   15.20570   14.81980   16.46210  213.92100   82.27280  148.15720    0.24100    2.89740
 9897.00000    9.64000    0.13810    0.00210 3613.88450  129.13460  -21.18840 2824.69680   18.78380   18.30000   20.87270  213.92530   82.64050  154.13880    0.27700    2.80590
 9897.50000    9.61170    0.16570    0.01310 3715.42940  156.95130  -21.15850 2823.78390   22.11520   25.89060   32.93970  213.92970   85.42550  157.83740    0.29900    2.73760
 9898.00000    9.58340    0.18350    0.02570 3699.66990  167.56030  -21.13460 2837.70800   25.23180   52.53090   45.65340  213.93410   87.59240  162.74640    0.31600    2.75350
 9898.50000    9.55510    0.19000    0.01990 3668.97530  199.78710  -20.81440 2836.56790   29.43310   58.17760  130.94630  213.93860   98.10540  166.99690    0.32760    2.78410
 9899.00000    9.52700    0.20420   -0.00810 3638.55570  211.06310  -20.49420 2835.65480   29.84340   56.23570  260.19820  213.94310   99.96310  166.08540    0.32250    2.84450
 9899.50000    9.52840    0.21280   -0.02720 3637.45900  215.27500  -20.55220 2834.79150   30.05450   54.68090  471.50510  213.94760  100.27520  164.14380    0.31960    2.87510
 9900.00000    9.49980    0.22190   -0.02420 3627.01900  212.20760  -19.93790 2818.99120   29.05840   48.83850  625.50130  213.95160   99.96910  165.50180    0.31960    2.89090
 9900.50000    9.50120    0.22310   -0.01670 3596.44510  191.49310  -19.92120 2832.91430   26.43100   32.20800  272.99250  213.93020   99.02490  167.35350    0.32670    2.90680
 9901.00000    9.47290    0.21300   -0.00780 3595.48270  157.32450  -19.31100 2831.77420   24.03960   25.21870  124.09990  213.65270   98.21210  167.04140    0.32720    2.87840
 9901.50000    9.47430    0.19290   -0.00330 3594.51830  120.23970  -18.70030 2845.92500   21.27850   21.57180   72.54660  213.65270   97.61640  164.56550    0.31950    2.82080
 9902.00000    9.44570    0.15320   -0.00180 3593.53980  108.65730  -18.08650 2844.78490   17.71770   18.41120   30.43980  213.65270   97.02090  157.17140    0.31080    2.85140
 9902.50000    9.44700    0.12720   -0.00320 3592.35030  101.84800  -17.47630 2841.89620   15.53510   15.57160   23.84320  213.65270   91.30720  149.38980    0.29110    3.01480
 9903.00000    9.41870    0.10650   -0.00760 3591.38600   97.68580  -16.86610 2827.89330   13.60240   13.78060   21.39570  213.65270   88.28020  149.09120    0.28280    3.20790
 9903.50000    9.39070    0.09410   -0.01220 3590.42360   93.31020  -16.25170 2826.98050   12.20470   12.19560   20.27240  213.95210   86.42900  149.08670    0.27500    3.35650
 9904.00000    9.39180    0.08990   -0.01810 3589.42700   96.86860  -15.64160 2811.23070   11.72040   11.55260   20.28380  213.95210   85.08640  149.44870    0.26000    3.47560
 9904.50000    9.36350    0.09110   -0.01660 3617.62400  101.75050  -15.32810 2825.15450   11.32880   11.39940   20.01900  213.95210   85.08810  150.27420    0.24810    3.38820
 9905.00000    9.33520    0.09230   -0.01510 3616.65970  105.30880  -15.01470 2824.01250   11.25810   11.55930   19.09730  213.95210   85.08950  148.96390    0.24280    3.16840
 9905.50000    9.32160    0.09350   -0.01800 3645.08010  108.43330  -14.99380 2763.58200   11.41570   11.72060   18.34240  213.95210   85.79560  150.95570    0.24360    3.03670
 9906.00000    9.30820    0.10800   -0.01580 3643.86040  110.22690  -14.38370 2761.40770   11.65370   12.38000   18.76280  213.95210   88.11130  152.66130    0.25670    2.97860
 9906.50000    9.30960    0.12010   -0.01140 3642.89600  110.25590  -14.36690 2759.23320   11.73620   12.89900   20.89220  213.95210   89.57190  154.78710    0.26560    2.92090
 9907.00000    9.31070    0.13130   -0.01210 3641.93360  108.96130  -14.35020 2757.05880   11.90050   12.90230   24.43850  213.94690   90.17040  155.63150    0.27920    2.87780
 9907.50000    9.31180    0.13010   -0.01350 3640.96920  107.45330  -14.32940 2754.82180   12.23140   12.90560   26.16920  213.74000   90.76880  153.53450    0.27920    2.89400
 9908.00000    9.31290    0.12540    0.00860 3639.76370   99.76170  -14.31260 2752.16890   12.74350   13.08660   25.25040  213.65270   90.77030  149.04590    0.26790    2.98360
 9908.50000    9.31430    0.10940    0.01310 3624.11690   94.05540  -14.29590 2749.99460   13.27700   13.26920   21.50910  213.65270   90.47310  148.74260    0.25840    3.04370
 9909.00000    9.24190    0.09420    0.00420 3638.07790   93.20200  -14.27890 2747.81570   13.66020   13.63870   19.56540  213.65270   89.28060  147.84140    0.24480    3.11880
 9909.50000    9.22820    0.08370   -0.00470 3636.85840   95.88520  -14.25830 2745.62330   14.02650   14.02490   19.57420  213.65270   87.76420  147.53810    0.23650    3.10490
 9910.00000    9.21490    0.08160   -0.02080 3635.66890  102.09060  -14.24160 2742.92580   14.31890   14.80720   20.09290  213.65270   86.20790  146.61630    0.23840    3.04680
