~Version ---------------------------------------------------
VERS.   2.0 : CWLS log ASCII Standard -VERSION 2.0
WRAP.    NO : One line per depth step
DLM . SPACE : Column Data Section Delimiter
~Well ------------------------------------------------------
STRT .F                   20.5 : START DEPTH
STOP .F                11651.5 : STOP DEPTH
STEP .F                    0.5 : STEP
NULL .                -9999.25 : NULL VALUE
COMP .                         : COMPANY
WELL .                         : WELL
FLD  .                         : FIELD
LOC  .                         : LOCATION
PROV .                         : PROVINCE
CNTY .                         : COUNTY
STAT .                         : STATE
CTRY .                         : COUNTRY
SRVC .                         : SERVICE COMPANY
DATE .                         : DATE
UWI  .                         : UNIQUE WELL ID
API  .                         : API NUMBER
SLAT .WGS84 2.2980986677276007 : SURFACE LATITUDE
SLON .WGS84  6.463845492429996 : SURFACE LONGITUDE
DATUM.F                 2692.0 : DEPTH DATUM ELEV
~Curve Information -----------------------------------------
DEPT.F     : 
CALD.IN    : CALIPER FROM DENSITY LOG
DPHI.DEC   : DENSITY POROSITY LIMESTONE
DRHO.G/C3  : DENSITY CORRECTION
TEND.LBS   : TENSION FORM DENSITY LOG
GRD .GAPI  : GAMMA RAY FROM DENSITY LOG
SPR .MV    : SPONTANEOUS POTENTIAL
TENR.LBS   : TENSION FROM RESISTIVITY LOG
ILD .OHMM  : INDUCTION LOG DEEP RESISTIVITY
ILM .OHMM  : INDUCTION LOG MEDIUM RESISTIVITY
SFLU.OHMM  : SPHERICALLY FOCUSED LOG UNAVERAGED RES.
DTST.US/F  : DELTA TIME STONELEY
DTCO.US/F  : DELTA TIME COMPRESSIONAL
DTSM.US/F  : DELTA TIME SHEAR
NPHI.DEC   : NEUTRON POROSITY LIMESTONE
PEF .B/E   : PHOTOELECTRIC FACTOR
~Params ----------------------------------------------------
~Other -----------------------------------------------------
~ASCII -----------------------------------------------------
# ...
 5908.50000   10.51730    0.11050   -0.01550 2439.14530   95.85300  -17.27130 1706.74720   19.00840   19.81500   27.87520  212.26740   78.67270  126.64340    0.21690    3.10510
 5909.00000   10.48910    0.10810   -0.01400 2451.32790   88.01260  -17.54640 1719.96440   18.88340   19.68260   28.45310  209.87740   73.86700  125.45380    0.20670    2.97390
 5909.50000   10.46090    0.10640   -0.01250 2449.68240   82.28130  -18.10390 1718.32310   18.50610   18.87340   28.65080  210.18600   69.69520  124.18160    0.19350    2.85710
 5910.00000   10.49130    0.10460   -0.01100 2448.37790   83.40850  -18.36970 1716.32030   18.13710   17.59480   28.26760  210.49460   66.71740  120.11830    0.18700    2.76990
 5910.50000   10.49230    0.10130   -0.00740 2446.90280   86.30550  -18.92940 1714.70070   18.01700   16.75300   25.70570  209.85250   67.91870  115.86880    0.18130    2.68300
 5911.00000   10.46380    0.09990   -0.00590 2445.13840   85.88930  -19.79720 1713.08110   18.02130   16.40720   23.05960  208.63190   69.12000  116.04430    0.18010    2.65480
 5911.50000   10.43440    0.10550   -0.00290 2443.74050   81.26420  -20.35460 1726.33480   18.02480   17.12100   21.54700  208.42200   68.53020  117.27580    0.18920    2.65600
 5912.00000   10.40700    0.10700   -0.00130 2442.34230   77.08170  -20.30150 1724.62870   18.28830   18.50480   21.25880  211.93500   67.64200  118.41210    0.19200    2.67200
 5912.50000   10.40820    0.10220   -0.00720 2440.94560   73.56280  -19.69870 1737.89420   18.91070   20.14180   27.15690  214.43650   67.05220  119.21640    0.17780    2.86990
 5913.00000   10.37950    0.09390   -0.01150 2439.52780   73.60780  -19.59910 1751.11130   19.43530   21.31470   35.40500  213.74390   67.37380  118.66580    0.16860    3.14680
 5913.50000   10.38070    0.08980   -0.01150 2437.79980   79.58350  -19.34810 1749.08690   20.24760   22.41210   42.54270  213.43780   67.96230  117.74180    0.16180    3.26610
 5914.00000   10.38180    0.09070   -0.00330 2436.40160   87.56900  -19.02170 1747.46730   21.24490   23.37200   44.92610  212.96550   67.02730  116.68090    0.16090    3.01660
 5914.50000   10.38290    0.09220    0.00050 2449.75290   92.67850  -18.35850 1745.44270   23.04670   24.04610   39.22160  212.67470   66.48430  115.35460    0.17310    2.78190
 5915.00000   10.38390    0.09120    0.00350 2463.10380   94.07040  -17.77320 1728.98470   24.17360   24.56600   35.18420  212.68370   66.87080  116.55300    0.19500    2.72410
 5915.50000   10.38490    0.09220    0.00500 2461.65140   92.27790  -17.44880 1712.52830   25.35570   25.27450   32.65360  212.69440   68.76760  118.34840    0.20560    2.81420
 5916.00000   10.38590    0.09510   -0.00240 2459.95800   91.85650  -17.12430 1710.90870   25.70740   26.56040   33.33160  212.70320   69.78970  119.54680    0.20890    2.96300
 5916.50000   10.38710    0.09510   -0.00520 2458.56010   91.43490  -17.09620 1709.27230   26.06420   27.32650   37.93150  213.91130   66.90080  120.44670    0.20680    3.03800
 5917.00000   10.38800    0.09150   -0.00220 2457.16190   90.13370  -17.65360 1692.42790   26.07030   28.11460   40.88160  217.59000   65.19710  120.45100    0.19740    2.99400
 5917.50000   10.38900    0.08530    0.00230 2441.00320   85.67910  -18.63920 1706.04990   26.07530   28.92550   42.01380  214.22870   64.77960  119.85840    0.18340    2.90770
 5918.00000   10.39000    0.07760    0.00530 2424.51780   77.12780  -19.96770 1704.02540   26.08040   29.76240   44.67130  210.03960   69.13160  119.26570    0.16510    3.11580
 5918.50000   10.37630    0.07020    0.00220 2437.86890   66.97180  -21.12480 1702.40420   25.72420   30.62010   49.81000  208.84860   69.44590  118.35310    0.13930    3.26460
 5919.00000   10.38090    0.06550   -0.00490 2436.47090   59.47060  -21.70110 1700.74120   24.37830   30.41130   60.67100  208.85770   68.04590  116.80560    0.12780    3.35430
 5919.50000   10.39310    0.06430   -0.00780 2435.10350   61.48270  -23.13550 1714.00170   22.78190   26.23980   64.06970  208.86660   66.56060  114.41310    0.12630    3.35210
 5920.00000   10.40120    0.07080   -0.01070 2428.05740   70.08700  -23.84840 1727.21890   19.89190   21.24880   41.19460  208.83590   64.17980  110.86590    0.13050    3.15070
 5920.50000   10.42480    0.07880   -0.00770 2417.17770   75.46800  -24.56070 1725.19450   17.84690   17.40380   29.52880  206.60840   62.69460  110.63080    0.14940    2.97490
 5921.00000   10.42570    0.08150   -0.00610 2415.77980   76.81640  -25.42140 1723.57480   16.01290   14.95170   21.02320  203.04320   64.49290  111.71680    0.15450    2.90240
 5921.50000   10.44140    0.08570   -0.00760 2414.45410   76.61610  -25.98590 1721.55030   14.76230   13.93880   17.11640  202.30490   65.69420  112.83890    0.15360    2.85940
 5922.00000   10.45710    0.09100   -0.00970 2412.97900   72.18700  -26.55040 1719.92910   14.56520   13.55440   16.24230  210.49300   65.70150  113.03280    0.14790    2.80170
 5922.50000   10.45810    0.09420   -0.01040 2425.98510   68.03500  -27.11480 1718.30940   14.56870   14.04480   16.46670  210.71820   65.70900  112.59710    0.14170    2.78820
 5923.00000   10.47400    0.09480   -0.00720 2424.58840   69.38340  -26.78330 1716.68980   14.89080   14.89390   17.15430  208.47770   65.71640  111.98830    0.14590    2.78980
 5923.50000   10.47500    0.09450   -0.00140 2437.93920   76.70530  -26.17880 1715.05850   16.35910   16.17850   21.03800  206.02540   65.72390  111.08050    0.16750    2.82050
 5924.00000   10.46100    0.09040    0.00010 2436.54130   82.03600  -25.53480 1728.28750   18.24060   19.43410   29.96160  203.71820   66.02980  110.66350    0.17960    2.92700
 5924.50000   10.43280    0.08480   -0.00130 2435.10300   81.95560  -25.50670 1726.26290   19.39420   24.35230   42.67030  202.95950   66.03730  110.66780    0.17080    3.14790
 5925.00000   10.37520    0.07710   -0.00270 2433.39550   72.12740  -25.47860 1724.64160   19.66330   25.58960   56.00960  202.96850   66.34330  110.97070    0.14910    3.34090
 5925.50000   10.31740    0.06790   -0.00040 2431.99730   68.16610  -25.74670 1708.18530   19.14080   23.35900   66.84740  202.97910   66.35070  111.87060    0.13970    3.59290
 5926.00000   10.28870    0.06430    0.00330 2430.59940   67.29680  -26.31110 1706.52750   17.52650   20.15350   57.56990  202.98790   66.35820  112.47190    0.13460    3.69740
 5926.50000   10.30460    0.07050    0.00630 2429.20120   77.50000  -26.86860 1704.82280   15.72470   16.55150   34.34760  203.29650   66.36570  113.07330    0.16660    3.43260
 5927.00000   10.34970    0.08830    0.00490 2427.45360   82.17230  -27.08770 1688.08470   14.01260   13.03100   20.33530  204.20480   66.21010  113.07770    0.18450    3.02170
 5927.50000   10.38430    0.09930   -0.00190 2396.55710   82.63570  -27.99750 1696.70890   12.10850   11.47230   12.39410  205.71280   63.39700  113.38060    0.18140    2.81650
 5928.00000   10.44010    0.09740   -0.00390 2395.15890   76.01950  -29.15450 1699.70400    9.57980    8.36720   10.24740  207.22090   64.59830  113.40910    0.16550    2.75880
 5928.50000   10.47050    0.09100    0.00060 2393.76100   70.28830  -30.92320 1698.06100    8.71580    7.58370    9.19260  205.43050   65.79960  113.68810    0.16070    2.76000
 5929.00000   10.50090    0.08830    0.00370 2392.33110   67.41270  -31.76490 1726.11510    8.31270    7.53200    8.69150  203.34030   65.80680  113.99110    0.15120    2.83530
 5929.50000   10.53150    0.08900    0.00220 2390.61520   66.34790  -32.03310 1724.09060    7.98230    7.69540    8.30360  202.44960   65.21640  113.99550    0.13290    2.95460
 5930.00000   10.56190    0.09050   -0.01030 2419.06470   68.14400  -31.99790 1722.47090    7.82280    7.80670   10.82600  203.38840   64.92540  114.00000    0.12990    2.98500
 5930.50000   10.59230    0.09200   -0.01460 2417.31740   68.60220  -31.96980 1720.84630    7.77130    7.92000   12.48870  203.66720   64.90890  113.70520    0.13410    2.82440
 5931.00000   10.60800    0.09450   -0.01380 2430.67850   68.18580  -31.90420 1718.82690    7.72060    7.92210   12.57550  203.97600   65.23890  113.28970    0.14360    2.70620
