~Version ---------------------------------------------------
VERS.   2.0 : CWLS log ASCII Standard -VERSION 2.0
WRAP.    NO : One line per depth step
DLM . SPACE : Column Data Section Delimiter
~Well ------------------------------------------------------
STRT .F                   20.5 : START DEPTH
STOP .F                11651.5 : STOP DEPTH
STEP .F                    0.5 : STEP
NULL .                -9999.25 : NULL VALUE
COMP .                         : COMPANY
WELL .                         : WELL
FLD  .                         : FIELD
LOC  .                         : LOCATION
PROV .                         : PROVINCE
CNTY .                         : COUNTY
STAT .                         : STATE
CTRY .                         : COUNTRY
SRVC .                         : SERVICE COMPANY
DATE .                         : DATE
UWI  .                         : UNIQUE WELL ID
API  .                         : API NUMBER
SLAT .WGS84 2.2980986677276007 : SURFACE LATITUDE
SLON .WGS84  6.463845492429996 : SURFACE LONGITUDE
DATUM.F                 2692.0 : DEPTH DATUM ELEV
~Curve Information -----------------------------------------
DEPT.F     : 
CALD.IN    : CALIPER FROM DENSITY LOG
DPHI.DEC   : DENSITY POROSITY LIMESTONE
DRHO.G/C3  : DENSITY CORRECTION
TEND.LBS   : TENSION FORM DENSITY LOG
GRD .GAPI  : GAMMA RAY FROM DENSITY LOG
SPR .MV    : SPONTANEOUS POTENTIAL
TENR.LBS   : TENSION FROM RESISTIVITY LOG
ILD .OHMM  : INDUCTION LOG DEEP RESISTIVITY
ILM .OHMM  : INDUCTION LOG MEDIUM RESISTIVITY
SFLU.OHMM  : SPHERICALLY FOCUSED LOG UNAVERAGED RES.
DTST.US/F  : DELTA TIME STONELEY
DTCO.US/F  : DELTA TIME COMPRESSIONAL
DTSM.US/F  : DELTA TIME SHEAR
NPHI.DEC   : NEUTRON POROSITY LIMESTONE
PEF .B/E   : PHOTOELECTRIC FACTOR
~Params ----------------------------------------------------
~Other -----------------------------------------------------
~ASCII -----------------------------------------------------
# ...
 11622.50000    8.77640   -0.05030   -0.00120 4198.08540   -9999.25  -20.78210 3449.50150   60.96200   64.55930   81.24180  194.92550   48.96550   89.02840    0.04770    3.17330
 11623.00000    8.77790   -0.05180    0.00180 4196.46530   -9999.25  -20.74550 3433.23340   56.94560   60.69780   81.84390  194.92850   49.36890   89.02840    0.05180    3.21980
 11623.50000    8.77940   -0.05380    0.00180 4194.63920   -9999.25  -20.68870 3446.67360   54.65280   57.85480   81.33640   -9999.25   -9999.25   -9999.25    0.05660    3.32300
 11624.00000    8.79560   -0.05060    0.00040 4208.23390   -9999.25  -20.36660 3445.10330   52.49170   55.90600   79.73980   -9999.25   -9999.25   -9999.25    0.06040    3.44200
 11624.50000    8.81210   -0.03050    0.00120 4206.33200   -9999.25  -20.32990 3443.49100   51.09000   54.39440   76.60650   -9999.25   -9999.25   -9999.25    0.06430    3.50190
 11625.00000    8.81360   -0.02310    0.00640 4189.73340   -9999.25  -20.59870 3442.07690   50.06740   52.92360   74.59350   -9999.25   -9999.25   -9999.25    0.06570    3.57690
 11625.50000    8.81510   -0.03050    0.01240 4188.22560   -9999.25  -20.55290 3440.66310   49.74140   51.49250   72.14110   -9999.25   -9999.25   -9999.25    0.06370    3.62210
 11626.00000    8.81700   -0.04430    0.01680 4186.74460   -9999.25  -20.81250 3454.08570   49.78950   50.79160   68.82660   -9999.25   -9999.25   -9999.25    0.04560    3.68210
 11626.50000    8.81850   -0.05650    0.02130 4184.82810   -9999.25  -21.65550 3452.52120   51.16060   51.14090   59.54240   -9999.25   -9999.25   -9999.25   -9999.25    3.68300
 11627.00000    8.82000   -0.06570    0.02360 4183.31980   -9999.25  -22.22060 3450.90280   53.32370   52.56210   56.19500   -9999.25   -9999.25   -9999.25   -9999.25    3.62530
 11627.50000    8.82160   -0.06690    0.02440 4181.80910   -9999.25  -23.06360 3449.48900   57.90940   54.76840   55.83850   -9999.25   -9999.25   -9999.25   -9999.25    3.53770
 11628.00000    8.82340   -0.06180    0.02300 4180.26560   -9999.25  -24.80470 3448.07100   62.88950   61.60580   59.40690   -9999.25   -9999.25   -9999.25   -9999.25    3.45020
 11628.50000    8.82490   -0.05560    0.02000 4178.41460   -9999.25  -26.56460 3446.30910   70.20020   69.82360   69.03700   -9999.25   -9999.25   -9999.25   -9999.25    3.39220
 11629.00000    8.82640   -0.05180    0.02600 4176.90330   -9999.25  -29.16660 3444.89500   79.43490   83.76330  160.58270   -9999.25   -9999.25   -9999.25   -9999.25    3.36390
 11629.50000    8.79860   -0.05480    0.03790 4175.40530   -9999.25  -30.61140 3443.48120   89.27090   96.72840  175.53200   -9999.25   -9999.25   -9999.25   -9999.25    3.30580
 11630.00000    8.74170   -0.05890    0.03790 4173.50930   -9999.25  -33.53770 3442.13530  111.94180  111.70020  182.95060   -9999.25   -9999.25   -9999.25   -9999.25    3.21830
 11630.50000    8.74320   -0.04560    0.02620 4157.27050   -9999.25  -35.57510 3440.65190  137.57230  157.17010  219.58880   -9999.25   -9999.25   -9999.25   -9999.25    3.12690
 11631.00000    8.74510   -0.04080    0.01290 4141.03520   -9999.25  -37.94700 3438.88430  161.03890  197.27750  452.70190   -9999.25   -9999.25   -9999.25   -9999.25    3.04350
 11631.50000    8.74660   -0.03910    0.01000 4154.25150   -9999.25  -40.52960 3437.47050  172.50900  226.25670  623.60990   -9999.25   -9999.25   -9999.25   -9999.25    3.04450
 11632.00000    8.74810   -0.03280    0.01240 4152.36470   -9999.25  -42.86330 3436.05640  173.75080  245.64940  760.04160   -9999.25   -9999.25   -9999.25   -9999.25    3.07490
 11632.50000    8.76430   -0.02340    0.02050 4150.85690   -9999.25  -45.19700 3434.64260  169.11110  255.96040  939.01090   -9999.25   -9999.25   -9999.25   -9999.25    3.19410
 11633.00000    8.78090   -0.01630    0.03010 4164.07370   -9999.25  -47.53060 3433.22850  158.81350  255.96040 1054.73900   -9999.25   -9999.25   -9999.25   -9999.25    3.25410
 11633.50000    8.78240   -0.02070    0.04860 4162.18700   -9999.25  -50.17940 3431.75000  143.58670  252.47620  831.88530   -9999.25   -9999.25   -9999.25   -9999.25    3.26980
 11634.00000    8.78390   -0.02310    0.06340 4163.33790   -9999.25  -51.59620 3430.26730  134.12690  234.14360  506.59210   -9999.25   -9999.25   -9999.25   -9999.25    3.28550
 11634.50000    8.78570   -0.02040    0.03690 4164.70510   -9999.25  -52.44840 3443.46880  126.15110  197.27750  421.83980   -9999.25   -9999.25   -9999.25   -9999.25    3.24250
 11635.00000    8.78730   -0.01780    0.02070 4166.07180   -9999.25  -54.48590 3442.05470  121.11240  168.50980  365.57930   -9999.25   -9999.25   -9999.25   -9999.25    3.16970
 11635.50000    8.78880   -0.01890    0.00750 4167.43900   -9999.25  -55.63430 3440.65380  114.57820  162.83370  335.17600   -9999.25   -9999.25   -9999.25   -9999.25    3.11140
 11636.00000    8.79030   -0.02370    0.01050 4168.80620   -9999.25  -56.48650 3454.06350  112.40670  172.01000  324.15610   -9999.25   -9999.25   -9999.25   -9999.25    3.06840
 11636.50000    8.79210   -0.02810    0.01500 4170.17290   -9999.25  -57.03330 3452.29470  110.90480  174.38380  313.49880   -9999.25   -9999.25   -9999.25   -9999.25    3.26140
 11637.00000    8.79360   -0.02780    0.01800 4171.54000   -9999.25  -56.99660 3466.06960  112.47980  173.19290  309.44280   -9999.25   -9999.25   -9999.25   -9999.25    3.33610
 11637.50000    8.79520   -0.02600    0.01950 4172.90720   -9999.25  -56.95990 3464.30370  112.51640  176.79040  311.91410   -9999.25   -9999.25   -9999.25   -9999.25    3.38130
 11638.00000    8.79700   -0.02940    0.01440 4174.27440   -9999.25  -56.62700 3462.90870  120.54020  180.46260  320.56740   -9999.25   -9999.25   -9999.25   -9999.25    3.26450
 11638.50000    8.79850   -0.03610    0.01670 4175.66800   -9999.25  -56.38500 3461.42380  130.01310  220.13880  331.85110   -9999.25   -9999.25   -9999.25   -9999.25    3.22100
 11639.00000    8.80000   -0.04230    0.02280 4169.99170   -9999.25  -55.95180 3459.70700  132.75480  274.11620  343.53150   -9999.25   -9999.25   -9999.25   -9999.25    3.29590
 11639.50000    8.77260   -0.05270    0.02860 4164.20210   -9999.25  -55.87390 3458.29300  129.20980  402.34760  353.21260   -9999.25   -9999.25   -9999.25   -9999.25    3.32640
 11640.00000    8.74470   -0.06010    0.02420 4158.41310   -9999.25  -55.58210 3456.87920  116.37760  452.06060  381.10070   -9999.25   -9999.25   -9999.25   -9999.25    3.38660
 11640.50000    8.73150   -0.06240    0.01540 4152.62350   -9999.25  -55.24920 3455.46510   98.99830  402.34760  461.12530   -9999.25   -9999.25   -9999.25   -9999.25    3.41710
 11641.00000    8.74770   -0.06360    0.01100 4146.83400   -9999.25  -55.21180 3468.88790   92.47610  274.11620  546.92340   -9999.25   -9999.25   -9999.25   -9999.25    3.47700
 11641.50000    8.74960   -0.05870    0.02580 4141.04440   -9999.25  -55.16660 3467.35790   87.57470  197.27750  593.78580   -9999.25   -9999.25   -9999.25   -9999.25    3.53920
 11642.00000    8.78050   -0.05060    0.05240 4134.76900   -9999.25  -55.12990 3460.25150   83.50300  130.76940  614.68650   -9999.25   -9999.25   -9999.25   -9999.25    3.47920
 11642.50000    8.82600   -0.04850    0.07220 4133.25780   -9999.25   -9999.25 3449.45430   -9999.25   -9999.25   -9999.25   -9999.25   -9999.25   -9999.25   -9999.25    3.36220
 11643.00000    8.87190   -0.05000    0.10120 4160.82620   -9999.25   -9999.25 3448.04050   -9999.25   -9999.25   -9999.25   -9999.25   -9999.25   -9999.25   -9999.25    3.27470
 11643.50000    8.93220   -0.04880    0.11160 4159.31840   -9999.25   -9999.25 3430.17070   -9999.25   -9999.25   -9999.25   -9999.25   -9999.25   -9999.25   -9999.25    3.08410
 11644.00000    8.96310   -0.03910    0.10870 4187.64110   -9999.25   -9999.25 3400.70210   -9999.25   -9999.25   -9999.25   -9999.25   -9999.25   -9999.25   -9999.25    2.89340
 11644.50000    8.91570   -0.03140    0.06300 4185.75440   -9999.25   -9999.25 3414.12500   -9999.25   -9999.25   -9999.25   -9999.25   -9999.25   -9999.25   -9999.25    2.80580
