~Version ---------------------------------------------------
VERS.   2.0 : CWLS log ASCII Standard -VERSION 2.0
WRAP.    NO : One line per depth step
DLM . SPACE : Column Data Section Delimiter
~Well ------------------------------------------------------
STRT .F                   20.5 : START DEPTH
STOP .F                11651.5 : STOP DEPTH
STEP .F                    0.5 : STEP
NULL .                -9999.25 : NULL VALUE
COMP .                         : COMPANY
WELL .                         : WELL
FLD  .                         : FIELD
LOC  .                         : LOCATION
PROV .                         : PROVINCE
CNTY .                         : COUNTY
STAT .                         : STATE
CTRY .                         : COUNTRY
SRVC .                         : SERVICE COMPANY
DATE .                         : DATE
UWI  .                         : UNIQUE WELL ID
API  .                         : API NUMBER
SLAT .WGS84 2.2980986677276007 : SURFACE LATITUDE
SLON .WGS84  6.463845492429996 : SURFACE LONGITUDE
DATUM.F                 2692.0 : DEPTH DATUM ELEV
~Curve Information -----------------------------------------
DEPT.F     : 
CALD.IN    : CALIPER FROM DENSITY LOG
DPHI.DEC   : DENSITY POROSITY LIMESTONE
DRHO.G/C3  : DENSITY CORRECTION
TEND.LBS   : TENSION FORM DENSITY LOG
GRD .GAPI  : GAMMA RAY FROM DENSITY LOG
SPR .MV    : SPONTANEOUS POTENTIAL
TENR.LBS   : TENSION FROM RESISTIVITY LOG
ILD .OHMM  : INDUCTION LOG DEEP RESISTIVITY
ILM .OHMM  : INDUCTION LOG MEDIUM RESISTIVITY
SFLU.OHMM  : SPHERICALLY FOCUSED LOG UNAVERAGED RES.
DTST.US/F  : DELTA TIME STONELEY
DTCO.US/F  : DELTA TIME COMPRESSIONAL
DTSM.US/F  : DELTA TIME SHEAR
NPHI.DEC   : NEUTRON POROSITY LIMESTONE
PEF .B/E   : PHOTOELECTRIC FACTOR
~Params ----------------------------------------------------
~Other -----------------------------------------------------
~ASCII -----------------------------------------------------
# ...
 6805.50000    9.70090    0.14060    0.10180 2699.18380   89.20250  -22.30440 2002.95590   20.33740   20.12560   25.68490  212.86570   85.44050  145.98560    0.32530    3.14700
 6806.00000    9.73120    0.11130    0.12330 2697.93550   91.88610  -22.28620 2001.69240   20.19690   21.44090   28.63450  211.31080   85.44050  145.79870    0.30550    3.20860
 6806.50000    9.74670    0.10770    0.08500 2696.60820   96.13480  -21.97170 2000.42880   19.65370   22.20770   33.93830  212.00330   85.44050  146.97670    0.25810    3.17870
 6807.00000    9.63010    0.11220    0.05830 2695.12480   98.79630  -21.65260 1998.84810   19.12520   20.84220   37.57800  212.62080   85.74960  147.59690    0.25570    3.00980
 6807.50000    9.60130    0.13350    0.00240 2714.21040   99.69850  -21.63440 1997.58460   18.73790   19.83850   34.16020  212.82180   85.74960  147.90700    0.26930    3.05800
 6808.00000    9.57290    0.13910   -0.00150 2722.12430   95.52370  -21.31990 1996.32120   18.47420   18.75060   29.60920  212.82630   86.05870  148.21710    0.28860    3.27200
 6808.50000    9.54440    0.13820    0.00160 2735.62400   94.65420  -21.59850 1995.05760   17.86470   18.10070   27.06600  212.83080   86.54500  149.45740    0.29900    3.39450
 6809.00000    9.51580    0.13230    0.01010 2739.74190   97.34530  -21.28300 1992.99080   17.26640   17.58660   24.97160  212.83530   86.67700  150.07750    0.30510    3.26490
 6809.50000    9.50210    0.11300    0.03150 2747.64010   99.13820  -21.26070 1986.79520   16.68200   16.98660   23.01130  213.01470   86.98610  150.07750    0.30510    2.93850
 6810.00000    9.48820    0.10970    0.06520 2746.31270   98.45250  -20.94620 1999.75500   15.91080   16.51380   22.08820  213.74330   86.98610  149.14730    0.30390    2.83220
 6810.50000    9.48930    0.11090    0.06680 2729.31810   93.98140  -21.22430 1998.20780   15.69520   15.94140   22.84880  214.04710   87.29520  148.20150    0.30690    2.90920
 6811.00000    9.49010    0.12100    0.04380 2714.15970   89.51040  -21.20590 2011.88400   15.48240   15.60710   24.95810  214.35090   87.60430  147.90700    0.31220    3.11350
 6811.50000    9.49090    0.13420    0.02010 2718.37010   86.84660  -20.88700 2024.77770   15.48190   15.82720   26.71150  214.95410   87.91340  149.19380    0.30800    3.29140
 6812.00000    9.50280    0.14050    0.01320 2726.25370   88.19700  -20.57240 2022.85070   15.48140   15.82610   27.07400  215.25790   87.91340  149.45740    0.30120    3.15490
 6812.50000    9.52220    0.12040    0.05380 2739.75340   97.95450  -20.22000 2006.67640   15.58670   15.93720   23.62650  220.35210   88.22260  149.06980    0.29060    2.88110
 6813.00000    9.52300    0.10320    0.08990 2738.19190  100.41150  -19.90400 2020.14280   15.58600   15.93590   21.92030  220.35640   88.22260  149.92250    0.28520    2.72450
 6813.50000    9.52390    0.10020    0.10290 2736.94240   98.44870  -19.58810 2018.20860   15.58550   15.93470   21.60560  219.76200   88.22260  151.93800    0.28190    2.66890
 6814.00000    9.52470    0.11030    0.07080 2735.69290   95.59560  -19.56350 2016.61670   15.58500   15.82160   22.98280  217.34730   88.22260  151.50360    0.27860    2.80680
 6814.50000    9.52570    0.13100    0.03330 2734.13130   93.18500  -19.48310 1999.89050   15.37370   15.82060   23.77490  214.96010   87.91340  150.55790    0.27630    2.79210
 6815.00000    9.52650    0.14370    0.01800 2732.88180   92.76550  -19.22790 1998.34160   15.16530   15.59830   23.61070  214.68540   87.83110  149.45740    0.27570    2.74590
 6815.50000    9.52740    0.14640    0.01110 2731.63230   94.12170  -19.20830 1981.95740   15.03060   15.26850   22.97010  215.68770   87.50520  148.66670    0.27560    2.70180
 6816.00000    9.52820    0.14160    0.00880 2715.63350   96.35700  -18.89190 1980.41560   14.85780   14.74170   21.75380  217.17130   87.18000  147.90700    0.27770    2.79400
 6816.50000    9.52930    0.13450    0.02410 2699.63620   98.59240  -18.57150 1993.69950   14.54880   14.43260   20.59900  219.78830   86.85410  149.45740    0.28510    2.91650
 6817.00000    9.54480    0.13390    0.03330 2713.13600  100.38540  -18.55180 1991.76530   13.78480   14.03080   18.98190  218.70960   86.52890  151.31780    0.29600    3.00930
 6817.50000    9.56030    0.14370    0.03950 2711.57320  101.74150  -18.40300 1990.21790   13.32310   13.54450   17.91130  218.00070   86.20270  151.62790    0.31320    3.03960
 6818.00000    9.59060    0.15930    0.05640 2710.32500  102.20700  -18.21620 2003.56140   13.23230   13.16720   16.67580  219.86950   85.87720  150.69770    0.32240    2.97930
 6818.50000    9.65040    0.15340    0.12150 2723.74660  100.90260  -18.19160 2001.92800   13.23190   13.07400   16.33680  219.09970   85.74960  148.83720    0.30960    2.91880
 6819.00000    9.73950    0.13800    0.16440 2722.41850   94.28840  -18.17200 2000.29720   13.23140   13.25850   17.01520  217.41380   86.05870  148.77520    0.29000    2.85850
 6819.50000    9.88740    0.12470    0.26060 2721.09180   91.65650  -18.15230 1998.66470   13.23090   13.54090   18.45950  216.82190   86.05870  149.45740    0.27670    2.84390
 6820.00000   10.00590    0.11020    0.23410 2734.51370   90.13660  -18.13270 1996.92940   13.32090   13.82880   20.57930  216.82720   86.05870  148.52710    0.27500    2.87510
 6820.50000   10.03610    0.11370    0.18430 2748.01340   91.26580  -18.11260 1995.38210   13.50310   13.82770   22.40990  217.43040   86.05870  147.90700    0.28970    2.92140
 6821.00000    9.91930    0.11930    0.13150 2746.60790   95.71350  -18.08850 2008.60550   13.68770   13.82680   22.29610  218.03360   86.05870  147.90700    0.29540    2.89060
 6821.50000    9.84680    0.12140    0.07600 2745.28000  100.44860  -18.07110 2000.11510   13.50200   13.72880   20.57080  218.63680   85.74960  148.26310    0.28020    2.86150
 6822.00000    9.83290    0.11720    0.03660 2743.95290  105.94230  -18.04920 1990.50440   13.22870   13.44100   18.44710  219.24000   85.44050  149.20940    0.27490    2.95370
 6822.50000    9.80440    0.11310    0.03510 2742.70340  103.97410  -18.32580 1988.87210   13.04930   12.97490   18.18730  219.84320   85.13140  149.61270    0.27430    3.10670
 6823.00000    9.77600    0.12310    0.01140 2756.04690   99.35110  -18.30120 1987.24100   12.87250   12.43730   17.94680  219.84750   85.13140  150.57370    0.28050    3.15300
 6823.50000    9.77680    0.16690    0.01230 2769.70290   96.94050  -18.58070 1985.32280   12.60970   11.75530   17.34450  219.25310   85.49390  152.37210    0.28980    2.95560
 6824.00000    9.79240    0.21820    0.08800 2768.14140   97.19040  -18.55660 1983.77540   12.44080   11.18910   15.23970  219.25750   86.88700  155.41090    0.29740    2.74280
 6824.50000    9.80810    0.22570    0.18290 2766.57980   96.32850  -18.53930 1982.22800   12.44040   11.10990   14.22530  221.05840   88.70420  160.35660    0.30860    2.56040
 6825.00000    9.84560    0.22320    0.19600 2765.22680   95.46650  -18.51850 1980.67910   12.44000   11.91940   14.04160  221.03830   89.66470  162.32590    0.32190    2.56100
 6825.50000    9.92740    0.19060    0.18990 2764.15940   95.48950  -18.49760 1979.08060   12.61010   13.34000   16.64190  220.09010   90.19710  161.68980    0.32030    2.74460
 6826.00000   10.04590    0.14680    0.13480 2762.83200   95.51330  -18.17840 1977.44740   12.70370   13.81710   21.40190  218.97560   90.07730  160.31010    0.30860    2.92810
 6826.50000    9.81160    0.14830    0.09650 2761.27000   95.54130  -18.15880 1990.87400   12.78210   13.91380   24.35080  221.07580   90.23000  156.58910    0.29020    3.09640
 6827.00000    9.78280    0.15380    0.06280 2760.02050   95.11600  -18.13910 1974.18410   12.78160   13.71830   22.90180  219.93340   90.55550  154.41860    0.29230    3.23410
 6827.50000    9.84270    0.15210    0.06510 2758.77100   96.25100  -18.41580 1972.55240   12.78120   13.61350   20.53750  218.00190   90.38640  155.03880    0.29460    3.25010
 6828.00000    9.90240    0.14140    0.10570 2757.52250   97.38050  -18.39120 1970.62130   12.78080   13.42950   18.16430  216.78620   89.45900  156.58910    0.31560    3.28120
