~Version ---------------------------------------------------
VERS.   2.0 : CWLS log ASCII Standard -VERSION 2.0
WRAP.    NO : One line per depth step
DLM . SPACE : Column Data Section Delimiter
~Well ------------------------------------------------------
STRT .F                   20.5 : START DEPTH
STOP .F                11651.5 : STOP DEPTH
STEP .F                    0.5 : STEP
NULL .                -9999.25 : NULL VALUE
COMP .                         : COMPANY
WELL .                         : WELL
FLD  .                         : FIELD
LOC  .                         : LOCATION
PROV .                         : PROVINCE
CNTY .                         : COUNTY
STAT .                         : STATE
CTRY .                         : COUNTRY
SRVC .                         : SERVICE COMPANY
DATE .                         : DATE
UWI  .                         : UNIQUE WELL ID
API  .                         : API NUMBER
SLAT .WGS84 2.2980986677276007 : SURFACE LATITUDE
SLON .WGS84  6.463845492429996 : SURFACE LONGITUDE
DATUM.F                 2692.0 : DEPTH DATUM ELEV
~Curve Information -----------------------------------------
DEPT.F     : 
CALD.IN    : CALIPER FROM DENSITY LOG
DPHI.DEC   : DENSITY POROSITY LIMESTONE
DRHO.G/C3  : DENSITY CORRECTION
TEND.LBS   : TENSION FORM DENSITY LOG
GRD .GAPI  : GAMMA RAY FROM DENSITY LOG
SPR .MV    : SPONTANEOUS POTENTIAL
TENR.LBS   : TENSION FROM RESISTIVITY LOG
ILD .OHMM  : INDUCTION LOG DEEP RESISTIVITY
ILM .OHMM  : INDUCTION LOG MEDIUM RESISTIVITY
SFLU.OHMM  : SPHERICALLY FOCUSED LOG UNAVERAGED RES.
DTST.US/F  : DELTA TIME STONELEY
DTCO.US/F  : DELTA TIME COMPRESSIONAL
DTSM.US/F  : DELTA TIME SHEAR
NPHI.DEC   : NEUTRON POROSITY LIMESTONE
PEF .B/E   : PHOTOELECTRIC FACTOR
~Params ----------------------------------------------------
~Other -----------------------------------------------------
~ASCII -----------------------------------------------------
# ...
 8116.50000    9.60510    0.03310   -0.01510 3089.33540   81.95530  -50.33550 2354.00590   34.65140   29.05370   37.64500  205.36800   70.72150  116.53210    0.16130    3.09220
 8117.00000    9.58990    0.02930   -0.01650 3087.97630   75.09640  -51.22320 2339.42920   34.40100   29.80890   35.39230  205.01110   69.54780  110.55310    0.12940    3.22600
 8117.50000    9.57760    0.02750   -0.01430 3100.91020   73.57690  -51.82960 2339.76270   34.62130   32.37440   41.71570  204.69800   66.80600  108.46040    0.11840    3.15120
 8118.00000    9.56950    0.04590   -0.00980 3114.54320   75.58990  -52.14240 2340.05960   35.55770   35.46410   62.08090  204.17920   64.67640  106.96560    0.11370    2.63850
 8118.50000    9.55010    0.05800   -0.00460 3112.82790   77.37620  -53.05030 2355.23190   37.53280   37.64850   86.52150  205.11260   63.92860  106.06880    0.13200    2.75760
 8119.00000    9.52150    0.05410   -0.00160 3111.43730   73.23080  -53.95430 2355.50810   43.88000   41.35430  126.43180  206.83450   63.80900  105.46250    0.13440    3.26020
 8119.50000    9.49300    0.02280   -0.00150 3109.73970   62.87460  -54.85840 2355.78640   53.43500   45.73580  129.85070  207.03960   64.41290  104.55000    0.11930    4.05600
 8120.00000    9.45000   -0.01310   -0.00740 3108.50510   47.33140  -55.46670 2356.12920   74.07070   56.80200  123.72940  206.42720   63.52320  103.63700    0.07840    4.23620
 8120.50000    9.40680   -0.00160   -0.01400 3088.10690   48.46460  -55.48510 2356.37990   72.04790   84.95290  149.50990  207.24150   59.34990  102.42550    0.08370    3.79480
 8121.00000    9.39320    0.04670   -0.00950 3076.24610   56.84920  -55.50030 2356.68120   60.31970  108.60370  678.78490  207.79090   56.96760  101.58450    0.10880    3.44190
 8121.50000    9.39400    0.07780    0.01050 3074.58080   70.29240  -55.51550 2371.81010   47.50260   92.20060  998.21780  207.19510   58.46600  102.62060    0.15810    2.97130
 8122.00000    9.38030    0.06830    0.07910 3073.20800   87.06450  -54.93810 2372.10690   37.92210   41.78590  433.08920  206.29980   61.75540  106.59900    0.21100    2.78040
 8122.50000    9.38120    0.05180    0.10790 3071.83540   94.54630  -54.36070 2372.41530   29.86090   24.54250  135.59820  206.90150   65.04480  112.46900    0.22940    2.76670
 8123.00000    9.39700    0.05350    0.09030 3099.78860   93.69330  -53.65280 2387.53690   30.05510   19.46160   56.09050  207.20380   69.29280  115.33630    0.21400    2.75340
 8123.50000    9.41260    0.06920    0.05350 3127.74270   90.42100  -52.62080 2402.71000   29.63210   20.27480   29.40480  206.60790   71.70820  115.18480    0.17490    2.72530
 8124.00000    9.43000    0.07840    0.00630 3155.69560   88.85040  -50.56190 2388.07980   28.23660   28.51700   23.64950  206.31140   71.92790  113.60370    0.12720    2.69690
 8124.50000    9.44400    0.08190   -0.00710 3168.64280   88.05520  -48.79930 2388.42720   27.09380   32.46390   44.12360  210.50600   67.87610  111.15100    0.11870    2.68320
 8125.00000    9.44490    0.08340   -0.01280 3166.92600   90.06820  -47.28380 2388.77000   25.47130   32.24310  109.49380  210.18440   66.86490  111.74890    0.13290    2.68460
 8125.50000    9.44580    0.08050   -0.00750 3165.55490   93.39410  -45.57420 2403.88310   24.43770   30.32290  168.95500  208.80760   67.55860  115.03740    0.14440    2.71520
 8126.00000    9.43860    0.07420   -0.00450 3120.19380   96.50680  -45.58940 2404.15920   25.10170   27.18710  149.40840  207.52070   68.47560  115.93420    0.18290    2.75100
 8126.50000    9.40370    0.07190   -0.00140 3059.82740   97.85330  -45.60460 2389.59810   28.36400   24.50320  107.79940  209.09540   69.51330  115.93420    0.19440    2.80590
 8127.00000    9.36030    0.07330    0.00220 3131.76880   98.10000  -45.62350 2389.94310   34.77650   23.88180   70.72780  209.32290   70.30950  116.53210    0.18530    2.91050
 8127.50000    9.30230    0.07420   -0.00510 3174.72730   94.60780  -45.63870 2390.21920   40.38150   32.46390   50.33480  208.91960   70.47760  115.63530    0.16540    3.13290
 8128.00000    9.27400    0.07300   -0.01390 3173.01170   90.46240  -45.65390 2390.50440   42.05240   47.37850   46.05510  208.30730   69.55210  113.54260    0.14000    3.37000
 8128.50000    9.30460    0.07070   -0.01830 3171.29640   85.43050  -45.67290 2390.84010   42.02460   52.69520   85.08580  207.69530   68.10260  112.03590    0.13700    3.27650
 8129.00000    9.33490    0.07010   -0.01820 3140.59790   84.35100  -45.98430 2391.11650   42.00610   54.15300  400.84800  207.53890   67.51140  112.13230    0.14880    2.98900
 8129.50000    9.36520    0.07070   -0.01670 3139.22530   90.39660  -46.29580 2387.56490   44.94760   56.42880  547.48230  207.54190   67.81580  114.31580    0.16960    2.79830
 8130.00000    9.36630    0.07780   -0.01520 3137.83030   95.41500  -46.60740 2376.83180   59.39770   60.30520  389.01030  207.54540   71.70220  117.42960    0.19710    2.75520
 8130.50000    9.39650    0.08190   -0.01370 3136.36400  100.72040  -46.96840 2377.17680   73.33210   65.55190  234.01010  207.84780   72.60350  120.27090    0.21880    3.00730
 8131.00000    9.41220    0.08370   -0.01360 3134.76460  101.24490  -47.53030 2362.61110   82.86240   72.61560  211.22690  207.85070   73.20640  120.71750    0.23020    3.08210
 8131.50000    9.42800    0.08660   -0.01650 3133.43120   95.42300  -47.54550 2362.96070   89.27100   82.10380  204.05190  208.45240   73.21220  118.87690    0.21810    2.99480
 8132.00000    9.42890    0.08630   -0.01950 3131.67650   89.36660  -47.56450 2348.40040   81.10570   88.50260  253.35450  209.05410   71.72550  116.16190    0.17190    2.87730
 8132.50000    9.42980    0.08490   -0.01640 3130.49780   88.07100  -47.28330 2333.77050   70.74380   83.80160  300.02020  209.35640   70.23160  115.33630    0.15240    2.83470
 8133.00000    9.43070    0.08690   -0.00900 3143.93700   95.80250  -47.29850 2319.27880   66.96110   76.45990  316.56410  209.65870   69.92350  115.49150    0.16720    2.83610
 8133.50000    9.44660    0.08990   -0.00300 3156.88430  110.13220  -47.61040 2304.71780   69.24400   71.63150  258.04390  209.66170   69.65340  116.44830    0.19530    2.96990
 8134.00000    9.46220    0.08540   -0.00530 3140.50610  119.61650  -47.62900 2319.89970   72.59400   69.70310  216.16270  209.66470   71.01530  118.92380    0.22040    3.22430
 8134.50000    9.46300    0.06890   -0.00590 3139.13350  118.98350  -47.94040 2320.17820   74.61750   71.63150  247.39990  209.62920   73.22500  121.01640    0.22870    3.62140
 8135.00000    9.44730    0.05640   -0.00290 3123.16700  112.41200  -48.54820 2320.52080   72.02970   90.33270  403.05300  209.07160   74.14840  116.53210    0.20000    3.74050
 8135.50000    9.43540    0.04250   -0.00060 3121.70090   95.29010  -48.56720 2305.96020   64.56290  110.33840 1099.71670  208.70410   72.56160  112.94470    0.12600    3.75630
 8136.00000    9.43650    0.03750    0.00460 3120.23410   83.00020  -48.28610 2306.23610   56.87420  106.40350  843.43410  208.30350   70.11730  112.34680    0.11670    3.41850
 8136.50000    9.43740    0.04160    0.00760 3118.63720   79.50790  -48.30120 2306.58110   50.47120   82.10380  493.07620  207.77880   68.23350  112.64570    0.14520    3.09510
 8137.00000    9.45910    0.05640    0.00770 3102.60350   88.43550  -47.72380 2336.53080   49.76630   53.05590  193.10640  205.78980   67.60600  113.84160    0.17390    3.00770
 8137.50000    9.46880    0.07950    0.00400 3086.22390   96.72370  -46.85390 2336.80660   50.11150   41.50180   82.05760  206.69160   67.45010  115.93420    0.19790    2.87490
 8138.00000    9.44030    0.08780    0.00040 3099.51390   98.29010  -45.98020 2337.09200   51.09600   40.66100   65.10700  206.69460   70.30570  120.21660    0.20210    2.81850
 8138.50000    9.44120    0.08630    0.00040 3127.46830   98.75680  -45.38930 2337.42800   50.37680   48.22280   90.72480  206.69760   75.08760  121.91330    0.20410    2.89330
 8139.00000    9.42510    0.08480    0.00120 3140.76290   99.44430  -44.23660 2337.70390   49.67320   52.33690  125.58700  206.10240   75.18290  121.86540    0.20380    3.13040
