~Version ---------------------------------------------------
VERS.   2.0 : CWLS log ASCII Standard -VERSION 2.0
WRAP.    NO : One line per depth step
DLM . SPACE : Column Data Section Delimiter
~Well ------------------------------------------------------
STRT .F                   20.5 : START DEPTH
STOP .F                11651.5 : STOP DEPTH
STEP .F                    0.5 : STEP
NULL .                -9999.25 : NULL VALUE
COMP .                         : COMPANY
WELL .                         : WELL
FLD  .                         : FIELD
LOC  .                         : LOCATION
PROV .                         : PROVINCE
CNTY .                         : COUNTY
STAT .                         : STATE
CTRY .                         : COUNTRY
SRVC .                         : SERVICE COMPANY
DATE .                         : DATE
UWI  .                         : UNIQUE WELL ID
API  .                         : API NUMBER
SLAT .WGS84 2.2980986677276007 : SURFACE LATITUDE
SLON .WGS84  6.463845492429996 : SURFACE LONGITUDE
DATUM.F                 2692.0 : DEPTH DATUM ELEV
~Curve Information -----------------------------------------
DEPT.F     : 
CALD.IN    : CALIPER FROM DENSITY LOG
DPHI.DEC   : DENSITY POROSITY LIMESTONE
DRHO.G/C3  : DENSITY CORRECTION
TEND.LBS   : TENSION FORM DENSITY LOG
GRD .GAPI  : GAMMA RAY FROM DENSITY LOG
SPR .MV    : SPONTANEOUS POTENTIAL
TENR.LBS   : TENSION FROM RESISTIVITY LOG
ILD .OHMM  : INDUCTION LOG DEEP RESISTIVITY
ILM .OHMM  : INDUCTION LOG MEDIUM RESISTIVITY
SFLU.OHMM  : SPHERICALLY FOCUSED LOG UNAVERAGED RES.
DTST.US/F  : DELTA TIME STONELEY
DTCO.US/F  : DELTA TIME COMPRESSIONAL
DTSM.US/F  : DELTA TIME SHEAR
NPHI.DEC   : NEUTRON POROSITY LIMESTONE
PEF .B/E   : PHOTOELECTRIC FACTOR
~Params ----------------------------------------------------
~Other -----------------------------------------------------
~ASCII -----------------------------------------------------
# ...
 10767.50000   15.68760    0.41620    0.10740 3807.00660   74.06710   -3.61810 3089.02100    5.63230    4.28020    6.20950  216.76980   85.35570  106.21140    0.42520    2.06310
 10768.00000   15.70300    0.44160    0.11110 3835.08690   74.77540   -3.59110 3087.83300    5.32580    4.34180    6.92950  213.97170   89.00000  100.28460    0.41400    1.98930
 10768.50000   15.71840    0.47290    0.10080 3863.17020   73.89790   -3.11750 3101.58790    5.17910    4.40580    7.82870  212.36080   92.93690   96.73260    0.44920    2.16790
 10769.00000   15.46930    0.47080    0.09050 3905.63650   74.39260   -2.95110 3100.18120    5.14410    4.72680    8.73060  211.91680   93.88010   95.94440    0.46330    2.34630
 10769.50000   14.98460    0.46340    0.08320 3977.90210   76.93770   -2.92740 3099.05690    5.18220    4.93150    9.09600  214.78550   94.18140   95.62500    0.46270    2.46550
 10770.00000   14.69120    0.42260    0.07580 3976.18310   79.94000   -2.90200 3112.76900    5.29420    4.79570    8.79360  215.06020   93.58350   95.18630    0.44740    2.37690
 10770.50000   14.60370    0.40820    0.06400 3930.62840   79.52000   -2.87960 3096.52560    5.45150    4.69640    8.10590  215.95980   92.08570   94.88440    0.42110    2.13990
 10771.00000   14.60450    0.42700    0.05450 3885.07400   77.49180   -2.85630 3095.54910    5.64370    4.73060    6.47760  216.85950   90.28810   94.58250    0.40980    2.00690
 10771.50000   14.57580    0.43380    0.07000 3866.96220   75.46370   -2.82900 3094.36130    5.76560    4.90130    6.30470  216.92930   89.38980   96.37340    0.41540    1.90350
 10772.00000   14.16400    0.44090    0.09070 3852.52780   75.74560   -2.51030 3078.31540    5.72670    5.00700    6.75010  213.86840   89.99110  107.13280    0.42600    1.96330
 10772.50000   13.66560    0.43390    0.10100 3851.15580   77.36000   -2.48890 3065.49680    5.60860    5.04340    8.39330  213.83490   89.99260  110.11960    0.44380    2.05270
 10773.00000   13.75450    0.42130    0.10110 3879.23610   77.84710   -2.16890 3046.29050    5.49010    5.00900    8.62650  215.06890   88.79460  110.11650    0.43580    2.12740
 10773.50000   13.90220    0.41480    0.09670 3951.15750   76.96230   -2.14100 3045.10400    5.45590    4.80280    8.37730  215.66920   86.69720  110.11360    0.40770    2.17230
 10774.00000   13.72660    0.41480    0.10190 3964.85470   75.39890   -2.11850 3029.02490    5.53510    4.66660    7.43070  216.28510   84.83690  108.93290    0.39030    2.20240
 10774.50000   13.66830    0.41070    0.10560 3933.68330   74.51410   -2.09600 3027.89380    5.57570    4.57360    7.18330  216.60390   82.73470   87.12780    0.37640    2.20290
 10775.00000   13.96330    0.39760    0.11370 3858.32930   74.08660   -2.07360 3026.49610    5.53810    4.73870    7.28340  216.87130   81.90390   82.34980    0.39380    2.15880
 10775.50000   14.14830    0.36630    0.13000 3812.77490   73.65910   -2.67060 3025.51930    5.46210    4.87500    7.85090  217.57060   83.37090   84.87470    0.41240    2.14430
 10776.00000   14.31760    0.35020    0.14400 3781.94480   75.06830   -3.50460 3024.33200    5.38760    4.91050    8.46730  220.46690   85.28970   97.53300    0.42960    2.23390
 10776.50000   13.70080    0.34670    0.14550 3780.57300   77.61330   -4.07470 3023.12040    5.31340    4.94620    8.40720  217.77150   85.50670   99.33380    0.42830    2.32330
 10777.00000   12.98670    0.36210    0.13820 3896.67700   81.31330   -4.65040 3021.95900    5.24090    4.87820    7.80260  215.97880   85.50820   99.03140    0.42510    2.33870
 10777.50000   12.67270    0.38040    0.13520 3925.10180   84.99750   -4.91860 3020.59160    5.27930    4.74370    7.09520  217.14810   85.50970   98.72940    0.42860    2.32420
 10778.00000   13.14420    0.42710    0.14860 3923.38550   87.31390   -4.89480 3034.58370    5.31800    4.58050    6.23620  217.92990   86.86780   98.72650    0.44010    2.23570
 10778.50000   13.43900    0.43130    0.15150 3906.94170   88.02960   -4.87110 3048.29610    5.20870    4.42300    5.82720  218.37870   88.71870   98.72350    0.44450    2.25090
 10779.00000   13.70450    0.40880    0.14120 3890.83940   86.46630   -4.84570 3076.56540    5.13700    4.27010    5.59530  218.08110   89.71240   98.71990    0.44040    2.31070
 10779.50000   13.98460    0.38830    0.12510 3874.73970   83.75220   -4.82320 3075.15870    5.13870    4.15320    5.67330  218.08260   89.71390   98.71700    0.44080    2.32590
 10780.00000   14.23530    0.39400    0.09850 3865.48460   82.18140   -4.80000 3089.15090    5.24970    4.06720    5.99180  217.78440   89.11560   98.71410    0.44900    2.14840
 10780.50000   14.05970    0.45130    0.07350 3842.41460   82.48630   -4.77630 3102.86330    5.40100    4.12580    6.68200  217.78610   87.61780   98.71120    0.48760    1.97070
 10781.00000   13.76630    0.47290    0.05140 3840.82180   84.76370   -4.75020 3116.29570    5.52220    4.45890    8.77320  218.08690   83.12160   98.70830    0.48260    2.06030
 10781.50000   13.73740    0.49450    0.05730 3839.44700   88.45200   -4.72780 3115.13400    5.59780    4.78520   10.49210  218.38780   76.82620   98.40640    0.46040    2.16460
 10782.00000   13.79930    0.43240    0.08680 3844.04370   92.59770   -4.70520 3128.78340    5.52110    5.15240   10.69060  218.38930   72.03000   95.41400    0.43860    2.20950
 10782.50000   13.82730    0.40040    0.10530 3851.31400   94.46420   -4.97910 3127.47680    5.52250    5.20920    8.54310  218.99430   71.72680  100.80180    0.41610    2.12100
 10783.00000   13.79860    0.43180    0.09580 3849.71140   95.86590   -5.54370 3126.35230    5.64190    4.73690    7.30730  219.61150   71.77670  101.72930    0.38900    1.97300
 10783.50000   13.68160    0.49980    0.08100 3877.79470   99.55430   -6.71200 3125.22340    5.98130    4.52670    6.87470  219.93020   75.23090  104.13090    0.35970    1.95850
 10784.00000   13.09420    0.49520    0.04570 3905.53340  107.82320   -6.98070 3123.82130    7.02130    5.36150    6.78310  219.02770   81.72870  112.09050    0.34490    2.09260
 10784.50000   11.96260    0.42640    0.03680 3933.61670  111.51160   -6.91820 3107.85990    7.69580    8.27320    8.32070  212.26380   86.13040  122.52190    0.34040    2.36020
 10785.00000   11.27210    0.34470    0.05160 3946.98100  113.82800   -6.33710 3106.73540    8.20120   11.15650   11.22820  211.51180   85.74180  123.19920    0.33960    2.56830
 10785.50000   10.39060    0.29500    0.05760 3930.52540  116.41920   -5.56900 3105.61080    8.26130   11.97280   18.57520  217.15660   84.72120  123.40870    0.35050    2.67260
 10786.00000    9.80300    0.29950    0.01330 3896.40940  118.92550   -5.10810 3089.61470    8.44270   11.47980   19.75180  219.42320   82.76430  126.96520    0.37230    2.65810
 10786.50000    9.68610    0.31330   -0.00580 3868.92480  121.24190   -4.48940 3073.59080    9.92570   11.00720   20.43910  219.31890   81.05700  122.70360    0.37590    2.62890
 10787.00000    9.64090    0.27960   -0.01320 3867.45340  124.47290   -4.13650 3068.17330   11.42860   12.11610   22.94920  217.77410   80.59910  106.87170    0.34400    2.62940
 10787.50000    9.62860    0.25410   -0.01020 3865.78050  130.45530   -3.84880 3056.37940   14.11830   20.75400   27.20870  215.66040   83.56240   99.58940    0.31740    2.70400
 10788.00000    9.65890    0.17130    0.00020 3864.29170  131.39230   -3.23380 3070.03270   17.07670   23.39790   30.13890  213.91640   88.54000  115.40750    0.25530    2.77870
 10788.50000    9.65960    0.13990    0.00170 3863.03370  120.91120   -3.21130 3068.62840   19.80120   25.28740   30.55770  212.72030   88.63150  157.55710    0.22520    2.74940
 10789.00000    9.68980    0.12570    0.00100 3861.56130  107.68630   -3.18810 3067.50390   22.39700   27.52250   30.56360  210.92530   88.24310  157.25520    0.20390    2.77960
 10789.50000    9.71990    0.10260   -0.00420 3860.05660   95.82580   -3.75900 3066.37940   24.12770   31.03780   31.62720  207.63340   89.14410  158.44820    0.19470    2.88390
