~Version ---------------------------------------------------
VERS.   2.0 : CWLS log ASCII Standard -VERSION 2.0
WRAP.    NO : One line per depth step
DLM . SPACE : Column Data Section Delimiter
~Well ------------------------------------------------------
STRT .F                  457.0 : START DEPTH
STOP .F                14085.0 : STOP DEPTH
STEP .F                    0.5 : STEP
NULL .                -9999.25 : NULL VALUE
COMP .                         : COMPANY
WELL .                         : WELL
FLD  .                         : FIELD
LOC  .                         : LOCATION
PROV .                         : PROVINCE
CNTY .                         : COUNTY
STAT .                         : STATE
CTRY .                         : COUNTRY
SRVC .                         : SERVICE COMPANY
DATE .                         : DATE
UWI  .                         : UNIQUE WELL ID
API  .                         : API NUMBER
SLAT .WGS84 2.3134099046953978 : SURFACE LATITUDE
SLON .WGS84  8.792145572759992 : SURFACE LONGITUDE
DATUM.F                    nan : DEPTH DATUM ELEV
~Curve Information -----------------------------------------
DEPT    .F     : 1 MEASURED DEPTH
ECGREDTC.GAPI  : ENVIRONMENTALLY CORRECTED GAMMA RAY
DTCO    .US/F  : DELTA-T COMPRESSIONAL
DTSM    .US/F  : DELTA-T SHEAR
GRC     .GAPI  : CALCULATED/BOREHOLE CORRECTED GAMMA RAY
~Params ----------------------------------------------------
~Other -----------------------------------------------------
~ASCII -----------------------------------------------------
# ...
 9037.00000   83.16460   70.64240  118.50670  105.37520
 9037.50000   79.66690   70.51050  117.76800   96.24980
 9038.00000   77.19490   69.97280  117.76710   89.11750
 9038.50000   82.72490   68.37550  117.39440   87.35160
 9039.00000   86.00050   67.92220  114.69580   92.61980
 9039.50000   80.12740   67.69730  113.98710   97.06700
 9040.00000   69.47390   67.93930  113.31270  100.49740
 9040.50000   68.33890   68.27670  112.79760  101.31680
 9041.00000   72.97500   69.08370  113.13630   99.72540
 9041.50000   76.73720   69.29270  114.07200   92.73810
 9042.00000   78.62570   69.44390  114.33390   86.05050
 9042.50000   78.44020   70.04920  114.27370   86.74020
 9043.00000   79.01030   70.50130  114.50390   90.04070
 9043.50000   79.39900   70.64060  114.86900   94.19970
 9044.00000   80.10760   70.65840  114.95300   97.23960
 9044.50000   82.07850   70.56470  115.10560   97.48690
 9045.00000   86.93800   70.47480  115.25470   96.95180
 9045.50000   87.93580   70.38470  114.89160   95.41440
 9046.00000   84.84930   70.65260  115.17300   91.43370
 9046.50000   84.50020   70.99120  115.72400   86.28510
 9047.00000   88.75500   71.28860  115.61220   84.54340
 9047.50000   93.05470   71.85870  117.07540   84.15190
 9048.00000   89.97390   71.84830  117.36700   83.56510
 9048.50000   88.33670   71.96700  117.91450   82.01030
 9049.00000   89.39330   72.19100  118.36320   79.97820
 9049.50000   92.85560   72.74710  118.71180   79.49260
 9050.00000   94.91670   73.13340  119.06040   80.33650
 9050.50000   93.38520   73.57220  119.34040   81.23860
 9051.00000   91.94560   74.81610  120.40280   79.26260
 9051.50000   88.46180   75.74350  122.51100   79.02040
 9052.00000   94.18450   76.78750  124.74550   79.84610
 9052.50000  101.60420   78.01410  126.40490   79.32380
 9053.00000  110.59320   78.80970  127.27870   79.27620
 9053.50000  126.61950   79.59390  128.05380   80.12230
 9054.00000  143.62080   80.03890  129.05790   77.07020
 9054.50000  156.90770   80.09110  129.11940   74.44550
 9055.00000  156.27850   79.45410  128.75730   72.96480
 9055.50000  148.12660   78.03290  127.12530   71.43170
 9056.00000  141.32980   74.72980  124.78530   68.86980
 9056.50000  128.12350   72.96070  122.62540   69.89400
 9057.00000  111.06440   72.37810  120.38140   71.45460
 9057.50000   93.24360   71.94080  117.47020   71.79090
 9058.00000   79.62910   71.49740  116.21360   72.20650
 9058.50000   85.28140   71.45020  116.03170   74.14230
 9059.00000   99.60730   72.27490  115.68400   79.30620
 9059.50000  119.24810   72.57700  115.89760   83.23260
 9060.00000  133.27220   72.67750  116.15910   86.58510
 9060.50000  129.74620   72.28000  116.18770   87.57060
 9061.00000  125.31230   70.06150  116.21620   87.57030
 9061.50000  122.26570   69.53610  116.20640   87.03240
 9062.00000  124.54170   69.39710  115.77530   83.63190
 9062.50000  134.19120   69.17600  115.06460   83.05460
 9063.00000  118.72660   69.38860  115.05040   85.80660
 9063.50000  107.64390   71.31780  115.64660   90.27010
 9064.00000   91.98250   72.45070  117.47350   92.75370
 9064.50000  102.02520   72.84520  118.21940   93.43420
 9065.00000  126.61640   73.59460  118.31560   94.25430
 9065.50000  167.76500   74.93700  121.15420   96.04730
 9066.00000  202.68740   75.45140  123.10270   97.26420
 9066.50000  214.03190   76.00220  123.41270   98.44200
 9067.00000  193.63240   76.09550  123.64170  101.84210
 9067.50000  174.81270   75.68000  123.67550  102.43960
 9068.00000  159.17490   75.19610  123.41080  101.48130
 9068.50000  151.90000   74.76850  123.27380  100.05580
 9069.00000  149.96620   74.17130  122.88860   97.94750
 9069.50000  151.58100   72.84310  121.60930   97.49520
 9070.00000  147.70970   71.37410  118.11090   97.62790
 9070.50000  139.95610   69.99710  115.96620   97.08640
 9071.00000  127.94890   69.68530  115.26830   94.44600
 9071.50000  113.26090   69.30420  114.43540   89.26220
 9072.00000   97.89190   69.30850  113.64100   83.21380
 9072.50000   86.44750   69.12690  112.39240   77.89300
 9073.00000   82.03220   68.79650  112.45530   71.96190
 9073.50000   84.03850   68.76830  112.84040   67.29700
 9074.00000   88.68490   69.14470  113.11330   64.70530
 9074.50000   96.90240   69.53740  113.48910   66.35570
 9075.00000   95.28040   69.97850  114.02010   67.86380
 9075.50000   92.79580   70.26030  114.11400   68.70520
 9076.00000   86.14660   70.30210  113.20990   68.80660
 9076.50000   85.61670   70.18490  113.22590   69.31840
 9077.00000   87.67920   69.29410  112.84170   70.48200
 9077.50000   86.48410   67.74930  112.02240   71.87160
 9078.00000   82.05160   67.65720  111.87600   73.20190
 9078.50000   80.79940   67.69410  111.88980   73.30680
 9079.00000   79.05250   67.77280  111.89790   73.32460
 9079.50000   79.45140   67.91820  111.75320   72.28450
 9080.00000   79.00510   68.29200  112.08340   69.74250
 9080.50000   83.57260   68.63280  112.28910   65.75890
 9081.00000   87.56930   68.73330  112.53660   62.33160
 9081.50000   88.61210   68.63430  112.67690   58.85000
 9082.00000   85.05070   69.83280  112.94020   55.33350
 9082.50000   80.53180   70.13690  112.86440   54.34020
 9083.00000   77.34900   70.19460  113.12420   55.29360
 9083.50000   77.81040   70.07080  113.46570   56.73590
 9084.00000   78.90060   69.21380  112.75350   58.32360
 9084.50000   78.70190   68.23400  111.41980   60.23870
 9085.00000   74.47740   68.24960  111.42330   62.14390
 9085.50000   70.87790   68.26290  111.24270   64.98440
 9086.00000   69.48860   67.92590  110.44600   69.18410
 9086.50000   70.99510   67.89180  109.52280   74.23440
 9087.00000   71.44080   68.10440  111.11770   79.50650
 9087.50000   71.66850   68.61960  110.72200   83.68570
 9088.00000   72.59620   69.49100  111.76040   87.47590
 9088.50000   73.85950   69.87460  112.79260   87.73750
 9089.00000   74.70710   70.19910  114.15870   85.30710
 9089.50000   75.19920   70.70060  114.87170   84.78470
 9090.00000   77.65260   70.90930  115.34510   86.03880
 9090.50000   81.51900   71.05850  115.64090   83.83960
 9091.00000   87.07760   71.27390  115.78120   81.03530
 9091.50000   82.97880   71.65020  117.18660   77.93720
 9092.00000   82.08310   71.85180  118.71900   74.83910
 9092.50000   82.56440   72.18950  119.20620   72.97950
 9093.00000   86.64260   72.01640  119.30820   73.87820
 9093.50000   89.59830   72.14290  119.41250   74.90550
 9094.00000   96.69180   72.26850  119.51680   75.46190
 9094.50000  100.51040   72.58060  119.62110   74.76250
 9095.00000   99.27280   72.77870  119.85750   73.93140
 9095.50000   93.04340   73.20440  119.52340   73.31290
 9096.00000   88.03430   73.56960  120.16510   73.53230
 9096.50000   92.09650   74.09830  120.66860   74.34390
 9097.00000  100.18340   73.94220  120.46420   75.30250
 9097.50000  110.32690   73.92430  120.28390   76.99700
 9098.00000  115.87160   73.58290  120.28160   78.69150
 9098.50000  108.73840   72.79300  120.54290   78.83730
 9099.00000  100.52870   72.52730  120.59040   75.64390
 9099.50000   96.58140   72.50750  119.73630   73.71820
 9100.00000   99.15160   72.49590  119.68420   74.98710
 9100.50000  101.47400   72.34880  119.67060   76.41960
 9101.00000  100.98060   71.45510  119.64800   77.27310
 9101.50000  104.68830   71.74330  119.28930   78.43000
 9102.00000  117.61370   71.94400  119.58790   80.11830
 9102.50000  131.14140   72.06330  119.55200   80.24490
 9103.00000  132.22720   72.15230  120.37400   80.21410
 9103.50000  122.14110   75.21190  122.28740   79.79810
 9104.00000  106.32090   75.74530  123.90990   76.80060
 9104.50000   99.33900   75.75910  124.48140   74.61900
 9105.00000  106.21710   76.07000  125.01830   76.55670
 9105.50000  119.88540   76.69720  125.16080   78.76270
 9106.00000  134.30980   77.01560  125.71580   79.85770
 9106.50000  146.56260   77.02340  125.25370   75.90940
 9107.00000  147.64670   76.99380  125.06710   70.95100
 9107.50000  145.84810   77.41370  125.29520   70.15470
 9108.00000  134.56990   76.14120  125.22250   70.57140
