~Version ---------------------------------------------------
VERS.   2.0 : CWLS log ASCII Standard -VERSION 2.0
WRAP.    NO : One line per depth step
DLM . SPACE : Column Data Section Delimiter
~Well ------------------------------------------------------
STRT .F                  457.0 : START DEPTH
STOP .F                14085.0 : STOP DEPTH
STEP .F                    0.5 : STEP
NULL .                -9999.25 : NULL VALUE
COMP .                         : COMPANY
WELL .                         : WELL
FLD  .                         : FIELD
LOC  .                         : LOCATION
PROV .                         : PROVINCE
CNTY .                         : COUNTY
STAT .                         : STATE
CTRY .                         : COUNTRY
SRVC .                         : SERVICE COMPANY
DATE .                         : DATE
UWI  .                         : UNIQUE WELL ID
API  .                         : API NUMBER
SLAT .WGS84 2.3134099046953978 : SURFACE LATITUDE
SLON .WGS84  8.792145572759992 : SURFACE LONGITUDE
DATUM.F                    nan : DEPTH DATUM ELEV
~Curve Information -----------------------------------------
DEPT    .F     : 1 MEASURED DEPTH
ECGREDTC.GAPI  : ENVIRONMENTALLY CORRECTED GAMMA RAY
DTCO    .US/F  : DELTA-T COMPRESSIONAL
DTSM    .US/F  : DELTA-T SHEAR
GRC     .GAPI  : CALCULATED/BOREHOLE CORRECTED GAMMA RAY
~Params ----------------------------------------------------
~Other -----------------------------------------------------
~ASCII -----------------------------------------------------
# ...
 7607.00000   83.32400   68.03810  110.70570   94.50050
 7607.50000   84.30700   68.83770  111.35180   94.41090
 7608.00000   84.34520   69.66540  113.11900   88.24470
 7608.50000   99.30120   70.17420  114.76700   84.12310
 7609.00000  115.06710   70.62740  115.90000   81.37860
 7609.50000  131.51500   71.68780  117.38480   79.54570
 7610.00000  127.55110   73.06970  119.38590   88.08240
 7610.50000  119.88580   73.49920  119.56770   98.02040
 7611.00000  107.05270   74.12330  120.47770  105.02760
 7611.50000   99.21230   74.62750  122.21510  106.40980
 7612.00000   98.96430   74.61870  122.56970   94.84910
 7612.50000  108.87040   74.61430  122.94170   83.82540
 7613.00000  115.85010   75.41110  123.31360   87.97670
 7613.50000  122.21930   76.00340  123.43090   95.30220
 7614.00000  108.86170   76.53780  122.63880   99.23990
 7614.50000  102.64600   77.06030  123.86490  102.15970
 7615.00000  100.77650   77.83120  124.58490  100.21220
 7615.50000  113.33600   78.38340  124.66140   96.42280
 7616.00000  119.74390   78.58410  124.85410   92.86330
 7616.50000  123.82550   78.69770  125.10020   90.48530
 7617.00000  115.14250   79.06230  125.36830   87.60030
 7617.50000  113.80640   79.03370  126.12080   82.85230
 7618.00000  113.71370   78.78660  126.06520   82.42250
 7618.50000  115.34270   78.03930  125.89660   82.10070
 7619.00000  107.83780   76.22460  125.34730   80.07160
 7619.50000  101.32150   75.29880  123.34090   78.68700
 7620.00000   95.97660   75.02170  122.93590   78.81320
 7620.50000   92.15570   74.68900  122.58160   79.31750
 7621.00000   88.13360   73.42780  121.15820   78.58560
 7621.50000   88.91940   73.03650  119.52850   75.88770
 7622.00000   94.73910   72.94800  119.30470   73.66850
 7622.50000   98.29300   72.96740  119.84390   76.93610
 7623.00000   97.93740   73.07870  119.92910   83.00070
 7623.50000   93.14010   73.38850  119.86310   91.73550
 7624.00000   90.55660   73.72010  119.79700   99.57800
 7624.50000   93.25940   73.96340  120.24870  104.17670
 7625.00000   97.11140   74.38600  120.76520  100.97680
 7625.50000  108.35260   74.68880  121.32170   93.01360
 7626.00000  121.12800   74.90380  121.28760   84.13670
 7626.50000  134.87830   74.87310  121.33920   77.72720
 7627.00000  126.67650   74.35260  121.24200   74.12150
 7627.50000  111.33830   72.82860  119.77660   69.23010
 7628.00000   93.42570   72.07180  118.00990   63.03660
 7628.50000   81.74700   71.78820  117.16520   56.59470
 7629.00000   79.04370   69.86260  116.52400   52.02180
 7629.50000   74.47710   66.34580  113.54150   50.07180
 7630.00000   69.98400   64.86420  109.43490   52.39590
 7630.50000   65.63760   64.42000  108.04920   56.74100
 7631.00000   64.05000   63.83980  106.91360   59.45360
 7631.50000   65.31310   63.75890  106.39950   61.93650
 7632.00000   69.37500   63.97660  105.95090   64.41660
 7632.50000   73.45500   64.36800  105.48150   69.46250
 7633.00000   78.08090   65.66410  105.65670   71.67160
 7633.50000   78.53950   67.68750  107.29960   72.39500
 7634.00000   79.38030   69.66560  111.32490   71.72640
 7634.50000   82.09430   71.16030  114.47690   70.54630
 7635.00000   86.19990   71.44170  114.36190   70.44380
 7635.50000   89.34950   72.61990  115.55220   72.63780
 7636.00000   83.75290   74.63590  117.94370   73.44160
 7636.50000   84.93430   75.64580  119.06210   71.31300
 7637.00000   88.17470   75.82440  119.58480   67.94120
 7637.50000   93.79220   75.92950  119.90250   66.07010
 7638.00000   89.81960   76.25090  120.22020   66.29080
 7638.50000   83.86800   76.71130  120.51600   66.91390
 7639.00000   81.33600   75.99000  120.73870   67.08090
 7639.50000   82.81440   74.23520  120.99460   65.41820
 7640.00000   83.74060   74.83570  120.75560   62.87870
 7640.50000   81.03290   74.59070  120.35740   66.40690
 7641.00000   79.61540   74.53130  120.26990   70.66000
 7641.50000   83.30050   74.38640  120.20710   71.02200
 7642.00000   86.58140   74.27050  120.06830   69.08270
 7642.50000   86.50300   74.06890  120.01750   68.60200
 7643.00000   85.11060   73.97800  119.99180   68.48270
 7643.50000   86.32620   73.80460  119.94160   67.21300
 7644.00000   87.14020   73.41570  119.89140   64.76590
 7644.50000   83.83000   73.09010  119.48200   62.27100
 7645.00000   79.21250   73.18800  119.33880   63.89720
 7645.50000   81.06120   73.26570  119.32480   69.58780
 7646.00000   83.73810   73.10780  119.48290   80.26660
 7646.50000   90.19190   72.53940  119.87440   91.96230
 7647.00000  100.80310   72.10870  119.73770   90.27250
 7647.50000  116.56690   72.04140  119.36640   67.79780
 7648.00000  129.58540   72.02070  119.35180   60.66060
 7648.50000  115.02470   72.13820  119.40040   68.11850
 7649.00000   98.81750   72.43300  119.44910   79.56300
 7649.50000   83.14080   73.06480  119.49230   90.37060
 7650.00000   87.00360   72.13990  118.86670   95.29400
 7650.50000   99.25460   71.57320  118.43790   80.72270
 7651.00000  103.44170   71.38220  117.68000   73.32210
 7651.50000  101.32680   71.58050  116.96810   73.40660
 7652.00000   97.49830   71.15150  116.44240   75.64860
 7652.50000   94.43580   69.66170  115.74870   70.87930
 7653.00000   90.16710   69.66170  115.13710   65.97450
 7653.50000   87.21540   69.42100  114.62080   63.03950
 7654.00000   83.42670   69.05230  113.17850   63.86280
 7654.50000   81.63220   69.67480  114.87340   68.81990
 7655.00000   81.93940   70.32960  114.90470   76.18260
 7655.50000   91.23570   71.06490  115.36090   82.53850
 7656.00000  100.62110   71.54030  116.15590   88.82390
 7656.50000  108.26540   71.61150  117.12920   93.13560
 7657.00000  109.24920   73.22620  118.10260   95.59520
 7657.50000  108.56920   75.79620  120.32560   97.14260
 7658.00000  109.06490   76.16770  122.88060   99.97670
 7658.50000  110.59700   76.10010  123.64110  101.55860
 7659.00000  113.08320   76.13860  123.48040   98.84860
 7659.50000  121.67030   75.95980  122.79460   94.22350
 7660.00000  126.76700   74.50000  121.44150   88.28120
 7660.50000  125.44600   73.40860  120.94200   81.10620
 7661.00000  118.67240   71.84980  120.40770   75.35090
 7661.50000  101.37300   69.55210  117.88310   69.41840
 7662.00000   88.42530   68.42350  114.51140   61.80010
 7662.50000   76.46990   67.77470  113.66580   55.79780
 7663.00000   74.09750   65.53680  113.31750   53.85150
 7663.50000   69.95480   61.64000  110.61410   56.77210
 7664.00000   69.16560   61.24940  107.27610   56.80590
 7664.50000   66.08420   61.16480  106.02530   56.29030
 7665.00000   70.36770   60.86640  105.34580   57.14170
 7665.50000   71.11830   60.77770  104.73360   58.00660
 7666.00000   74.79470   61.15520  104.01230   56.83960
 7666.50000   72.87830   61.44790  103.10910   52.93630
 7667.00000   74.10710   61.57910  103.37030   50.81640
 7667.50000   64.72690   62.77730  103.63150   52.79720
 7668.00000   63.40820   63.53390  104.50690   59.75000
 7668.50000   61.49970   64.10680  105.22620   67.24670
 7669.00000   67.67380   64.28190  105.85300   71.49320
 7669.50000   74.80200   64.53620  107.18590   78.17620
 7670.00000   79.32660   66.32500  109.61270   87.60270
 7670.50000   85.87260   66.67410  110.19310   91.46980
 7671.00000   92.15500   66.91240  110.60010   91.75020
 7671.50000   95.37360   68.01340  110.70750   90.55080
 7672.00000   93.59970   70.14320  114.74230   92.76170
 7672.50000   98.94850   72.26390  117.68710   94.98870
 7673.00000  105.41310   72.43240  118.59000   94.05360
 7673.50000  113.64630   72.64330  118.51700   91.31410
 7674.00000  118.58980   73.29630  120.18790   90.80700
 7674.50000  124.91820   73.81590  122.22950   94.25040
 7675.00000  122.52260   74.44340  123.01100   98.12680
 7675.50000  121.19370   74.65050  123.12280   98.42190
 7676.00000  117.99330   74.92500  123.20490   93.01660
 7676.50000  113.14700   75.05850  123.20070   85.61360
 7677.00000  105.30230   74.52600  122.47890   87.70200
 7677.50000  102.06550   73.94550  122.86790   94.64940
 7678.00000  108.13760   74.11170  122.48130  104.06490
