~Version ---------------------------------------------------
VERS.   2.0 : CWLS log ASCII Standard -VERSION 2.0
WRAP.    NO : One line per depth step
DLM . SPACE : Column Data Section Delimiter
~Well ------------------------------------------------------
STRT .F                  457.0 : START DEPTH
STOP .F                14085.0 : STOP DEPTH
STEP .F                    0.5 : STEP
NULL .                -9999.25 : NULL VALUE
COMP .                         : COMPANY
WELL .                         : WELL
FLD  .                         : FIELD
LOC  .                         : LOCATION
PROV .                         : PROVINCE
CNTY .                         : COUNTY
STAT .                         : STATE
CTRY .                         : COUNTRY
SRVC .                         : SERVICE COMPANY
DATE .                         : DATE
UWI  .                         : UNIQUE WELL ID
API  .                         : API NUMBER
SLAT .WGS84 2.3134099046953978 : SURFACE LATITUDE
SLON .WGS84  8.792145572759992 : SURFACE LONGITUDE
DATUM.F                    nan : DEPTH DATUM ELEV
~Curve Information -----------------------------------------
DEPT    .F     : 1 MEASURED DEPTH
ECGREDTC.GAPI  : ENVIRONMENTALLY CORRECTED GAMMA RAY
DTCO    .US/F  : DELTA-T COMPRESSIONAL
DTSM    .US/F  : DELTA-T SHEAR
GRC     .GAPI  : CALCULATED/BOREHOLE CORRECTED GAMMA RAY
~Params ----------------------------------------------------
~Other -----------------------------------------------------
~ASCII -----------------------------------------------------
# ...
 8465.00000   53.93960   54.30380   96.93400   41.20800
 8465.50000   49.68590   53.22530   96.71260   37.93900
 8466.00000   43.96300   53.35110   95.92220   35.82360
 8466.50000   43.51200   53.36030   95.39540   42.07130
 8467.00000   43.97410   53.27470   94.91870   70.97970
 8467.50000   46.98450   53.32790   95.45740   92.97310
 8468.00000   50.36980   54.32290   97.23600  105.81750
 8468.50000   52.26810   55.59960   99.27810  108.26970
 8469.00000   49.20130   57.75630  100.93740  109.18540
 8469.50000   47.57830   60.05170  102.77480  105.70410
 8470.00000   53.05210   61.90770  104.09920   98.43090
 8470.50000   82.04850   62.21310  105.34200   90.24590
 8471.00000  104.56890   62.91370  106.62920   84.29050
 8471.50000  125.68570   66.41980  108.34850   79.77850
 8472.00000  124.73050   68.29780  110.13650   82.94490
 8472.50000  127.02280   69.18560  111.36870   86.46740
 8473.00000  120.55870   69.19670  111.58900   79.80620
 8473.50000  112.66600   69.10380  111.45800   65.36260
 8474.00000  103.58370   66.11460  109.90390   53.31570
 8474.50000  101.73050   65.44110  107.55180   70.70520
 8475.00000   99.47930   65.13220  107.12260   80.34220
 8475.50000   96.02160   64.92230  106.75940   77.33360
 8476.00000   86.21550   63.72820  106.36400   68.67220
 8476.50000   84.49320   62.46190  104.51720   65.81470
 8477.00000   88.29330   62.48760  103.97170   70.36950
 8477.50000   94.30280   62.67110  104.24270   74.48080
 8478.00000   96.78640   62.75030  104.56990   79.28840
 8478.50000   86.61940   63.21710  103.28280   88.32940
 8479.00000   83.34120   63.88030  105.04350  100.58840
 8479.50000   83.54920   64.25090  105.37230  113.61980
 8480.00000   86.91820   65.70610  104.76180  113.14160
 8480.50000   90.83290   67.21580  106.83420   99.52630
 8481.00000   95.33020   67.62120  108.06950   84.96790
 8481.50000  116.14530   67.72690  108.96050   72.10860
 8482.00000  133.19250   67.28800  109.13760   66.09610
 8482.50000  150.19290   66.19700  108.99180   61.76950
 8483.00000  145.55960   65.66720  110.03860   58.28920
 8483.50000  127.39090   65.46830  109.33670   55.96510
 8484.00000   98.38020   63.88920  107.83690   53.87870
 8484.50000   77.06010   61.47230  105.50680   48.46610
 8485.00000   73.92240   58.58970  104.41740   41.13490
 8485.50000   72.18830   58.37380  103.44540   39.75730
 8486.00000   69.13760   57.66140  102.96730   39.49650
 8486.50000   64.29040   56.15970  101.53930   38.99690
 8487.00000   58.55310   54.81000   97.23270   36.96470
 8487.50000   54.46060   54.14160   97.75370   35.68720
 8488.00000   50.48220   53.79970   97.95080   35.77450
 8488.50000   45.90630   53.68000   97.79470   34.23160
 8489.00000   41.26470   53.58700   97.57020   30.79940
 8489.50000   39.87720   53.53450   96.94550   33.96030
 8490.00000   44.26010   53.49790   96.43460   44.52040
 8490.50000   45.95200   53.64450   96.29720   43.16540
 8491.00000   48.87730   53.33290   96.39880   37.47850
 8491.50000   49.15460   53.48260   96.71640   33.99940
 8492.00000   50.39130   53.66500   97.64820   32.80510
 8492.50000   45.00840   53.66030   97.53120   30.81250
 8493.00000   38.99330   53.65180   97.38240   31.25290
 8493.50000   35.84560   53.57660   97.17980   33.57890
 8494.00000   35.96680   53.65240   96.81900   35.26640
 8494.50000   40.31950   53.37440   96.57620   31.73260
 8495.00000   41.29220   53.61830   97.35320   27.89210
 8495.50000   41.19440   53.45640   97.41010   30.53440
 8496.00000   36.04990   53.36010   97.41730   33.85720
 8496.50000   37.65110   53.46970   97.52630   33.85550
 8497.00000   42.52360   53.63090   97.54770   28.34910
 8497.50000   45.14550   53.64990   96.82870   28.47290
 8498.00000   42.05580   53.71150   96.09450   32.93910
 8498.50000   37.50590   53.72880   97.40250   36.37090
 8499.00000   36.56170   53.63230   97.59100   37.59190
 8499.50000   37.45160   53.44310   97.56190   37.86730
 8500.00000   45.97690   53.66960   98.09030   37.85800
 8500.50000   48.63140   53.98820   98.09980   34.37810
 8501.00000   50.92180   54.03330   97.81800   30.12320
 8501.50000   42.79320   54.14370   97.29190   28.09440
 8502.00000   40.34140   54.51210   97.61490   31.73470
 8502.50000   41.17850   54.79650   98.58060   38.05100
 8503.00000   48.09390   54.85780   98.35300   42.96730
 8503.50000   53.94020   55.09960   98.27720   45.45190
 8504.00000   56.19810   55.05750   98.24420   43.64600
 8504.50000   54.13480   54.90560   98.18280   37.79600
 8505.00000   50.26600   54.62720   98.18080   34.01820
 8505.50000   46.69990   54.60440   98.46130   33.05960
 8506.00000   45.57240   54.32970   98.25030   31.82860
 8506.50000   45.31640   53.60810   97.67790   29.23060
 8507.00000   45.71390   53.34180   97.54070   25.41280
 8507.50000   40.22430   53.16810   97.47810   25.42930
 8508.00000   39.42360   53.25830   96.96600   26.82650
 8508.50000   40.44630   53.17830   97.01810   28.22370
 8509.00000   41.76190   53.16240   96.81500   28.78170
 8509.50000   41.21000   53.09740   96.92820   26.29860
 8510.00000   36.27410   53.34640   97.15780   27.96940
 8510.50000   34.35870   53.56260   97.38750   31.32930
 8511.00000   34.74070   53.57900   97.30770   31.42780
 8511.50000   34.79130   53.61260   95.80190   27.38710
 8512.00000   35.89250   53.77760   97.83570   26.65020
 8512.50000   37.67060   54.24020   98.54950   30.84820
 8513.00000   42.26830   54.27860   98.42840   31.36300
 8513.50000   41.14820   54.22860   98.56360   29.57950
 8514.00000   40.24940   54.21200   98.57460   29.99840
 8514.50000   42.48830   54.20310   98.47790   32.66970
 8515.00000   47.39190   54.27750   98.38120   31.27250
 8515.50000   45.64250   54.45610   98.37310   29.53610
 8516.00000   44.80180   54.30080   98.75710   30.08250
 8516.50000   42.48400   54.17350   98.13560   33.13100
 8517.00000   42.07750   54.16420   97.70410   36.65810
 8517.50000   42.18350   54.12210   97.42460   38.93300
 8518.00000   42.93090   54.11220   97.60560   39.01380
 8518.50000   48.94150   54.25860   97.58140   38.89940
 8519.00000   49.34900   54.07950   97.26740   39.07240
 8519.50000   50.92910   53.99260   97.22600   39.55820
 8520.00000   48.05730   53.86100   97.31070   37.64510
 8520.50000   51.87530   53.66510   97.46680   34.76610
 8521.00000   45.88870   53.51130   97.63170   33.21410
 8521.50000   46.92320   53.62060   97.72130   33.80790
 8522.00000   40.25610   53.26310   97.06590   35.35790
 8522.50000   46.46210   53.34600   96.81610   34.03920
 8523.00000   45.10110   53.64590   97.59100   31.64000
 8523.50000   44.53720   53.57750   97.67110   30.77120
 8524.00000   39.84340   53.75190   97.82770   31.28790
 8524.50000   38.96420   54.15550   98.27050   32.70330
 8525.00000   39.51570   54.56660   98.62900   36.06320
 8525.50000   41.83530   54.90780   99.39810   37.00380
 8526.00000   45.60750   55.57160  100.11500   36.91100
 8526.50000   47.84400   57.36410  101.86520   38.35640
 8527.00000   44.97790   59.85790  103.96240   44.66010
 8527.50000   40.58350   60.46730  105.14470   57.17200
 8528.00000   43.01240   61.35920  105.47080   65.49120
 8528.50000   54.31530   62.29840  105.94000   64.73920
 8529.00000   68.73000   62.92060  108.23980   60.11340
 8529.50000   74.50780   63.24640  108.81640   59.79940
 8530.00000   76.87160   63.77970  108.07610   61.41740
 8530.50000   76.24940   64.45560  107.84950   53.82170
 8531.00000   68.07580   65.32240  109.11260   47.30010
 8531.50000   63.74760   65.42880  109.34060   45.33870
 8532.00000   60.56580   65.23940  109.40710   61.86990
 8532.50000   70.00960   65.08400  109.71050   58.92230
 8533.00000   79.44470   64.76470  108.82050   48.40120
 8533.50000   82.36480   64.14290  107.89410   44.26210
 8534.00000   80.64100   63.58310  107.43620   42.97700
 8534.50000   77.49660   62.81790  107.13990   42.54320
 8535.00000   76.34350   60.33450  105.06680   41.30700
 8535.50000   66.72070   59.00090  104.71100   37.42490
 8536.00000   52.07310   58.76710  103.87670   31.17060
