~Version ---------------------------------------------------
VERS.   2.0 : CWLS log ASCII Standard -VERSION 2.0
WRAP.    NO : One line per depth step
DLM . SPACE : Column Data Section Delimiter
~Well ------------------------------------------------------
STRT .F                  457.0 : START DEPTH
STOP .F                14085.0 : STOP DEPTH
STEP .F                    0.5 : STEP
NULL .                -9999.25 : NULL VALUE
COMP .                         : COMPANY
WELL .                         : WELL
FLD  .                         : FIELD
LOC  .                         : LOCATION
PROV .                         : PROVINCE
CNTY .                         : COUNTY
STAT .                         : STATE
CTRY .                         : COUNTRY
SRVC .                         : SERVICE COMPANY
DATE .                         : DATE
UWI  .                         : UNIQUE WELL ID
API  .                         : API NUMBER
SLAT .WGS84 2.3134099046953978 : SURFACE LATITUDE
SLON .WGS84  8.792145572759992 : SURFACE LONGITUDE
DATUM.F                    nan : DEPTH DATUM ELEV
~Curve Information -----------------------------------------
DEPT    .F     : 1 MEASURED DEPTH
ECGREDTC.GAPI  : ENVIRONMENTALLY CORRECTED GAMMA RAY
DTCO    .US/F  : DELTA-T COMPRESSIONAL
DTSM    .US/F  : DELTA-T SHEAR
GRC     .GAPI  : CALCULATED/BOREHOLE CORRECTED GAMMA RAY
~Params ----------------------------------------------------
~Other -----------------------------------------------------
~ASCII -----------------------------------------------------
# ...
 8179.00000   55.03330   50.89810   98.81450   95.63750
 8179.50000   56.45940   52.73160  101.61520   83.93100
 8180.00000   60.75490   61.37790  104.67160   64.70960
 8180.50000   67.04890   65.88660  106.32780   44.53220
 8181.00000   81.52220   66.23830  107.27510   34.14780
 8181.50000   98.49680   66.19520  107.71430   31.50060
 8182.00000  109.75880   66.25720  108.92680   36.18300
 8182.50000  112.14050   65.47160  110.68080   34.27480
 8183.00000  111.80080   64.35300  111.10230   27.43170
 8183.50000  106.53350   64.11540  111.14010   21.56400
 8184.00000  105.49390   61.23670  108.98180   25.98700
 8184.50000   88.51220   58.49860  106.47170   39.21350
 8185.00000   68.58350   56.38150  103.39290   54.27460
 8185.50000   49.98150   55.60730  101.43190   65.75330
 8186.00000   43.70100   54.37350  100.25600   75.08030
 8186.50000   45.94300   53.28110   99.05290   80.46720
 8187.00000   49.31400   53.43210   96.30070   83.55480
 8187.50000   42.23770   53.77470   95.29770   87.09470
 8188.00000   34.06550   54.51320   96.10470   91.26350
 8188.50000   29.00320   57.13030   97.08910   91.08730
 8189.00000   34.08890   59.58190  100.45610   86.56400
 8189.50000   49.61510   61.43520  102.34100   89.14080
 8190.00000   69.27100   62.70810  103.66700   94.05870
 8190.50000   82.97910   63.94370  104.87120   98.97670
 8191.00000   94.01040   67.14050  107.84850  103.89460
 8191.50000   99.86200   69.11520  110.58170  106.59240
 8192.00000  101.09600   70.42690  113.46930  100.58050
 8192.50000  103.81480   71.89040  116.15930   95.00810
 8193.00000  107.62970   73.20360  118.54900   92.38760
 8193.50000  109.33270   74.49110  120.32620   95.65140
 8194.00000  110.69190   75.61640  121.34350  102.22320
 8194.50000  108.00410   76.60560  122.86250   94.72410
 8195.00000  112.42010   77.37320  125.10240   78.28270
 8195.50000  113.26620   77.73370  125.02900   63.86530
 8196.00000  119.94210   78.02250  124.94630   57.54060
 8196.50000  114.35170   77.71890  124.69590   63.27620
 8197.00000  109.65170   75.59110  124.16840   71.72670
 8197.50000  106.16050   72.72660  122.69890   74.94550
 8198.00000  112.24010   72.02560  120.28650   75.66790
 8198.50000  117.64890   71.38490  118.48570   75.37880
 8199.00000  119.93900   68.76930  116.35370   75.13700
 8199.50000  105.00800   68.13950  113.89880   75.66090
 8200.00000   86.85940   67.88360  112.00840   75.41160
 8200.50000   68.31810   67.73220  111.62870   74.36760
 8201.00000   73.67170   67.67130  111.20320   71.02850
 8201.50000   82.36310   67.99820  111.36280   67.19790
 8202.00000   87.24530   69.29530  112.17710   65.30640
 8202.50000   91.24430   70.66170  113.08300   64.91660
 8203.00000   86.49610   71.36300  113.77720   60.85090
 8203.50000   86.82120   71.54020  114.51720   55.76780
 8204.00000   85.49280   72.81870  115.25720   54.79950
 8204.50000   83.97200   73.06480  116.53390   59.09130
 8205.00000   80.26730   73.05020  117.30430   57.58430
 8205.50000   75.45030   72.85300  117.26520   54.33920
 8206.00000   77.16660   72.25860  117.09760   51.83240
 8206.50000   76.27420   71.56020  116.28380   52.94350
 8207.00000   82.05570   71.14510  115.47660   53.33670
 8207.50000   77.08500   70.64820  115.22510   48.10150
 8208.00000   74.25920   69.91810  114.43640   43.22770
 8208.50000   71.95050   69.17420  113.37720   42.57740
 8209.00000   76.27100   68.12780  110.74330   47.78930
 8209.50000   75.11400   67.62790  110.48800   55.26700
 8210.00000   70.35510   66.87050  110.29680   59.80090
 8210.50000   65.71880   64.96990  109.62510   62.23900
 8211.00000   64.44500   64.67500  107.58930   63.39320
 8211.50000   64.60730   64.84840  106.76650   63.27930
 8212.00000   59.30880   64.86590  106.59670   62.46150
 8212.50000   52.33620   65.05900  106.42690   61.42400
 8213.00000   45.12540   66.33730  106.86660   60.46390
 8213.50000   48.87660   67.85960  107.93090   60.04150
 8214.00000   60.89790   68.06200  108.94230   59.97260
 8214.50000   75.34040   68.15490  109.30380   60.89490
 8215.00000   84.66960   68.57190  109.78880   63.63920
 8215.50000   86.64720   69.90330  110.41450   64.38510
 8216.00000   82.18480   71.06970  113.39220   62.60130
 8216.50000   78.24760   71.41360  114.94120   60.40130
 8217.00000   76.17050   71.45530  115.25040   57.81400
 8217.50000   70.56980   71.65850  115.64420   53.61630
 8218.00000   69.90380   71.91010  115.81420   47.10980
 8218.50000   65.51980   72.30360  116.06190   44.56870
 8219.00000   69.65370   72.18050  116.34980   51.33710
 8219.50000   67.35710   71.48160  116.42100   59.89130
 8220.00000   72.62530   69.70190  116.19930   60.42140
 8220.50000   74.09410   69.27310  114.44620   56.90390
 8221.00000   77.68400   69.10890  114.00680   53.37650
 8221.50000   69.27670   68.69940  113.70460   51.25080
 8222.00000   64.72490   69.04370  113.07390   52.60040
 8222.50000   60.93270   67.62650  111.82210   56.64650
 8223.00000   64.66080   65.84860  110.83690   60.05160
 8223.50000   68.19000   65.91840  110.92720   60.08180
 8224.00000   66.86750   65.92910  110.64720   58.10890
 8224.50000   64.53060   65.92570  110.38240   61.81230
 8225.00000   59.69660   65.91620  110.33670   68.13730
 8225.50000   58.67040   65.89720  110.93550   73.26130
 8226.00000   59.55020   65.96330  111.02440   75.13750
 8226.50000   63.05630   66.14750  111.05630   67.75870
 8227.00000   66.05940   66.61580  111.09150   57.37840
 8227.50000   69.33350   67.70270  111.85450   56.02200
 8228.00000   65.94440   68.50640  112.54830   59.86570
 8228.50000   68.28840   68.79020  112.87340   65.55160
 8229.00000   72.60230   69.33730  113.10540   70.74660
 8229.50000   80.31230   69.94070  114.25210   66.83100
 8230.00000   83.08340   70.21160  114.90280   60.79720
 8230.50000   80.51090   70.72440  115.16110   56.35800
 8231.00000   74.31870   71.06020  115.66080   55.66410
 8231.50000   68.43810   71.07760  115.70100   59.24040
 8232.00000   71.07300   70.83110  115.55490   66.04620
 8232.50000   75.45230   70.11920  115.43710   65.72020
 8233.00000   80.81040   69.57760  115.34840   61.04010
 8233.50000   80.88100   69.38480  115.24620   54.45970
 8234.00000   79.24190   69.32680  114.96050   52.29560
 8234.50000   75.88090   69.00450  114.85110   60.48990
 8235.00000   73.06610   68.09330  114.47730   66.17440
 8235.50000   68.56340   67.54470  113.71090   68.87540
 8236.00000   64.00610   67.45290  113.28680   68.71330
 8236.50000   60.38740   67.40830  113.14130   66.59490
 8237.00000   64.47280   67.52180  113.11550   63.07610
 8237.50000   65.06490   68.16630  112.72440   60.12560
 8238.00000   67.93580   69.11550  112.33330   59.00700
 8238.50000   71.70720   69.57850  112.49120   61.91800
 8239.00000   75.62190   69.68830  112.36900   65.80480
 8239.50000   79.22540   69.90250  112.41450   67.38820
 8240.00000   76.36410   70.19740  112.88350   65.23100
 8240.50000   80.25240   70.28600  113.80250   62.90660
 8241.00000   81.51960   70.23090  114.52330   62.43500
 8241.50000   80.36990   70.12260  114.44750   63.76710
 8242.00000   79.68570   69.87640  114.92740   66.07000
 8242.50000   83.75070   69.87590  114.68800   67.61690
 8243.00000   85.11610   69.87590  114.43140   67.35300
 8243.50000   82.92080   69.87590  114.17490   65.49340
 8244.00000   75.87410   69.91380  114.00710   64.86580
 8244.50000   73.31430   70.09790  113.96640   67.56170
 8245.00000   77.20440   70.31470  114.04180   69.47910
 8245.50000   82.97850   70.43100  114.09280   70.36550
 8246.00000   83.79960   70.48820  114.21990   69.35660
 8246.50000   81.15530   70.53470  114.14010   64.31520
 8247.00000   77.51920   70.68870  114.16140   61.10780
 8247.50000   74.62800   70.95070  114.78500   63.83360
 8248.00000   77.07420   70.98540  114.94930   64.69230
 8248.50000   76.12900   71.00760  115.04510   62.49280
 8249.00000   75.77750   70.99090  115.06200   60.27160
 8249.50000   75.39430   71.05230  115.07890   60.52930
 8250.00000   70.76510   71.13710  115.13120   61.40980
