~Version ---------------------------------------------------
VERS.   2.0 : CWLS log ASCII Standard -VERSION 2.0
WRAP.    NO : One line per depth step
DLM . SPACE : Column Data Section Delimiter
~Well ------------------------------------------------------
STRT .F                  457.0 : START DEPTH
STOP .F                14085.0 : STOP DEPTH
STEP .F                    0.5 : STEP
NULL .                -9999.25 : NULL VALUE
COMP .                         : COMPANY
WELL .                         : WELL
FLD  .                         : FIELD
LOC  .                         : LOCATION
PROV .                         : PROVINCE
CNTY .                         : COUNTY
STAT .                         : STATE
CTRY .                         : COUNTRY
SRVC .                         : SERVICE COMPANY
DATE .                         : DATE
UWI  .                         : UNIQUE WELL ID
API  .                         : API NUMBER
SLAT .WGS84 2.3134099046953978 : SURFACE LATITUDE
SLON .WGS84  8.792145572759992 : SURFACE LONGITUDE
DATUM.F                    nan : DEPTH DATUM ELEV
~Curve Information -----------------------------------------
DEPT    .F     : 1 MEASURED DEPTH
ECGREDTC.GAPI  : ENVIRONMENTALLY CORRECTED GAMMA RAY
DTCO    .US/F  : DELTA-T COMPRESSIONAL
DTSM    .US/F  : DELTA-T SHEAR
GRC     .GAPI  : CALCULATED/BOREHOLE CORRECTED GAMMA RAY
~Params ----------------------------------------------------
~Other -----------------------------------------------------
~ASCII -----------------------------------------------------
# ...
 8036.00000   62.42010   59.49420  103.29790   36.84200
 8036.50000   62.46840   59.23950  102.90300   41.08590
 8037.00000   56.82690   59.21700  102.79200   51.98950
 8037.50000   46.67670   59.38590  102.92530   60.32870
 8038.00000   41.83290   60.05550  103.05860   62.92600
 8038.50000   40.75790   60.53060  104.12350   56.86040
 8039.00000   44.62420   60.64590  103.84160   50.93960
 8039.50000   51.72670   60.82950  104.24250   48.34180
 8040.00000   62.11750   61.41190  104.51790   46.70590
 8040.50000   70.65070   61.64660  104.99070   44.02790
 8041.00000   72.50500   61.57300  104.64380   40.95100
 8041.50000   71.62240   61.09870  105.23820   37.75500
 8042.00000   68.64480   60.09700  104.73460   36.26590
 8042.50000   62.66840   59.68590  103.34140   34.30600
 8043.00000   55.74760   59.43790  102.70150   33.08640
 8043.50000   50.37980   58.76240  102.94020   32.86950
 8044.00000   48.99060   58.04070  101.59550   32.90030
 8044.50000   50.82850   57.35040  100.09270   32.51500
 8045.00000   52.29320   57.17730   99.03860   33.36970
 8045.50000   49.83880   57.03530   98.14480   36.88810
 8046.00000   46.29530   56.96380   97.98400   40.13690
 8046.50000   43.21430   56.95730   98.02550   42.21510
 8047.00000   41.95230   57.07480   98.06910   45.55740
 8047.50000   41.48380   57.41370   98.12530   53.28520
 8048.00000   41.64890   58.25370   98.88330   54.17440
 8048.50000   45.36710   58.76700   99.58650   49.82440
 8049.00000   50.32470   58.79650   99.87450   43.67680
 8049.50000   54.42930   58.77170  100.55720   35.98620
 8050.00000   56.36000   58.25380  101.15960   23.84320
 8050.50000   53.70610   57.25090  102.04300   20.27100
 8051.00000   51.17360   57.07820  102.15360   19.69040
 8051.50000   43.96180   56.96440  101.80350   20.84050
 8052.00000   38.69660   55.84740  101.85040   22.01900
 8052.50000   31.73700   54.60480  100.96370   22.20080
 8053.00000   27.30660   54.15510  100.26130   22.01480
 8053.50000   22.85920   54.03850  100.47480   21.87090
 8054.00000   24.79200   54.02420   99.96480   22.30420
 8054.50000   27.75310   53.94690   99.52380   23.33100
 8055.00000   28.87870   54.17230   99.46610   23.24890
 8055.50000   28.99500   54.40330   99.36610   22.51670
 8056.00000   28.72710   54.76500  100.19190   22.33910
 8056.50000   30.66070   55.05280  100.10090   22.71560
 8057.00000   30.22100   55.24420  100.01000   23.06480
 8057.50000   27.68280   55.34150  100.24440   22.86130
 8058.00000   28.53620   55.43970   99.94600   23.91590
 8058.50000   31.78450   55.54080   99.39230   26.27580
 8059.00000   34.23940   55.54320   99.55160   28.17060
 8059.50000   33.57380   55.46290   99.79660   26.92280
 8060.00000   30.30560   55.45500   99.86340   26.14200
 8060.50000   29.24860   55.32080   99.48300   26.55900
 8061.00000   31.99580   55.14190   98.59840   25.79380
 8061.50000   34.93810   55.06500   98.51340   23.82030
 8062.00000   34.87760   55.05030   99.06420   21.10010
 8062.50000   33.61680   55.04250   99.57630   19.71890
 8063.00000   30.67140   55.01110   99.49250   20.74180
 8063.50000   29.76550   54.92400   98.64710   21.74250
 8064.00000   26.89700   54.87150   99.02870   21.52740
 8064.50000   24.71270   54.78650   99.28070   20.39400
 8065.00000   24.06990   54.52160   97.80140   20.48900
 8065.50000   26.42770   54.44750   99.45250   20.94610
 8066.00000   26.57260   54.44260   98.55500   21.72220
 8066.50000   28.79350   54.45950   97.44320   23.41230
 8067.00000   26.11430   54.53220   97.65300   25.61400
 8067.50000   25.38180   54.47870   98.15750   27.66920
 8068.00000   23.77820   54.57860   98.60770   28.20150
 8068.50000   26.26760   54.58130   98.68980   27.32540
 8069.00000   28.40640   54.57400   98.77510   26.31700
 8069.50000   29.17710   54.72320   98.91230   24.84820
 8070.00000   31.32030   54.97070   99.16840   23.35860
 8070.50000   33.90710   54.99690   99.51680   22.89270
 8071.00000   33.74020   55.00290   99.61570   23.41690
 8071.50000   30.78510   55.25550   99.40680   24.35350
 8072.00000   27.98250   55.67970   99.44380   26.04180
 8072.50000   26.62450   55.82670   99.58340   29.90150
 8073.00000   27.51930   55.89060   99.72190   32.34200
 8073.50000   28.09040   56.10860   99.83840   33.58660
 8074.00000   29.87870   56.55750   99.87040   33.79750
 8074.50000   34.11700   56.83240   99.55340   32.65030
 8075.00000   38.39970   56.87210  100.05800   29.61400
 8075.50000   40.56580   56.95590   99.53310   29.69280
 8076.00000   37.61300   57.01260   99.49950   30.00480
 8076.50000   35.09890   57.21430   99.82960   28.43290
 8077.00000   34.46050   57.35930  100.20920   29.57040
 8077.50000   36.12350   57.42220  100.49440   33.74220
 8078.00000   37.78490   57.62920  100.55540   36.14430
 8078.50000   39.24790   57.67400  100.58210   35.52940
 8079.00000   40.41240   57.64550  100.64190   32.93330
 8079.50000   41.93710   57.44310  100.79540   28.39840
 8080.00000   43.94760   57.04670  100.65310   24.07330
 8080.50000   43.21510   56.86010   99.80580   22.33630
 8081.00000   39.73290   56.82590   98.80700   24.65650
 8081.50000   33.82210   56.85670   99.34230   28.86020
 8082.00000   30.37600   57.02190   99.71900   34.82400
 8082.50000   30.85360   57.37690   99.56660   39.08470
 8083.00000   35.34390   57.65920  100.28820   39.45880
 8083.50000   42.05620   57.85350  100.73580   38.94140
 8084.00000   47.61750   58.39010  101.18350   37.09970
 8084.50000   49.48200   59.13520  101.42930   36.67640
 8085.00000   48.39240   59.37340  101.71760   40.33150
 8085.50000   44.50210   59.41800  102.54410   38.84150
 8086.00000   43.07820   59.37950  102.81910   36.05540
 8086.50000   42.48570   59.09800  102.63040   33.23320
 8087.00000   42.15960   58.68060  102.41490   31.85410
 8087.50000   40.95370   58.59750  101.87900   32.20400
 8088.00000   37.88490   58.69910  101.34480   33.39210
 8088.50000   35.88250   59.13980  102.21190   35.24520
 8089.00000   38.52030   59.54270  102.94020   36.86660
 8089.50000   41.46280   59.60220  103.77190   38.89090
 8090.00000   44.40540   59.65470  104.11960   40.71390
 8090.50000   45.70320   59.90440  104.46720   39.77260
 8091.00000   49.42910   60.32970  104.81480   37.76400
 8091.50000   50.36430   60.67210  105.16240   35.87990
 8092.00000   45.38010   60.73990  105.36750   35.43350
 8092.50000   42.86340   60.71810  105.12130   36.92470
 8093.00000   42.24260   60.65980  105.47230   36.53740
 8093.50000   47.59260   60.62700  105.27350   34.69620
 8094.00000   47.57240   60.61920  105.58950   35.24240
 8094.50000   46.29250   60.64070  105.64320   36.85570
 8095.00000   42.57500   60.74500  105.62940   37.83190
 8095.50000   40.67290   61.05420  105.45390   37.99510
 8096.00000   42.24260   61.13220  105.71800   38.55470
 8096.50000   41.39190   61.03330  106.03630   39.93900
 8097.00000   42.16780   61.02040  105.89090   39.75870
 8097.50000   43.45800   60.81880  106.39520   35.69410
 8098.00000   45.26670   61.19180  106.56140   30.90880
 8098.50000   47.85780   61.33840  106.34560   30.06610
 8099.00000   44.48330   61.58060  106.19730   33.51430
 8099.50000   41.43890   62.25020  106.49260   38.22050
 8100.00000   34.67430   62.35910  106.99910   44.84900
 8100.50000   37.01480   62.37490  107.46530   50.12290
 8101.00000   46.72400   62.38180  107.28750   51.55920
 8101.50000   60.55700   62.14250  107.22350   43.01180
 8102.00000   65.53730   61.58520  107.14630   37.25970
 8102.50000   62.18410   60.78180  106.96700   34.25690
 8103.00000   53.04430   60.16840  105.05740   32.57280
 8103.50000   44.01720   59.91980  105.69840   29.76260
 8104.00000   38.39550   59.35160  104.55300   31.22320
 8104.50000   33.50640   59.23690  103.31470   35.81720
 8105.00000   30.79820   59.29970  102.93890   40.23890
 8105.50000   33.43710   59.47000  103.49770   42.38440
 8106.00000   42.59640   59.97430  104.08220   42.04730
 8106.50000   50.21950   60.88080  104.66470   39.78080
 8107.00000   52.29550   61.85410  105.66080   37.87690
