~Version ---------------------------------------------------
VERS.   2.0 : CWLS log ASCII Standard -VERSION 2.0
WRAP.    NO : One line per depth step
DLM . SPACE : Column Data Section Delimiter
~Well ------------------------------------------------------
STRT .F                  457.0 : START DEPTH
STOP .F                14085.0 : STOP DEPTH
STEP .F                    0.5 : STEP
NULL .                -9999.25 : NULL VALUE
COMP .                         : COMPANY
WELL .                         : WELL
FLD  .                         : FIELD
LOC  .                         : LOCATION
PROV .                         : PROVINCE
CNTY .                         : COUNTY
STAT .                         : STATE
CTRY .                         : COUNTRY
SRVC .                         : SERVICE COMPANY
DATE .                         : DATE
UWI  .                         : UNIQUE WELL ID
API  .                         : API NUMBER
SLAT .WGS84 2.3134099046953978 : SURFACE LATITUDE
SLON .WGS84  8.792145572759992 : SURFACE LONGITUDE
DATUM.F                    nan : DEPTH DATUM ELEV
~Curve Information -----------------------------------------
DEPT    .F     : 1 MEASURED DEPTH
ECGREDTC.GAPI  : ENVIRONMENTALLY CORRECTED GAMMA RAY
DTCO    .US/F  : DELTA-T COMPRESSIONAL
DTSM    .US/F  : DELTA-T SHEAR
GRC     .GAPI  : CALCULATED/BOREHOLE CORRECTED GAMMA RAY
~Params ----------------------------------------------------
~Other -----------------------------------------------------
~ASCII -----------------------------------------------------
# ...
 9108.50000  120.42490   75.90000  124.75340   70.96000
 9109.00000  110.34900   75.58270  124.09890   71.21360
 9109.50000  113.67010   75.38770  124.39800   71.99050
 9110.00000  123.29430   73.83070  124.65430   73.31630
 9110.50000  135.09270   74.55000  124.12270   74.49880
 9111.00000  142.65460   74.64100  123.48010   74.45690
 9111.50000  136.35770   74.71940  123.90870   74.22620
 9112.00000  123.41940   74.60620  124.45120   73.98050
 9112.50000  111.54670   72.42030  122.19370   73.29980
 9113.00000  108.44980   72.09320  120.44200   72.62900
 9113.50000  124.46760   71.97670  119.86430   72.25520
 9114.00000  145.45920   70.58610  119.00540   72.44420
 9114.50000  160.50330   65.72710  116.18650   74.13620
 9115.00000  151.34230   63.61810  110.05560   75.99510
 9115.50000  120.03090   63.63650  106.84850   77.09190
 9116.00000   79.27650   63.60640  106.46280   77.06650
 9116.50000   50.75840   63.51650  106.46330   75.99270
 9117.00000   44.02230   63.51910  106.32810   72.97090
 9117.50000   46.85880   64.52260  106.39110   72.45270
 9118.00000   55.24770   66.14240  107.81340   73.86110
 9118.50000   74.33430   66.29540  108.78670   75.61950
 9119.00000   90.72760   66.71230  109.92080   75.58560
 9119.50000   98.55820   67.75370  111.60990   77.77040
 9120.00000   93.48790   70.86350  114.71290   78.44700
 9120.50000   81.86410   71.73470  116.71720   76.78850
 9121.00000   75.70570   71.96500  117.38720   75.58420
 9121.50000   78.62650   72.05140  117.54600   75.51500
 9122.00000   88.26050   72.84150  117.40570   75.68580
 9122.50000   96.15860   73.12960  117.26550   76.64530
 9123.00000   96.56850   73.29060  118.66200   77.87180
 9123.50000   96.58570   73.29130  118.35190   78.32360
 9124.00000   96.66330   73.26400  118.26350   75.64610
 9124.50000   96.99880   72.94380  118.05380   72.73830
 9125.00000   91.47080   72.65960  117.01080   72.97360
 9125.50000   83.29400   72.60480  117.23480   73.84300
 9126.00000   74.54100   72.59990  116.89600   73.33120
 9126.50000   73.76310   72.56660  116.73710   72.35550
 9127.00000   80.32080   72.51490  116.84080   73.22440
 9127.50000   87.25120   72.59400  116.94440   72.67010
 9128.00000   83.42790   72.73500  116.95530   70.20490
 9128.50000   -9999.25   73.20440  117.23660   67.89040
 9129.00000   -9999.25   73.62490  117.51140   65.81210
 9129.50000   -9999.25   73.71400  118.89470   64.00530
 9130.00000   -9999.25   73.66110  118.91700   64.34020
 9130.50000   -9999.25   73.60680  118.93930   65.34820
 9131.00000   -9999.25   73.53100  118.84240   65.36880
 9131.50000   -9999.25   73.39720  118.85210   63.82690
 9132.00000   -9999.25   75.02030  119.28630   65.66150
 9132.50000   -9999.25   74.15660  119.72040   70.45260
 9133.00000   -9999.25   74.22300  120.50500   74.00160
 9133.50000   -9999.25   74.31750  120.63030   75.70490
 9134.00000   -9999.25   74.32350  120.60880   76.45780
 9134.50000   -9999.25   74.06400  120.97460   77.14680
 9135.00000   -9999.25   73.58090  121.06340   77.72710
 9135.50000   -9999.25   73.32410  120.88340   76.56450
 9136.00000   -9999.25   73.12860  120.49530   75.70890
 9136.50000   -9999.25   72.70140  119.85030   77.96710
 9137.00000   -9999.25   71.94500  119.29060   75.13940
 9137.50000   -9999.25   71.29120  118.10800   72.01630
 9138.00000   -9999.25   70.70470  117.70310   68.85470
 9138.50000   -9999.25   70.30140  117.62560   66.27650
 9139.00000   -9999.25   71.59850  117.29080   64.71990
 9139.50000   -9999.25   71.92710  117.76080   66.12640
 9140.00000   -9999.25   71.94740  118.37650   66.64090
 9140.50000   -9999.25   73.66730  118.67560   65.04400
 9141.00000   -9999.25   73.92790  118.60930   64.16540
 9141.50000   -9999.25   74.27960  119.20700   63.98790
 9142.00000   -9999.25   74.72440  120.83550   63.08710
 9142.50000   -9999.25   75.13810  122.01680   62.03840
 9143.00000   -9999.25   74.78490  121.25550   64.64050
 9143.50000   -9999.25   74.56530  121.25550   70.04410
 9144.00000   -9999.25   74.35460  120.73790   73.93030
 9144.50000   -9999.25   73.90000  121.12180   75.46420
 9145.00000   -9999.25   72.44910  120.53660   77.30540
 9145.50000   -9999.25   71.75960  120.34180   78.94700
 9146.00000   -9999.25   71.22950  120.21060   78.84290
 9146.50000   -9999.25   70.79210  118.70310   78.03840
 9147.00000   -9999.25   69.94200  117.64230   76.97800
 9147.50000   -9999.25   70.16150  116.58160   77.42670
 9148.00000   -9999.25   71.09220  115.93520   79.54020
 9148.50000   -9999.25   71.37490  116.66770   81.17920
 9149.00000   -9999.25   70.87950  117.45220   80.22230
 9149.50000   -9999.25   71.72830  118.15300   78.58550
 9150.00000   -9999.25   72.18560  119.10190   76.16670
 9150.50000   -9999.25   73.12030  120.30710   75.35220
 9151.00000   -9999.25   74.05500  120.96250   76.13770
 9151.50000   -9999.25   -9999.25   -9999.25   77.11290
 9152.00000   -9999.25   -9999.25   -9999.25   76.34520
 9152.50000   -9999.25   -9999.25   -9999.25   75.85480
 9153.00000   -9999.25   -9999.25   -9999.25   77.04160
 9153.50000   -9999.25   -9999.25   -9999.25   77.40300
 9154.00000   -9999.25   -9999.25   -9999.25   74.57520
 9154.50000   -9999.25   -9999.25   -9999.25   72.89530
 9155.00000   -9999.25   -9999.25   -9999.25   72.53590
 9155.50000   -9999.25   -9999.25   -9999.25   71.39160
 9156.00000   -9999.25   -9999.25   -9999.25   69.31750
 9156.50000   -9999.25   -9999.25   -9999.25   67.98350
 9157.00000   -9999.25   -9999.25   -9999.25   67.64620
 9157.50000   -9999.25   -9999.25   -9999.25   68.25750
 9158.00000   -9999.25   -9999.25   -9999.25   68.51640
 9158.50000   -9999.25   -9999.25   -9999.25   68.57490
 9159.00000   -9999.25   -9999.25   -9999.25   69.01630
 9159.50000   -9999.25   -9999.25   -9999.25   71.00280
 9160.00000   -9999.25   -9999.25   -9999.25   73.52190
 9160.50000   -9999.25   -9999.25   -9999.25   73.43460
 9161.00000   -9999.25   -9999.25   -9999.25   72.27860
 9161.50000   -9999.25   -9999.25   -9999.25   71.17840
 9162.00000   -9999.25   -9999.25   -9999.25   71.02150
 9162.50000   -9999.25   -9999.25   -9999.25   71.00700
 9163.00000   -9999.25   -9999.25   -9999.25   69.82580
 9163.50000   -9999.25   -9999.25   -9999.25   68.07850
 9164.00000   -9999.25   -9999.25   -9999.25   67.20560
 9164.50000   -9999.25   -9999.25   -9999.25   66.95360
 9165.00000   -9999.25   -9999.25   -9999.25   66.47200
 9165.50000   -9999.25   -9999.25   -9999.25   65.44650
 9166.00000   -9999.25   -9999.25   -9999.25   64.47730
 9166.50000   -9999.25   -9999.25   -9999.25   64.64780
 9167.00000   -9999.25   -9999.25   -9999.25   66.90240
 9167.50000   -9999.25   -9999.25   -9999.25   68.48280
 9168.00000   -9999.25   -9999.25   -9999.25   68.51680
 9168.50000   -9999.25   -9999.25   -9999.25   68.82420
 9169.00000   -9999.25   -9999.25   -9999.25   69.39800
 9169.50000   -9999.25   -9999.25   -9999.25   69.69110
 9170.00000   -9999.25   -9999.25   -9999.25   72.52440
 9170.50000   -9999.25   -9999.25   -9999.25   74.41840
 9171.00000   -9999.25   -9999.25   -9999.25   73.92210
 9171.50000   -9999.25   -9999.25   -9999.25   72.78790
 9172.00000   -9999.25   -9999.25   -9999.25   76.60620
 9172.50000   -9999.25   -9999.25   -9999.25   81.17170
 9173.00000   -9999.25   -9999.25   -9999.25   79.91340
 9173.50000   -9999.25   -9999.25   -9999.25   77.62080
 9174.00000   -9999.25   -9999.25   -9999.25   76.43580
 9174.50000   -9999.25   -9999.25   -9999.25   77.88900
 9175.00000   -9999.25   -9999.25   -9999.25   76.92810
 9175.50000   -9999.25   -9999.25   -9999.25   75.32160
 9176.00000   -9999.25   -9999.25   -9999.25   76.96920
 9176.50000   -9999.25   -9999.25   -9999.25   79.35130
 9177.00000   -9999.25   -9999.25   -9999.25   79.38090
 9177.50000   -9999.25   -9999.25   -9999.25   76.38130
 9178.00000   -9999.25   -9999.25   -9999.25   75.23910
 9178.50000   -9999.25   -9999.25   -9999.25   76.87430
 9179.00000   -9999.25   -9999.25   -9999.25   78.57970
 9179.50000   -9999.25   -9999.25   -9999.25   77.97000
