~Version ---------------------------------------------------
VERS.   2.0 : CWLS log ASCII Standard -VERSION 2.0
WRAP.    NO : One line per depth step
DLM . SPACE : Column Data Section Delimiter
~Well ------------------------------------------------------
STRT .F                  457.0 : START DEPTH
STOP .F                14085.0 : STOP DEPTH
STEP .F                    0.5 : STEP
NULL .                -9999.25 : NULL VALUE
COMP .                         : COMPANY
WELL .                         : WELL
FLD  .                         : FIELD
LOC  .                         : LOCATION
PROV .                         : PROVINCE
CNTY .                         : COUNTY
STAT .                         : STATE
CTRY .                         : COUNTRY
SRVC .                         : SERVICE COMPANY
DATE .                         : DATE
UWI  .                         : UNIQUE WELL ID
API  .                         : API NUMBER
SLAT .WGS84 2.3134099046953978 : SURFACE LATITUDE
SLON .WGS84  8.792145572759992 : SURFACE LONGITUDE
DATUM.F                    nan : DEPTH DATUM ELEV
~Curve Information -----------------------------------------
DEPT    .F     : 1 MEASURED DEPTH
ECGREDTC.GAPI  : ENVIRONMENTALLY CORRECTED GAMMA RAY
DTCO    .US/F  : DELTA-T COMPRESSIONAL
DTSM    .US/F  : DELTA-T SHEAR
GRC     .GAPI  : CALCULATED/BOREHOLE CORRECTED GAMMA RAY
~Params ----------------------------------------------------
~Other -----------------------------------------------------
~ASCII -----------------------------------------------------
# ...
 8894.00000   94.56980   71.06110  120.01150   93.47050
 8894.50000   96.54140   70.90410  119.61180   83.94400
 8895.00000   92.10650   70.82380  119.19060   78.54850
 8895.50000   90.67640   70.93180  118.93780   76.77350
 8896.00000   91.41770   70.91590  119.06820   78.95690
 8896.50000   93.01880   70.90470  119.38510   82.17140
 8897.00000   93.83200   70.82080  119.70210   84.38860
 8897.50000   95.34910   70.84850  120.14550   85.73410
 8898.00000   96.57010   71.09190  119.74840   86.78870
 8898.50000   97.45870   71.16130  119.44710   87.06550
 8899.00000   96.54520   71.21300  119.59410   85.96060
 8899.50000   94.45020   71.14500  119.89770   82.97450
 8900.00000   89.81900   71.18270  119.88280   84.89070
 8900.50000   84.53460   71.27670  119.79190   87.56160
 8901.00000   87.05400   71.52890  119.70100   90.24160
 8901.50000   91.33710   71.63950  119.62630   93.97730
 8902.00000   94.84260   71.41290  119.73840   97.50150
 8902.50000   95.33330   71.33430  120.15760   94.49550
 8903.00000   95.07510   71.33660  119.95650   86.91500
 8903.50000   96.10020   71.46260  119.81640   75.89270
 8904.00000   95.75030   71.61520  120.43180   66.80170
 8904.50000   94.22910   71.64470  120.33350   69.37170
 8905.00000   94.48970   71.87740  120.04180   76.08930
 8905.50000   97.74790   71.93290  120.12390   81.98020
 8906.00000  100.56100   71.94540  120.38450   84.55120
 8906.50000   97.79230   72.02900  120.64510   87.39230
 8907.00000   95.32500   72.05980  120.82710   87.36420
 8907.50000   93.51330   72.23310  120.96370   84.26330
 8908.00000   94.40310   72.68040  120.74240   79.56360
 8908.50000   94.37110   72.58460  120.69930   72.88750
 8909.00000   92.47160   72.51190  121.21570   67.03770
 8909.50000   88.80450   72.34600  120.95810   68.39340
 8910.00000   89.59620   72.35860  120.49160   72.66830
 8910.50000   90.76860   72.31640  120.08590   75.83090
 8911.00000   91.23380   72.09850  119.58340   75.39870
 8911.50000   90.80500   71.75290  119.62340   72.04100
 8912.00000   93.56110   71.06760  119.14680   64.95810
 8912.50000   94.91510   70.73660  118.67030   64.75010
 8913.00000   93.04060   70.20200  117.68630   67.36100
 8913.50000   87.32100   69.62610  116.68690   69.15640
 8914.00000   82.80630   69.35480  116.02220   67.48110
 8914.50000   79.04250   69.21500  115.60010   67.30330
 8915.00000   77.80320   68.98540  114.77990   67.98800
 8915.50000   77.40880   68.98400  114.75840   68.61250
 8916.00000   77.37790   69.03310  115.05620   69.24320
 8916.50000   80.40620   68.96250  114.74510   70.00280
 8917.00000   88.76940   69.15730  114.43790   70.12040
 8917.50000   95.97160   69.51330  114.39010   69.30590
 8918.00000   96.13820   69.47180  114.34240   68.55260
 8918.50000   86.98040   69.49960  114.36330   68.57900
 8919.00000   83.65200   69.56680  115.01010   68.84160
 8919.50000   88.79080   69.78070  115.40950   68.74190
 8920.00000   93.96110   70.01350  115.50760   69.57640
 8920.50000   94.77550   70.14200  115.54500   70.49210
 8921.00000   87.40570   70.41800  115.39540   70.35390
 8921.50000   84.22290   70.79060  115.70160   69.30910
 8922.00000   83.48350   71.17210  116.45460   68.72720
 8922.50000   81.73950   71.04600  116.56890   68.20120
 8923.00000   79.78260   70.80680  116.66560   68.33140
 8923.50000   75.70770   70.73660  116.76220   70.02920
 8924.00000   76.61960   70.00370  116.51750   73.18420
 8924.50000   79.58700   69.23150  115.96770   74.90780
 8925.00000   79.58240   68.11360  114.21320   73.78570
 8925.50000   81.73760   67.08110  113.57630   75.37620
 8926.00000   83.16290   67.05190  112.80270   77.71620
 8926.50000   83.85680   67.09900  112.61710   79.63580
 8927.00000   76.91930   66.96250  112.58320   78.68700
 8927.50000   70.17110   66.88020  112.59850   71.00770
 8928.00000   71.28790   67.44220  112.63360   66.81270
 8928.50000   74.56920   68.19040  112.57560   68.09840
 8929.00000   78.35960   68.75470  112.62490   74.34350
 8929.50000   77.80470   69.33430  113.18050   79.66100
 8930.00000   80.52600   69.81470  113.22580   83.95480
 8930.50000   82.55420   70.26640  113.97310   86.08580
 8931.00000   83.09130   70.62510  114.49880   88.05990
 8931.50000   80.54920   70.86720  115.46270   88.23970
 8932.00000   77.48370   71.00930  115.88300   86.79800
 8932.50000   79.84820   71.13110  116.12060   85.23300
 8933.00000   85.76680   71.19360  116.17350   84.24880
 8933.50000   87.47920   71.27340  116.02110   83.31490
 8934.00000   84.28210   71.11240  115.86860   83.94610
 8934.50000   78.52490   71.07980  116.03420   85.33610
 8935.00000   78.90310   71.04200  116.13170   84.84030
 8935.50000   76.94130   70.74040  115.71460   83.07320
 8936.00000   82.84820   70.52920  115.72880   80.24770
 8936.50000   80.15060   70.35190  115.12860   75.89640
 8937.00000   79.12650   70.20310  115.83980   70.75630
 8937.50000   76.50980   70.00690  116.51250   71.44810
 8938.00000   75.40580   69.86640  116.58690   76.13770
 8938.50000   73.05090   69.87110  116.51590   79.55610
 8939.00000   75.91290   70.03620  116.44490   82.67060
 8939.50000   81.59180   70.00140  116.56240   85.54780
 8940.00000   90.80280   70.02030  117.03960   86.41340
 8940.50000   90.19850   70.41470  117.14320   84.30830
 8941.00000   87.78030   70.59560  116.99640   79.98200
 8941.50000   83.98640   71.20280  117.90270   75.09580
 8942.00000   78.47020   72.58210  118.07620   71.91100
 8942.50000   77.11520   72.44150  118.82500   75.00710
 8943.00000   87.75330   72.08340  119.44560   80.46260
 8943.50000   98.54730   71.72620  119.23020   84.03980
 8944.00000  103.65030   71.16580  117.80750   84.05030
 8944.50000   97.95130   69.38890  117.23420   83.89890
 8945.00000   90.36040   68.94230  115.88400   84.78690
 8945.50000   88.39700   68.57520  115.17760   84.50750
 8946.00000   83.96210   68.28190  114.30370   84.25800
 8946.50000   79.15720   67.99890  112.40120   84.19770
 8947.00000   72.81930   68.30010  112.70700   83.46960
 8947.50000   68.12420   68.44650  113.47230   78.91080
 8948.00000   71.93370   68.55210  114.38330   75.74140
 8948.50000   80.25470   70.67990  115.85330   76.24100
 8949.00000   84.49660   71.95800  118.59430   78.17960
 8949.50000   88.11630   72.05470  120.28470   78.21740
 8950.00000   86.33670   72.63130  120.86930   76.14290
 8950.50000   92.14080   73.25970  121.16950   75.40410
 8951.00000   97.05510   73.15660  121.63060   75.24620
 8951.50000  102.89930   72.51810  121.12200   75.21520
 8952.00000  105.55540   72.01310  120.61350   76.08970
 8952.50000  108.60470   71.90200  119.98180   78.26570
 8953.00000  114.56520   71.87400  119.24180   79.50060
 8953.50000  107.89940   70.19820  117.83630   78.36550
 8954.00000   95.69960   69.50490  115.50560   71.70840
 8954.50000   84.07440   69.33740  113.65370   65.41430
 8955.00000   92.71190   69.12270  113.02710   65.18750
 8955.50000   96.98780   69.19310  113.00300   68.28470
 8956.00000   92.62300   69.30350  112.97890   71.89800
 8956.50000   84.60290   69.43080  113.92170   73.36900
 8957.00000   84.49040   69.89340  114.38120   72.53240
 8957.50000   91.32260   71.22120  114.75100   72.60020
 8958.00000   96.78750   71.86290  117.49600   74.50960
 8958.50000   98.95390   72.23970  119.21030   77.23750
 8959.00000  101.13050   73.03110  120.60790   80.00640
 8959.50000  104.84670   74.67750  123.19370   81.02940
 8960.00000  111.46910   74.70640  124.00740   78.27950
 8960.50000  118.64010   74.65230  124.24000   73.32300
 8961.00000  128.08580   74.57940  124.08180   67.48410
 8961.50000  136.25520   73.98290  123.37490   62.03870
 8962.00000  125.09520   73.46820  122.51070   58.96270
 8962.50000  112.91820   73.42330  121.38050   66.30180
 8963.00000  106.11490   73.21560  120.93800   72.84240
 8963.50000  113.69090   72.78960  120.22970   77.55160
 8964.00000  117.90080   72.34560  119.36540   79.30800
 8964.50000  110.01740   71.83850  118.47460   78.26720
 8965.00000  102.48000   71.52910  117.91430   74.93910
