~Version ---------------------------------------------------
VERS.   2.0 : CWLS log ASCII Standard -VERSION 2.0
WRAP.    NO : One line per depth step
DLM . SPACE : Column Data Section Delimiter
~Well ------------------------------------------------------
STRT .F                  457.0 : START DEPTH
STOP .F                14085.0 : STOP DEPTH
STEP .F                    0.5 : STEP
NULL .                -9999.25 : NULL VALUE
COMP .                         : COMPANY
WELL .                         : WELL
FLD  .                         : FIELD
LOC  .                         : LOCATION
PROV .                         : PROVINCE
CNTY .                         : COUNTY
STAT .                         : STATE
CTRY .                         : COUNTRY
SRVC .                         : SERVICE COMPANY
DATE .                         : DATE
UWI  .                         : UNIQUE WELL ID
API  .                         : API NUMBER
SLAT .WGS84 2.3134099046953978 : SURFACE LATITUDE
SLON .WGS84  8.792145572759992 : SURFACE LONGITUDE
DATUM.F                    nan : DEPTH DATUM ELEV
~Curve Information -----------------------------------------
DEPT    .F     : 1 MEASURED DEPTH
ECGREDTC.GAPI  : ENVIRONMENTALLY CORRECTED GAMMA RAY
DTCO    .US/F  : DELTA-T COMPRESSIONAL
DTSM    .US/F  : DELTA-T SHEAR
GRC     .GAPI  : CALCULATED/BOREHOLE CORRECTED GAMMA RAY
~Params ----------------------------------------------------
~Other -----------------------------------------------------
~ASCII -----------------------------------------------------
# ...
 7964.50000  122.16990   67.66400  112.24100   57.40890
 7965.00000  121.77140   67.10600  112.12250   61.41560
 7965.50000  113.47640   66.96170  111.68640   63.66350
 7966.00000   96.28360   66.75890  110.87410   63.25950
 7966.50000   76.61960   65.91540  109.03330   62.22000
 7967.00000   62.83660   64.04020  107.47720   61.34390
 7967.50000   59.66400   63.97290  106.56650   62.46180
 7968.00000   63.10190   63.93670  106.19740   64.59410
 7968.50000   66.83760   63.84010  105.96140   66.29220
 7969.00000   74.41420   64.46640  106.01050   66.87600
 7969.50000   82.82980   65.23360  106.79220   67.93500
 7970.00000   86.59040   65.51940  106.85400   68.04790
 7970.50000   83.88350   65.99480  107.46160   66.75650
 7971.00000   81.52440   66.66660  108.01180   65.89260
 7971.50000   80.64950   67.04250  108.49250   73.27920
 7972.00000   84.34020   67.43560  108.74790   89.30690
 7972.50000   84.38490   68.12610  109.73660   97.98150
 7973.00000   82.92300   69.24060  110.74930   97.63310
 7973.50000   77.94470   69.68780  111.76200   89.69960
 7974.00000   73.56950   70.03710  113.34860   80.62100
 7974.50000   75.59810   70.38560  114.85720   54.11520
 7975.00000   82.97390   70.28800  114.69820   38.10690
 7975.50000   93.41310   69.47430  114.78450   33.87430
 7976.00000  110.19400   68.36940  115.17480   45.58910
 7976.50000  109.90870   67.07160  115.46530   76.50790
 7977.00000   99.35590   64.86360  113.44030  101.86360
 7977.50000   79.05100   64.07360  110.94700  100.92080
 7978.00000   68.50560   63.87260  110.25230   96.58910
 7978.50000   57.94280   64.26780  109.04860  100.82680
 7979.00000   58.87060   64.58150  108.51480  105.68930
 7979.50000   70.10230   65.30860  108.73600   95.30950
 7980.00000   90.91970   66.61020  109.30680   82.75560
 7980.50000  110.47720   68.61800  110.41280   69.91740
 7981.00000  119.08420   70.42400  111.13550   58.13110
 7981.50000  131.68910   70.60290  111.83070   46.79910
 7982.00000  135.08220   70.48860  112.29620   37.52100
 7982.50000  134.87460   69.88110  112.23740   37.67930
 7983.00000  117.29000   67.95400  111.46210   39.76440
 7983.50000  101.11660   65.84940  109.23390   39.49580
 7984.00000   89.26160   64.76900  109.22590   33.24410
 7984.50000   77.87220   63.02030  108.96060   25.96000
 7985.00000   63.21780   59.78140  106.13370   24.48750
 7985.50000   50.11260   58.50780  104.80310   26.34580
 7986.00000   44.01880   58.22800  103.49190   34.67300
 7986.50000   41.47340   57.73990  102.18070   54.49170
 7987.00000   37.54880   56.34010  100.69540   92.34270
 7987.50000   35.30110   57.36970  100.35190  112.28310
 7988.00000   32.91710   58.40560  101.16100  118.94940
 7988.50000   31.47340   59.41660  101.97000  101.96710
 7989.00000   35.49060   61.96600  103.82700   73.28900
 7989.50000   57.26410   64.70410  106.30770   44.12280
 7990.00000   82.38380   65.08070  108.14790   36.11400
 7990.50000  105.24670   65.26070  109.09620   34.27910
 7991.00000  130.29100   65.85510  109.27070   36.24310
 7991.50000  140.34850   64.71680  110.15770   37.35070
 7992.00000  121.45640   64.29130  110.16160   32.39490
 7992.50000   88.15810   63.61200  109.73860   32.07870
 7993.00000   58.98450   61.68080  108.07620   32.81290
 7993.50000   41.37250   58.80810  106.13340   32.96350
 7994.00000   39.61550   57.69310  102.75170   33.48820
 7994.50000   39.61790   57.28900  100.55350   34.37110
 7995.00000   40.84630   57.00240  100.10980   33.75670
 7995.50000   41.57370   56.47640   99.76800   32.00570
 7996.00000   41.59580   56.41670   99.38280   30.89430
 7996.50000   41.50930   56.41560   99.19300   32.41390
 7997.00000   41.42810   56.41560   99.00320   33.74520
 7997.50000   43.03750   56.41560   98.81350   34.62570
 7998.00000   42.89970   56.46660   98.66470   35.59180
 7998.50000   41.52990   56.67930   98.95490   35.90420
 7999.00000   40.13760   56.78560   99.47980   35.11850
 7999.50000   38.97130   57.09560   99.36110   32.74390
 8000.00000   39.13510   56.81920   99.42670   31.11640
 8000.50000   40.65380   56.60630   99.58980   31.59300
 8001.00000   41.43920   56.55570   99.86580   32.32520
 8001.50000   42.79860   56.42710   99.88430   31.73630
 8002.00000   40.72570   56.25980   99.90480   28.29480
 8002.50000   41.86550   56.12170   99.51260   27.49360
 8003.00000   37.64970   55.99970   98.68080   29.68380
 8003.50000   39.80010   55.83990   99.23760   33.33950
 8004.00000   38.19550   56.20770   98.47550   38.58220
 8004.50000   40.97280   57.10190   99.23600   41.62870
 8005.00000   37.19330   57.26510   99.10520   41.70840
 8005.50000   34.95730   57.53630   98.78030   40.48760
 8006.00000   34.19230   58.19720   98.78030   39.79300
 8006.50000   37.98560   58.59310   99.01830   41.13110
 8007.00000   45.85030   58.64460   99.71070   41.62060
 8007.50000   49.59960   58.56140  100.30250   40.40780
 8008.00000   51.20260   58.55220  101.22300   40.05540
 8008.50000   50.23890   58.52310  101.40380   42.26240
 8009.00000   49.87530   58.46970  101.65430   44.56430
 8009.50000   46.92940   58.45620  101.60980   46.57700
 8010.00000   47.34910   58.38450  102.70400   43.92160
 8010.50000   49.20120   58.12550  102.84840   36.24930
 8011.00000   51.56290   57.79150  102.47180   27.09950
 8011.50000   54.24610   57.29350  102.20230   20.65720
 8012.00000   50.61040   56.43170  101.93280   20.02210
 8012.50000   48.08640   55.57670  101.34140   21.97750
 8013.00000   41.43650   55.14740  100.23710   24.86930
 8013.50000   35.69910   54.90610   99.49930   29.75510
 8014.00000   29.54030   54.57310   98.77890   36.81150
 8014.50000   25.23410   54.54260   97.88950   34.99060
 8015.00000   25.71030   54.36860   97.41550   33.21750
 8015.50000   27.36090   54.45100   97.44480   36.88610
 8016.00000   29.54390   55.40720   97.61850   43.21580
 8016.50000   32.88130   56.04310   97.68400   49.32710
 8017.00000   36.39850   56.22370   97.74940   54.45130
 8017.50000   40.43570   56.78690   97.89950   54.00890
 8018.00000   42.87250   57.73500  100.17720   51.10630
 8018.50000   48.40310   58.54860  100.87390   47.22280
 8019.00000   56.32070   58.64460  101.38530   43.49920
 8019.50000   62.64120   58.86750  101.99810   42.48090
 8020.00000   64.58650   59.12540  102.11520   42.21790
 8020.50000   64.80260   59.20240  102.37570   41.96830
 8021.00000   60.51590   59.19520  102.84010   41.95370
 8021.50000   57.08220   59.02980  102.07620   42.11820
 8022.00000   51.51470   58.58440  101.31230   42.94840
 8022.50000   53.10000   58.16840  101.13850   44.62560
 8023.00000   51.50850   58.04460  100.92840   47.96260
 8023.50000   50.89970   58.18150  100.31780   53.85880
 8024.00000   48.74250   59.06650  101.10690   62.00260
 8024.50000   50.20200   59.34100  101.40560   64.20890
 8025.00000   53.64560   59.43350  101.36210   62.06830
 8025.50000   57.15040   59.76300  101.74450   58.96390
 8026.00000   61.11450   61.03750  102.85490   55.31040
 8026.50000   64.93810   61.58610  102.95330   49.98210
 8027.00000   71.70540   61.77330  103.05170   46.91090
 8027.50000   75.18590   61.97570  104.19450   45.48110
 8028.00000   75.39660   61.76890  104.47030   42.21440
 8028.50000   69.25990   61.25410  104.48080   37.98790
 8029.00000   62.33020   61.15190  104.47770   39.54030
 8029.50000   56.84110   60.89920  104.00580   42.76760
 8030.00000   54.93560   59.42550  103.29110   40.09210
 8030.50000   55.02260   58.79920  102.73820   35.75640
 8031.00000   54.05640   58.65670  102.24970   33.82080
 8031.50000   52.52040   58.38670  101.72850   38.97920
 8032.00000   52.55440   58.44080  101.20740   48.91110
 8032.50000   51.46330   58.77190  101.05810   54.17240
 8033.00000   45.77270   59.01490  101.85610   55.77380
 8033.50000   41.67570   59.21630  101.93950   53.61510
 8034.00000   45.93670   59.75810  102.66880   47.11920
 8034.50000   50.85730   60.02430  102.85890   40.43850
 8035.00000   57.07420   59.88990  102.57310   37.53760
 8035.50000   59.06420   59.75560  102.71040   36.41450
