~Version ---------------------------------------------------
VERS.   2.0 : CWLS log ASCII Standard -VERSION 2.0
WRAP.    NO : One line per depth step
DLM . SPACE : Column Data Section Delimiter
~Well ------------------------------------------------------
STRT .F                  457.0 : START DEPTH
STOP .F                14085.0 : STOP DEPTH
STEP .F                    0.5 : STEP
NULL .                -9999.25 : NULL VALUE
COMP .                         : COMPANY
WELL .                         : WELL
FLD  .                         : FIELD
LOC  .                         : LOCATION
PROV .                         : PROVINCE
CNTY .                         : COUNTY
STAT .                         : STATE
CTRY .                         : COUNTRY
SRVC .                         : SERVICE COMPANY
DATE .                         : DATE
UWI  .                         : UNIQUE WELL ID
API  .                         : API NUMBER
SLAT .WGS84 2.3134099046953978 : SURFACE LATITUDE
SLON .WGS84  8.792145572759992 : SURFACE LONGITUDE
DATUM.F                    nan : DEPTH DATUM ELEV
~Curve Information -----------------------------------------
DEPT    .F     : 1 MEASURED DEPTH
ECGREDTC.GAPI  : ENVIRONMENTALLY CORRECTED GAMMA RAY
DTCO    .US/F  : DELTA-T COMPRESSIONAL
DTSM    .US/F  : DELTA-T SHEAR
GRC     .GAPI  : CALCULATED/BOREHOLE CORRECTED GAMMA RAY
~Params ----------------------------------------------------
~Other -----------------------------------------------------
~ASCII -----------------------------------------------------
# ...
 8822.50000   78.43740   70.38640  118.29270   75.77750
 8823.00000   76.82460   70.59030  118.93520   71.69510
 8823.50000   78.23600   70.71120  118.69100   73.35170
 8824.00000   82.06880   70.78760  119.10260   76.82290
 8824.50000   86.36240   71.07760  119.56940   76.15510
 8825.00000   89.01790   71.22940  120.28290   74.33680
 8825.50000   92.05900   71.59810  120.73510   74.40030
 8826.00000   92.64530   71.55390  120.66910   76.66340
 8826.50000   92.52350   71.53310  120.60300   76.11900
 8827.00000   89.30030   71.51250  120.53700   73.22920
 8827.50000   87.40970   71.48900  120.47090   69.99480
 8828.00000   88.39800   71.41170  120.16850   69.93010
 8828.50000   91.76050   71.33270  119.55480   73.12900
 8829.00000   95.33100   71.41590  119.94790   72.55620
 8829.50000   94.94290   71.52960  120.28020   70.87240
 8830.00000   91.27970   71.61370  120.27900   69.30200
 8830.50000   91.23780   71.67110  120.59740   71.05780
 8831.00000   94.62140   71.79420  120.86420   76.62330
 8831.50000  103.62650   71.79200  121.19360   78.91070
 8832.00000  102.72870   71.73020  121.19360   78.04700
 8832.50000  100.03020   71.71720  120.93390   75.55120
 8833.00000   95.27760   71.50410  120.51580   73.03590
 8833.50000   97.32140   71.19520  120.09770   73.67430
 8834.00000   98.87370   70.54290  119.62320   75.58550
 8834.50000   98.65750   70.44510  119.42680   74.67520
 8835.00000   95.31280   70.26710  118.99820   72.24170
 8835.50000   94.68690   70.00850  118.59810   70.89760
 8836.00000   92.15240   69.86750  119.17210   72.40970
 8836.50000   90.51510   69.79980  119.20790   74.26600
 8837.00000   90.50770   69.97170  118.24880   74.89690
 8837.50000   92.30830   70.06510  117.36460   75.37550
 8838.00000   96.00360   70.04430  117.33970   75.56580
 8838.50000   98.86200   70.35590  117.55280   75.63900
 8839.00000   97.02870   70.90220  117.91560   75.83780
 8839.50000   98.40370   70.86780  117.48650   75.03250
 8840.00000   97.25840   70.62840  116.85980   73.49760
 8840.50000   99.32320   70.44880  116.10800   73.05010
 8841.00000   95.55030   70.26980  116.08290   74.19920
 8841.50000   87.11080   69.42580  115.89780   75.97540
 8842.00000   82.79960   68.37290  115.34790   78.12590
 8842.50000   82.98570   68.02520  114.44810   79.19610
 8843.00000   83.47510   68.07740  113.23670   79.27790
 8843.50000   82.01890   68.22320  113.42250   78.47500
 8844.00000   78.71620   68.64980  114.62480   75.16130
 8844.50000   77.95860   68.88990  114.75060   75.12970
 8845.00000   80.45050   68.92650  114.91800   79.06600
 8845.50000   88.02850   69.05330  115.42010   83.00220
 8846.00000   92.81570   70.74280  118.36410   86.14150
 8846.50000   95.70130   72.01270  120.68040   83.39600
 8847.00000   94.09640   72.34620  121.55250   79.81800
 8847.50000  103.25190   72.48070  122.23540   79.13360
 8848.00000  106.89890   72.71620  122.40870   80.53580
 8848.50000  108.75000   72.72320  122.54370   81.73820
 8849.00000  102.17330   72.64200  122.79530   81.39320
 8849.50000   99.89420   72.71070  123.03110   81.18250
 8850.00000  100.90310   72.78330  122.48350   80.53680
 8850.50000  101.02060   72.11490  121.64540   77.17240
 8851.00000  102.42070   70.50420  120.27380   73.18940
 8851.50000  104.76400   70.58700  119.35800   70.40580
 8852.00000  105.48440   70.54800  118.92380   76.51690
 8852.50000   95.35230   70.34180  119.01440   80.10800
 8853.00000   81.45920   70.28950  118.39260   82.12840
 8853.50000   74.41330   70.00570  116.95240   82.18770
 8854.00000   82.26420   69.73640  116.87500   79.28690
 8854.50000   92.29130   69.52080  116.71210   78.97470
 8855.00000   99.64620   69.70570  116.54920   81.67180
 8855.50000  100.36100   70.03450  116.70430   83.01250
 8856.00000   96.77440   70.36330  116.53850   82.36400
 8856.50000   94.82620   70.60650  116.60100   82.34350
 8857.00000   90.79250   70.75810  116.87920   82.89630
 8857.50000   83.89010   70.64560  116.55300   81.82460
 8858.00000   80.75600   70.53800  116.25060   78.76260
 8858.50000   77.54020   69.96900  115.43360   74.68950
 8859.00000   81.42250   68.76980  114.63080   71.70740
 8859.50000   78.10270   68.56690  114.26230   70.00190
 8860.00000   74.42880   68.26890  113.54620   67.05880
 8860.50000   71.22730   67.64140  112.82440   62.02190
 8861.00000   70.02480   67.19840  112.07640   58.26380
 8861.50000   73.27910   67.23330  111.88370   62.01580
 8862.00000   73.09790   67.35930  112.20920   69.88120
 8862.50000   73.18380   67.56150  112.68250   73.50600
 8863.00000   72.04340   67.55130  112.53690   76.05380
 8863.50000   72.44790   68.07310  113.13800   79.61990
 8864.00000   76.21390   69.84340  114.48440   82.84990
 8864.50000   82.05350   70.39330  116.55300   83.41680
 8865.00000   85.07920   70.75920  118.52590   82.92690
 8865.50000   86.29470   70.89850  118.57490   83.74530
 8866.00000   84.09180   71.27370  119.21950   86.92960
 8866.50000   93.27580   71.83640  120.55000   90.44280
 8867.00000   96.61710   72.29750  122.13180   91.46490
 8867.50000  100.49710   72.21900  122.20040   88.07180
 8868.00000   96.94600   72.07300  121.96830   84.97350
 8868.50000  102.19090   71.73000  121.71780   82.52390
 8869.00000  112.11240   71.52500  121.46720   81.73030
 8869.50000  116.31420   71.39380  121.09980   84.95090
 8870.00000  106.24540   71.38350  120.49580   88.62530
 8870.50000   90.35600   71.51310  120.18590   90.10500
 8871.00000   88.24880   71.58800  120.09500   90.59900
 8871.50000   90.59060   71.41910  120.22950   90.26380
 8872.00000   94.30300   71.29220  120.27130   85.50730
 8872.50000   96.50330   71.18280  120.09410   81.24430
 8873.00000   99.16600   71.56070  120.69520   80.72210
 8873.50000   99.36490   72.33600  121.78170   82.09830
 8874.00000   95.74480   72.41050  121.76940   85.25190
 8874.50000   98.81340   72.53710  121.60940   87.88590
 8875.00000  103.91920   72.81220  121.64370   86.90460
 8875.50000  108.99380   72.78040  121.87870   84.81540
 8876.00000  111.96270   72.05140  120.79550   82.00400
 8876.50000  108.37860   71.50640  119.79350   74.21460
 8877.00000  104.32350   71.33940  118.29680   67.31860
 8877.50000   95.82800   71.24470  119.28850   68.78010
 8878.00000   88.21260   70.56070  118.80590   72.64220
 8878.50000   82.93100   70.34000  118.29150   75.31890
 8879.00000   89.90500   70.17820  118.14930   72.79400
 8879.50000  101.11230   70.01450  118.00700   69.25400
 8880.00000  106.24040   69.91280  117.28150   69.36070
 8880.50000  100.78680   69.94290  117.14780   71.03310
 8881.00000   92.43640   70.54070  118.10560   72.99000
 8881.50000   84.21830   70.59730  118.31030   74.95010
 8882.00000   81.33800   70.52920  118.21370   72.86730
 8882.50000   79.84380   70.17830  118.27100   67.59620
 8883.00000   80.35130   69.74530  116.79860   63.52700
 8883.50000   80.51420   69.56070  116.48330   62.01380
 8884.00000   73.61920   69.51790  116.44220   65.17820
 8884.50000   76.20570   69.47500  116.40110   67.82090
 8885.00000   71.62320   69.43220  116.20110   67.96000
 8885.50000   77.95950   69.38940  115.83040   66.46960
 8886.00000   81.61260   69.34090  116.00680   65.61480
 8886.50000   84.84040   69.27290  116.11470   68.82000
 8887.00000   86.00180   69.24030  116.18920   74.59450
 8887.50000   85.88110   69.61710  116.60880   76.93800
 8888.00000   85.71520   69.87070  116.73190   77.26990
 8888.50000   86.60470   69.93680  116.89820   77.33630
 8889.00000   85.18680   70.02560  118.22870   78.49530
 8889.50000   90.01570   70.23970  118.63450   80.70410
 8890.00000   86.88450   70.53150  119.04030   81.66600
 8890.50000   85.07890   70.75900  119.44600   81.08940
 8891.00000   83.76850   71.03290  119.64060   80.41880
 8891.50000   83.42860   71.13540  120.01430   80.06520
 8892.00000   83.01030   71.43370  120.19770   84.21630
 8892.50000   83.64360   71.81130  121.02440   88.84320
 8893.00000   85.64860   71.56300  120.78570   93.90010
 8893.50000   93.91650   71.19150  120.39860   96.81190
