~Version ---------------------------------------------------
VERS.   2.0 : CWLS log ASCII Standard -VERSION 2.0
WRAP.    NO : One line per depth step
DLM . SPACE : Column Data Section Delimiter
~Well ------------------------------------------------------
STRT .F                  457.0 : START DEPTH
STOP .F                14085.0 : STOP DEPTH
STEP .F                    0.5 : STEP
NULL .                -9999.25 : NULL VALUE
COMP .                         : COMPANY
WELL .                         : WELL
FLD  .                         : FIELD
LOC  .                         : LOCATION
PROV .                         : PROVINCE
CNTY .                         : COUNTY
STAT .                         : STATE
CTRY .                         : COUNTRY
SRVC .                         : SERVICE COMPANY
DATE .                         : DATE
UWI  .                         : UNIQUE WELL ID
API  .                         : API NUMBER
SLAT .WGS84 2.3134099046953978 : SURFACE LATITUDE
SLON .WGS84  8.792145572759992 : SURFACE LONGITUDE
DATUM.F                    nan : DEPTH DATUM ELEV
~Curve Information -----------------------------------------
DEPT    .F     : 1 MEASURED DEPTH
ECGREDTC.GAPI  : ENVIRONMENTALLY CORRECTED GAMMA RAY
DTCO    .US/F  : DELTA-T COMPRESSIONAL
DTSM    .US/F  : DELTA-T SHEAR
GRC     .GAPI  : CALCULATED/BOREHOLE CORRECTED GAMMA RAY
~Params ----------------------------------------------------
~Other -----------------------------------------------------
~ASCII -----------------------------------------------------
# ...
 7535.50000   -9999.25   -9999.25   -9999.25   48.17710
 7536.00000   -9999.25   -9999.25   -9999.25   48.75850
 7536.50000   -9999.25   -9999.25   -9999.25   49.08090
 7537.00000   -9999.25   -9999.25   -9999.25   48.16830
 7537.50000   -9999.25   -9999.25   -9999.25   45.38320
 7538.00000   -9999.25   -9999.25   -9999.25   41.85990
 7538.50000   -9999.25   -9999.25   -9999.25   39.40980
 7539.00000   -9999.25   -9999.25   -9999.25   44.08270
 7539.50000   -9999.25   -9999.25   -9999.25   45.75240
 7540.00000   -9999.25   -9999.25   -9999.25   45.23050
 7540.50000   -9999.25   -9999.25   -9999.25   51.51010
 7541.00000   -9999.25   -9999.25   -9999.25   64.83340
 7541.50000   -9999.25   -9999.25   -9999.25   73.49040
 7542.00000   -9999.25   -9999.25   -9999.25   75.43810
 7542.50000   -9999.25   -9999.25   -9999.25   72.16110
 7543.00000   -9999.25   -9999.25   -9999.25   67.40270
 7543.50000   -9999.25   -9999.25   -9999.25   62.70350
 7544.00000   90.39660   66.37340  114.70580   60.85620
 7544.50000   84.95590   65.12910  112.64190   59.10490
 7545.00000   78.65920   66.21670  113.48710   51.55950
 7545.50000   75.36020   63.54410  111.23350   40.80020
 7546.00000   78.70030   60.79990  107.55630   34.68990
 7546.50000   83.16240   60.52290  106.18290   33.74010
 7547.00000   87.58000   60.26850  105.82430   37.17610
 7547.50000   76.72970   59.32120  104.41180   40.57500
 7548.00000   61.65130   58.72680  101.25290   43.21560
 7548.50000   46.20100   58.65720   99.78120   42.25880
 7549.00000   42.09950   59.29590  100.32620   40.77400
 7549.50000   44.02320   59.40440   99.84870   41.25220
 7550.00000   49.43710   60.11050   99.51320   42.11440
 7550.50000   52.46640   60.58140   99.52890   43.22370
 7551.00000   54.91920   60.37310   99.45440   44.41010
 7551.50000   54.24130   60.46300   99.44200   45.68990
 7552.00000   54.28090   60.59190   99.37060   46.09940
 7552.50000   52.71010   61.00200   99.59430   46.65840
 7553.00000   53.92160   61.14660  100.14440   46.37250
 7553.50000   55.36230   61.10150  100.69420   45.64570
 7554.00000   60.45030   60.98190  101.23770   48.21430
 7554.50000   61.78970   61.93980  102.11250   50.82500
 7555.00000   63.83910   62.89230  101.90770   53.81130
 7555.50000   63.10470   63.40690  103.21960   57.37690
 7556.00000   61.74450   63.96350  103.23640   60.26530
 7556.50000   65.37920   63.96780  103.14820   57.72070
 7557.00000   67.28350   63.83030  103.63950   49.63440
 7557.50000   70.75380   63.49850  103.55360   43.90230
 7558.00000   72.90820   62.84240  103.36550   39.44110
 7558.50000   72.81130   61.82260  103.17750   37.02510
 7559.00000   70.69060   60.81310  102.64670   37.12180
 7559.50000   63.41530   59.56560  101.95400   41.03530
 7560.00000   56.03190   57.81660  100.92870   44.66110
 7560.50000   49.86820   56.37780   99.54470   45.61560
 7561.00000   47.81190   55.48570   97.33280   39.49630
 7561.50000   49.70130   54.70950   96.75960   28.86110
 7562.00000   52.33900   54.15920   96.21930   20.57630
 7562.50000   55.26390   54.01320   95.60400   18.66370
 7563.00000   56.39950   53.76860   94.98870   18.50650
 7563.50000   48.50590   53.65980   94.64360   18.92510
 7564.00000   39.79890   53.52220   94.17860   19.49450
 7564.50000   32.84190   53.36630   92.99380   19.80150
 7565.00000   29.61300   53.07490   92.71700   19.83700
 7565.50000   28.10710   52.94600   92.47150   19.97380
 7566.00000   26.09700   52.88800   93.09140   19.88290
 7566.50000   27.11960   52.87630   92.16640   19.12230
 7567.00000   27.00780   52.86510   91.88860   18.63460
 7567.50000   27.21000   52.86050   91.87140   19.23810
 7568.00000   27.89850   52.81570   91.85430   20.21040
 7568.50000   28.99400   52.68340   92.48520   20.95510
 7569.00000   29.49010   52.56690   93.58970   21.79040
 7569.50000   28.31590   52.56120   93.12890   21.37320
 7570.00000   28.29530   52.56180   93.31500   20.24080
 7570.50000   28.62930   52.57340   92.55410   19.50130
 7571.00000   29.97230   52.64680   92.40790   19.66940
 7571.50000   29.09000   52.65960   92.81410   18.87620
 7572.00000   29.88070   52.62530   93.30460   17.63100
 7572.50000   30.78520   52.62120   93.41370   17.15230
 7573.00000   31.78510   52.85500   93.52290   16.93430
 7573.50000   31.06250   52.81340   93.31500   17.19520
 7574.00000   29.70550   52.76890   93.76960   16.85260
 7574.50000   26.82480   52.79610   93.62220   17.63030
 7575.00000   24.86080   53.38750   93.24400   18.70850
 7575.50000   23.87450   54.99680   93.36050   19.21810
 7576.00000   26.62760   55.31440   93.87810   19.29630
 7576.50000   29.48160   55.33200   93.91890   19.52120
 7577.00000   31.46180   55.89380   93.03860   20.84200
 7577.50000   31.66290   58.00240   93.44990   22.93660
 7578.00000   31.29490   59.29590   94.99570   23.82270
 7578.50000   29.99160   59.44060   95.42070   21.49050
 7579.00000   30.26220   59.56260   95.46310   19.68070
 7579.50000   31.45780   59.25200   96.86080   20.83570
 7580.00000   30.65640   58.79990  101.11240   21.42680
 7580.50000   29.55150   58.72760  101.84950   21.12300
 7581.00000   28.29660   58.53490  101.49780   20.48440
 7581.50000   26.94830   56.85320  100.94340   19.68030
 7582.00000   30.11530   53.59580   97.69320   19.91570
 7582.50000   30.06820   53.49320   96.30310   20.74740
 7583.00000   29.48760   53.55890   96.15500   21.04470
 7583.50000   28.29630   53.33610   95.90830   20.47510
 7584.00000   27.26380   53.32860   96.07140   19.31020
 7584.50000   27.84970   53.43720   96.24160   19.75000
 7585.00000   27.19550   53.47700   96.28020   21.09400
 7585.50000   26.90760   53.55310   96.08690   21.41500
 7586.00000   25.42450   53.68730   95.89350   20.56300
 7586.50000   24.66120   53.61160   95.85410   20.22630
 7587.00000   29.71880   53.48750   96.15970   20.73100
 7587.50000   32.43950   53.41630   95.83430   20.28500
 7588.00000   34.10400   53.56410   96.11000   19.28590
 7588.50000   27.47140   53.31500   96.33510   18.37610
 7589.00000   25.27230   52.92430   96.10310   18.96300
 7589.50000   24.14320   53.21220   95.34160   20.72950
 7590.00000   23.22350   53.16910   95.74150   20.44790
 7590.50000   22.73220   53.13150   95.84040   18.97570
 7591.00000   22.44560   53.24130   95.77110   17.20160
 7591.50000   22.96530   53.04610   95.71920   18.00870
 7592.00000   24.11820   52.54650   95.66730   29.61240
 7592.50000   25.30420   53.29020   95.81810   38.90250
 7593.00000   26.23290   54.25070   95.77230   43.19570
 7593.50000   25.69940   54.52080   96.65730   42.49600
 7594.00000   26.00750   55.36580   96.47990   40.14620
 7594.50000   27.28580   55.40410   96.59120   38.56550
 7595.00000   34.79950   56.35250   97.97430   37.06530
 7595.50000   46.28530   57.49700   98.39190   34.60540
 7596.00000   52.74170   57.72210   98.24930   30.07350
 7596.50000   52.38990   58.10090   98.27850   22.43580
 7597.00000   48.22770   57.68730   98.30770   16.85630
 7597.50000   48.04160   57.47500   98.02140   16.03190
 7598.00000   46.53890   56.76680   97.67290   18.71490
 7598.50000   38.65850   54.40810   96.85340   23.08570
 7599.00000   29.94030   54.40480   95.53620   30.57780
 7599.50000   25.63190   54.28840   94.53050   36.28600
 7600.00000   23.66480   54.45450   94.25330   40.16130
 7600.50000   25.06370   54.94770   95.19060   43.57060
 7601.00000   25.56130   55.96190   95.60340   48.28870
 7601.50000   31.91000   56.61480   96.28150   53.84700
 7602.00000   38.26220   58.58600   96.95960   58.71120
 7602.50000   45.23670   60.28830   98.71100   61.86990
 7603.00000   50.84970   61.56910  101.51150   61.06900
 7603.50000   55.62760   62.71350  102.59580   59.46240
 7604.00000   63.93970   63.52670  103.69320   59.22200
 7604.50000   73.22210   64.27240  104.64760   61.22070
 7605.00000   77.20840   64.55420  105.55090   63.94120
 7605.50000   75.80730   65.33830  106.63480   65.53140
 7606.00000   74.64470   66.52050  107.98270   71.12230
 7606.50000   78.07430   67.48660  109.04850   83.55180
