~Version ---------------------------------------------------
VERS.   2.0 : CWLS log ASCII Standard -VERSION 2.0
WRAP.    NO : One line per depth step
DLM . SPACE : Column Data Section Delimiter
~Well ------------------------------------------------------
STRT .F                  457.0 : START DEPTH
STOP .F                14085.0 : STOP DEPTH
STEP .F                    0.5 : STEP
NULL .                -9999.25 : NULL VALUE
COMP .                         : COMPANY
WELL .                         : WELL
FLD  .                         : FIELD
LOC  .                         : LOCATION
PROV .                         : PROVINCE
CNTY .                         : COUNTY
STAT .                         : STATE
CTRY .                         : COUNTRY
SRVC .                         : SERVICE COMPANY
DATE .                         : DATE
UWI  .                         : UNIQUE WELL ID
API  .                         : API NUMBER
SLAT .WGS84 2.3134099046953978 : SURFACE LATITUDE
SLON .WGS84  8.792145572759992 : SURFACE LONGITUDE
DATUM.F                    nan : DEPTH DATUM ELEV
~Curve Information -----------------------------------------
DEPT    .F     : 1 MEASURED DEPTH
ECGREDTC.GAPI  : ENVIRONMENTALLY CORRECTED GAMMA RAY
DTCO    .US/F  : DELTA-T COMPRESSIONAL
DTSM    .US/F  : DELTA-T SHEAR
GRC     .GAPI  : CALCULATED/BOREHOLE CORRECTED GAMMA RAY
~Params ----------------------------------------------------
~Other -----------------------------------------------------
~ASCII -----------------------------------------------------
# ...
 8250.50000   73.56000   71.26480  115.09510   62.50960
 8251.00000   75.08730   71.48710  114.84010   63.74330
 8251.50000   76.69170   71.53750  114.99900   63.25560
 8252.00000   75.15780   71.58330  114.57600   61.19970
 8252.50000   73.93280   71.50190  114.33590   60.81260
 8253.00000   75.55220   71.39310  114.51150   60.18090
 8253.50000   76.92160   71.32110  114.18610   59.14830
 8254.00000   74.43930   70.93420  113.97080   57.30520
 8254.50000   72.42230   70.75260  113.40540   55.77570
 8255.00000   67.72580   70.68650  112.84010   54.84070
 8255.50000   73.76260   70.67090  113.00740   54.98740
 8256.00000   74.19520   70.52160  113.17190   56.64340
 8256.50000   75.99490   70.25680  113.15630   60.77630
 8257.00000   70.58010   69.99250  112.66410   64.61070
 8257.50000   70.22360   69.85280  112.56840   65.87200
 8258.00000   69.71250   69.71300  112.46350   65.91160
 8258.50000   69.69950   69.54120  112.52350   65.92210
 8259.00000   69.56690   69.16720  112.29240   66.42530
 8259.50000   70.31220   68.98330  111.43270   76.73720
 8260.00000   70.51120   68.96860  111.40480   89.10310
 8260.50000   71.62700   68.75850  111.43430   96.52840
 8261.00000   73.40800   69.03670  111.46380   94.12230
 8261.50000   76.22940   69.54180  112.01650   84.97940
 8262.00000   79.53630   70.06590  112.76030   76.16450
 8262.50000   83.87490   70.10710  113.18750   78.79540
 8263.00000   87.69850   70.15130  113.00950   82.97080
 8263.50000   84.38800   70.50490  114.20180   81.21780
 8264.00000   81.79580   71.24480  115.65240   72.31880
 8264.50000   87.63280   71.13270  115.62950   64.37600
 8265.00000  102.14980   71.09910  115.68890   64.16500
 8265.50000  113.20170   71.09060  115.66750   66.39670
 8266.00000  111.70030   70.49170  115.64620   67.16850
 8266.50000   99.84320   69.40060  115.49720   64.68580
 8267.00000   91.96260   68.14570  112.48990   66.80010
 8267.50000   83.34150   66.81790  111.57190   72.97470
 8268.00000   86.50940   66.41610  110.72650   76.00630
 8268.50000   89.08270   65.35370  109.77470   76.74070
 8269.00000   91.62630   64.56790  108.44950   75.76210
 8269.50000   87.34300   64.79750  108.05650   75.01060
 8270.00000   82.66320   64.52300  107.71380   73.52750
 8270.50000   83.11260   64.55380  107.59680   71.71050
 8271.00000   79.20970   65.31050  107.96370   70.62770
 8271.50000   82.66210   66.79670  108.17290   68.34070
 8272.00000   87.58470   66.78590  108.21770   59.56510
 8272.50000   91.85200   66.68010  108.23390   52.37640
 8273.00000   93.69840   66.73640  108.34400   63.01260
 8273.50000   96.57690   66.96430  109.21660   82.18050
 8274.00000  101.66350   66.63210  110.47870   96.70940
 8274.50000  102.53790   65.51400  108.98460  103.78440
 8275.00000   94.50270   64.48330  107.74450  100.58210
 8275.50000   87.68180   64.32550  108.21920   94.05770
 8276.00000   82.35160   64.50980  106.91100   89.40670
 8276.50000   77.78300   65.32660  106.65370   88.85600
 8277.00000   68.94410   65.79910  107.54900   87.52090
 8277.50000   66.27850   65.87480  107.83750   82.54720
 8278.00000   73.03390   66.54540  108.76620   86.34430
 8278.50000   93.90330   68.31910  110.16260   95.09800
 8279.00000  115.43240   69.42790  111.78710  100.83610
 8279.50000  127.15890   69.63640  112.45970   97.02810
 8280.00000  122.65260   69.80030  112.65250   78.44380
 8280.50000  120.29920   70.17260  112.94310   62.24520
 8281.00000  118.84620   70.77960  114.35600   46.17720
 8281.50000  123.46300   70.70600  114.62790   33.67910
 8282.00000  117.32960   70.17150  113.92590   29.23530
 8282.50000  120.36400   68.72690  112.81490   46.11890
 8283.00000  123.47360   65.64090  111.00340   64.32380
 8283.50000  128.92290   64.18910  108.89140   82.77080
 8284.00000  130.33970   64.04940  108.82680   93.05620
 8284.50000  115.25610   63.54820  108.66120  101.61270
 8285.00000   91.38270   61.85280  106.33820  112.93340
 8285.50000   59.90020   60.36270  104.67680  117.09080
 8286.00000   49.36250   61.11410  104.52980  117.70080
 8286.50000   43.48380   61.06700  104.37670  118.15800
 8287.00000   55.14310   61.21270  104.22370  120.68880
 8287.50000   72.80760   64.21850  104.57400  112.60260
 8288.00000   93.43760   68.97010  109.36720  102.97660
 8288.50000  102.13220   69.79260  113.70650   95.24820
 8289.00000  111.64080   71.55790  114.58800   90.09480
 8289.50000  130.19270   72.71960  115.64860   85.96870
 8290.00000  142.14400   73.11740  118.51640   80.24030
 8290.50000  140.66700   73.23660  119.32090   75.26240
 8291.00000  135.52520   73.16900  119.84600   70.56730
 8291.50000  140.81600   72.86560  119.05740   71.73350
 8292.00000  132.59820   71.38190  115.90250   81.76530
 8292.50000  124.59250   69.88010  114.71570   98.83510
 8293.00000  113.51010   69.67550  114.47950  104.97700
 8293.50000  112.46280   69.35500  114.62050  103.59460
 8294.00000  114.30560   67.69580  112.93250   90.83600
 8294.50000  106.41060   66.90160  110.29270   65.96410
 8295.00000   98.53060   67.49230  109.73030   32.71860
 8295.50000   90.54220   67.67590  109.00980   23.09830
 8296.00000   88.56210   67.21510  108.19380   19.01740
 8296.50000   96.13770   64.51700  108.37130   17.94980
 8297.00000  109.93160   63.27540  108.71540   20.84380
 8297.50000  133.25470   62.72110  107.54140   32.36550
 8298.00000  139.40880   61.45130  106.63620   44.17570
 8298.50000  135.96240   60.16530  106.61370   51.02990
 8299.00000  100.70950   58.78120  106.38060   47.61230
 8299.50000   64.60320   57.29840  105.06420   42.05020
 8300.00000   27.76030   56.50360  102.63750   41.86730
 8300.50000   23.91880   55.89980  100.43710   43.67810
 8301.00000   27.96660   55.72600   99.18040   43.02230
 8301.50000   38.75000   56.14520  100.02190   38.83590
 8302.00000   48.41080   56.75140  100.86460   31.41030
 8302.50000   58.05440   56.85940   99.73010   31.80730
 8303.00000   62.19650   56.90680  100.35730   34.58450
 8303.50000   59.99660   56.76320  101.63310   35.12630
 8304.00000   56.25990   56.49310  101.66560   32.59430
 8304.50000   53.61170   56.39960  101.62640   30.62680
 8305.00000   56.17710   55.98320  100.51700   32.02210
 8305.50000   54.43840   54.14510   99.44130   33.42070
 8306.00000   48.72670   53.51160   98.23710   34.67490
 8306.50000   41.66790   53.45940   97.47660   34.75820
 8307.00000   38.22360   53.40740   97.41680   32.68600
 8307.50000   37.51150   53.20660   97.16300   29.82720
 8308.00000   38.39460   53.04240   96.66960   28.48010
 8308.50000   39.18560   53.01920   97.28510   27.66680
 8309.00000   40.83480   52.96730   96.32740   27.86320
 8309.50000   42.64860   53.04650   96.10780   33.60180
 8310.00000   43.22800   53.02040   96.10940   41.63680
 8310.50000   42.50390   53.02230   96.17660   39.17660
 8311.00000   41.47440   53.19520   96.39690   35.06030
 8311.50000   39.62310   53.21570   96.41250   38.17030
 8312.00000   36.17970   53.27810   96.41190   57.43460
 8312.50000   32.65880   53.62580   96.41130   84.81130
 8313.00000   32.61180   54.74150   97.76170   93.77190
 8313.50000   38.02360   55.00050   98.42510   97.94340
 8314.00000   42.41810   55.28360   99.26150   98.37310
 8314.50000   42.77780   56.25110   98.15530   95.35700
 8315.00000   38.87330   58.50580  100.07120   90.28560
 8315.50000   35.89150   61.70150  102.62020   91.97800
 8316.00000   48.04940   63.75090  106.44630  100.78350
 8316.50000   65.31890   65.10930  108.01240  104.93880
 8317.00000   88.99810   65.29330  108.00580  102.85460
 8317.50000  106.21910   66.52610  108.45950  101.02580
 8318.00000  111.83420   70.30550  110.29300  104.89120
 8318.50000  110.31340   71.94370  114.28460  100.68940
 8319.00000  115.08670   72.29200  115.68080   91.33760
 8319.50000  119.21710   73.03600  116.06060   85.36920
 8320.00000  126.44780   73.32730  116.59840   87.86410
 8320.50000  128.13990   73.28050  117.77510   92.85350
 8321.00000  129.79210   73.26780  117.44090   95.04020
 8321.50000  132.68020   73.23130  117.99380   92.50660
