~Version ---------------------------------------------------
VERS.   2.0 : CWLS log ASCII Standard -VERSION 2.0
WRAP.    NO : One line per depth step
DLM . SPACE : Column Data Section Delimiter
~Well ------------------------------------------------------
STRT .F                  457.0 : START DEPTH
STOP .F                14085.0 : STOP DEPTH
STEP .F                    0.5 : STEP
NULL .                -9999.25 : NULL VALUE
COMP .                         : COMPANY
WELL .                         : WELL
FLD  .                         : FIELD
LOC  .                         : LOCATION
PROV .                         : PROVINCE
CNTY .                         : COUNTY
STAT .                         : STATE
CTRY .                         : COUNTRY
SRVC .                         : SERVICE COMPANY
DATE .                         : DATE
UWI  .                         : UNIQUE WELL ID
API  .                         : API NUMBER
SLAT .WGS84 2.3134099046953978 : SURFACE LATITUDE
SLON .WGS84  8.792145572759992 : SURFACE LONGITUDE
DATUM.F                    nan : DEPTH DATUM ELEV
~Curve Information -----------------------------------------
DEPT    .F     : 1 MEASURED DEPTH
ECGREDTC.GAPI  : ENVIRONMENTALLY CORRECTED GAMMA RAY
DTCO    .US/F  : DELTA-T COMPRESSIONAL
DTSM    .US/F  : DELTA-T SHEAR
GRC     .GAPI  : CALCULATED/BOREHOLE CORRECTED GAMMA RAY
~Params ----------------------------------------------------
~Other -----------------------------------------------------
~ASCII -----------------------------------------------------
# ...
 8393.50000   35.80310   50.64400   93.59750   21.84790
 8394.00000   35.54580   50.46960   92.85340   29.35090
 8394.50000   31.59660   50.31020   92.53260   33.43560
 8395.00000   31.31730   50.16750   92.13060   31.63830
 8395.50000   31.54340   50.15760   92.38500   26.53390
 8396.00000   34.31770   50.15100   92.53950   22.26510
 8396.50000   32.51750   50.22930   92.71300   21.57550
 8397.00000   28.16580   50.30550   92.12390   22.68190
 8397.50000   27.50930   50.32480   92.52340   24.58130
 8398.00000   30.89730   50.32920   92.41630   26.69300
 8398.50000   35.40980   50.33970   91.91870   28.16680
 8399.00000   35.35150   50.42750   92.05170   27.94930
 8399.50000   33.92000   50.51370   92.63440   27.88040
 8400.00000   30.36220   50.52720   92.36110   27.84590
 8400.50000   28.17560   50.42940   92.12660   27.84130
 8401.00000   28.87820   50.16670   91.77240   27.64810
 8401.50000   34.34640   50.13370   91.68550   26.30570
 8402.00000   37.56130   50.07840   91.96070   29.30030
 8402.50000   37.98030   50.03680   92.33760   32.95320
 8403.00000   33.55080   50.02580   92.23370   34.19750
 8403.50000   31.99550   50.01090   92.39530   32.43940
 8404.00000   34.00840   49.99240   92.84480   30.58500
 8404.50000   35.71500   49.97380   92.85570   28.40830
 8405.00000   33.94740   49.95530   93.32600   27.65550
 8405.50000   31.50070   49.93680   93.09190   29.60910
 8406.00000   32.02250   49.96710   92.82090   32.70900
 8406.50000   34.93740   50.04600   92.55700   33.89590
 8407.00000   37.08940   50.12480   92.48580   34.18070
 8407.50000   36.86700   50.30100   92.16120   38.84540
 8408.00000   35.71450   50.57730   92.64020   42.66160
 8408.50000   35.42470   50.64230   92.59820   41.06560
 8409.00000   38.12130   50.77110   92.66290   36.98840
 8409.50000   42.94520   51.86850   94.22610   31.20160
 8410.00000   42.05160   52.46280   94.39780   28.24030
 8410.50000   41.06330   52.56510   94.87500   27.42340
 8411.00000   43.67110   52.57350   94.91310   30.17150
 8411.50000   48.69580   52.60730   95.27970   35.40240
 8412.00000   52.32730   52.40840   94.97030   37.34720
 8412.50000   49.88660   52.33860   94.41600   35.75930
 8413.00000   46.22040   52.29150   94.56710   34.56820
 8413.50000   38.16230   52.11810   94.30330   32.36580
 8414.00000   34.81220   51.84140   94.03960   26.45950
 8414.50000   35.00080   51.56060   94.12720   22.49320
 8415.00000   40.89510   51.44720   94.11570   23.67960
 8415.50000   47.48710   51.36500   93.77140   27.53110
 8416.00000   47.77880   51.36520   93.63310   31.17070
 8416.50000   46.73780   51.58740   93.89240   32.94820
 8417.00000   40.13900   51.63700   94.21150   37.56420
 8417.50000   35.25820   51.64280   93.81780   49.64330
 8418.00000   30.25850   51.64970   94.10690   65.13990
 8418.50000   32.70310   51.86950   94.87100   82.59500
 8419.00000   37.21680   53.34990   95.03940   93.23810
 8419.50000   40.91180   55.31890   95.32930   90.38780
 8420.00000   40.63620   56.85180   98.21740   85.64320
 8420.50000   46.05110   57.31170   99.76910   81.71460
 8421.00000   58.43770   58.12250  102.24730   83.12970
 8421.50000   81.82820   62.48780  103.87270   94.50900
 8422.00000   95.74880   63.68910  106.07030   97.01170
 8422.50000  109.80050   64.31790  107.73340   89.17640
 8423.00000  109.39030   64.44780  108.03940   81.39950
 8423.50000  107.61870   65.07770  108.91230   78.70410
 8424.00000  104.97590   65.91630  110.58780   80.50850
 8424.50000  109.96440   65.44130  110.37700   82.75010
 8425.00000  117.82550   65.31770  110.16990   84.33980
 8425.50000  117.49170   65.29840  110.35140   81.23710
 8426.00000  106.52790   65.01550  109.99760   72.55190
 8426.50000   95.25630   64.67990  107.80240   64.65080
 8427.00000   93.48410   63.87850  107.33980   68.38490
 8427.50000   97.29110   63.66270  107.20330   72.56960
 8428.00000  104.61700   63.04530  107.33800   74.43640
 8428.50000  110.82050   62.51470  106.46560   76.13400
 8429.00000  110.78040   62.40380  104.88630   78.10760
 8429.50000  100.17500   62.66810  104.53050   82.31160
 8430.00000   88.74240   62.57750  104.46660   83.18500
 8430.50000   81.97840   62.65970  104.26970   78.48280
 8431.00000   85.68170   62.93700  104.07280   71.09140
 8431.50000   91.13920   63.01710  103.86460   65.93350
 8432.00000   99.76820   63.09000  104.70220   62.77230
 8432.50000  101.60800   62.98080  104.37840   60.39670
 8433.00000  105.95350   62.71460  103.79110   60.18690
 8433.50000  109.10590   62.31080  103.69640   62.82440
 8434.00000  100.63100   61.97230  103.63590   66.03600
 8434.50000   87.99010   61.58820  103.39080   71.53120
 8435.00000   72.33180   61.06210  102.67200   83.24060
 8435.50000   67.28370   60.48410  102.04930   98.13890
 8436.00000   66.79580   60.20780  101.31920  108.29950
 8436.50000   67.61390   60.09890  100.96870  105.32920
 8437.00000   70.91260   60.08570  101.33540   80.03870
 8437.50000   75.95410   60.81480  102.09260   58.68820
 8438.00000   74.70240   61.65780  101.98940   42.19560
 8438.50000   71.18280   62.06020  103.37340   43.15620
 8439.00000   71.84060   62.57060  104.14580   65.65150
 8439.50000   76.69810   63.77810  104.98170   96.82640
 8440.00000   84.64810   63.29620  105.42260  107.92330
 8440.50000   96.51620   63.03860  105.74000  114.11190
 8441.00000  110.92620   62.81040  106.05730  117.19870
 8441.50000  124.47510   63.06580  106.37470  116.53590
 8442.00000  124.45900   63.45990  106.50740  110.15920
 8442.50000  112.10600   63.67340  106.47360  101.57980
 8443.00000   85.47630   63.85140  107.02390   88.96220
 8443.50000   64.01460   64.49170  107.85640   74.08600
 8444.00000   71.14760   65.66020  110.07370   65.54080
 8444.50000   91.99320   66.70150  110.82790   69.18060
 8445.00000  117.90500   67.45780  110.65440   76.83200
 8445.50000  137.94860   68.19650  111.45500   86.44670
 8446.00000  148.16950   69.87710  111.75720   94.38000
 8446.50000  142.86530   69.61000  111.22210   91.31540
 8447.00000  135.93030   68.76280  111.07040   79.40710
 8447.50000  130.18420   67.20760  109.80640   72.05230
 8448.00000  117.66090   67.20660  108.77430   72.24820
 8448.50000  104.20640   66.89970  107.93880   80.06730
 8449.00000   87.32090   65.66930  106.35430   87.75540
 8449.50000   81.77590   64.49940  106.09580   76.03180
 8450.00000   80.21310   64.23000  105.93610   71.74210
 8450.50000   89.16190   64.10790  105.98700   86.39820
 8451.00000   93.98910   64.28600  106.50200  104.17500
 8451.50000   94.14980   64.22010  105.99940  114.92240
 8452.00000   87.10220   63.97440  107.17970  112.16510
 8452.50000   82.83280   64.03080  107.73440  113.40640
 8453.00000   93.00610   64.17110  107.84650  117.54160
 8453.50000  100.20380   64.65480  108.14350  121.30570
 8454.00000  102.16160   65.73550  108.66190  115.15730
 8454.50000   93.14160   66.21320  108.77590   76.45170
 8455.00000   93.29120   67.33510  108.88990   51.03450
 8455.50000  111.36710   68.20420  110.50550   37.08400
 8456.00000  128.15570   69.52150  112.34710   44.81620
 8456.50000  138.75080   69.68150  112.55060   70.24340
 8457.00000  134.90510   69.78930  112.69450   99.34860
 8457.50000  136.79160   69.73690  112.76710  107.29930
 8458.00000  138.36340   66.37760  111.29010  104.13490
 8458.50000  138.61450   64.08530  110.20270   95.73630
 8459.00000  116.40010   63.88140  109.35510   79.62580
 8459.50000   85.39600   63.58180  109.18090   60.29340
 8460.00000   54.01050   62.57220  107.01030   51.82950
 8460.50000   48.32180   62.02730  106.06000   45.36120
 8461.00000   69.32920   62.01380  105.09370   41.30500
 8461.50000   96.23780   61.99790  105.27780   36.46120
 8462.00000  123.25150   61.36490  103.53580   31.49760
 8462.50000  136.91490   59.66840  102.82530   33.33120
 8463.00000  115.59920   59.43940  102.11480   35.87510
 8463.50000   88.90680   59.61130  101.66460   37.72780
 8464.00000   66.11740   56.16770  100.32720   40.16360
 8464.50000   57.62420   53.80090   98.02480   42.22550
