~Version ---------------------------------------------------
VERS.   2.0 : CWLS log ASCII Standard -VERSION 2.0
WRAP.    NO : One line per depth step
DLM . SPACE : Column Data Section Delimiter
~Well ------------------------------------------------------
STRT .F                  457.0 : START DEPTH
STOP .F                14085.0 : STOP DEPTH
STEP .F                    0.5 : STEP
NULL .                -9999.25 : NULL VALUE
COMP .                         : COMPANY
WELL .                         : WELL
FLD  .                         : FIELD
LOC  .                         : LOCATION
PROV .                         : PROVINCE
CNTY .                         : COUNTY
STAT .                         : STATE
CTRY .                         : COUNTRY
SRVC .                         : SERVICE COMPANY
DATE .                         : DATE
UWI  .                         : UNIQUE WELL ID
API  .                         : API NUMBER
SLAT .WGS84 2.3134099046953978 : SURFACE LATITUDE
SLON .WGS84  8.792145572759992 : SURFACE LONGITUDE
DATUM.F                    nan : DEPTH DATUM ELEV
~Curve Information -----------------------------------------
DEPT    .F     : 1 MEASURED DEPTH
ECGREDTC.GAPI  : ENVIRONMENTALLY CORRECTED GAMMA RAY
DTCO    .US/F  : DELTA-T COMPRESSIONAL
DTSM    .US/F  : DELTA-T SHEAR
GRC     .GAPI  : CALCULATED/BOREHOLE CORRECTED GAMMA RAY
~Params ----------------------------------------------------
~Other -----------------------------------------------------
~ASCII -----------------------------------------------------
# ...
 8608.00000   43.04630   55.28230   99.58850   32.57770
 8608.50000   41.08690   55.27070   99.24260   30.01130
 8609.00000   40.68510   55.20360   99.05810   28.50670
 8609.50000   39.28260   55.11610   99.46570   28.97310
 8610.00000   39.62550   55.03770   99.38020   30.80970
 8610.50000   39.84510   54.98370   99.45770   31.92140
 8611.00000   39.97420   54.96810   99.65300   31.01520
 8611.50000   39.88460   55.15920   99.62520   30.34400
 8612.00000   37.72170   55.27490   99.63400   31.42240
 8612.50000   37.47310   55.16290   99.65010   32.67090
 8613.00000   38.86090   55.10890   99.66610   34.36760
 8613.50000   41.63790   55.08770   99.73690   37.59900
 8614.00000   41.11930   54.99070   99.84060   36.15330
 8614.50000   37.50780   54.75730   99.45620   33.77830
 8615.00000   34.69210   54.55090   99.39590   32.00420
 8615.50000   35.14010   54.34880   99.42840   30.64930
 8616.00000   38.36670   54.00390   99.61200   29.43280
 8616.50000   42.30130   53.61760   99.67560   30.00130
 8617.00000   40.47170   53.47660   98.71260   30.91540
 8617.50000   36.01800   53.41160   97.88820   31.11700
 8618.00000   36.40520   53.37960   97.65070   30.84530
 8618.50000   37.97390   53.49310   97.57520   30.35550
 8619.00000   39.63590   53.58750   98.07890   29.22530
 8619.50000   37.62290   53.59980   97.48520   28.46690
 8620.00000   35.93000   53.50720   97.22210   29.14100
 8620.50000   35.46570   53.48650   97.04870   30.14380
 8621.00000   33.99130   53.57370   98.01430   29.65420
 8621.50000   34.70930   53.76940   98.13180   29.89550
 8622.00000   33.04870   53.71740   98.26090   32.12110
 8622.50000   35.14600   53.60030   98.24020   34.17790
 8623.00000   36.96730   53.58190   98.09460   34.47470
 8623.50000   39.27220   53.38510   97.94910   32.79590
 8624.00000   37.54800   53.34450   97.25200   28.10440
 8624.50000   34.22520   53.14270   97.46460   28.08570
 8625.00000   33.11620   53.17600   98.17510   29.48890
 8625.50000   32.97670   53.20140   97.20860   30.89200
 8626.00000   36.04360   53.15850   97.15240   31.11450
 8626.50000   35.61600   53.22290   97.31910   30.12250
 8627.00000   35.12030   53.24870   97.75180   29.12460
 8627.50000   33.37040   53.38150   98.11680   28.48780
 8628.00000   32.91340   53.53160   97.46880   28.60090
 8628.50000   34.51810   53.57850   96.99660   29.22800
 8629.00000   35.78820   53.59180   98.47170   30.89670
 8629.50000   37.28280   53.67090   98.41910   32.40830
 8630.00000   36.84240   53.67620   98.08820   31.43170
 8630.50000   36.50490   53.67670   98.16780   29.19580
 8631.00000   36.66650   53.80290   98.90450   29.01400
 8631.50000   37.88740   54.57470   99.66150   31.44870
 8632.00000   38.28870   55.24910  100.17860   39.22270
 8632.50000   37.84920   55.66590  100.48470   45.27480
 8633.00000   38.01660   55.77850  100.79080   47.11040
 8633.50000   41.03200   55.68030  100.88380   40.76260
 8634.00000   49.84070   55.34890  100.88380   33.13900
 8634.50000   52.86190   55.36070  100.96090   29.72300
 8635.00000   50.91630   55.42480  101.50080   33.21060
 8635.50000   42.75880   55.66540  101.17790   41.87030
 8636.00000   38.95980   56.47940  101.35620   52.17960
 8636.50000   40.28350   57.79170  101.59060   63.73140
 8637.00000   43.44310   59.83370  102.34980   81.05780
 8637.50000   46.61890   61.16730  103.46870   89.36610
 8638.00000   55.67380   61.36160  104.62120   89.67300
 8638.50000   68.58960   61.57090  106.52170   75.33360
 8639.00000   87.45130   64.46440  108.56360   63.65780
 8639.50000  102.75290   64.47320  109.57460   62.42910
 8640.00000  109.80590   64.34080  110.12380   57.21610
 8640.50000  100.57860   63.78620  110.42330   45.06950
 8641.00000   88.10010   62.05610  109.06410   34.41800
 8641.50000   79.05140   62.02880  107.58250   32.28040
 8642.00000   68.06160   62.01940  107.24660   49.99050
 8642.50000   57.93470   61.91760  106.94360   63.44880
 8643.00000   63.97920   61.86230  105.19110   65.59150
 8643.50000   76.12720   62.06190  105.11750   52.71610
 8644.00000   89.17710   61.95870  104.82160   42.35130
 8644.50000   87.07020   61.88250  105.27110   52.12240
 8645.00000   74.24990   62.96240  103.69390   59.24440
 8645.50000   64.99800   62.10760  102.14240   55.11580
 8646.00000   52.94630   61.56720  103.69950   46.69590
 8646.50000   49.43810   60.89800  103.36200   36.67040
 8647.00000   49.51330   60.05060  103.87150   29.76130
 8647.50000   54.54980   59.85230  102.73960   27.31660
 8648.00000   52.17530   59.73400  102.14360   27.20500
 8648.50000   45.73620   60.09290  102.33430   34.02110
 8649.00000   33.55220   61.40140  103.48520   47.60350
 8649.50000   45.61480   62.82160  105.65820   63.01850
 8650.00000   63.70020   64.10800  107.13510   66.63060
 8650.50000   76.49910   64.50020  107.86370   66.42190
 8651.00000   78.13510   65.70590  108.48120   67.66250
 8651.50000   79.08690   67.68120  110.58000   67.84910
 8652.00000   82.46360   68.53330  111.88190   64.47740
 8652.50000   85.49950   68.60550  112.96440   63.34240
 8653.00000   80.55150   69.09740  114.52570   63.68350
 8653.50000   78.88970   70.39830  115.89740   65.55180
 8654.00000   80.86090   71.41710  116.95430   70.77250
 8654.50000   85.33770   71.31640  117.07730   75.84140
 8655.00000   90.00780   71.11930  116.69810   79.57980
 8655.50000   93.49700   70.15830  115.97320   82.30090
 8656.00000   95.66870   68.34280  114.08800   81.93390
 8656.50000   92.86520   66.19030  113.00170   76.93110
 8657.00000   80.83130   63.10880  110.45060   74.49460
 8657.50000   64.71050   61.45200  107.15300   71.11960
 8658.00000   49.71070   59.57800  106.01600   64.55330
 8658.50000   39.63340   58.92880  105.74360   52.83050
 8659.00000   38.46710   57.62140  105.03910   40.81160
 8659.50000   38.44980   57.17650  103.62090   30.69370
 8660.00000   36.21640   59.23080  103.46590   27.53830
 8660.50000   36.59540   59.94010  103.49940   25.60440
 8661.00000   41.82480   60.80180  103.53280   26.19080
 8661.50000   57.37690   62.34420  103.93100   41.95810
 8662.00000   70.89730   64.34840  106.98250   70.08300
 8662.50000   82.42900   65.59320  109.63520   79.83280
 8663.00000   82.70180   66.12390  110.22010   81.82300
 8663.50000   79.45300   66.74840  110.30810   75.61010
 8664.00000   73.80720   66.68020  110.40600   65.64200
 8664.50000   67.43420   66.23010  110.50030   54.67730
 8665.00000   70.18900   66.11600  110.17340   58.30620
 8665.50000   71.26190   65.83850  110.09760   66.43470
 8666.00000   72.31280   65.44040  110.29260   69.09840
 8666.50000   72.79900   65.44330  110.48860   59.35660
 8667.00000   71.87210   65.61980  109.72250   55.52790
 8667.50000   72.13770   65.55410  109.41180   58.87760
 8668.00000   70.40970   65.35040  108.85240   61.47010
 8668.50000   74.47980   63.57170  107.94710   59.87480
 8669.00000   80.90970   63.48390  107.76350   56.98250
 8669.50000   85.28490   63.87850  107.62990   57.42540
 8670.00000   75.52170   64.42680  107.53970   60.46860
 8670.50000   61.09140   64.16210  107.46360   60.55090
 8671.00000   57.50570   64.34100  107.73890   54.45940
 8671.50000   66.72520   65.05030  108.88820   39.15600
 8672.00000   81.33940   65.51910  110.10240   39.43260
 8672.50000   84.01560   65.65250  110.94080   50.78210
 8673.00000   77.71250   66.09100  111.68930   64.54940
 8673.50000   71.89010   66.59430  111.49140   73.02320
 8674.00000   69.17880   67.18460  111.45770   75.62170
 8674.50000   76.97710   67.12940  111.84940   64.47810
 8675.00000   75.37470   65.97490  112.17630   58.17150
 8675.50000   68.93480   65.06200  111.16970   55.48210
 8676.00000   60.08240   64.57070  109.75490   58.97650
 8676.50000   66.01980   64.34280  108.43000   62.47100
 8677.00000   71.53240   61.71000  106.86360   62.31000
 8677.50000   69.35180   60.53110  104.94030   60.07420
 8678.00000   56.86920   58.54880  102.53780   61.44560
 8678.50000   50.34880   58.27080  101.02350   66.82540
 8679.00000   49.74440   57.94620  100.22220   63.73770
