~Version ---------------------------------------------------
VERS.   2.0 : CWLS log ASCII Standard -VERSION 2.0
WRAP.    NO : One line per depth step
DLM . SPACE : Column Data Section Delimiter
~Well ------------------------------------------------------
STRT .F                  457.0 : START DEPTH
STOP .F                14085.0 : STOP DEPTH
STEP .F                    0.5 : STEP
NULL .                -9999.25 : NULL VALUE
COMP .                         : COMPANY
WELL .                         : WELL
FLD  .                         : FIELD
LOC  .                         : LOCATION
PROV .                         : PROVINCE
CNTY .                         : COUNTY
STAT .                         : STATE
CTRY .                         : COUNTRY
SRVC .                         : SERVICE COMPANY
DATE .                         : DATE
UWI  .                         : UNIQUE WELL ID
API  .                         : API NUMBER
SLAT .WGS84 2.3134099046953978 : SURFACE LATITUDE
SLON .WGS84  8.792145572759992 : SURFACE LONGITUDE
DATUM.F                    nan : DEPTH DATUM ELEV
~Curve Information -----------------------------------------
DEPT    .F     : 1 MEASURED DEPTH
ECGREDTC.GAPI  : ENVIRONMENTALLY CORRECTED GAMMA RAY
DTCO    .US/F  : DELTA-T COMPRESSIONAL
DTSM    .US/F  : DELTA-T SHEAR
GRC     .GAPI  : CALCULATED/BOREHOLE CORRECTED GAMMA RAY
~Params ----------------------------------------------------
~Other -----------------------------------------------------
~ASCII -----------------------------------------------------
# ...
 8679.50000   48.21590   57.13290   99.27420   50.15000
 8680.00000   46.34750   57.09610   98.49210   41.24900
 8680.50000   42.64220   57.51620   98.58860   37.53960
 8681.00000   42.17700   58.65820   98.01130   36.64380
 8681.50000   42.92990   58.94310   97.92530   39.42270
 8682.00000   44.24670   58.86720   98.54990   42.00140
 8682.50000   45.28630   58.42460   99.25380   39.74280
 8683.00000   47.36470   58.70910   99.95700   34.83620
 8683.50000   50.86380   58.77540  100.65810   35.42640
 8684.00000   54.45170   58.75730  101.64910   46.86570
 8684.50000   50.77370   58.99010  102.20620   70.78850
 8685.00000   44.37170   61.61480  103.14800   83.48900
 8685.50000   40.96590   63.97170  106.22830   73.71500
 8686.00000   52.44210   64.71270  107.01950   57.89360
 8686.50000   69.35090   65.91230  108.12170   42.78160
 8687.00000   84.70140   67.52330  109.93290   39.43950
 8687.50000   97.36110   67.72380  111.27650   43.02010
 8688.00000   97.25170   67.99480  111.68350   48.75530
 8688.50000   95.59360   68.86430  112.00800   56.99010
 8689.00000   84.56730   70.05910  113.06710   68.02830
 8689.50000   78.76100   70.38390  114.42180   76.05950
 8690.00000   72.99630   70.59780  114.85300   75.40900
 8690.50000   73.47900   71.23080  115.34580   67.98540
 8691.00000   79.17150   71.19630  115.83860   62.66260
 8691.50000   86.18460   71.78160  116.29130   59.65140
 8692.00000   91.67180   71.89560  117.05540   57.40810
 8692.50000   95.06710   72.01430  117.19370   61.77520
 8693.00000   93.21670   73.14740  118.42820   71.78500
 8693.50000   92.70380   74.36740  119.66770   84.47720
 8694.00000   86.55430   77.37070  121.90360   92.53690
 8694.50000   97.19130   77.04660  122.64460   86.59480
 8695.00000  111.18050   76.68480  123.38550   77.95680
 8695.50000  137.49940   77.52310  124.56900   69.38300
 8696.00000  150.92370   76.31400  124.69840   67.34190
 8696.50000  155.77360   75.14450  123.63290   79.42990
 8697.00000  142.33940   73.55970  121.14400   84.68770
 8697.50000  127.89470   71.47080  118.04340   83.10100
 8698.00000  103.04420   68.78320  115.50230   90.84040
 8698.50000   79.81460   65.44440  111.81860  109.16290
 8699.00000   61.18270   63.68050  107.19150  129.38350
 8699.50000   51.16240   63.08320  105.22370  135.67720
 8700.00000   44.51880   62.33020  103.74510  114.35920
 8700.50000   46.20810   62.23540  102.98220   88.31260
 8701.00000   52.51130   62.54610  103.38600   64.31490
 8701.50000   59.54340   63.87670  105.04540   47.19200
 8702.00000   69.15430   65.00110  105.75310   41.19620
 8702.50000   73.53370   65.99750  108.31190   44.98170
 8703.00000   73.97780   66.80150  110.37290   49.34040
 8703.50000   73.76220   67.15230  110.85960   54.30940
 8704.00000   74.58750   67.23360  110.93560   58.96710
 8704.50000   76.64290   67.97800  112.08380   62.20310
 8705.00000   78.86940   68.21750  112.17120   65.00380
 8705.50000   78.94400   68.36850  112.15810   65.34470
 8706.00000   82.34810   68.23110  112.52940   63.84020
 8706.50000   86.20000   67.72010  112.61250   62.06140
 8707.00000   82.75610   67.91820  111.35310   60.84830
 8707.50000   73.90480   68.00020  110.95430   60.93890
 8708.00000   65.15220   68.11950  110.66000   61.50130
 8708.50000   65.03790   67.87340  110.19410   62.30960
 8709.00000   71.41220   65.60860  108.68060   64.05050
 8709.50000   75.20760   65.62000  107.78390   65.01300
 8710.00000   73.09200   65.58490  108.34220   60.51090
 8710.50000   64.73140   65.66790  108.59870   61.87110
 8711.00000   56.20890   66.13640  108.30050   69.08740
 8711.50000   61.69460   66.35880  109.04120   74.87720
 8712.00000   70.04430   66.47760  109.28990   70.86970
 8712.50000   78.93640   66.55680  109.43690   55.67840
 8713.00000   80.70040   66.72770  109.58380   50.52830
 8713.50000   79.67040   67.26900  110.21230   53.20460
 8714.00000   79.19520   67.82190  111.10080   61.75350
 8714.50000   78.63610   67.97030  111.56460   66.71080
 8715.00000   79.25680   67.94240  110.22970   67.31770
 8715.50000   80.05860   67.64810  112.80650   67.39520
 8716.00000   80.51900   67.52940  111.76760   68.06390
 8716.50000   78.54730   67.60590  111.62240   69.26940
 8717.00000   74.99110   67.77150  111.80200   69.40650
 8717.50000   74.75070   67.88150  111.94360   69.07720
 8718.00000   82.89170   68.26220  112.54630   71.15170
 8718.50000   87.57970   68.56860  112.70260   74.57070
 8719.00000   87.62540   68.97300  113.13490   74.01880
 8719.50000   83.90090   69.60230  114.21800   71.75450
 8720.00000   81.47190   69.95100  115.03190   69.85420
 8720.50000   86.33770   70.27640  115.48820   70.02820
 8721.00000   92.39000   70.21690  115.64130   72.42540
 8721.50000   98.77860   69.83810  115.75180   76.88590
 8722.00000  100.71360   69.10800  115.52340   81.20040
 8722.50000  104.12850   68.66280  115.08690   86.26410
 8723.00000  100.88500   68.53620  114.72770   86.78120
 8723.50000   94.36640   68.19100  115.08100   85.25710
 8724.00000   81.64860   67.92880  114.15790   83.74570
 8724.50000   72.37780   67.77990  113.20930   81.23120
 8725.00000   68.90930   68.07760  111.95870   75.13640
 8725.50000   74.91560   68.22550  112.65650   66.49660
 8726.00000   81.78580   68.41240  112.88130   56.83860
 8726.50000   85.85170   68.98470  113.91120   55.56300
 8727.00000   86.71790   68.51980  114.75900   63.33000
 8727.50000   90.84980   68.73950  113.96780   72.26240
 8728.00000   91.92100   68.74480  114.23790   73.59790
 8728.50000   86.96020   68.21020  114.26420   75.01250
 8729.00000   70.33650   67.83570  113.67040   77.29920
 8729.50000   66.19600   67.70260  113.51100   79.62710
 8730.00000   70.41680   67.61840  113.18180   77.14560
 8730.50000   76.90530   68.02540  112.59040   70.36730
 8731.00000   76.39290   68.42120  113.09920   62.31550
 8731.50000   76.10400   68.47700  113.59000   56.49210
 8732.00000   80.14870   68.77260  114.08090   62.40860
 8732.50000   86.01730   69.96690  114.50590   68.54020
 8733.00000   91.66580   70.56640  115.91740   71.61630
 8733.50000   94.62780   70.86560  118.13020   73.23930
 8734.00000   95.13270   71.13210  118.05690   74.31960
 8734.50000   95.26930   71.49300  118.69070   75.07820
 8735.00000   92.98590   71.05890  118.71100   77.13720
 8735.50000   91.51750   70.17420  118.18460   79.31940
 8736.00000   84.56740   70.04380  117.34860   80.91070
 8736.50000   81.97410   68.71020  116.77470   82.88460
 8737.00000   78.51390   67.63330  115.26830   84.61990
 8737.50000   75.13220   67.02440  113.80990   80.20850
 8738.00000   70.45780   66.78760  113.53610   77.55510
 8738.50000   67.20630   66.75340  112.87310   76.66870
 8739.00000   71.15210   66.58660  112.02840   76.20150
 8739.50000   75.75330   66.81810  112.34990   74.74560
 8740.00000   79.17570   66.91910  113.00260   70.14040
 8740.50000   84.32370   67.11130  113.75960   62.48120
 8741.00000   91.19330   67.97800  115.37540   55.12130
 8741.50000   94.37320   68.76890  115.33540   50.65160
 8742.00000   93.84310   69.03320  115.43230   56.51380
 8742.50000   88.85380   69.09720  116.19120   66.33880
 8743.00000   86.81810   69.18560  116.51020   71.00410
 8743.50000   81.88280   69.44490  116.24030   73.08120
 8744.00000   86.11430   68.99340  115.10720   74.90390
 8744.50000   90.19150   68.12440  114.18880   72.13370
 8745.00000   92.97810   67.94910  113.32860   67.97220
 8745.50000   94.82840   67.76990  112.92960   64.72030
 8746.00000   91.31230   67.52820  112.65270   63.45050
 8746.50000   84.25160   67.26980  111.94620   66.01250
 8747.00000   76.16270   67.16520  111.73510   74.54400
 8747.50000   76.41100   67.11300  111.11480   79.36960
 8748.00000   80.66020   66.98120  111.25040   76.88390
 8748.50000   86.04180   66.95950  111.27180   76.24130
 8749.00000   86.87900   67.42010  111.29330   77.59560
 8749.50000   88.03740   67.29690  111.29770   78.75440
 8750.00000   87.85870   67.17140  111.25090   74.12070
 8750.50000   88.40040   66.47020  110.78330   70.21000
