~Version ---------------------------------------------------
VERS.   2.0 : CWLS log ASCII Standard -VERSION 2.0
WRAP.    NO : One line per depth step
DLM . SPACE : Column Data Section Delimiter
~Well ------------------------------------------------------
STRT .F                  457.0 : START DEPTH
STOP .F                14085.0 : STOP DEPTH
STEP .F                    0.5 : STEP
NULL .                -9999.25 : NULL VALUE
COMP .                         : COMPANY
WELL .                         : WELL
FLD  .                         : FIELD
LOC  .                         : LOCATION
PROV .                         : PROVINCE
CNTY .                         : COUNTY
STAT .                         : STATE
CTRY .                         : COUNTRY
SRVC .                         : SERVICE COMPANY
DATE .                         : DATE
UWI  .                         : UNIQUE WELL ID
API  .                         : API NUMBER
SLAT .WGS84 2.3134099046953978 : SURFACE LATITUDE
SLON .WGS84  8.792145572759992 : SURFACE LONGITUDE
DATUM.F                    nan : DEPTH DATUM ELEV
~Curve Information -----------------------------------------
DEPT    .F     : 1 MEASURED DEPTH
ECGREDTC.GAPI  : ENVIRONMENTALLY CORRECTED GAMMA RAY
DTCO    .US/F  : DELTA-T COMPRESSIONAL
DTSM    .US/F  : DELTA-T SHEAR
GRC     .GAPI  : CALCULATED/BOREHOLE CORRECTED GAMMA RAY
~Params ----------------------------------------------------
~Other -----------------------------------------------------
~ASCII -----------------------------------------------------
# ...
 7750.00000   87.15990   72.44810  114.66800   65.24780
 7750.50000   88.40630   73.07990  115.69710   66.34740
 7751.00000   89.39790   73.23700  116.34280   69.75360
 7751.50000   87.01970   73.32040  117.11080   71.61950
 7752.00000   89.82380   73.32370  118.01820   70.70380
 7752.50000   91.54560   73.42790  118.46290   70.45170
 7753.00000   91.01920   73.37440  118.62200   71.20720
 7753.50000   87.29800   73.71930  118.66100   72.03460
 7754.00000   80.37870   74.12880  118.80070   71.76500
 7754.50000   80.78170   74.28380  119.09610   70.69860
 7755.00000   82.28350   74.42470  119.57360   69.27050
 7755.50000   81.80720   74.27440  119.98030   68.04370
 7756.00000   83.12660   74.26240  120.56850   68.15480
 7756.50000   79.58040   74.38550  120.69110   68.30980
 7757.00000   86.75260   74.59750  120.37570   68.35720
 7757.50000   87.28380   73.58840  120.13250   70.25060
 7758.00000   90.46220   73.57290  120.12750   73.46430
 7758.50000   85.41900   73.58520  120.59010   75.43150
 7759.00000   89.35360   73.47850  121.29810   74.30770
 7759.50000   89.54520   73.51000  121.58660   84.45950
 7760.00000   90.62730   73.30720  121.87520   97.80840
 7760.50000   94.00980   73.50150  122.91860  109.22390
 7761.00000  108.61470   73.60730  123.33750  112.06340
 7761.50000  122.71710   73.69590  123.26870  101.56430
 7762.00000  127.36740   73.17430  122.61810  101.10910
 7762.50000  120.26960   72.60800  121.13020  102.16580
 7763.00000  113.15430   72.17220  120.30610   96.96780
 7763.50000  117.57270   71.66900  119.57400   86.69450
 7764.00000  122.72450   71.17400  117.61330   77.94970
 7764.50000  123.72140   70.82610  115.67870   79.31730
 7765.00000  112.41030   70.71660  116.29530   83.55000
 7765.50000  103.28170   70.77990  116.52590   86.80000
 7766.00000   97.72590   70.03760  116.36580   87.92210
 7766.50000  101.46280   69.45700  115.55000   84.87110
 7767.00000   97.62290   69.76820  115.84580   77.53870
 7767.50000   98.89010   69.81330  116.10890   74.29760
 7768.00000   97.55900   69.53200  115.92660   74.10670
 7768.50000   96.80230   68.94080  115.42720   75.66170
 7769.00000   92.75390   68.35330  114.96170   70.42950
 7769.50000   88.31980   67.92300  114.49630   63.09510
 7770.00000   84.95220   67.07470  112.61950   58.12290
 7770.50000   80.34370   66.39480  108.86260   54.20470
 7771.00000   73.89140   65.93120  108.83910   52.91250
 7771.50000   65.18540   65.37420  108.08680   54.76680
 7772.00000   63.52590   64.92670  107.65800   59.86740
 7772.50000   62.03080   64.99130  107.19250   62.24120
 7773.00000   66.08390   65.22390  106.79350   63.41170
 7773.50000   69.84330   65.41490  106.60790   62.90940
 7774.00000   76.12100   65.25570  106.68180   60.01100
 7774.50000   77.00790   65.19800  107.12930   54.96350
 7775.00000   73.37920   65.09530  107.33560   54.10030
 7775.50000   67.02400   64.94600  107.41860   54.42770
 7776.00000   62.58160   65.17990  107.74000   55.52830
 7776.50000   63.77170   65.49460  108.39660   60.02510
 7777.00000   65.92590   65.92140  108.22900   66.60990
 7777.50000   72.16450   66.57630  109.02790   69.04250
 7778.00000   75.54290   67.18620  110.49690   68.39030
 7778.50000   80.31560   67.52600  112.33800   68.66200
 7779.00000   81.87350   68.13600  112.55220   72.29620
 7779.50000   89.02290   70.22070  113.36460   69.69500
 7780.00000   90.04930   71.17910  114.62640   67.71290
 7780.50000   87.03530   71.51460  115.30840   67.28310
 7781.00000   80.39490   71.49920  115.26130   66.38530
 7781.50000   81.11950   71.75610  114.86430   65.43420
 7782.00000   75.32080   72.21400  115.14920   66.01660
 7782.50000   74.81820   72.41260  115.73540   65.59410
 7783.00000   71.71300   72.52170  115.82620   64.08220
 7783.50000   74.83430   72.52290  115.90630   63.46620
 7784.00000   78.59740   72.50340  115.99060   64.31120
 7784.50000   85.37640   72.36730  115.93950   67.25700
 7785.00000   89.27410   72.42150  115.96960   70.38700
 7785.50000   88.94090   72.44200  115.94540   73.08350
 7786.00000   85.86100   72.52070  116.11590   74.06060
 7786.50000   82.33120   72.72480  116.16220   71.64450
 7787.00000   81.34770   72.72030  116.29940   68.90530
 7787.50000   85.50080   72.71360  116.18590   68.28200
 7788.00000   85.59730   72.63620  116.29850   68.43750
 7788.50000   85.43970   72.54640  116.51950   68.99250
 7789.00000   84.87220   72.47430  116.65410   70.20740
 7789.50000   85.82350   72.42980  116.58610   72.47650
 7790.00000   89.54740   72.20670  116.40940   74.55750
 7790.50000   85.73030   71.90770  116.34240   73.78890
 7791.00000   87.79590   71.67290  116.45910   72.16870
 7791.50000   84.35460   71.60200  116.82070   70.81670
 7792.00000   88.30710   71.50420  116.57910   69.83990
 7792.50000   87.56800   71.41870  116.41370   68.90670
 7793.00000   87.70070   71.31350  116.14870   69.10960
 7793.50000   89.66560   71.21920  116.12760   70.12210
 7794.00000   94.23860   71.00560  115.78340   70.67130
 7794.50000   96.59660   70.36320  115.31640   69.04640
 7795.00000   91.39790   69.74650  114.52630   66.55040
 7795.50000   87.14580   69.20000  114.40460   64.91710
 7796.00000   87.31730   67.42300  113.54260   64.08550
 7796.50000   90.54540   65.46650  112.29920   62.01400
 7797.00000   87.02520   64.05870  110.50500   60.15110
 7797.50000   84.14230   63.61370  110.24330   60.80720
 7798.00000   75.89420   63.01470  109.51730   61.84470
 7798.50000   72.82960   62.48350  107.75040   61.45650
 7799.00000   66.73300   62.02200  106.44460   60.11480
 7799.50000   65.88410   61.90050  106.19500   60.19860
 7800.00000   67.64700   61.57300  105.91640   61.59360
 7800.50000   70.15070   61.23030  105.13690   62.33660
 7801.00000   77.18730   61.18930  104.59940   61.96550
 7801.50000   78.83580   61.09240  103.90560   61.59860
 7802.00000   83.43730   60.92590  103.82890   61.55890
 7802.50000   78.08570   60.84610  103.18140   61.38120
 7803.00000   79.53640   60.90620  103.42480   60.89510
 7803.50000   75.86510   61.22920  103.63350   60.69260
 7804.00000   78.38920   62.31110  103.84220   60.85560
 7804.50000   77.58400   63.84790  104.28030   61.88710
 7805.00000   80.78870   64.46040  105.35730   62.66710
 7805.50000   81.68510   64.50190  106.22420   63.54520
 7806.00000   79.93570   65.71300  107.23410   65.34840
 7806.50000   80.03580   67.27570  108.52270   67.19880
 7807.00000   83.93490   67.46040  108.95420   66.99880
 7807.50000   85.05940   67.59970  109.26890   67.92810
 7808.00000   83.65060   67.95500  110.93150   69.74800
 7808.50000   81.42340   69.96840  112.48000   70.35090
 7809.00000   81.14500   70.26420  113.32180   69.42180
 7809.50000   83.21210   70.37260  113.96580   69.28790
 7810.00000   86.72890   70.48180  114.14650   70.37500
 7810.50000   89.87290   70.74580  114.79500   71.75600
 7811.00000   90.78170   71.41640  115.57320   73.48550
 7811.50000   86.96390   71.49450  115.92210   72.84190
 7812.00000   89.10430   71.51860  116.06050   68.94770
 7812.50000   86.75890   71.61720  116.20550   67.04980
 7813.00000   85.67200   71.76230  116.13570   69.39520
 7813.50000   84.58590   71.79040  116.06590   72.11350
 7814.00000   85.59970   71.79820  116.11750   71.46820
 7814.50000   85.51730   71.81800  116.37970   69.34850
 7815.00000   83.42890   71.84960  116.42130   67.22880
 7815.50000   79.96540   71.89090  116.19590   66.59540
 7816.00000   79.44480   71.99540  116.24380   68.12980
 7816.50000   79.35870   72.12100  116.15620   70.35180
 7817.00000   82.78200   72.20930  116.25230   70.97620
 7817.50000   82.86900   72.22840  116.20050   68.41370
 7818.00000   82.95600   72.14610  116.23370   65.85120
 7818.50000   82.07100   72.19990  116.36530   64.63360
 7819.00000   84.05180   72.12390  116.58840   66.48610
 7819.50000   84.51700   72.18370  116.86140   66.30630
 7820.00000   86.43050   72.00870  117.14910   65.01030
 7820.50000   83.46200   71.79820  117.28300   64.10980
 7821.00000   81.16290   71.61190  117.26880   63.77480
