~Version ---------------------------------------------------
VERS.   2.0 : CWLS log ASCII Standard -VERSION 2.0
WRAP.    NO : One line per depth step
DLM . SPACE : Column Data Section Delimiter
~Well ------------------------------------------------------
STRT .F                  457.0 : START DEPTH
STOP .F                14085.0 : STOP DEPTH
STEP .F                    0.5 : STEP
NULL .                -9999.25 : NULL VALUE
COMP .                         : COMPANY
WELL .                         : WELL
FLD  .                         : FIELD
LOC  .                         : LOCATION
PROV .                         : PROVINCE
CNTY .                         : COUNTY
STAT .                         : STATE
CTRY .                         : COUNTRY
SRVC .                         : SERVICE COMPANY
DATE .                         : DATE
UWI  .                         : UNIQUE WELL ID
API  .                         : API NUMBER
SLAT .WGS84 2.3134099046953978 : SURFACE LATITUDE
SLON .WGS84  8.792145572759992 : SURFACE LONGITUDE
DATUM.F                    nan : DEPTH DATUM ELEV
~Curve Information -----------------------------------------
DEPT    .F     : 1 MEASURED DEPTH
ECGREDTC.GAPI  : ENVIRONMENTALLY CORRECTED GAMMA RAY
DTCO    .US/F  : DELTA-T COMPRESSIONAL
DTSM    .US/F  : DELTA-T SHEAR
GRC     .GAPI  : CALCULATED/BOREHOLE CORRECTED GAMMA RAY
~Params ----------------------------------------------------
~Other -----------------------------------------------------
~ASCII -----------------------------------------------------
# ...
 7821.50000   80.44220   71.48940  117.10420   63.18500
 7822.00000   78.79950   70.98810  116.81990   62.31570
 7822.50000   80.23310   70.58840  116.66720   63.30590
 7823.00000   75.77540   70.39990  116.55640   66.38550
 7823.50000   76.07480   70.23450  116.49390   68.40880
 7824.00000   79.45730   70.18090  116.41230   67.99900
 7824.50000   86.20340   70.64220  116.25160   65.04850
 7825.00000   87.91980   71.06580  116.89150   64.20670
 7825.50000   90.04160   71.21320  117.53140   67.70790
 7826.00000   86.89500   71.45190  118.01840   71.46190
 7826.50000   89.00770   71.97670  118.19970   74.68760
 7827.00000   89.65410   72.31800  118.79810   77.08080
 7827.50000   90.12500   72.90580  119.60730   79.77160
 7828.00000   92.26950   75.38720  120.37830   83.59920
 7828.50000   95.62710   76.76110  121.82580   87.75880
 7829.00000  101.32220   77.43480  123.25920   90.22350
 7829.50000  107.34240   77.74770  125.06120   92.50080
 7830.00000  112.31520   80.51070  127.04010   99.69860
 7830.50000  121.26660   81.79580  130.06710  105.44410
 7831.00000  132.11240   82.01270  131.66700  111.38560
 7831.50000  138.90250   81.95000  132.17040  115.35170
 7832.00000  141.50370   81.86970  133.58330  115.71470
 7832.50000  134.24890   81.53030  134.50830  116.83640
 7833.00000  133.66480   81.41570  135.15060  119.49720
 7833.50000  131.87170   81.35600  135.35560  122.06310
 7834.00000  135.38360   81.11660  135.52240  117.03520
 7834.50000  137.26790   81.01550  135.11330  113.79330
 7835.00000  139.12820   81.02240  135.23180  116.59860
 7835.50000  143.70900   81.10110  135.26720  118.38830
 7836.00000  148.58540   80.73530  134.53420  118.99940
 7836.50000  151.74050   79.95930  132.62770  119.45900
 7837.00000  151.13230   79.35490  132.18160  119.18940
 7837.50000  150.74240   78.86140  131.82820  116.22570
 7838.00000  150.35250   78.30820  129.64820  110.68660
 7838.50000  140.58350   76.57340  126.99170  105.67880
 7839.00000  129.87380   74.37320  124.95890  103.59070
 7839.50000  116.57970   74.28230  123.69050  101.03720
 7840.00000  109.94200   72.77190  124.14660   90.49430
 7840.50000  103.38810   69.11250  120.71630   83.26010
 7841.00000   99.85880   68.13100  119.84830   79.27440
 7841.50000   93.24010   68.05260  119.69150   75.33240
 7842.00000   87.42770   68.04150  118.69570   70.87070
 7842.50000   81.77620   68.14300  116.63200   64.01940
 7843.00000   76.45210   67.97190  113.98340   64.07530
 7843.50000   76.98700   67.97620  113.49150   65.88650
 7844.00000   79.97670   68.03900  113.17480   67.63600
 7844.50000   85.42690   68.11950  112.85530   68.32800
 7845.00000   86.17550   68.18000  112.26730   70.29220
 7845.50000   91.17490   68.23930  111.84650   73.56760
 7846.00000   91.01870   68.15500  111.80170   75.63220
 7846.50000   88.86230   68.14300  111.71270   74.84160
 7847.00000   85.12000   68.12830  111.87800   72.19700
 7847.50000   85.66830   68.05960  111.76490   70.31050
 7848.00000   88.89310   68.14850  111.67140   70.29330
 7848.50000   91.54850   68.12790  112.48530   70.31660
 7849.00000   93.57890   67.96610  112.79830   70.33990
 7849.50000   88.43070   67.95190  112.72900   70.58170
 7850.00000   85.39720   67.89240  112.65970   70.64450
 7850.50000   85.65840   67.85770  112.21750   71.28140
 7851.00000   88.16070   68.23320  112.60210   73.74100
 7851.50000   90.20600   69.07790  113.13220   75.59750
 7852.00000   89.12940   69.40240  113.47650   72.19830
 7852.50000   86.70310   69.93160  113.70950   70.01270
 7853.00000   90.09870   71.87850  115.54540   72.14700
 7853.50000   93.83710   73.39400  117.33960   75.72580
 7854.00000  105.18140   73.70290  118.35880   83.72100
 7854.50000  116.80110   74.00620  119.12270   97.24780
 7855.00000  129.47420   74.82750  119.70690  113.95740
 7855.50000  132.78740   75.34020  122.61470  115.44840
 7856.00000  129.96400   75.45060  123.20210  109.40810
 7856.50000  125.88380   75.37080  123.25410  102.26640
 7857.00000  124.86200   74.94210  123.09030   97.43850
 7857.50000  123.03170   73.07490  119.23360   93.17120
 7858.00000  120.26960   72.36650  113.23790   91.24140
 7858.50000  121.05920   71.97840  111.56360   94.22400
 7859.00000  120.36510   71.62210  110.75380  100.56570
 7859.50000  121.53730   70.35520  115.32310  103.26550
 7860.00000  117.99610   69.83030  112.23800   94.77180
 7860.50000  116.04450   69.94810  114.55650   88.82390
 7861.00000  113.87060   69.99000  114.42510   85.98440
 7861.50000  107.95560   69.77460  114.13060   83.38770
 7862.00000  101.57230   70.18900  110.17970   79.84710
 7862.50000   97.07950   70.22390  108.42240   77.16570
 7863.00000   98.58590   70.06600  107.95700   75.51060
 7863.50000  100.95900   69.90810  108.67150   74.52810
 7864.00000   99.07850   69.43520  109.38610   76.21170
 7864.50000  100.20050   69.88240  111.41130   80.16180
 7865.00000   96.61220   69.67240  111.67160   85.28720
 7865.50000   93.47760   69.62390  112.55790   88.35410
 7866.00000   82.75660   70.11670  115.68250   90.16610
 7866.50000   78.51480   71.35460  116.74880   85.75810
 7867.00000   77.89620   71.39530  117.15080   73.00450
 7867.50000   88.01610   71.55850  117.54950   54.28220
 7868.00000  102.46670   71.95920  117.89080   47.01170
 7868.50000  117.69670   71.75040  118.06360   44.48330
 7869.00000  118.66180   70.90980  117.13540   43.78640
 7869.50000  114.01500   69.76510  115.32650   43.84590
 7870.00000   96.88410   67.18630  111.86730   46.50660
 7870.50000   78.61470   65.89320  107.24430   50.67550
 7871.00000   63.60730   63.84710  106.31630   54.33330
 7871.50000   58.89400   63.32970  105.87080   55.21730
 7872.00000   56.48280   62.93310  105.42540   54.54070
 7872.50000   53.68890   62.73390  105.73580   66.36240
 7873.00000   51.42430   63.45900  106.95590   74.19030
 7873.50000   52.52680   65.00070  107.71380  100.18750
 7874.00000   57.97150   66.42120  109.43820  105.38940
 7874.50000   63.33160   67.97650  110.52460   90.82990
 7875.00000   65.22870   68.64250  112.00510   80.86260
 7875.50000   69.13580   68.98910  113.52980   78.76260
 7876.00000   88.42220   71.13100  115.30160   85.93230
 7876.50000  108.08840   71.55380  116.61150   92.44350
 7877.00000  124.97410   71.81840  117.64790   99.48470
 7877.50000  117.52130   72.29920  119.15850  106.28550
 7878.00000  112.14530   72.84280  120.00030  112.66570
 7878.50000  104.31930   73.45300  120.96990  119.30880
 7879.00000  107.39280   73.68960  121.92130  115.51300
 7879.50000  107.53180   73.80960  122.02670  108.10620
 7880.00000  114.97070   74.04160  122.13200  101.06430
 7880.50000  123.26210   74.35740  122.22290   95.34490
 7881.00000  131.74840   74.52920  122.51460   87.88500
 7881.50000  131.93560   74.28290  122.56090   82.61040
 7882.00000  129.63070   74.39620  122.35320   77.24530
 7882.50000  125.11010   74.08640  122.26680   72.25580
 7883.00000  121.07840   71.39650  118.64830   68.39310
 7883.50000  116.92700   71.29500  117.39080   65.63520
 7884.00000  108.60420   71.41810  116.72630   63.10520
 7884.50000   96.57080   69.00040  115.38050   62.66080
 7885.00000   92.59210   65.84000  110.86830   64.86350
 7885.50000   93.73630   64.24300  109.87020   70.64210
 7886.00000   86.42430   63.72280  109.43780   79.14240
 7886.50000   81.02510   64.16720  108.92920   92.95170
 7887.00000   71.13800   64.33240  108.57340   96.00120
 7887.50000   72.72510   64.56590  108.53450   89.11920
 7888.00000   77.05440   64.88230  108.49550   83.36130
 7888.50000   91.04640   65.58020  109.20060   79.14940
 7889.00000  104.57050   66.90410  110.37570   76.31560
 7889.50000  110.65640   67.22810  111.72080   74.91380
 7890.00000  110.89050   68.05520  111.34360   74.36010
 7890.50000  103.90290   69.24570  112.00930   74.97320
 7891.00000   99.63090   70.93390  114.69190   76.86380
 7891.50000   98.22900   71.61100  116.87120   82.85640
 7892.00000   99.36440   71.75440  118.23230   86.19790
 7892.50000   95.20330   72.08830  118.81800   86.29510
