~Version ---------------------------------------------------
VERS.   2.0 : CWLS log ASCII Standard -VERSION 2.0
WRAP.    NO : One line per depth step
DLM . SPACE : Column Data Section Delimiter
~Well ------------------------------------------------------
STRT .F               10400.0 : START DEPTH
STOP .F               12224.0 : STOP DEPTH
STEP .F                   0.5 : STEP
NULL .               -9999.25 : NULL VALUE
COMP .                        : COMPANY
WELL .                        : WELL
FLD  .                        : FIELD
LOC  .                        : LOCATION
PROV .                        : PROVINCE
CNTY .                        : COUNTY
STAT .                        : STATE
CTRY .                        : COUNTRY
SRVC .                        : SERVICE COMPANY
DATE .                        : DATE
UWI  .                        : UNIQUE WELL ID
API  .                        : API NUMBER
SLAT .WGS84 2.742791678076003 : SURFACE LATITUDE
SLON .WGS84 8.884144083726994 : SURFACE LONGITUDE
DATUM.F               3204.42 : DEPTH DATUM ELEV
~Curve Information -----------------------------------------
DEPT.F     : 
DTSM.US/F  : SHEAR-WAVE INTERVAL TRANSIT TIME DELTA-T
GRS .GAPI  : GAMMA RAY FROM SONIC LOG
TNPH.DEC   : THERMAL NEUTRON POROSITY
~Params ----------------------------------------------------
~Other -----------------------------------------------------
~ASCII -----------------------------------------------------
# ...
 11705.00000  132.70130   78.38280    0.25800
 11705.50000  131.86250   74.53710    0.24330
 11706.00000  130.91790   71.59360    0.23430
 11706.50000  130.28890   72.93580    0.22450
 11707.00000  130.29090   76.98480    0.24940
 11707.50000  130.92410   81.25940    0.26180
 11708.00000  132.09650   83.50380    0.25310
 11708.50000  133.80830   82.81600    0.25460
 11709.00000  136.24810   85.13530    0.24980
 11709.50000  137.64260   88.12440    0.25920
 11710.00000  141.45350   89.32390    0.26410
 11710.50000  143.34880   87.05430    0.26780
 11711.00000  143.87680   86.81760    0.27570
 11711.50000  143.98360   85.67860    0.28960
 11712.00000  142.40840   83.86290    0.28480
 11712.50000  138.72910   82.94950    0.26180
 11713.00000  135.15490   84.06620    0.24080
 11713.50000  130.63410   86.98730    0.23930
 11714.00000  128.63760   84.49500    0.22800
 11714.50000  126.11530   82.45370    0.23180
 11715.00000  123.17220   74.77340    0.23970
 11715.50000  119.91360   66.19080    0.22430
 11716.00000  114.97210   49.26240    0.15200
 11716.50000  108.87350   33.23620    0.10830
 11717.00000  103.19560   27.36040    0.07430
 11717.50000   98.99030   25.99580    0.06320
 11718.00000   97.09910   24.40570    0.05930
 11718.50000   96.68040   21.23670    0.05550
 11719.00000   97.31360   17.84210    0.05330
 11719.50000   99.22910   17.60530    0.05930
 11720.00000  106.18160   18.75380    0.07250
 11720.50000  118.56460   24.12230    0.09810
 11721.00000  128.02420   38.39490    0.14200
 11721.50000  132.17560   64.92630    0.20820
 11722.00000  134.56160   77.09560    0.25670
 11722.50000  133.40670   79.11730    0.22820
 11723.00000  128.88580   62.86280    0.17970
 11723.50000  115.84510   31.72380    0.10520
 11724.00000  110.16720   23.59230    0.07440
 11724.50000  107.11900   23.13010    0.05900
 11725.00000  106.56000   23.57000    0.07110
 11725.50000  112.17200   27.39350    0.09550
 11726.00000  119.01100   40.46500    0.14590
 11726.50000  130.16260   61.20570    0.21960
 11727.00000  138.38240   75.17950    0.25340
 11727.50000  141.97720   88.02550    0.33010
 11728.00000  143.42210   90.94670    0.34820
 11728.50000  143.42420   88.00320    0.34440
 11729.00000  143.19760   85.21770    0.33240
 11729.50000  142.37700   86.72730    0.31510
 11730.00000  141.64280   80.07500    0.29860
 11730.50000  140.27750   68.10900    0.25990
 11731.00000  137.12400   51.59580    0.20540
 11731.50000  131.23580   42.92100    0.14220
 11732.00000  125.13720   38.07550    0.11330
 11732.50000  116.40900   40.26400    0.12300
 11733.00000  109.57410   45.27120    0.12500
 11733.50000  103.16000   41.42270    0.10760
 11734.00000   96.32510   35.54690    0.08810
 11734.50000   92.96130   29.44550    0.05880
 11735.00000   91.49080   25.82530    0.04380
 11735.50000   91.28200   24.68630    0.03650
 11736.00000   91.38970   22.87070    0.03020
 11736.50000   91.39180   22.40840    0.03060
 11737.00000   91.39390   21.26940    0.03480
 11737.50000   91.39600   19.67930    0.03820
 11738.00000   91.29290   18.99140    0.04120
 11738.50000   90.97860   17.85250    0.04270
 11739.00000   90.65600   19.64580    0.04120
 11739.50000   90.01860   22.34140    0.03780
 11740.00000   89.39380   25.26260    0.03560
 11740.50000   88.97100   25.47740    0.03640
 11741.00000   88.78100   26.36810    0.04670
 11741.50000   88.67780   25.90580    0.05300
 11742.00000   88.78560   26.79690    0.05440
 11742.50000   88.89290   30.86730    0.05590
 11743.00000   89.42090   38.60320    0.05670
 11743.50000   90.68520   44.24700    0.06190
 11744.00000   93.94800   47.60500    0.07510
 11744.50000   98.05220   49.83340    0.09350
 11745.00000  101.20980   51.18500    0.11420
 11745.50000  102.57930   52.84750    0.12170
 11746.00000  102.37100   53.54980    0.11460
 11746.50000  101.32130   49.47570    0.11310
 11747.00000   99.85080   47.88560    0.10860
 11747.50000   97.85440   46.97220    0.09880
 11748.00000   95.54240   46.05870    0.08760
 11748.50000   94.17710   45.14530    0.06950
 11749.00000   92.91700   46.03640    0.05750
 11749.50000   91.76200   53.01780    0.05830
 11750.00000   91.65890   57.97840    0.06970
 11750.50000   94.92080   60.89460    0.08370
 11751.00000   99.02400   61.79190    0.10250
 11751.50000  105.02050   61.33410    0.13610
 11752.00000  112.70000   67.86720    0.16840
 11752.50000  121.66560   75.52980    0.20420
 11753.00000  129.00560   79.13220    0.20570
 11753.50000  134.17340   80.25340    0.20300
 11754.00000  138.64510   80.33860    0.19810
 11754.50000  142.05170   82.04470    0.20420
 11755.00000  144.15640   74.14180    0.21210
 11755.50000  147.73370   71.65390    0.24740
 11756.00000  152.25770   74.12860    0.28500
 11756.50000  156.36090   83.37010    0.34500
 11757.00000  159.62260   87.64920    0.39370
 11757.50000  163.30510   88.77070    0.37300
 11758.00000  164.67350   90.11720    0.35610
 11758.50000  163.30710   93.51560    0.35080
 11759.00000  160.61800   90.15470    0.35380
 11759.50000  156.09160   82.87770    0.30870
 11760.00000  145.21880   74.07410    0.24590
 11760.50000  140.80210   60.30810    0.17450
 11761.00000  138.17360   50.60220    0.18770
 11761.50000  136.80720   48.34000    0.17260
 11762.00000  135.75640   45.40110    0.17040
 11762.50000  136.07300   49.00350    0.16740
 11763.00000  136.81030   60.72620    0.18880
 11763.50000  137.33720   73.94050    0.26290
 11764.00000  136.80810   85.25770    0.30500
 11764.50000  135.94330   82.58440    0.27340
 11765.00000  134.71090   74.68310    0.21770
 11765.50000  136.28970   76.48100    0.20010
 11766.00000  139.65660   83.46690    0.21970
 11766.50000  140.49910   85.26650    0.22870
 11767.00000  140.81570   80.07020    0.21780
 11767.50000  141.23750   75.10120    0.22800
 11768.00000  141.97480   74.38890    0.27530
 11768.50000  141.55510   79.64260    0.34680
 11769.00000  140.08350   82.64120    0.39750
 11769.50000  138.99990   85.90020    0.40160
 11770.00000  136.50960   81.60790    0.38810
 11770.50000  132.40840   67.84190    0.33930
 11771.00000  128.62280   61.51950    0.20390
 11771.50000  119.47290   61.06350    0.16800
 11772.00000  112.21620   68.27320    0.14260
 11772.50000  104.53880   64.65760    0.08740
 11773.00000   99.17540   52.47060    0.04790
 11773.50000   93.18090   34.34720    0.04300
 11774.00000   90.76270   25.07260    0.04420
 11774.50000   90.44820   31.69720    0.04910
 11775.00000   90.67730   42.06660    0.05620
 11775.50000   91.08160   56.49610    0.06900
 11776.00000   91.71380   63.93310    0.07760
 11776.50000   93.81850   67.98660    0.08400
 11777.00000  101.07720   75.19810    0.10510
 11777.50000  110.96550   82.40950    0.14410
 11778.00000  123.90420   92.77880    0.17970
 11778.50000  128.74370   94.80230    0.22540
 11779.00000  127.90320   88.90200    0.23410
 11779.50000  122.48150   66.14080    0.19420
 11780.00000  113.72060   50.57030    0.15020
 11780.50000  100.87430   33.42090    0.07880
 11781.00000   95.82650   30.70910    0.06870
 11781.50000   93.09270   32.50710    0.07320
 11782.00000   92.04190   34.30330    0.06980
 11782.50000   91.62190   34.82330    0.06450
 11783.00000   91.93880   33.38790    0.06270
 11783.50000   92.88640   35.41850    0.06230
 11784.00000   94.57040   36.33590    0.06510
 11784.50000   96.68010   39.23110    0.07530
 11785.00000   98.83080   45.08910    0.09350
 11785.50000  100.77960   59.74420    0.10630
 11786.00000  100.99080   87.48190    0.10890
 11786.50000  100.04540  102.13860    0.10590
 11787.00000   97.62720   83.18300    0.09130
 11787.50000   95.41930   60.39450    0.07890
 11788.00000   94.36850   36.47810    0.07130
 11788.50000   93.73840   35.56920    0.06720
 11789.00000   92.89800   36.97710    0.06500
 11789.50000   91.42650   38.48840    0.06270
 11790.00000   89.74740   30.81090    0.05240
 11790.50000   88.48340   23.58630    0.04720
 11791.00000   88.16130   20.87460    0.04810
 11791.50000   88.38540   24.24980    0.05440
