~Version ---------------------------------------------------
VERS.   2.0 : CWLS log ASCII Standard -VERSION 2.0
WRAP.    NO : One line per depth step
DLM . SPACE : Column Data Section Delimiter
~Well ------------------------------------------------------
STRT .F               10400.0 : START DEPTH
STOP .F               12224.0 : STOP DEPTH
STEP .F                   0.5 : STEP
NULL .               -9999.25 : NULL VALUE
COMP .                        : COMPANY
WELL .                        : WELL
FLD  .                        : FIELD
LOC  .                        : LOCATION
PROV .                        : PROVINCE
CNTY .                        : COUNTY
STAT .                        : STATE
CTRY .                        : COUNTRY
SRVC .                        : SERVICE COMPANY
DATE .                        : DATE
UWI  .                        : UNIQUE WELL ID
API  .                        : API NUMBER
SLAT .WGS84 2.742791678076003 : SURFACE LATITUDE
SLON .WGS84 8.884144083726994 : SURFACE LONGITUDE
DATUM.F               3204.42 : DEPTH DATUM ELEV
~Curve Information -----------------------------------------
DEPT.F     : 
DTSM.US/F  : SHEAR-WAVE INTERVAL TRANSIT TIME DELTA-T
GRS .GAPI  : GAMMA RAY FROM SONIC LOG
TNPH.DEC   : THERMAL NEUTRON POROSITY
~Params ----------------------------------------------------
~Other -----------------------------------------------------
~ASCII -----------------------------------------------------
# ...
 11183.00000   94.49890   29.62920    0.02530
 11183.50000   94.70920   29.16920    0.02380
 11184.00000   95.02480   26.22810    0.02380
 11184.50000   95.13000   25.54250    0.03200
 11185.00000   94.91960   32.52620    0.04640
 11185.50000   93.86780   50.64470    0.08580
 11186.00000   92.07960   69.81830    0.13210
 11186.50000   89.93000   83.53760    0.21100
 11187.00000   88.38120   85.49830    0.26290
 11187.50000   87.55670   78.72030    0.25910
 11188.00000   88.18780   68.11000    0.23730
 11188.50000   89.97600   60.88310    0.19480
 11189.00000   93.02630   53.65620    0.14600
 11189.50000   95.76110   47.55710    0.12970
 11190.00000  100.28400   45.51820    0.11060
 11190.50000  105.54320   46.63720    0.11510
 11191.00000  109.43500   49.10950    0.13350
 11191.50000  113.22160   51.80750    0.14710
 11192.00000  115.74610   55.72080    0.15910
 11192.50000  120.20170   62.11450    0.17830
 11193.00000  125.00230   66.44040    0.19100
 11193.50000  131.52370   66.88490    0.20910
 11194.00000  137.30880   66.19930    0.22370
 11194.50000  142.25240   71.37620    0.23390
 11195.00000  143.19910   76.55540    0.27180
 11195.50000  141.93690   78.12770    0.29590
 11196.00000  138.78140   68.64290    0.25490
 11196.50000  133.62730   62.99500    0.17520
 11197.00000  124.37110   61.60060    0.17520
 11197.50000  119.42750   64.37380    0.17480
 11198.00000  110.90760   55.72870    0.13850
 11198.50000  105.06740   45.22580    0.08990
 11199.00000  101.63780   30.81560    0.05450
 11199.50000   98.81140   21.43590    0.03350
 11200.00000   98.07510   19.06720    0.02890
 11200.50000   98.07620   17.58110    0.03090
 11201.00000   98.28770   17.79830    0.03120
 11201.50000   98.91990   18.01280    0.02970
 11202.00000   99.23650   19.57800    0.03010
 11202.50000   99.13210   22.49920    0.03160
 11203.00000   98.39710   25.87160    0.02930
 11203.50000   97.45140   27.89100    0.02780
 11204.00000   96.71620   22.01490    0.02630
 11204.50000   96.29650   18.39470    0.02560
 11205.00000   96.08710   19.35070    0.02630
 11205.50000   96.30940   23.30600    0.02750
 11206.00000   97.10660   27.60700    0.03050
 11206.50000  100.50820   28.49810    0.04020
 11207.00000  102.61300   27.81040    0.04250
 11207.50000  103.77100   27.34820    0.04140
 11208.00000  103.35130   26.43490    0.03800
 11208.50000  101.98490   25.29600    0.03500
 11209.00000  100.40820   25.96440    0.03350
 11209.50000   98.30560   25.49940    0.03310
 11210.00000   97.67550   23.90940    0.03530
 11210.50000   97.04540   23.17890    0.03500
 11211.00000   97.15160   28.63480    0.03530
 11211.50000   97.67860   31.18060    0.03730
 11212.00000   98.52280   34.77050    0.04040
 11212.50000   98.73250   35.35510    0.04400
 11213.00000   98.83880   38.95670    0.04700
 11213.50000   98.84000   38.04130    0.05110
 11214.00000   98.63070   38.54920    0.05560
 11214.50000   98.31620   44.55800    0.07440
 11215.00000   97.89650   54.02060    0.13950
 11215.50000   96.63530   59.19750    0.17480
 11216.00000   93.06010   55.57740    0.14620
 11216.50000   90.74710   46.54380    0.09210
 11217.00000   87.27700   35.48010    0.07290
 11217.50000   84.96400   36.14570    0.07030
 11218.00000   85.07020   45.60840    0.09910
 11218.50000   86.54380   51.91310    0.12110
 11219.00000   88.33300   51.45090    0.11620
 11219.50000   91.00370   46.92860    0.11390
 11220.00000   93.72200   49.55600    0.13680
 11220.50000   97.90810   60.44350    0.19320
 11221.00000  102.43200   73.50910    0.27780
 11221.50000  106.11450   88.15970    0.37670
 11222.00000  113.16290   94.91560    0.45000
 11222.50000  120.10610  103.25310    0.45000
 11223.00000  127.57520  103.69040    0.45000
 11223.50000  135.35980  106.16330    0.45000
 11224.00000  142.09260   91.48780    0.45000
 11224.50000  150.50840   85.16100    0.45000
 11225.00000  155.34790   81.54090    0.45000
 11225.50000  160.39780   80.62760    0.45000
 11226.00000   -9999.25   79.93980    0.45000
 11226.50000   -9999.25   78.80080    0.45000
 11227.00000   -9999.25   79.24100    0.45000
 11227.50000   -9999.25   77.19710    0.45000
 11228.00000   -9999.25   80.34390    0.41390
 11228.50000   -9999.25   83.49070    0.32890
 11229.00000   -9999.25   90.24660    0.35560
 11229.50000   -9999.25   95.42350    0.35790
 11230.00000   -9999.25   96.09190    0.36540
 11230.50000   -9999.25   88.63450    0.31800
 11231.00000   -9999.25   84.11210    0.27370
 11231.50000   -9999.25   78.23640    0.26350
 11232.00000   -9999.25   74.61630    0.29590
 11232.50000   -9999.25   72.79360    0.33160
 11233.00000   -9999.25   76.92120    0.34850
 11233.50000   -9999.25   80.50820    0.34360
 11234.00000   -9999.25   79.53170    0.31650
 11234.50000   -9999.25   73.20480    0.33040
 11235.00000   -9999.25   66.65240    0.33420
 11235.50000   -9999.25   59.87440    0.27510
 11236.00000   -9999.25   46.78060    0.15530
 11236.50000  138.43720   36.84470    0.08980
 11237.00000  130.02380   28.48780    0.06620
 11237.50000  124.45010   21.70980    0.05000
 11238.00000  120.24370   20.57090    0.04320
 11238.50000  113.93960   22.59000    0.04470
 11239.00000  105.75380   25.73680    0.05190
 11239.50000   99.42060   27.75580    0.05410
 11240.00000   95.74020   24.69030    0.04590
 11240.50000   93.84800   21.41510    0.04060
 11241.00000   93.11270   20.72730    0.03830
 11241.50000   93.11370   21.16740    0.03760
 11242.00000   93.32510   21.61020    0.03840
 11242.50000   93.74690   20.01750    0.04290
 11243.00000   94.06350   19.55800    0.04960
 11243.50000   94.38010   22.92770    0.05340
 11244.00000   94.48630   25.39780    0.05530
 11244.50000   94.48730   24.71000    0.05450
 11245.00000   94.27800   21.09000    0.05040
 11245.50000   94.17390   18.37210    0.04590
 11246.00000   94.28010   17.67340    0.04140
 11246.50000   94.28110   16.26180    0.03980
 11247.00000   94.07200   15.85770    0.04210
 11247.50000   93.75750   19.00180    0.04290
 11248.00000   93.23260   22.82530    0.04670
 11248.50000   93.12820   27.09990    0.06250
 11249.00000   93.23470   33.17910    0.08610
 11249.50000   93.97200   43.99510    0.12930
 11250.00000   96.28710   58.98650    0.19130
 11250.50000   99.96960   72.02030    0.36880
 11251.00000  108.70090   75.17440    0.44250
 11251.50000  116.97600   74.18900    0.44960
 11252.00000  125.95310   80.04700    0.42370
 11252.50000  129.54720   85.45390    0.39440
 11253.00000  131.98350   87.02790    0.37410
 11253.50000  132.47760   76.41810    0.35640
 11254.00000  130.48040   64.68220    0.30110
 11254.50000  129.00890   56.10410    0.22260
 11255.00000  127.85290   47.07490    0.16950
 11255.50000  127.01250   49.54950    0.16620
 11256.00000  126.80290   56.53530    0.16740
 11256.50000  128.90780   59.23550    0.19640
 11257.00000  133.53700   54.03880    0.19480
 11257.50000  139.63870   46.58900    0.17670
 11258.00000  143.00560   50.86810    0.16800
 11258.50000  145.32070   57.17720    0.19440
 11259.00000  146.26840   65.96760    0.27110
 11259.50000  146.47980   69.34440    0.33680
 11260.00000  146.37560   70.91840    0.31470
 11260.50000  145.95620   67.30110    0.28080
 11261.00000  145.74660   65.71550    0.25790
 11261.50000  145.53750   65.93440    0.27590
 11262.00000  145.64370   68.40900    0.28800
 11262.50000  145.85510   70.45040    0.29550
 11263.00000  146.27690   71.40300    0.30860
 11263.50000  147.22460   71.77260    0.31200
 11264.00000  148.48780   62.29060    0.27290
 11264.50000  149.54070   55.06590    0.19960
 11265.00000  151.01430   50.09690    0.17930
 11265.50000  152.80350   49.63920    0.19400
 11266.00000  155.02340   48.95580    0.21290
 11266.50000  157.28760   49.40030    0.20190
 11267.00000  159.32380   50.97260    0.18910
 11267.50000  162.80040   57.28180    0.19900
 11268.00000  167.32430   66.29770    0.23650
 11268.50000  169.42900   74.11770    0.27670
 11269.00000  169.95600   82.45080    0.29510
 11269.50000  170.37770   82.29290    0.31650
