~Version ---------------------------------------------------
VERS.   2.0 : CWLS log ASCII Standard -VERSION 2.0
WRAP.    NO : One line per depth step
DLM . SPACE : Column Data Section Delimiter
~Well ------------------------------------------------------
STRT .F               10400.0 : START DEPTH
STOP .F               12224.0 : STOP DEPTH
STEP .F                   0.5 : STEP
NULL .               -9999.25 : NULL VALUE
COMP .                        : COMPANY
WELL .                        : WELL
FLD  .                        : FIELD
LOC  .                        : LOCATION
PROV .                        : PROVINCE
CNTY .                        : COUNTY
STAT .                        : STATE
CTRY .                        : COUNTRY
SRVC .                        : SERVICE COMPANY
DATE .                        : DATE
UWI  .                        : UNIQUE WELL ID
API  .                        : API NUMBER
SLAT .WGS84 2.742791678076003 : SURFACE LATITUDE
SLON .WGS84 8.884144083726994 : SURFACE LONGITUDE
DATUM.F               3204.42 : DEPTH DATUM ELEV
~Curve Information -----------------------------------------
DEPT.F     : 
DTSM.US/F  : SHEAR-WAVE INTERVAL TRANSIT TIME DELTA-T
GRS .GAPI  : GAMMA RAY FROM SONIC LOG
TNPH.DEC   : THERMAL NEUTRON POROSITY
~Params ----------------------------------------------------
~Other -----------------------------------------------------
~ASCII -----------------------------------------------------
# ...
 12140.00000  116.14550   59.18780    0.17830
 12140.50000  116.35720   57.83000    0.17910
 12141.00000  116.98930   57.14530    0.16110
 12141.50000  117.94710   56.24220    0.15320
 12142.00000  119.47580   59.80010    0.15770
 12142.50000  121.25740   64.57810    0.19080
 12143.00000  122.98920   66.37820    0.20320
 12143.50000  124.67320   67.72710    0.20930
 12144.00000  129.40750   69.52720    0.21720
 12144.50000  131.72260   68.62160    0.22320
 12145.00000  132.24950   70.64620    0.21930
 12145.50000  132.56610   69.96500    0.20970
 12146.00000  132.88270   64.54710    0.19460
 12146.50000  133.51480   63.41480    0.19010
 12147.00000  135.19880   62.73370    0.19590
 12147.50000  136.77760   63.63150    0.20750
 12148.00000  138.89500   59.98220    0.20370
 12148.50000  141.26310   58.18220    0.18940
 12149.00000  144.04850   57.17870    0.18310
 12149.50000  146.66930   53.68790    0.18720
 12150.00000  147.94950   52.10560    0.21040
 12150.50000  149.44130   53.42900    0.20600
 12151.00000  150.89570   54.79770    0.19850
 12151.50000  151.09290   58.40010    0.19060
 12152.00000  151.09450   62.90480    0.19210
 12152.50000  150.67530   63.80200    0.20760
 12153.00000  150.15090   62.86290    0.21730
 12153.50000  148.89030   64.23830    0.22640
 12154.00000  147.52440   66.52510    0.22560
 12154.50000  145.31710   69.25170    0.22380
 12155.00000  141.63720   70.30860    0.21800
 12155.50000  136.37960   68.72140    0.21310
 12156.00000  132.38410   66.23360    0.20500
 12156.50000  128.80940   62.61800    0.19710
 12157.00000  126.28660   61.25960    0.20540
 12157.50000  124.58260   63.95810    0.20380
 12158.00000  124.08080   69.13950    0.20280
 12158.50000  124.71380   74.54640    0.20950
 12159.00000  125.34650   77.92320    0.22190
 12159.50000  126.18950   82.48150    0.23100
 12160.00000  126.71700   88.18190    0.21710
 12160.50000  127.13930   84.66860    0.22500
 12161.00000  127.24600   76.76730    0.23250
 12161.50000  127.03720   67.96370    0.22650
 12162.00000  126.19730   57.13000    0.18210
 12162.50000  125.46250   60.50680    0.16450
 12163.00000  125.56930   62.53030    0.19120
 12163.50000  127.25370   65.00490    0.22350
 12164.00000  129.46920   65.44960    0.25890
 12164.50000  132.04910   64.76610    0.25210
 12165.00000  134.66890   65.21060    0.22170
 12165.50000  135.99060   65.25790    0.21150
 12166.00000  135.15070   66.55070    0.20170
 12166.50000  132.94340   66.31850    0.19800
 12167.00000  132.20830   68.11480    0.19690
 12167.50000  132.63090   69.91270    0.20290
 12168.00000  133.89470   71.71060    0.21980
 12168.50000  136.42070   74.18520    0.23410
 12169.00000  139.68290   75.08250    0.24840
 12169.50000  141.68300   74.17190    0.25040
 12170.00000  143.36740   74.84200    0.25260
 12170.50000  145.36750   79.37910    0.26350
 12171.00000  146.84250   83.40020    0.26610
 12171.50000  147.15870   76.39940    0.26410
 12172.00000  146.67560   75.03940    0.25710
 12172.50000  143.69110   70.52150    0.24320
 12173.00000  138.74900   71.64270    0.22480
 12173.50000  135.80540   66.22260    0.20900
 12174.00000  134.43920   67.79490    0.21800
 12174.50000  136.65000   73.87850    0.23420
 12175.00000  136.33600   80.63880    0.23530
 12175.50000  133.70790   74.76750    0.21170
 12176.00000  127.39850   65.26930    0.18910
 12176.50000  122.03560   62.07600    0.17520
 12177.00000  120.14390   60.76110    0.17440
 12177.50000  121.40760   61.88230    0.19110
 12178.00000  126.04230   61.42450    0.20230
 12178.50000  128.73580   60.74290    0.21210
 12179.00000  131.04800   63.21580    0.21470
 12179.50000  132.87930   67.04380    0.22260
 12180.00000  133.72230   69.29280    0.22530
 12180.50000  134.88090   67.93280    0.22450
 12181.00000  136.67050   67.47500    0.22230
 12181.50000  138.35500   68.82720    0.22870
 12182.00000  138.77730   70.84530    0.22190
 12182.50000  138.88370   70.38590    0.21360
 12183.00000  137.72860   67.67250    0.21550
 12183.50000  136.04720   66.53800    0.21890
 12184.00000  134.57620   65.40360    0.22040
 12184.50000  133.10510   63.36690    0.21580
 12185.00000  129.82930   62.23250    0.17980
 12185.50000  125.92590   58.61680    0.15170
 12186.00000  123.19730   52.97110    0.14750
 12186.50000  119.33260   51.38560    0.14270
 12187.00000  119.43930   50.92780    0.13360
 12187.50000  120.17720   49.53160    0.12760
 12188.00000  120.70470   47.94230    0.12990
 12188.50000  121.12690   48.42510    0.13250
 12189.00000  121.44400   50.89970    0.13590
 12189.50000  121.44560   54.05100    0.14080
 12190.00000  121.34200   56.97670    0.15890
 12190.50000  121.13310   57.87230    0.16900
 12191.00000  121.02950   58.99350    0.17280
 12191.50000  120.82070   58.53580    0.17630
 12192.00000  120.92990   59.20580    0.18370
 12192.50000  121.58010   61.68040    0.20670
 12193.00000  121.98240   63.73620    0.20480
 12193.50000  120.61690   65.27620    0.20030
 12194.00000  117.05320   64.81680    0.19920
 12194.50000  110.18650   64.35910    0.21420
 12195.00000   99.43460   66.60810    0.22360
 12195.50000   87.49020   68.63160    0.22780
 12196.00000   83.17920   69.97830    0.22510
 12196.50000   79.92010   73.12960    0.22960
 12197.00000   80.65790   74.70190    0.24880
 12197.50000   82.44760   76.49980    0.28760
 12198.00000   84.02690   77.16990    0.30520
 12198.50000   84.34400   77.16320    0.30640
 12199.00000   84.03000   76.66950    0.29340
 12199.50000   83.40050   76.02050    0.27890
 12200.00000   82.24500   75.78950    0.27070
 12200.50000   81.19470   -9999.25    0.26470
 12201.00000   81.61700   -9999.25    0.25720
 12201.50000   81.40310   -9999.25    0.25120
 12202.00000   80.87120   -9999.25    0.26280
 12202.50000   80.56980   -9999.25    0.27710
 12203.00000   81.09770   -9999.25    0.29400
 12203.50000   83.09770   -9999.25    0.33430
 12204.00000   87.51700   -9999.25    0.39330
 12204.50000   91.93630   -9999.25   -9999.25
 12205.00000   95.82960   -9999.25   -9999.25
 12205.50000   97.09340   -9999.25   -9999.25
 12206.00000   97.41010   -9999.25   -9999.25
 12206.50000   95.93950   -9999.25   -9999.25
 12207.00000   94.04770   -9999.25   -9999.25
 12207.50000   92.26110   -9999.25   -9999.25
 12208.00000   89.63310   -9999.25   -9999.25
 12208.50000   85.70240   -9999.25   -9999.25
 12209.00000   81.56650   -9999.25   -9999.25
 12209.50000   78.38340   -9999.25   -9999.25
 12210.00000   77.01760   -9999.25   -9999.25
 12210.50000   77.12430   -9999.25   -9999.25
 12211.00000   78.91400   -9999.25   -9999.25
 12211.50000   82.28140   -9999.25   -9999.25
 12212.00000   86.49030   -9999.25   -9999.25
 12212.50000   91.64590   -9999.25   -9999.25
 12213.00000   94.27710   -9999.25   -9999.25
 12213.50000   95.43560   -9999.25   -9999.25
 12214.00000   95.22680   -9999.25   -9999.25
 12214.50000   92.80910   -9999.25   -9999.25
 12215.00000   88.70850   -9999.25   -9999.25
 12215.50000   85.53700   -9999.25   -9999.25
 12216.00000   84.46420   -9999.25   -9999.25
 12216.50000   82.40250   -9999.25   -9999.25
 12217.00000   80.09000   -9999.25   -9999.25
 12217.50000   77.35680   -9999.25   -9999.25
 12218.00000   74.62350   -9999.25   -9999.25
 12218.50000   73.57320   -9999.25   -9999.25
 12219.00000   74.31110   -9999.25   -9999.25
 12219.50000   76.20590   -9999.25   -9999.25
 12220.00000   78.41630   -9999.25   -9999.25
 12220.50000   79.99570   -9999.25   -9999.25
 12221.00000   80.52310   -9999.25   -9999.25
 12221.50000   80.20910   -9999.25   -9999.25
 12222.00000   80.00030   -9999.25   -9999.25
 12222.50000   80.00190   -9999.25   -9999.25
 12223.00000   80.12280   -9999.25   -9999.25
 12223.50000   80.63640   -9999.25   -9999.25
 12224.00000   80.87670   -9999.25   -9999.25
