~Version ---------------------------------------------------
VERS.   2.0 : CWLS log ASCII Standard -VERSION 2.0
WRAP.    NO : One line per depth step
DLM . SPACE : Column Data Section Delimiter
~Well ------------------------------------------------------
STRT .F               10400.0 : START DEPTH
STOP .F               12224.0 : STOP DEPTH
STEP .F                   0.5 : STEP
NULL .               -9999.25 : NULL VALUE
COMP .                        : COMPANY
WELL .                        : WELL
FLD  .                        : FIELD
LOC  .                        : LOCATION
PROV .                        : PROVINCE
CNTY .                        : COUNTY
STAT .                        : STATE
CTRY .                        : COUNTRY
SRVC .                        : SERVICE COMPANY
DATE .                        : DATE
UWI  .                        : UNIQUE WELL ID
API  .                        : API NUMBER
SLAT .WGS84 2.742791678076003 : SURFACE LATITUDE
SLON .WGS84 8.884144083726994 : SURFACE LONGITUDE
DATUM.F               3204.42 : DEPTH DATUM ELEV
~Curve Information -----------------------------------------
DEPT.F     : 
DTSM.US/F  : SHEAR-WAVE INTERVAL TRANSIT TIME DELTA-T
GRS .GAPI  : GAMMA RAY FROM SONIC LOG
TNPH.DEC   : THERMAL NEUTRON POROSITY
~Params ----------------------------------------------------
~Other -----------------------------------------------------
~ASCII -----------------------------------------------------
# ...
 11096.00000   96.39220   35.52810    0.03690
 11096.50000   96.39220   36.81460    0.03500
 11097.00000   96.49740   32.74610    0.03350
 11097.50000   96.81290   30.70940    0.04020
 11098.00000   97.75960   35.43960    0.05490
 11098.50000   99.65290   51.22240    0.08760
 11099.00000  101.54620   73.77220    0.12670
 11099.50000  101.75660   79.40460    0.19400
 11100.00000  101.23070   74.88670    0.20230
 11100.50000  100.76590   62.92510    0.17180
 11101.00000  100.28400   52.31190    0.13650
 11101.50000   98.91660   40.58040    0.11620
 11102.00000   99.02180   32.22790    0.08880
 11102.50000   99.65290   29.06340    0.08760
 11103.00000  100.07360   30.86120    0.08950
 11103.50000  100.60780   35.81700    0.09100
 11104.00000  101.89160   36.37710    0.08620
 11104.50000  103.39730   33.99910    0.08240
 11105.00000  104.70170   33.31580    0.08090
 11105.50000  105.33280   35.63630    0.08130
 11106.00000  106.17430   39.73350    0.08960
 11106.50000  107.43650   42.31670    0.10500
 11107.00000   -9999.25   44.11460    0.12340
 11107.50000   -9999.25   45.46130    0.13240
 11108.00000   -9999.25   47.71030    0.14260
 11108.50000   -9999.25   51.76380    0.14380
 11109.00000   -9999.25   49.95260    0.13470
 11109.50000   -9999.25   44.75800    0.11120
 11110.00000   -9999.25   37.98440    0.08880
 11110.50000   92.18480   32.11310    0.06550
 11111.00000   91.97450   26.46730    0.05130
 11111.50000   91.97450   24.43060    0.03860
 11112.00000   91.97450   25.10060    0.03250
 11112.50000   91.86930   26.22180    0.02650
 11113.00000   91.54870   25.76390    0.02610
 11113.50000   91.22720   25.78760    0.03030
 11114.00000   90.67910   27.77910    0.03480
 11114.50000   89.97600   29.35140    0.03630
 11115.00000   89.45000   30.69810    0.04120
 11115.50000   89.23970   34.07490    0.05470
 11116.00000   -9999.25   46.02320    0.09350
 11116.50000   -9999.25   51.43010    0.16270
 11117.00000   -9999.25   52.77840    0.16570
 11117.50000   -9999.25   47.80770    0.13600
 11118.00000   -9999.25   45.09430    0.10930
 11118.50000   -9999.25   46.66660    0.10250
 11119.00000   -9999.25   45.08100    0.09840
 11119.50000   -9999.25   41.23970    0.09580
 11120.00000   -9999.25   36.94740    0.08940
 11120.50000   -9999.25   32.88050    0.08600
 11121.00000   -9999.25   34.76950    0.09130
 11121.50000   -9999.25   40.08360    0.11270
 11122.00000   -9999.25   43.91160    0.14320
 11122.50000   -9999.25   45.70940    0.13870
 11123.00000   -9999.25   43.89830    0.13000
 11123.50000   -9999.25   42.08710    0.11310
 11124.00000   -9999.25   44.56160    0.11480
 11124.50000   -9999.25   46.81060    0.12330
 11125.00000   -9999.25   46.57840    0.13950
 11125.50000   -9999.25   44.31610    0.13690
 11126.00000   -9999.25   41.82820    0.13310
 11126.50000   -9999.25   41.56580    0.13420
 11127.00000   -9999.25   42.71730    0.13840
 11127.50000   -9999.25   43.38720    0.13160
 11128.00000   -9999.25   43.15490    0.12970
 11128.50000   -9999.25   43.40260    0.13090
 11129.00000   -9999.25   47.42570    0.14440
 11129.50000   -9999.25   50.35140    0.15830
 11130.00000   -9999.25   51.69810    0.18990
 11130.50000   -9999.25   53.04490    0.19110
 11131.00000   -9999.25   55.74500    0.19110
 11131.50000   -9999.25   56.86610    0.18730
 11132.00000   -9999.25   56.63390    0.18170
 11132.50000   -9999.25   54.14610    0.17570
 11133.00000   -9999.25   49.85370    0.13280
 11133.50000   -9999.25   50.52370    0.11630
 11134.00000   -9999.25   52.09600    0.12120
 11134.50000   -9999.25   55.69840    0.14040
 11135.00000   -9999.25   54.11280    0.13960
 11135.50000   -9999.25   42.84560    0.07500
 11136.00000   95.34030   32.11300    0.04110
 11136.50000   95.65590   22.28660    0.02990
 11137.00000   95.76110   27.01680    0.04170
 11137.50000   95.76110   36.03270    0.05390
 11138.00000   95.97730   47.98100    0.09330
 11138.50000   96.50830   60.38030    0.16840
 11139.00000   -9999.25   80.44880    0.27830
 11139.50000   -9999.25   93.97600    0.36000
 11140.00000   -9999.25   92.84160    0.29010
 11140.50000   -9999.25   81.55670    0.22990
 11141.00000   -9999.25   67.79060    0.18140
 11141.50000   -9999.25   57.85920    0.15420
 11142.00000   -9999.25   49.50670    0.13090
 11142.50000   -9999.25   46.56770    0.11010
 11143.00000   -9999.25   46.82980    0.10350
 11143.50000   -9999.25   47.45660    0.09930
 11144.00000   -9999.25   45.41820    0.09500
 11144.50000  102.07210   47.66720    0.09090
 11145.00000  101.74240   50.14170    0.08640
 11145.50000  101.21080   51.94130    0.08870
 11146.00000  101.02030   43.58710    0.09390
 11146.50000  100.49440   41.55040    0.09920
 11147.00000   99.23220   40.41590    0.09880
 11147.50000   97.86480   39.73250    0.09390
 11148.00000   97.02330   38.82360    0.08640
 11148.50000   96.70770   36.56130    0.07440
 11149.00000   96.39220   36.10350    0.06580
 11149.50000   96.39220   32.93900    0.05300
 11150.00000   96.41730   30.22560    0.03930
 11150.50000   96.56860   29.54000    0.03420
 11151.00000   96.97070   32.93940    0.04100
 11151.50000   99.12700   43.50510    0.05530
 11152.00000  103.22910   61.31580    0.07520
 11152.50000  109.01430   72.35960    0.11200
 11153.00000  118.90160   74.15520    0.16920
 11153.50000  130.47180   73.92080    0.22820
 11154.00000  132.78590   72.10750    0.23320
 11154.50000  128.89410   71.64750    0.23570
 11155.00000  122.89860   63.06720    0.25560
 11155.50000  115.64090   48.17120    0.21570
 11156.00000  107.85720   39.36530    0.13190
 11156.50000  104.33570   32.53580    0.04540
 11157.00000  102.87830   27.42860    0.03300
 11157.50000  101.96690   23.77490    0.03150
 11158.00000  101.44100   29.85400    0.03230
 11158.50000  100.91510   34.35650    0.03980
 11159.00000  100.28400   37.95660    0.04730
 11159.50000   99.75810   36.59440    0.05220
 11160.00000   99.12700   35.91110    0.04740
 11160.50000   98.49590   36.35340    0.03640
 11161.00000   97.54920   35.66560    0.03190
 11161.50000   96.49740   37.01020    0.02770
 11162.00000   95.76110   34.74570    0.02740
 11162.50000   95.33120   32.93230    0.02890
 11163.00000   94.79690   32.24680    0.03520
 11163.50000   94.39370   35.95400    0.04130
 11164.00000   94.60410   38.09160    0.04690
 11164.50000   95.76110   37.63160    0.05520
 11165.00000   96.60260   38.07390    0.06340
 11165.50000   97.75960   39.64400    0.07210
 11166.00000   98.81140   37.83060    0.07360
 11166.50000   99.86330   33.53600    0.06220
 11167.00000   99.75810   29.46700    0.05810
 11167.50000   99.23220   31.26270    0.05660
 11168.00000  100.59950   33.28390    0.06530
 11168.50000  104.68070   40.94430    0.07730
 11169.00000  109.22630   45.98800    0.10020
 11169.50000  120.68970   56.98650    0.15360
 11170.00000  133.62730   64.54760    0.19760
 11170.50000  143.40950   70.90740    0.25360
 11171.00000  146.67020   73.15420    0.24950
 11171.50000  146.88050   72.24310    0.23820
 11172.00000  143.19910   70.20420    0.22690
 11172.50000  134.25850   66.81190    0.21940
 11173.00000  128.26300   64.98060    0.19690
 11173.50000  126.58000   61.76660    0.18020
 11174.00000  126.05410   60.20420    0.18480
 11174.50000  126.70360   61.13520    0.19940
 11175.00000  128.26380   63.83310    0.20090
 11175.50000  132.25990   66.07990    0.19720
 11176.00000  133.20660   68.10110    0.19640
 11176.50000  133.52220   68.99680    0.21030
 11177.00000  134.15330   66.95560    0.22760
 11177.50000  134.46880   64.91670    0.22910
 11178.00000  134.04810   63.10330    0.21740
 11178.50000  132.68070   62.41780    0.19530
 11179.00000  130.57700   63.98790    0.17990
 11179.50000  128.15780   66.00910    0.17200
 11180.00000  121.32080   53.07660    0.14150
 11180.50000  110.22180   39.14710    0.09040
 11181.00000  100.98520   29.21350    0.04040
 11181.50000   94.70920   26.72340    0.03400
 11182.00000   94.28850   27.16570    0.03280
 11182.50000   94.28850   28.73580    0.02980
