~Version ---------------------------------------------------
VERS.   2.0 : CWLS log ASCII Standard -VERSION 2.0
WRAP.    NO : One line per depth step
DLM . SPACE : Column Data Section Delimiter
~Well ------------------------------------------------------
STRT .F               10400.0 : START DEPTH
STOP .F               12224.0 : STOP DEPTH
STEP .F                   0.5 : STEP
NULL .               -9999.25 : NULL VALUE
COMP .                        : COMPANY
WELL .                        : WELL
FLD  .                        : FIELD
LOC  .                        : LOCATION
PROV .                        : PROVINCE
CNTY .                        : COUNTY
STAT .                        : STATE
CTRY .                        : COUNTRY
SRVC .                        : SERVICE COMPANY
DATE .                        : DATE
UWI  .                        : UNIQUE WELL ID
API  .                        : API NUMBER
SLAT .WGS84 2.742791678076003 : SURFACE LATITUDE
SLON .WGS84 8.884144083726994 : SURFACE LONGITUDE
DATUM.F               3204.42 : DEPTH DATUM ELEV
~Curve Information -----------------------------------------
DEPT.F     : 
DTSM.US/F  : SHEAR-WAVE INTERVAL TRANSIT TIME DELTA-T
GRS .GAPI  : GAMMA RAY FROM SONIC LOG
TNPH.DEC   : THERMAL NEUTRON POROSITY
~Params ----------------------------------------------------
~Other -----------------------------------------------------
~ASCII -----------------------------------------------------
# ...
 11444.00000   92.71070   27.32010    0.04170
 11444.50000   93.65740   27.76910    0.04360
 11445.00000   93.86780   33.18040    0.05380
 11445.50000   94.49890   43.10300    0.06580
 11446.00000   95.65590   58.07390    0.08760
 11446.50000   96.60260   63.85040    0.09550
 11447.00000   95.48060   60.68980    0.08610
 11447.50000   93.65740   47.15370    0.06620
 11448.00000   92.81590   30.91090    0.04940
 11448.50000   91.97450   27.97640    0.03740
 11449.00000   90.81740   25.94410    0.02930
 11449.50000   88.71380   24.81410    0.02560
 11450.00000   88.27210   24.54120    0.02480
 11450.50000   88.14490   24.58240    0.02520
 11451.00000   88.07140   25.70460    0.03060
 11451.50000   87.77050   26.37800    0.03460
 11452.00000   87.56090   25.69570    0.03420
 11452.50000   88.08810   26.14350    0.03340
 11453.00000   89.45650   25.91240    0.03310
 11453.50000   90.19380   24.78010    0.03340
 11454.00000   90.51040   23.19670    0.03570
 11454.50000   91.24770   22.51550    0.03940
 11455.00000   91.77470   23.63890    0.04320
 11455.50000   91.67060   24.76220    0.04510
 11456.00000   91.14570   25.43460    0.04280
 11456.50000   89.83900   26.10670    0.04020
 11457.00000   89.14910   27.00450    0.03900
 11457.50000   89.25550   27.68560    0.04280
 11458.00000   89.99290   29.14990    0.05300
 11458.50000   91.25610   32.01070    0.06220
 11459.00000   93.15050   34.09620    0.07260
 11459.50000   95.57070   36.90590    0.07550
 11460.00000   95.67700   36.45030    0.07850
 11460.50000   94.73130   36.67250    0.07700
 11461.00000   92.17480   36.21580    0.07890
 11461.50000   90.60480   36.66360    0.07700
 11462.00000   89.87610   33.95130    0.07060
 11462.50000   89.47650   31.01450    0.06160
 11463.00000   89.58270   28.07770    0.06190
 11463.50000   89.79410   29.20110    0.06530
 11464.00000   90.11070   31.00110    0.06720
 11464.50000   90.53250   31.90000    0.06150
 11465.00000   90.84910   25.35310    0.04310
 11465.50000   91.16570   20.16070    0.02850
 11466.00000   91.16670   15.19380    0.01640
 11466.50000   90.95740   15.16080    0.01640
 11467.00000   90.53770   16.76380    0.01680
 11467.50000   89.90760   21.27060    0.02050
 11468.00000   88.85680   29.40780    0.02960
 11468.50000   88.64750   33.25410    0.04010
 11469.00000   89.08430   36.01830    0.04570
 11469.50000   90.25090   36.59110    0.04830
 11470.00000   90.92290   35.68330    0.04910
 11470.50000   91.49180   33.64880    0.04800
 11471.00000   91.59810   32.06540    0.04610
 11471.50000   91.59910   31.38530    0.04530
 11472.00000   91.81050   34.31210    0.04830
 11472.50000   92.12710   36.78880    0.05550
 11473.00000   92.54890   39.04000    0.05880
 11473.50000   93.28620   41.06560    0.05880
 11474.00000   94.02350   42.64120    0.06040
 11474.50000   94.44530   40.83120    0.06430
 11475.00000   94.55150   38.79660    0.06830
 11475.50000   94.86810   39.24330    0.06790
 11476.00000   95.18470   40.81780    0.06630
 11476.50000   95.50130   41.26560    0.06480
 11477.00000   95.61670   41.71130    0.06180
 11477.50000   96.04440   42.38330    0.05960
 11478.00000   96.97720   43.28110    0.05960
 11478.50000   97.71450   44.89450    0.05990
 11479.00000   98.34670   46.65490    0.06220
 11479.50000   98.45290   46.19930    0.06140
 11480.00000   98.34870   43.71370    0.05690
 11480.50000   97.61350   40.55130    0.05050
 11481.00000   96.03680   39.19350    0.04680
 11481.50000   94.88080   38.51230    0.04710
 11482.00000   94.14550   39.63680    0.05360
 11482.50000   93.93590   39.18010    0.05620
 11483.00000   95.93570   39.85350    0.05520
 11483.50000   96.77820   39.17120    0.05130
 11484.00000   98.04150   37.81340    0.04900
 11484.50000   98.67360   38.03450    0.05050
 11485.00000   98.77980   41.41350    0.05350
 11485.50000   98.55370   44.11580    0.04940
 11486.00000   97.83550   43.87150    0.04300
 11486.50000   96.78470   41.11050    0.03690
 11487.00000   95.10280   38.66030    0.03390
 11487.50000   94.47250   38.45880    0.03240
 11488.00000   94.89450   44.31790    0.03160
 11488.50000   97.52510   48.59920    0.03880
 11489.00000  105.30980   51.52710    0.05610
 11489.50000  106.78340   52.87710    0.10310
 11490.00000  104.57560   47.90910    0.13950
 11490.50000   99.31740   41.36330    0.09220
 11491.00000   88.48450   36.84760    0.05120
 11491.50000   84.90930   32.33180    0.02980
 11492.00000   86.59320   30.07170    0.02680
 11492.50000   90.42600   30.29280    0.03500
 11493.00000   95.32650   36.37860    0.06400
 11493.50000  100.82460   46.97560    0.09180
 11494.00000  109.31740   55.76820    0.13950
 11494.50000  118.36430   58.69600    0.18910
 11495.00000  126.99040   60.94720    0.21700
 11495.50000  135.93210   63.19840    0.22020
 11496.00000  139.61450   66.80300    0.23240
 11496.50000  141.08820   67.24960    0.25080
 11497.00000  141.82550   65.41900    0.24740
 11497.50000  142.35240   63.60850    0.24140
 11498.00000  142.77420   63.17610    0.24930
 11498.50000  143.19600   64.74950    0.26920
 11499.00000  143.61780   64.29390    0.27440
 11499.50000  143.82920   63.61270    0.26320
 11500.00000  144.04060   64.56010    0.25980
 11500.50000  144.14680   68.11550    0.27460
 11501.00000  144.35820   70.14230    0.29490
 11501.50000  144.56990   70.13670    0.30790
 11502.00000  144.88640   70.80900    0.32370
 11502.50000   -9999.25   71.93590    0.33790
 11503.00000   -9999.25   73.30090    0.36610
 11503.50000   -9999.25   73.50240    0.38490
 11504.00000   -9999.25   69.43670    0.39390
 11504.50000   -9999.25   70.78570    0.40930
 11505.00000   -9999.25   74.39030    0.39320
 11505.50000   -9999.25   75.96480    0.38990
 11506.00000   -9999.25   76.63820    0.40550
 11506.50000   -9999.25   75.73040    0.40890
 11507.00000   -9999.25   76.62820    0.40540
 11507.50000   -9999.25   78.42940    0.39210
 11508.00000   -9999.25   75.26590    0.34310
 11508.50000   -9999.25   69.62240    0.32580
 11509.00000   -9999.25   65.33230    0.31750
 11509.50000   -9999.25   64.42560    0.31900
 11510.00000   -9999.25   65.33760    0.35700
 11510.50000   -9999.25   66.22120    0.37390
 11511.00000   -9999.25   64.18560    0.35130
 11511.50000   -9999.25   60.34660    0.30550
 11512.00000   -9999.25   59.44100    0.21750
 11512.50000   -9999.25   61.01550    0.16670
 11513.00000   -9999.25   57.85210    0.15510
 11513.50000   -9999.25   47.02060    0.14040
 11514.00000   -9999.25   33.25670    0.08440
 11514.50000   -9999.25   28.28990    0.07160
 11515.00000   -9999.25   27.38430    0.08440
 11515.50000   -9999.25   32.79230    0.11180
 11516.00000   -9999.25   44.29160    0.13700
 11516.50000   -9999.25   60.30220    0.22120
 11517.00000   -9999.25   74.55120    0.27460
 11517.50000   -9999.25   77.66180    0.32270
 11518.00000   -9999.25   74.02660    0.29970
 11518.50000   -9999.25   66.37360    0.27080
 11519.00000   -9999.25   61.63230    0.24290
 11519.50000   -9999.25   57.11660    0.22640
 11520.00000   -9999.25   49.89410    0.20200
 11520.50000   -9999.25   38.83710    0.12190
 11521.00000   -9999.25   33.87020    0.07520
 11521.50000   -9999.25   29.35450    0.06550
 11522.00000   -9999.25   28.67340    0.06170
 11522.50000   -9999.25   28.62800    0.06500
 11523.00000   -9999.25   30.92020    0.08650
 11523.50000   -9999.25   44.90070    0.12300
 11524.00000   -9999.25   57.67100    0.18350
 11524.50000   -9999.25   70.55230    0.25300
 11525.00000   -9999.25   75.07520    0.29250
 11525.50000   -9999.25   76.91300    0.28270
 11526.00000   -9999.25   73.97520    0.25070
 11526.50000   -9999.25   69.00830    0.17220
 11527.00000   -9999.25   44.41740    0.11460
 11527.50000   -9999.25   29.07470    0.06160
 11528.00000   -9999.25   24.10780    0.04620
 11528.50000   -9999.25   31.77260    0.04730
 11529.00000   -9999.25   43.04630    0.05970
 11529.50000   -9999.25   53.41780    0.08230
 11530.00000   -9999.25   61.98480    0.13680
 11530.50000  113.61920   62.50320    0.14280
