~Version ---------------------------------------------------
VERS.   2.0 : CWLS log ASCII Standard -VERSION 2.0
WRAP.    NO : One line per depth step
DLM . SPACE : Column Data Section Delimiter
~Well ------------------------------------------------------
STRT .F               10400.0 : START DEPTH
STOP .F               12224.0 : STOP DEPTH
STEP .F                   0.5 : STEP
NULL .               -9999.25 : NULL VALUE
COMP .                        : COMPANY
WELL .                        : WELL
FLD  .                        : FIELD
LOC  .                        : LOCATION
PROV .                        : PROVINCE
CNTY .                        : COUNTY
STAT .                        : STATE
CTRY .                        : COUNTRY
SRVC .                        : SERVICE COMPANY
DATE .                        : DATE
UWI  .                        : UNIQUE WELL ID
API  .                        : API NUMBER
SLAT .WGS84 2.742791678076003 : SURFACE LATITUDE
SLON .WGS84 8.884144083726994 : SURFACE LONGITUDE
DATUM.F               3204.42 : DEPTH DATUM ELEV
~Curve Information -----------------------------------------
DEPT.F     : 
DTSM.US/F  : SHEAR-WAVE INTERVAL TRANSIT TIME DELTA-T
GRS .GAPI  : GAMMA RAY FROM SONIC LOG
TNPH.DEC   : THERMAL NEUTRON POROSITY
~Params ----------------------------------------------------
~Other -----------------------------------------------------
~ASCII -----------------------------------------------------
# ...
 12053.00000  146.15070   22.95240    0.06130
 12053.50000  146.15170   21.13890    0.06540
 12054.00000  146.15270   20.22770    0.06950
 12054.50000  146.15380   18.63980    0.07290
 12055.00000  146.04940   19.75870    0.07590
 12055.50000  145.73510   23.35880    0.07860
 12056.00000  144.99990   26.05660    0.08270
 12056.50000  143.94910   25.82210    0.09100
 12057.00000  143.00340   26.48990    0.08680
 12057.50000  142.05450   28.96220    0.07820
 12058.00000  141.41950   30.75770    0.07110
 12058.50000  140.78440   30.52320    0.07590
 12059.00000  140.37800   26.22860    0.07590
 12059.50000  140.16870   24.18950    0.06990
 12060.00000  139.74930   27.69180    0.06350
 12060.50000  139.01400   33.55810    0.05900
 12061.00000  138.27870   39.30540    0.06710
 12061.50000  138.06920   46.64940    0.08150
 12062.00000  140.06900   61.81180    0.12370
 12062.50000  142.17370   73.75770    0.18870
 12063.00000  143.12140   78.26010    0.27710
 12063.50000  144.17430   85.24360    0.40680
 12064.00000  144.38570   93.35500    0.41580
 12064.50000  144.17630  100.11290    0.39440
 12065.00000  143.75670   99.65290    0.35000
 12065.50000  142.91620   98.29280    0.33870
 12066.00000  141.44470  103.92070    0.33760
 12066.50000  139.76280  102.78400    0.35380
 12067.00000  137.87050   96.68480    0.35980
 12067.50000  136.71450   91.03670    0.34550
 12068.00000  135.76720   87.41880    0.32820
 12068.50000  135.33600   90.11660    0.32590
 12069.00000  134.26590   82.66410    0.30980
 12069.50000  132.97380   67.54230    0.27560
 12070.00000  130.82970   47.90930    0.16430
 12070.50000  128.51660   49.25380    0.12890
 12071.00000  123.04810   63.90650    0.12780
 12071.50000  118.21070  100.21330    0.15750
 12072.00000  115.26660  111.70890    0.19550
 12072.50000  109.69290   99.51730    0.17890
 12073.00000  102.64660   87.55340    0.12210
 12073.50000   98.44020   73.10840    0.08790
 12074.00000   95.81170   65.88140    0.08980
 12074.50000   95.60230   54.81990    0.08820
 12075.00000   95.60340   49.62290    0.08060
 12075.50000   95.70960   46.23050    0.06990
 12076.00000   95.92100   47.12390    0.06730
 12076.50000   96.34280   50.72390    0.07560
 12077.00000   96.65940   52.29400    0.08080
 12077.50000   96.66040   52.51280    0.08420
 12078.00000   96.66150   52.50160    0.08310
 12078.50000   96.24180   51.59040    0.07780
 12079.00000   95.60340   48.64920    0.06730
 12079.50000   94.54260   41.42220    0.05450
 12080.00000   93.46760   34.42070    0.04210
 12080.50000   92.52610   32.38170    0.04100
 12081.00000   91.30360   31.01940    0.04850
 12081.50000   89.41130   31.01050    0.05450
 12082.00000   87.41390   29.87010    0.05300
 12082.50000   86.57340   29.18800    0.05110
 12083.00000   85.73300   30.77740    0.04920
 12083.50000   84.68220   30.07250    0.04740
 12084.00000   84.26220   30.96580    0.04620
 12084.50000   84.15810   28.02230    0.04470
 12085.00000   84.36980   28.91560    0.04320
 12085.50000   85.52780   31.38780    0.04290
 12086.00000   87.21180   36.79240    0.05340
 12086.50000   93.94460   54.15190    0.07300
 12087.00000   99.83600   71.51140    0.09230
 12087.50000  102.36140   91.80320    0.10660
 12088.00000  103.20390   99.01230    0.11260
 12088.50000  103.41530  101.71240    0.12320
 12089.00000  102.78530   93.80650    0.12910
 12089.50000  101.83970   78.23360    0.13460
 12090.00000  101.95930   68.29990    0.14850
 12090.50000  102.71830   69.19320    0.16280
 12091.00000  103.66430   73.01880    0.17520
 12091.50000  103.84230   66.91960    0.16920
 12092.00000  103.00210   61.27160    0.13120
 12092.50000   99.84770   55.62360    0.09960
 12093.00000   97.74500   58.77250    0.09140
 12093.50000  101.53270   63.04930    0.10260
 12094.00000  107.95000   74.09300    0.13530
 12094.50000  115.62940   82.65550    0.17410
 12095.00000  132.14440   82.64650    0.21470
 12095.50000  139.73900   80.14750    0.26650
 12096.00000  145.92550   77.44060    0.28870
 12096.50000  155.40640   78.16160    0.31170
 12097.00000  160.70340   81.60700    0.29590
 12097.50000  166.05810   86.37930    0.29660
 12098.00000  168.01850   90.38950    0.30260
 12098.50000  169.80770   91.60650    0.33350
 12099.00000  170.22940   91.82310    0.35230
 12099.50000  170.23050   94.51870    0.36660
 12100.00000  169.70560   96.54210    0.36320
 12100.50000  167.28740   94.47430    0.34700
 12101.00000  163.81730   91.29780    0.31620
 12101.50000  159.61100   85.24880    0.29850
 12102.00000  156.14090   81.63530    0.24970
 12102.50000  153.69750   79.60080    0.25010
 12103.00000  151.51240   78.91970    0.25410
 12103.50000  148.36070   82.52430    0.27000
 12104.00000  146.25800   88.83560    0.27980
 12104.50000  145.73310   91.98910    0.28090
 12105.00000  145.31340   87.47340    0.26740
 12105.50000  145.41970   82.73210    0.23580
 12106.00000  147.62960   77.76530    0.23280
 12106.50000  152.15350   73.23890    0.22460
 12107.00000  158.78110   76.20450    0.26440
 12107.50000  161.72730   80.82380    0.29380
 12108.00000  164.98910   86.96680    0.30920
 12108.50000  166.46270   85.41120    0.30360
 12109.00000  167.52060   84.05340    0.28030
 12109.50000  167.72700   82.69560    0.25440
 12110.00000  167.20230   80.20990    0.21640
 12110.50000  164.67890   74.56640    0.16870
 12111.00000  160.99850   71.85520    0.14200
 12111.50000  154.26780   71.17520    0.13970
 12112.00000  145.11780   77.03430    0.16980
 12112.50000  137.12480   84.69910    0.20590
 12113.00000  132.91850   90.33370    0.22740
 12113.50000  127.34480   86.72030    0.22060
 12114.00000  124.08510   76.70330    0.22360
 12114.50000  125.34830   72.80870    0.20960
 12115.00000  128.82040   71.59420    0.20330
 12115.50000  133.59950   77.90450    0.20560
 12116.00000  139.17570   80.38120    0.21310
 12116.50000  146.07400   82.85800    0.25300
 12117.00000  151.01870   85.56030    0.27110
 12117.50000  156.69960   89.61610    0.28160
 12118.00000  160.90800   90.51500    0.29590
 12118.50000  161.32950   89.60720    0.29930
 12119.00000  155.23020   88.02380    0.29070
 12119.50000  141.87280   85.08710    0.24930
 12120.00000  132.72280   77.18790    0.18690
 12120.50000  111.68700   71.54440    0.14600
 12121.00000  102.53710   70.84530    0.13670
 12121.50000   99.69810   69.66230    0.12380
 12122.00000   98.42860   66.56760    0.10730
 12122.50000   97.80690   63.63080    0.10160
 12123.00000   97.91340   63.40190    0.10090
 12123.50000   98.65070   64.97530    0.11630
 12124.00000  100.12430   64.29420    0.13100
 12124.50000  102.01860   63.61310    0.13330
 12125.00000  103.28190   63.83420    0.13400
 12125.50000  103.91400   65.85990    0.14080
 12126.00000  104.33580   66.75880    0.15470
 12126.50000  104.33680   64.04650    0.16420
 12127.00000  103.49640   63.13980    0.16220
 12127.50000  102.44560   61.76760    0.13670
 12128.00000  101.92070   59.70080    0.12130
 12128.50000  101.71130   59.29190    0.11720
 12129.00000  102.72970   61.09090    0.13190
 12129.50000  106.02620   62.89210    0.14770
 12130.00000  109.49830   61.08200    0.16990
 12130.50000  111.28750   62.88210    0.17780
 12131.00000  111.81440   64.68220    0.17850
 12131.50000  111.81550   64.67780    0.17210
 12132.00000  111.71100   63.99670    0.16880
 12132.50000  111.18640   63.09110    0.16840
 12133.00000  110.66150   64.66450    0.16850
 12133.50000  110.45190   67.14130    0.16730
 12134.00000  110.03250   68.49020    0.16540
 12134.50000  109.29720   67.24330    0.17030
 12135.00000  109.61720   61.40210    0.17640
 12135.50000  110.85370   59.22770    0.18540
 12136.00000  112.35090   61.02780    0.18050
 12136.50000  115.29710   62.37670    0.17380
 12137.00000  117.29660   61.47000    0.16930
 12137.50000  118.34950   62.14230    0.17050
 12138.00000  118.66610   60.55890    0.17040
 12138.50000  118.14120   56.04320    0.17870
 12139.00000  117.19560   55.36210    0.16790
 12139.50000  116.35510   55.13210    0.16560
