~Version ---------------------------------------------------
VERS.   2.0 : CWLS log ASCII Standard -VERSION 2.0
WRAP.    NO : One line per depth step
DLM . SPACE : Column Data Section Delimiter
~Well ------------------------------------------------------
STRT .F               10400.0 : START DEPTH
STOP .F               12224.0 : STOP DEPTH
STEP .F                   0.5 : STEP
NULL .               -9999.25 : NULL VALUE
COMP .                        : COMPANY
WELL .                        : WELL
FLD  .                        : FIELD
LOC  .                        : LOCATION
PROV .                        : PROVINCE
CNTY .                        : COUNTY
STAT .                        : STATE
CTRY .                        : COUNTRY
SRVC .                        : SERVICE COMPANY
DATE .                        : DATE
UWI  .                        : UNIQUE WELL ID
API  .                        : API NUMBER
SLAT .WGS84 2.742791678076003 : SURFACE LATITUDE
SLON .WGS84 8.884144083726994 : SURFACE LONGITUDE
DATUM.F               3204.42 : DEPTH DATUM ELEV
~Curve Information -----------------------------------------
DEPT.F     : 
DTSM.US/F  : SHEAR-WAVE INTERVAL TRANSIT TIME DELTA-T
GRS .GAPI  : GAMMA RAY FROM SONIC LOG
TNPH.DEC   : THERMAL NEUTRON POROSITY
~Params ----------------------------------------------------
~Other -----------------------------------------------------
~ASCII -----------------------------------------------------
# ...
 10835.00000   97.05470   27.40960    0.00680
 10835.50000   97.78990   25.68360    0.00860
 10836.00000   98.73560   24.32360    0.01130
 10836.50000   99.78640   24.76810    0.01470
 10837.00000  100.52160   25.88930    0.01770
 10837.50000  101.25690   27.68710    0.02090
 10838.00000  102.20250   28.58270    0.02630
 10838.50000  103.25330   31.28290    0.03420
 10839.00000  106.72340   38.04310    0.05230
 10839.50000  114.43000   47.51020    0.08420
 10840.00000  114.61010   61.71410    0.10410
 10840.50000  111.24290   63.99180    0.10570
 10841.00000  108.71750   54.19630    0.05370
 10841.50000  100.40690   36.64380    0.03010
 10842.00000   95.77780   27.07930    0.01730
 10842.50000   94.61970   19.94980    0.01950
 10843.00000   94.30310   17.68760    0.01800
 10843.50000   94.51250   17.90650    0.01620
 10844.00000   96.19440   18.80210    0.01540
 10844.50000   98.50740   19.02270    0.01500
 10845.00000  100.50490   18.11210    0.01500
 10845.50000  102.29200   17.87990    0.01800
 10846.00000  103.03890   18.32440    0.02480
 10846.50000  103.89580   22.60350    0.03680
 10847.00000  105.75970   33.42390    0.06240
 10847.50000  110.17640   46.49990    0.08610
 10848.00000  116.80190   57.83410    0.13520
 10848.50000  127.21410   59.79490    0.20030
 10849.00000  131.21010   57.59320    0.31780
 10849.50000  131.94540   50.08070    0.23610
 10850.00000  132.26010   44.61980    0.17390
 10850.50000  130.99770   39.00970    0.06970
 10851.00000  125.73850   40.57770    0.06320
 10851.50000  120.37420   44.85240    0.07820
 10852.00000  113.26790   49.80380    0.08570
 10852.50000  108.49850   53.85300    0.09210
 10853.00000  105.12250   52.03750    0.09480
 10853.50000  103.54470   47.43860    0.09660
 10854.00000  103.01880   44.49930    0.09400
 10854.50000  102.70320   42.75360    0.09140
 10855.00000  102.28250   40.71260    0.08540
 10855.50000  102.17730   38.89700    0.06400
 10856.00000  103.22910   36.40490    0.05600
 10856.50000  104.59650   37.74720    0.05530
 10857.00000  107.01580   42.24750    0.06320
 10857.50000  111.15870   45.39440    0.07340
 10858.00000  113.94950   47.41350    0.08310
 10858.50000  123.31930   47.28320    0.08690
 10859.00000  128.26300   41.97520    0.08350
 10859.50000  132.36510   38.12960    0.07980
 10860.00000  134.67920   36.76530    0.07490
 10860.50000  135.52070   38.10770    0.07340
 10861.00000  131.73400   38.77330    0.07640
 10861.50000  130.15630   39.89020    0.07260
 10862.00000  129.10440   42.13480    0.07070
 10862.50000  128.57850   43.02630    0.07000
 10863.00000  129.36490   42.56390    0.07040
 10863.50000  132.15480   43.03100    0.07490
 10864.00000  134.67920   44.79490    0.08240
 10864.50000  137.72950   47.04230    0.09110
 10865.00000  138.78140   43.19390    0.09150
 10865.50000  140.14880   38.67160    0.08880
 10866.00000  141.41100   37.53280    0.08880
 10866.50000  142.56800   42.70980    0.09000
 10867.00000  143.40950   49.01460    0.10160
 10867.50000  143.72500   53.51490    0.11330
 10868.00000  143.72170   51.14710    0.11930
 10868.50000   -9999.25   44.55230    0.09860
 10869.00000   -9999.25   43.78270    0.09070
 10869.50000   -9999.25   51.88920    0.08960
 10870.00000   -9999.25   61.35190    0.11030
 10870.50000   -9999.25   63.59930    0.14190
 10871.00000   -9999.25   59.29980    0.15960
 10871.50000   -9999.25   57.48440    0.15960
 10872.00000   -9999.25   55.44330    0.14640
 10872.50000   -9999.25   51.82330    0.13810
 10873.00000   -9999.25   44.37560    0.11410
 10873.50000   -9999.25   33.07670    0.09030
 10874.00000   97.44400   29.45670    0.05230
 10874.50000   95.55070   30.34800    0.03400
 10875.00000   93.44700   33.94600    0.03250
 10875.50000   93.01630   36.86730    0.03290
 10876.00000   92.71070   34.60070    0.03290
 10876.50000   93.02630   30.75510    0.03180
 10877.00000   94.81440   26.90950    0.03030
 10877.50000   96.39220   25.54510    0.02840
 10878.00000   96.91810   26.26470    0.02650
 10878.50000   96.18180   27.77610    0.02580
 10879.00000   94.91960   27.99340    0.02620
 10879.50000   93.55220   28.20520    0.02700
 10880.00000   93.23670   29.99870    0.02920
 10880.50000   94.50640   31.56670    0.03140
 10881.00000   95.79900   31.10460    0.03410
 10881.50000   98.07510   30.57130    0.03780
 10882.00000  100.17880   36.72160    0.04390
 10882.50000  100.91510   42.16740    0.05330
 10883.00000  101.12550   44.36880    0.05140
 10883.50000  100.28400   40.97160    0.04420
 10884.00000   98.81140   33.96820    0.03780
 10884.50000   97.16560   29.22030    0.03370
 10885.00000   95.65590   28.08150    0.03180
 10885.50000   95.55070   27.84770    0.03060
 10886.00000   95.55070   27.38280    0.02730
 10886.50000   95.13000   26.69520    0.02320
 10887.00000   94.39370   26.68420    0.02170
 10887.50000   93.65740   29.76900    0.02210
 10888.00000   93.99310   38.16320    0.02890
 10888.50000   98.70620   45.59580    0.04350
 10889.00000  103.86030   48.51710    0.05820
 10889.50000  107.22610   50.31070    0.07920
 10890.00000  110.48690   48.49510    0.08860
 10890.50000  108.06760   42.84500    0.07680
 10891.00000  102.38770   31.55590    0.04670
 10891.50000   97.23370   27.93580    0.02930
 10892.00000   93.97300   25.65830    0.02480
 10892.50000   92.29000   23.35170    0.02360
 10893.00000   91.33830   21.35880    0.02360
 10893.50000   90.80480   22.02450    0.02400
 10894.00000   90.71220   27.87810    0.02440
 10894.50000   91.02780   31.02500    0.02670
 10895.00000   91.34340   33.72080    0.03040
 10895.50000   91.86930   37.32160    0.03490
 10896.00000   92.50040   35.50330    0.04090
 10896.50000   93.13150   33.44420    0.04060
 10897.00000   93.97300   32.09600    0.04020
 10897.50000   95.34030   32.53620    0.04210
 10898.00000   96.07660   32.75350    0.04550
 10898.50000   97.48490   31.38640    0.05220
 10899.00000   99.48800   33.40540    0.05600
 10899.50000  100.59950   41.96590    0.05980
 10900.00000  101.06880   47.59400    0.06310
 10900.50000  101.65140   47.81140    0.06720
 10901.00000  101.63890   42.38680    0.07030
 10901.50000  101.21150   38.09220    0.06730
 10902.00000  100.28400   36.50430    0.05830
 10902.50000   99.86330   32.88640    0.05300
 10903.00000   99.44250   28.14070    0.04890
 10903.50000   98.70620   24.52280    0.04210
 10904.00000   97.75960   23.83940    0.03570
 10904.50000   97.54920   28.33960    0.03730
 10905.00000   98.91660   31.48860    0.04850
 10905.50000  101.12550   36.21650    0.06880
 10906.00000  105.12250   45.49900    0.10310
 10906.50000  109.43500   47.47700    0.11400
 10907.00000  109.85580   43.06380    0.10570
 10907.50000  109.22460   39.33660    0.07430
 10908.00000  108.48840   35.49320    0.05930
 10908.50000  107.64440   33.22860    0.06010
 10909.00000  108.09270   33.21970    0.07600
 10909.50000  109.94160   35.24090    0.09180
 10910.00000  113.11650   39.29220    0.09970
 10910.50000  114.90460   42.21560    0.10610
 10911.00000  116.06160   41.30450    0.10840
 10911.50000  115.64090   41.07000    0.10720
 10912.00000  115.00980   41.73780    0.10650
 10912.50000  114.37870   43.53350    0.10540
 10913.00000  113.74760   42.62230    0.09820
 10913.50000  113.85270   40.80890    0.09480
 10914.00000  114.69420   39.89770    0.09820
 10914.50000  114.58900   40.34000    0.10200
 10915.00000  113.95790   39.33730    0.09900
 10915.50000  112.90610   37.61320    0.09070
 10916.00000  111.32830   37.15540    0.08250
 10916.50000  110.27650   37.82330    0.07640
 10917.00000  109.96090   40.97000    0.08130
 10917.50000  110.40340   45.92360    0.09220
 10918.00000  112.53270   49.52370    0.10320
 10918.50000  114.37870   51.99600    0.10780
 10919.00000  114.79940   52.43820    0.11560
 10919.50000  114.79860   51.30150    0.11590
 10920.00000  113.16820   48.81140    0.09410
 10920.50000  108.14440   43.38900    0.07080
 10921.00000  104.07060   36.83880    0.05170
 10921.50000   99.44250   33.22090    0.04640
