~Version ---------------------------------------------------
VERS.   2.0 : CWLS log ASCII Standard -VERSION 2.0
WRAP.    NO : One line per depth step
DLM . SPACE : Column Data Section Delimiter
~Well ------------------------------------------------------
STRT .F               10400.0 : START DEPTH
STOP .F               12224.0 : STOP DEPTH
STEP .F                   0.5 : STEP
NULL .               -9999.25 : NULL VALUE
COMP .                        : COMPANY
WELL .                        : WELL
FLD  .                        : FIELD
LOC  .                        : LOCATION
PROV .                        : PROVINCE
CNTY .                        : COUNTY
STAT .                        : STATE
CTRY .                        : COUNTRY
SRVC .                        : SERVICE COMPANY
DATE .                        : DATE
UWI  .                        : UNIQUE WELL ID
API  .                        : API NUMBER
SLAT .WGS84 2.742791678076003 : SURFACE LATITUDE
SLON .WGS84 8.884144083726994 : SURFACE LONGITUDE
DATUM.F               3204.42 : DEPTH DATUM ELEV
~Curve Information -----------------------------------------
DEPT.F     : 
DTSM.US/F  : SHEAR-WAVE INTERVAL TRANSIT TIME DELTA-T
GRS .GAPI  : GAMMA RAY FROM SONIC LOG
TNPH.DEC   : THERMAL NEUTRON POROSITY
~Params ----------------------------------------------------
~Other -----------------------------------------------------
~ASCII -----------------------------------------------------
# ...
 11531.00000  113.29910   55.87320    0.12700
 11531.50000  111.89870   49.67730    0.10740
 11532.00000  109.79520   44.04530    0.08790
 11532.50000  102.14530   42.33750    0.07060
 11533.00000   98.04110   43.91310    0.05880
 11533.50000   93.83170   37.59180    0.05270
 11534.00000   92.25180   30.82040    0.04650
 11534.50000   91.51350   33.74830    0.04310
 11535.00000   92.66840   52.91680    0.05360
 11535.50000   94.98040   64.86730    0.06190
 11536.00000   96.66130   59.22370    0.04830
 11536.50000   97.08050   39.36970    0.03520
 11537.00000   97.10970   29.66600    0.02650
 11537.50000   96.33950   27.63150    0.02420
 11538.00000   96.02190   26.72480    0.02420
 11538.50000   96.23020   25.36700    0.02570
 11539.00000   95.46510   27.19560    0.03440
 11539.50000   94.12190   28.51490    0.04120
 11540.00000   92.64730   26.93150    0.04350
 11540.50000   90.75190   29.63390    0.04940
 11541.00000   91.17050   38.42640    0.06740
 11541.50000   93.90330   49.47460    0.09340
 11542.00000   95.37380   63.82820    0.14180
 11542.50000   96.00280   77.66090    0.19370
 11543.00000   96.00070   81.26660    0.20650
 11543.50000   95.57790   72.68960    0.16660
 11544.00000   94.62920   60.27910    0.10610
 11544.50000   93.89090   42.90630    0.06930
 11545.00000   93.25770   35.00710    0.05230
 11545.50000   93.04520   31.39370    0.05120
 11546.00000   93.38200   35.22380    0.05230
 11546.50000   94.81580   41.53520    0.05790
 11547.00000   97.56140   47.62100    0.08580
 11547.50000  100.92530   51.90220    0.09780
 11548.00000  104.49950   54.15340    0.11330
 11548.50000  106.49590   52.29020    0.13610
 11549.00000  107.96640   51.88890    0.14320
 11549.50000  109.54210   54.59020    0.14360
 11550.00000  111.86880   58.64700    0.16240
 11550.50000  112.59640   58.18830    0.16160
 11551.00000  113.01130   57.95610    0.15450
 11551.50000  109.32980   57.27270    0.12900
 11552.00000  105.54320   55.91270    0.10790
 11552.50000  102.17730   51.55530    0.10570
 11553.00000   99.96840   44.49570    0.10720
 11553.50000   97.86480   40.84190    0.10340
 11554.00000   96.18180   34.68150    0.08840
 11554.50000   95.55070   31.96810    0.08540
 11555.00000   95.13000   33.76590    0.07970
 11555.50000   94.70920   36.46770    0.07600
 11556.00000   93.97300   36.23380    0.07640
 11556.50000   93.43860   33.74600    0.07640
 11557.00000   93.23670   30.58140    0.07370
 11557.50000   93.44700   29.22140    0.07030
 11558.00000   94.07810   29.17920    0.07040
 11558.50000   95.02480   30.56150    0.08050
 11559.00000   98.07510   34.38950    0.10190
 11559.50000  100.07360   38.74000    0.11380
 11560.00000  101.02030   46.12320    0.11740
 11560.50000  101.33580   50.83400    0.09260
 11561.00000  100.28400   48.12060    0.05950
 11561.50000   96.07660   41.34710    0.04330
 11562.00000   94.60410   36.60360    0.03800
 11562.50000   93.75340   32.53680    0.03690
 11563.00000   93.23670   37.04140    0.03610
 11563.50000   93.13150   45.15500    0.03470
 11564.00000   93.13150   46.95460    0.03360
 11564.50000   93.34190   40.63050    0.03320
 11565.00000   94.18330   31.37570    0.03580
 11565.50000   96.18180   25.95550    0.04520
 11566.00000  102.28250   31.14950    0.06820
 11566.50000  106.06910   37.33850    0.09860
 11567.00000  108.90910   43.52960    0.13060
 11567.50000  109.43500   42.16790    0.14860
 11568.00000  109.01430   39.00340    0.13020
 11568.50000  107.62160   34.48540    0.09980
 11569.00000  105.82260   30.86980    0.07270
 11569.50000  101.12550   28.38190    0.05840
 11570.00000   98.39070   28.82640    0.05690
 11570.50000   95.97150   30.84980    0.05690
 11571.00000   92.92110   34.22670    0.06900
 11571.50000   90.08110   37.41940    0.06930
 11572.00000   88.18780   35.56670    0.06820
 11572.50000   87.87230   34.43230    0.07620
 11573.00000   88.60860   34.65120    0.08810
 11573.50000   90.60710   32.76470    0.08590
 11574.00000   92.92110   30.57610    0.07650
 11574.50000   93.77180   30.34390    0.06070
 11575.00000   94.20100   28.75830    0.05060
 11575.50000   93.97300   26.94710    0.04300
 11576.00000   93.23670   26.48940    0.03850
 11576.50000   92.50040   27.15940    0.03740
 11577.00000   92.39520   29.40840    0.03590
 11577.50000   92.81590   30.75510    0.03480
 11578.00000   93.02630   31.20130    0.03250
 11578.50000   93.13150   30.51630    0.03220
 11579.00000   93.55220   25.99840    0.03100
 11579.50000   94.07810   22.83380    0.02910
 11580.00000   94.39370   24.22340    0.02840
 11580.50000   95.36560   26.97250    0.03260
 11581.00000   97.05830   25.51900    0.03290
 11581.50000   97.23370   19.87330    0.03180
 11582.00000   97.02330   17.15980    0.02840
 11582.50000   96.81290   19.40880    0.02810
 11583.00000   96.91810   27.07140    0.03370
 11583.50000   97.23370   35.86170    0.04690
 11584.00000   96.60260   47.13330    0.06270
 11584.50000   95.34030   43.74320    0.06230
 11585.00000   94.39370   37.87190    0.04350
 11585.50000   93.65740   32.45170    0.03000
 11586.00000   92.92110   27.93370    0.02580
 11586.50000   92.16650   25.20960    0.02620
 11587.00000   91.34340   23.61310    0.02660
 11587.50000   91.44850   23.89100    0.02740
 11588.00000   91.97450   26.32660    0.02850
 11588.50000   92.60560   31.05680    0.03190
 11589.00000   93.13150   36.46360    0.04430
 11589.50000   93.55220   40.51720    0.06160
 11590.00000   93.86780   41.64000    0.09020
 11590.50000   94.07810   39.60160    0.09620
 11591.00000   93.86780   36.66260    0.08870
 11591.50000   93.23670   33.94920    0.07930
 11592.00000   92.39520   31.46140    0.07480
 11592.50000   91.01100   26.94340    0.06950
 11593.00000   90.39670   24.68120    0.06840
 11593.50000   91.02780   26.98380    0.07050
 11594.00000   93.65740   33.33220    0.08230
 11594.50000   99.44250   48.56930    0.11240
 11595.00000  107.22610   51.94620    0.13380
 11595.50000  110.90760   50.36060    0.14130
 11596.00000  111.22310   45.61710    0.13310
 11596.50000  108.90910   42.45250    0.12550
 11597.00000  108.29550   42.67140    0.12100
 11597.50000  113.01130   45.59710    0.12180
 11598.00000  119.74300   52.58300    0.14130
 11598.50000  126.33790   59.79440    0.16090
 11599.00000  129.44710   65.42680    0.16950
 11599.50000  132.36510   68.80380    0.17230
 11600.00000  131.39960   67.66920    0.11200
 11600.50000  128.60490   57.28370    0.07410
 11601.00000  120.79490   49.38010    0.04960
 11601.50000  113.01130   35.61180    0.04250
 11602.00000  106.91060   28.15940    0.04510
 11602.50000  100.46410   24.09020    0.04320
 11603.00000   96.73630   23.81810    0.04050
 11603.50000   93.79160   20.91260    0.03570
 11604.00000   94.28850   18.42260    0.03230
 11604.50000   95.34030   17.96480    0.03530
 11605.00000   95.76110   21.33720    0.03830
 11605.50000   95.76110   22.68180    0.03530
 11606.00000   95.44550   21.99630    0.03380
 11606.50000   93.86780   20.18290    0.03530
 11607.00000   93.02630   18.82070    0.03790
 11607.50000   92.60560   18.81180    0.04050
 11608.00000   92.48350   19.25410    0.04130
 11608.50000   93.65740   19.71590    0.04240
 11609.00000   96.07660   20.66470    0.04520
 11609.50000   99.29700   24.63890    0.05630
 11610.00000  104.23220   32.97600    0.08230
 11610.50000  110.06610   55.97470    0.13450
 11611.00000  117.84970   69.95080    0.16760
 11611.50000  125.42300   69.03970    0.20220
 11612.00000  131.52370   71.06090    0.24050
 11612.50000  137.41400   70.37540    0.23600
 11613.00000  140.56950   74.65230    0.23790
 11613.50000  144.56650   84.79380    0.25100
 11614.00000  146.88050   98.09320    0.29350
 11614.50000  146.67020  102.59570    0.28790
 11615.00000  145.30280   95.32510    0.26000
 11615.50000  140.35910   73.92920    0.23860
 11616.00000  131.79750   59.03310    0.21720
 11616.50000  119.13370   50.67840    0.15180
 11617.00000  106.86850   47.96280    0.11040
 11617.50000  101.02030   45.47280    0.08300
