~Version ---------------------------------------------------
VERS.   2.0 : CWLS log ASCII Standard -VERSION 2.0
WRAP.    NO : One line per depth step
DLM . SPACE : Column Data Section Delimiter
~Well ------------------------------------------------------
STRT .F               10400.0 : START DEPTH
STOP .F               12224.0 : STOP DEPTH
STEP .F                   0.5 : STEP
NULL .               -9999.25 : NULL VALUE
COMP .                        : COMPANY
WELL .                        : WELL
FLD  .                        : FIELD
LOC  .                        : LOCATION
PROV .                        : PROVINCE
CNTY .                        : COUNTY
STAT .                        : STATE
CTRY .                        : COUNTRY
SRVC .                        : SERVICE COMPANY
DATE .                        : DATE
UWI  .                        : UNIQUE WELL ID
API  .                        : API NUMBER
SLAT .WGS84 2.742791678076003 : SURFACE LATITUDE
SLON .WGS84 8.884144083726994 : SURFACE LONGITUDE
DATUM.F               3204.42 : DEPTH DATUM ELEV
~Curve Information -----------------------------------------
DEPT.F     : 
DTSM.US/F  : SHEAR-WAVE INTERVAL TRANSIT TIME DELTA-T
GRS .GAPI  : GAMMA RAY FROM SONIC LOG
TNPH.DEC   : THERMAL NEUTRON POROSITY
~Params ----------------------------------------------------
~Other -----------------------------------------------------
~ASCII -----------------------------------------------------
# ...
 11879.00000   76.88900   24.06200    0.01540
 11879.50000   76.36240   23.82750    0.01500
 11880.00000   75.83920   24.04640    0.01580
 11880.50000   75.61740   25.16310    0.02140
 11881.00000   75.31540   25.38200    0.03050
 11881.50000   75.31670   27.40100    0.03570
 11882.00000   75.73840   28.97140    0.03270
 11882.50000   76.68610   28.73660    0.03050
 11883.00000   78.19270   26.92320    0.03120
 11883.50000   80.98740   26.01200    0.03500
 11884.00000   85.19980   29.74450    0.03910
 11884.50000   87.94500   43.10460    0.04320
 11885.00000   89.52380   66.25030    0.04510
 11885.50000   90.57670   81.46380    0.04360
 11886.00000   91.52440   82.81050    0.03680
 11886.50000   91.84100   67.91210    0.02890
 11887.00000   91.84200   48.50480    0.02440
 11887.50000   91.84310   35.41320    0.02290
 11888.00000   91.63350   29.76520    0.02180
 11888.50000   -9999.25   26.14730    0.02290
 11889.00000   -9999.25   24.09750    0.02410
 11889.50000   -9999.25   22.29470    0.02520
 11890.00000   -9999.25   24.21200    0.02710
 11890.50000   -9999.25   28.13960    0.03010
 11891.00000   -9999.25   30.83740    0.03310
 11891.50000   -9999.25   34.21200    0.03650
 11892.00000   -9999.25   35.78210    0.03950
 11892.50000   -9999.25   34.64540    0.04170
 11893.00000   -9999.25   29.44850    0.04250
 11893.50000   -9999.25   25.83060    0.04590
 11894.00000   -9999.25   23.11490    0.04850
 11894.50000   -9999.25   24.23610    0.04770
 11895.00000   -9999.25   24.90170    0.04580
 11895.50000   -9999.25   26.02060    0.04430
 11896.00000   -9999.25   27.59070    0.04400
 11896.50000   -9999.25   28.93510    0.04850
 11897.00000   -9999.25   27.57290    0.04920
 11897.50000   -9999.25   26.66170    0.04810
 11898.00000   -9999.25   27.16820    0.04740
 11898.50000   -9999.25   30.77180    0.04810
 11899.00000   -9999.25   31.59750    0.05000
 11899.50000   -9999.25   32.26300    0.05680
 11900.00000   -9999.25   35.16260    0.06090
 11900.50000   -9999.25   37.59340    0.05870
 11901.00000   -9999.25   39.68090    0.05380
 11901.50000   -9999.25   40.12320    0.05000
 11902.00000   -9999.25   41.24220    0.04700
 11902.50000   -9999.25   40.30540    0.04250
 11903.00000   -9999.25   37.16220    0.03800
 11903.50000   -9999.25   31.96540    0.03840
 11904.00000   -9999.25   26.99410    0.03910
 11904.50000   -9999.25   24.05300    0.03910
 11905.00000   81.67700   24.49530    0.03910
 11905.50000   82.20390   24.93980    0.03950
 11906.00000   82.41530   25.15650    0.03990
 11906.50000   82.30700   25.37110    0.04140
 11907.00000   81.95880   25.81340    0.04330
 11907.50000   80.31500   26.25930    0.04550
 11908.00000   78.73830   27.17250    0.04670
 11908.50000   77.58230   29.16820    0.04780
 11909.00000   76.32110   30.06160    0.04860
 11909.50000   75.79600   30.50390    0.04970
 11910.00000   76.53350   31.17180    0.05130
 11910.50000   78.11230   32.74190    0.05350
 11911.00000   79.58590   35.89090    0.05610
 11911.50000   81.16470   36.78660    0.05230
 11912.00000   81.79690   33.39210    0.04520
 11912.50000   81.90310   27.52600    0.04140
 11913.00000   81.90410   22.76940    0.03960
 11913.50000   81.78320   21.86170    0.03660
 11914.00000   80.53900   22.30200    0.03240
 11914.50000   79.17270   22.52090    0.03510
 11915.00000   77.38560   23.18660    0.03850
 11915.50000   74.44150   24.75670    0.03920
 11916.00000   71.70770   26.55240    0.03810
 11916.50000   70.86730   28.12250    0.03810
 11917.00000   71.07870   30.36930    0.03950
 11917.50000   72.02630   32.39060    0.04640
 11918.00000   75.07770   33.96070    0.05010
 11918.50000   79.39130   35.30530    0.05540
 11919.00000   82.79610   39.14350    0.06670
 11919.50000   87.12940   50.84930    0.08320
 11920.00000   94.43600   62.11870    0.10920
 11920.50000   98.32880   60.30540    0.12120
 11921.00000   98.96070   52.17620    0.11590
 11921.50000   96.85830   47.43060    0.10020
 11922.00000   95.80750   46.29390    0.09640
 11922.50000   94.86190   46.05950    0.10360
 11923.00000   94.23150   45.37400    0.11000
 11923.50000   94.96910   45.81630    0.11440
 11924.00000   97.70490   48.06310    0.13550
 11924.50000  103.59630   54.79200    0.16000
 11925.00000  111.27570   64.40300    0.20730
 11925.50000  119.21190   78.93670    0.24640
 11926.00000  129.49570   89.75500    0.29340
 11926.50000  137.36470   94.03180    0.36450
 11927.00000  140.41580   96.27870    0.45000
 11927.50000  139.68080   98.75100    0.44990
 11928.00000  139.15600   96.48660    0.44970
 11928.50000  138.84120   93.99650    0.37790
 11929.00000  138.63180   89.47640    0.27160
 11929.50000  138.10720   83.82850    0.26190
 11930.00000  137.37190   81.04000    0.26750
 11930.50000  136.74190   74.72710    0.27170
 11931.00000  136.00660   67.33370    0.26600
 11931.50000  135.16620   61.46020    0.24310
 11932.00000  135.41520   64.38370    0.21790
 11932.50000  138.00850   74.75080    0.24420
 11933.00000  139.48210   88.50140    0.32170
 11933.50000  141.06090  106.08660   -9999.25
 11934.00000  142.42930  113.74690   -9999.25
 11934.50000  143.16660  114.92350    0.45000
 11935.00000  143.58840  113.50370    0.40360
 11935.50000  143.69460  110.97560    0.39910
 11936.00000  143.06450  110.32810    0.41310
 11936.50000  141.90850  115.27950    0.41570
 11937.00000  140.96290  116.85190    0.40070
 11937.50000  138.75510  112.55510    0.38520
 11938.00000  136.70710  108.03500    0.35170
 11938.50000  134.69340  104.41720    0.34880
 11939.00000  132.95580  106.88950    0.32100
 11939.50000  131.39650  107.33410    0.33360
 11940.00000  130.87160  109.57860    0.35110
 11940.50000  130.66200  112.27670    0.36800
 11941.00000  130.45290  112.50410    0.39130
 11941.50000  130.24360  111.33650    0.40750
 11942.00000  130.24460  100.29300    0.41310
 11942.50000  130.24570   98.02860    0.37850
 11943.00000  130.35210  101.85430    0.39920
 11943.50000  130.66870  109.51470    0.41800
 11944.00000  131.09050  112.88930    0.42440
 11944.50000  131.61740  113.55940    0.39540
 11945.00000  132.45990  108.36040    0.37520
 11945.50000  133.19730  108.80270    0.35640
 11946.00000  134.09300  113.75630    0.36090
 11946.50000  135.23880  121.06000    0.32160
 11947.00000  136.25070  137.95310    0.29020
 11947.50000  136.25170  149.59450    0.28010
 11948.00000  135.92380  140.33530    0.26840
 11948.50000  130.19690  106.49190    0.23530
 11949.00000  120.66470   67.68610    0.18350
 11949.50000  111.43260   52.79080    0.15260
 11950.00000  104.20200   51.87970    0.11740
 11950.50000   96.82920   50.96710    0.06910
 11951.00000   94.60410   48.47690    0.06280
 11951.50000   95.65590   41.02440    0.06120
 11952.00000   97.12850   33.57190    0.06090
 11952.50000   97.75960   31.76070    0.07040
 11953.00000   98.39070   37.38870    0.08730
 11953.50000   99.02180   40.53760    0.10530
 11954.00000   99.65290   40.30320    0.10950
 11954.50000  100.28400   39.61980    0.11060
 11955.00000  101.44100   40.96200    0.11180
 11955.50000  103.22910   43.65990    0.11670
 11956.00000  104.28100   49.06450    0.12650
 11956.50000  105.12250   49.73950    0.13360
 11957.00000  105.22760   46.33990    0.13810
 11957.50000  104.70170   45.61510    0.13400
 11958.00000  102.98150   41.59920    0.11070
 11958.50000  100.21890   34.50110    0.08250
 11959.00000   92.71070   27.12910    0.06180
 11959.50000   91.86930   24.63900    0.05700
 11960.00000   91.65890   25.98350    0.06380
 11960.50000   93.02630   30.03470    0.08260
 11961.00000   93.97300   34.76260    0.09650
 11961.50000   94.18330   38.36280    0.09310
 11962.00000   94.18330   39.48390    0.08670
 11962.50000   94.60410   36.31490    0.08260
 11963.00000   95.34030   32.24580    0.08000
 11963.50000   96.28700   34.26700    0.07890
 11964.00000   97.33880   37.19040    0.08830
 11964.50000   98.81140   44.62510    0.10820
 11965.00000  100.28400   49.57860    0.14390
 11965.50000  101.47830   54.53210    0.17180
