~Version ---------------------------------------------------
VERS.   2.0 : CWLS log ASCII Standard -VERSION 2.0
WRAP.    NO : One line per depth step
DLM . SPACE : Column Data Section Delimiter
~Well ------------------------------------------------------
STRT .F               10400.0 : START DEPTH
STOP .F               12224.0 : STOP DEPTH
STEP .F                   0.5 : STEP
NULL .               -9999.25 : NULL VALUE
COMP .                        : COMPANY
WELL .                        : WELL
FLD  .                        : FIELD
LOC  .                        : LOCATION
PROV .                        : PROVINCE
CNTY .                        : COUNTY
STAT .                        : STATE
CTRY .                        : COUNTRY
SRVC .                        : SERVICE COMPANY
DATE .                        : DATE
UWI  .                        : UNIQUE WELL ID
API  .                        : API NUMBER
SLAT .WGS84 2.742791678076003 : SURFACE LATITUDE
SLON .WGS84 8.884144083726994 : SURFACE LONGITUDE
DATUM.F               3204.42 : DEPTH DATUM ELEV
~Curve Information -----------------------------------------
DEPT.F     : 
DTSM.US/F  : SHEAR-WAVE INTERVAL TRANSIT TIME DELTA-T
GRS .GAPI  : GAMMA RAY FROM SONIC LOG
TNPH.DEC   : THERMAL NEUTRON POROSITY
~Params ----------------------------------------------------
~Other -----------------------------------------------------
~ASCII -----------------------------------------------------
# ...
 10487.00000  168.02250  109.34790    0.34190
 10487.50000  168.33810  106.18340    0.34870
 10488.00000  168.44330  100.76320    0.35380
 10488.50000  168.23290   96.69700    0.34710
 10489.00000  166.83040   93.18140    0.32530
 10489.50000  164.69870   87.27290    0.30800
 10490.00000  162.02710   80.66030    0.28510
 10490.50000  160.23890   74.78900    0.24930
 10491.00000  158.45080   63.50420    0.19340
 10491.50000  156.65090   51.76820    0.11740
 10492.00000  154.97970   34.16760    0.08500
 10492.50000  154.24340   27.84510    0.07300
 10493.00000  154.03310   33.25200    0.09400
 10493.50000  154.55900   50.16270    0.14140
 10494.00000  156.34710   71.58460    0.21700
 10494.50000  160.55450   84.66070    0.26660
 10495.00000  165.70850   88.93970    0.28090
 10495.50000  170.03020   93.22060    0.29970
 10496.00000  172.78920   93.21200    0.32220
 10496.50000  174.05120   93.76290    0.33840
 10497.00000  174.43880   98.61080    0.34630
 10497.50000  174.33360  100.85970    0.32110
 10498.00000  173.49210  101.53140    0.28230
 10498.50000  172.01950   95.88400    0.25490
 10499.00000  168.33810   90.01270    0.24620
 10499.50000  163.18410   87.75050    0.23990
 10500.00000  156.34710   84.82210    0.23160
 10500.50000  151.19310   77.58920    0.22060
 10501.00000  148.87900   72.84790    0.20690
 10501.50000  147.30130   70.81340    0.19930
 10502.00000  146.24940   70.58350    0.20680
 10502.50000  145.29270   72.60910    0.22110
 10503.00000  143.78680   70.34910    0.22670
 10503.50000  142.52960   67.18560    0.22930
 10504.00000  141.51620   61.99320    0.21020
 10504.50000  141.30580   60.86210    0.20270
 10505.00000  141.51620   69.20250    0.20910
 10505.50000  141.93690   75.96500    0.22450
 10506.00000  142.77840   81.37410    0.22340
 10506.50000  144.77690   80.91850    0.21880
 10507.00000   -9999.25   75.04940    0.16730
 10507.50000   -9999.25   65.12020    0.12680
 10508.00000   -9999.25   55.19100    0.09940
 10508.50000   -9999.25   48.87070    0.08540
 10509.00000   -9999.25   51.87370    0.09180
 10509.50000   -9999.25   62.39470    0.10720
 10510.00000   -9999.25   78.63080    0.13000
 10510.50000   -9999.25   83.36440    0.12570
 10511.00000   -9999.25   72.53180    0.08170
 10511.50000   -9999.25   58.31680    0.04710
 10512.00000   -9999.25   42.97410    0.03920
 10512.50000   -9999.25   37.10500    0.03690
 10513.00000   -9999.25   29.88250    0.03880
 10513.50000   -9999.25   24.91570    0.04670
 10514.00000   -9999.25   22.65560    0.05540
 10514.50000   -9999.25   21.50530    0.06700
 10515.00000   -9999.25   20.57860    0.07340
 10515.50000   -9999.25   21.28790    0.07680
 10516.00000   -9999.25   23.53910    0.07610
 10516.50000   -9999.25   24.43690    0.07490
 10517.00000   -9999.25   24.88370    0.07300
 10517.50000   -9999.25   27.13490    0.07000
 10518.00000   -9999.25   30.28830    0.07090
 10518.50000   -9999.25   32.08840    0.08060
 10519.00000   -9999.25   32.98650    0.09790
 10519.50000   -9999.25   33.43300    0.11630
 10520.00000   -9999.25   34.33080    0.13510
 10520.50000   -9999.25   35.00310    0.13020
 10521.00000   -9999.25   32.81800    0.10620
 10521.50000   -9999.25   31.38520    0.08360
 10522.00000   -9999.25   31.60640    0.07080
 10522.50000   -9999.25   30.24750    0.05990
 10523.00000   -9999.25   27.31070    0.05320
 10523.50000   -9999.25   25.95290    0.04980
 10524.00000   -9999.25   28.20410    0.04830
 10524.50000   -9999.25   29.32860    0.05110
 10525.00000   -9999.25   28.64640    0.05950
 10525.50000   -9999.25   28.64200    0.06600
 10526.00000   -9999.25   27.50980    0.06670
 10526.50000   -9999.25   27.73090    0.06150
 10527.00000   -9999.25   25.69640    0.05100
 10527.50000   -9999.25   27.49540    0.04460
 10528.00000   -9999.25   28.39330    0.03590
 10528.50000   -9999.25   29.29110    0.03180
 10529.00000   -9999.25   29.51330    0.03070
 10529.50000   -9999.25   29.28220    0.03070
 10530.00000   -9999.25   29.73010    0.03220
 10530.50000   -9999.25   28.82230    0.03330
 10531.00000   -9999.25   27.23890    0.03180
 10531.50000   -9999.25   25.88110    0.03220
 10532.00000   -9999.25   25.20000    0.03330
 10532.50000   -9999.25   25.23160    0.03220
 10533.00000   -9999.25   27.14590    0.03220
 10533.50000   -9999.25   31.95260    0.03370
 10534.00000   -9999.25   33.07710    0.03300
 10534.50000   -9999.25   29.68810    0.03260
 10535.00000   -9999.25   26.97690    0.03520
 10535.50000   -9999.25   27.64920    0.04500
 10536.00000   -9999.25   29.44930    0.05100
 10536.50000   -9999.25   29.21930    0.05180
 10537.00000   -9999.25   28.31260    0.04730
 10537.50000   -9999.25   26.05250    0.04160
 10538.00000   -9999.25   23.34130    0.03300
 10538.50000   -9999.25   21.26740    0.02960
 10539.00000   -9999.25   19.27220    0.02890
 10539.50000   -9999.25   23.10140    0.03230
 10540.00000   -9999.25   32.34510    0.03600
 10540.50000   -9999.25   45.87450    0.04170
 10541.00000   -9999.25   52.86260    0.04920
 10541.50000   -9999.25   55.11490    0.05140
 10542.00000   -9999.25   52.40260    0.05220
 10542.50000   -9999.25   51.27040    0.05180
 10543.00000   -9999.25   49.68700    0.04960
 10543.50000   -9999.25   46.07360    0.04620
 10544.00000   -9999.25   42.68500    0.04130
 10544.50000   -9999.25   39.74820    0.03980
 10545.00000   -9999.25   40.87160    0.04130
 10545.50000   -9999.25   45.82960    0.04820
 10546.00000   -9999.25   49.65980    0.05380
 10546.50000   -9999.25   51.23430    0.05650
 10547.00000   -9999.25   53.48550    0.06090
 10547.50000   -9999.25   53.03000    0.06650
 10548.00000   -9999.25   51.67220    0.07070
 10548.50000   -9999.25   49.06830    0.06950
 10549.00000   -9999.25   42.63880    0.05900
 10549.50000   -9999.25   36.54500    0.05110
 10550.00000   -9999.25   35.18800    0.04520
 10550.50000   -9999.25   35.63460    0.04080
 10551.00000   -9999.25   35.58390    0.03460
 10551.50000   -9999.25   33.94460    0.03120
 10552.00000   -9999.25   29.75550    0.03120
 10552.50000   -9999.25   26.59310    0.03230
 10553.00000   -9999.25   25.00970    0.03390
 10553.50000   -9999.25   23.87750    0.03390
 10554.00000   -9999.25   25.22640    0.03760
 10554.50000   -9999.25   30.63550    0.04820
 10555.00000   -9999.25   38.07460    0.05760
 10555.50000   -9999.25   42.80700    0.06660
 10556.00000   -9999.25   47.08830    0.06880
 10556.50000   -9999.25   48.21280    0.06340
 10557.00000   -9999.25   43.47030    0.05470
 10557.50000   -9999.25   36.24780    0.05010
 10558.00000   -9999.25   33.08550    0.04930
 10558.50000   -9999.25   30.82540    0.05230
 10559.00000   -9999.25   30.57240    0.05650
 10559.50000   -9999.25   31.49320    0.06060
 10560.00000   -9999.25   35.32330    0.07230
 10560.50000   -9999.25   54.04060    0.10460
 10561.00000   -9999.25   71.18430    0.15420
 10561.50000   -9999.25   80.64830    0.18660
 10562.00000   -9999.25   73.65020    0.19110
 10562.50000   -9999.25   71.84130    0.18390
 10563.00000   -9999.25   73.86690    0.18130
 10563.50000   -9999.25   74.31470    0.19110
 10564.00000   -9999.25   73.85800    0.19630
 10564.50000   -9999.25   63.02650    0.17260
 10565.00000   -9999.25   53.99940    0.15230
 10565.50000   -9999.25   43.61900    0.12190
 10566.00000   -9999.25   36.39650    0.11590
 10566.50000   -9999.25   47.21920    0.12190
 10567.00000   -9999.25   58.49290    0.14790
 10567.50000   -9999.25   68.63880    0.17490
 10568.00000   -9999.25   76.98020    0.19040
 10568.50000   -9999.25   83.51710    0.19830
 10569.00000   -9999.25   84.21110    0.19110
 10569.50000   -9999.25   82.38040    0.19940
 10570.00000   -9999.25   83.05260    0.21930
 10570.50000   -9999.25   88.06380    0.22720
 10571.00000   -9999.25   91.84070    0.23020
 10571.50000   -9999.25   86.67120    0.21440
 10572.00000   -9999.25   80.10140    0.20130
 10572.50000   -9999.25   75.81230    0.20170
 10573.00000   -9999.25   79.64240    0.20470
 10573.50000   -9999.25   80.53910    0.20150
