~Version ---------------------------------------------------
VERS.   2.0 : CWLS log ASCII Standard -VERSION 2.0
WRAP.    NO : One line per depth step
DLM . SPACE : Column Data Section Delimiter
~Well ------------------------------------------------------
STRT .F               10400.0 : START DEPTH
STOP .F               12224.0 : STOP DEPTH
STEP .F                   0.5 : STEP
NULL .               -9999.25 : NULL VALUE
COMP .                        : COMPANY
WELL .                        : WELL
FLD  .                        : FIELD
LOC  .                        : LOCATION
PROV .                        : PROVINCE
CNTY .                        : COUNTY
STAT .                        : STATE
CTRY .                        : COUNTRY
SRVC .                        : SERVICE COMPANY
DATE .                        : DATE
UWI  .                        : UNIQUE WELL ID
API  .                        : API NUMBER
SLAT .WGS84 2.742791678076003 : SURFACE LATITUDE
SLON .WGS84 8.884144083726994 : SURFACE LONGITUDE
DATUM.F               3204.42 : DEPTH DATUM ELEV
~Curve Information -----------------------------------------
DEPT.F     : 
DTSM.US/F  : SHEAR-WAVE INTERVAL TRANSIT TIME DELTA-T
GRS .GAPI  : GAMMA RAY FROM SONIC LOG
TNPH.DEC   : THERMAL NEUTRON POROSITY
~Params ----------------------------------------------------
~Other -----------------------------------------------------
~ASCII -----------------------------------------------------
# ...
 11009.00000  100.59950   30.82080    0.03600
 11009.50000  100.38920   26.53070    0.03080
 11010.00000  100.28400   24.94730    0.02900
 11010.50000  100.28400   20.88270    0.02940
 11011.00000  100.17880   22.00610    0.03020
 11011.50000   99.75810   22.79280    0.03320
 11012.00000   99.33730   26.50740    0.04220
 11012.50000   99.33730   32.59330    0.06510
 11013.00000   99.65290   40.48360    0.09900
 11013.50000   -9999.25   52.43400    0.15570
 11014.00000   -9999.25   56.26530    0.18730
 11014.50000   -9999.25   50.84620    0.16210
 11015.00000   -9999.25   50.39070    0.14300
 11015.50000   -9999.25   57.60430    0.15690
 11016.00000   -9999.25   60.98350    0.17680
 11016.50000   -9999.25   55.56540    0.14640
 11017.00000   -9999.25   52.16650    0.09600
 11017.50000  100.59950   52.68490    0.06670
 11018.00000  100.80990   54.42320    0.05650
 11018.50000  100.80990   53.29090    0.05880
 11019.00000  100.70470   49.90310    0.05500
 11019.50000  100.80990   47.86860    0.04980
 11020.00000  101.02030   40.87200    0.04670
 11020.50000  101.33580   37.48420    0.04530
 11021.00000  101.86180   38.86020    0.04790
 11021.50000  102.49290   44.11040    0.05770
 11022.00000  103.01880   48.74800    0.06370
 11022.50000  103.75510   48.06690    0.06260
 11023.00000  104.17580   44.45340    0.05240
 11023.50000  104.38620   40.38880    0.04420
 11024.00000  104.59650   37.67770    0.03930
 11024.50000  104.80690   36.54540    0.04760
 11025.00000  104.80690   38.34550    0.05730
 11025.50000  104.91210   38.11660    0.06640
 11026.00000  104.91210   39.91560    0.07880
 11026.50000  105.01730   43.74580    0.08930
 11027.00000  105.22760   45.99700    0.09680
 11027.50000  105.66830   50.16540    0.10280
 11028.00000  106.38470   53.43170    0.10320
 11028.50000  106.80540   51.39610    0.10010
 11029.00000  107.33130   49.13610    0.09910
 11029.50000  108.27800   52.74070    0.11300
 11030.00000  109.01430   54.54190    0.13260
 11030.50000   -9999.25   52.50630    0.13560
 11031.00000   -9999.25   51.14850    0.13070
 11031.50000   -9999.25   53.39970    0.11530
 11032.00000   -9999.25   61.06440    0.11150
 11032.50000   -9999.25   61.99280    0.10290
 11033.00000   -9999.25   58.34880    0.08600
 11033.50000   -9999.25   46.29740    0.06530
 11034.00000   -9999.25   33.62810    0.03410
 11034.50000   -9999.25   31.26790    0.03480
 11035.00000   -9999.25   37.57810    0.04310
 11035.50000   -9999.25   43.88950    0.05400
 11036.00000   93.86780   49.29860    0.06270
 11036.50000   95.44550   53.57990    0.06870
 11037.00000   96.18180   55.83110    0.07020
 11037.50000   97.02330   55.60110    0.07590
 11038.00000   97.65440   53.56660    0.08490
 11038.50000   98.50170   51.75770    0.09390
 11039.00000   99.18040   52.43000    0.09280
 11039.50000  101.02030   52.19820    0.09950
 11040.00000  102.07210   54.71970    0.10710
 11040.50000  102.80840   57.93210    0.11310
 11041.00000  103.64990   58.72810    0.10970
 11041.50000  104.38620   56.46690    0.10440
 11042.00000  105.22760   48.79330    0.10070
 11042.50000  105.64840   46.98440    0.09660
 11043.00000  105.85870   46.30330    0.09810
 11043.50000  106.06910   51.03570    0.10780
 11044.00000  106.38470   60.95610    0.12630
 11044.50000  106.48990   66.81630    0.14700
 11045.00000  106.59500   69.46790    0.15220
 11045.50000  106.91480   59.58940    0.13090
 11046.00000  106.91060   49.35580    0.08040
 11046.50000   -9999.25   39.94740    0.06240
 11047.00000   -9999.25   33.86080    0.06540
 11047.50000   -9999.25   33.18070    0.08570
 11048.00000   -9999.25   35.65640    0.09850
 11048.50000   -9999.25   36.10420    0.08800
 11049.00000   -9999.25   31.58740    0.07070
 11049.50000   -9999.25   28.19950    0.05000
 11050.00000   -9999.25   26.22830    0.04400
 11050.50000   90.71220   24.80590    0.04700
 11051.00000   93.34190   37.88030    0.06280
 11051.50000   98.81140   54.11430    0.09430
 11052.00000  107.43650   64.03240    0.13120
 11052.50000  117.29610   73.49940    0.17380
 11053.00000  127.57460   74.39670    0.19990
 11053.50000  130.47180   67.62150    0.21240
 11054.00000  114.90460   57.01330    0.19320
 11054.50000  103.43950   43.92400    0.10370
 11055.00000   97.86480   33.54130    0.05000
 11055.50000   94.49890   24.18620    0.03490
 11056.00000   92.39520   23.37770    0.03790
 11056.50000   93.65740   31.03850    0.04540
 11057.00000   94.91960   33.96420    0.05150
 11057.50000   96.49740   32.37860    0.04920
 11058.00000   98.49590   29.43960    0.04840
 11058.50000  101.02030   33.04200    0.05440
 11059.00000  102.91360   40.70450    0.06570
 11059.50000  105.90000   46.78810    0.08600
 11060.00000  108.30490   54.90170    0.10260
 11060.50000  108.59350   60.30860    0.10630
 11061.00000  107.43650   62.33200    0.11080
 11061.50000  105.64840   63.00230    0.12890
 11062.00000  103.75510   64.57430    0.18680
 11062.50000  102.07210   64.56770    0.18750
 11063.00000  101.44100   56.13450    0.13980
 11063.50000  101.02030   50.88070    0.06570
 11064.00000  101.02030   35.67390    0.04010
 11064.50000  101.33580   28.44920    0.03450
 11065.00000  102.38770   25.51020    0.03480
 11065.50000  103.54470   25.27790    0.03600
 11066.00000  105.12910   25.94960    0.03970
 11066.50000  106.51740   25.71580    0.04350
 11067.00000  107.33130   25.93470    0.04870
 11067.50000  105.96390   28.18370    0.05360
 11068.00000  103.75510   32.23710    0.05740
 11068.50000  101.75660   37.81130    0.07170
 11069.00000  101.02030   43.50090    0.07960
 11069.50000  101.86180   42.14090    0.08180
 11070.00000  103.64990   36.04400    0.06750
 11070.50000  105.43800   29.94710    0.06110
 11071.00000  106.27950   26.78260    0.06070
 11071.50000  106.31790   26.32480    0.06410
 11072.00000  104.17580   26.31810    0.06600
 11072.50000  101.75660   26.98820    0.06610
 11073.00000  100.26730   28.10930    0.07160
 11073.50000   98.13060   29.23050    0.07200
 11074.00000   96.91810   28.32160    0.06710
 11074.50000   97.02330   26.28490    0.06150
 11075.00000   97.65440   25.37590    0.05810
 11075.50000   98.28550   23.79030    0.05430
 11076.00000   98.91660   24.68590    0.05090
 11076.50000   99.75810   23.32420    0.04680
 11077.00000  100.70470   22.41530    0.05020
 11077.50000  102.28250   25.11540    0.06220
 11078.00000  105.96390   33.00350    0.08660
 11078.50000  113.22160   43.37280    0.12870
 11079.00000  121.21560   59.15560    0.17530
 11079.50000  140.56950   76.74300    0.22440
 11080.00000  161.37260   81.92430    0.32350
 11080.50000  169.97600   79.88750    0.44980
 11081.00000  170.96770   74.24180    0.44980
 11081.50000  170.44180   69.49830    0.44980
 11082.00000  165.49810   68.56060    0.44750
 11082.50000  154.97970   71.28950    0.30610
 11083.00000  147.09090   70.36600    0.19490
 11083.50000  139.41250   68.19140    0.12310
 11084.00000  131.10290   58.86240    0.08580
 11084.50000  121.00530   55.02110    0.06550
 11085.00000  111.43350   49.14980    0.05240
 11085.50000  104.49140   41.92510    0.04480
 11086.00000  101.23070   34.24930    0.03680
 11086.50000   99.96680   26.57350    0.03360
 11087.00000   99.64290   25.63600    0.03480
 11087.50000   99.21460   33.32710    0.04140
 11088.00000   98.60110   40.61000    0.04860
 11088.50000   98.07510   43.97280    0.04440
 11089.00000   97.65440   42.32800    0.03730
 11089.50000   97.12850   35.78000    0.03200
 11090.00000   96.81290   29.23200    0.02980
 11090.50000   96.60260   25.61630    0.02900
 11091.00000   96.60260   26.28630    0.03010
 11091.50000   96.28700   27.85860    0.03280
 11092.00000   95.97150   29.20540    0.03310
 11092.50000   95.76110   29.87540    0.03280
 11093.00000   95.76110   29.41760    0.03240
 11093.50000   95.65590   28.50870    0.03200
 11094.00000   95.66850   27.37420    0.03200
 11094.50000   96.07660   26.91640    0.03240
 11095.00000   96.39220   28.03760    0.03500
 11095.50000   96.39220   31.51020    0.03730
