~Version ---------------------------------------------------
VERS.   2.0 : CWLS log ASCII Standard -VERSION 2.0
WRAP.    NO : One line per depth step
DLM . SPACE : Column Data Section Delimiter
~Well ------------------------------------------------------
STRT .F               10400.0 : START DEPTH
STOP .F               12224.0 : STOP DEPTH
STEP .F                   0.5 : STEP
NULL .               -9999.25 : NULL VALUE
COMP .                        : COMPANY
WELL .                        : WELL
FLD  .                        : FIELD
LOC  .                        : LOCATION
PROV .                        : PROVINCE
CNTY .                        : COUNTY
STAT .                        : STATE
CTRY .                        : COUNTRY
SRVC .                        : SERVICE COMPANY
DATE .                        : DATE
UWI  .                        : UNIQUE WELL ID
API  .                        : API NUMBER
SLAT .WGS84 2.742791678076003 : SURFACE LATITUDE
SLON .WGS84 8.884144083726994 : SURFACE LONGITUDE
DATUM.F               3204.42 : DEPTH DATUM ELEV
~Curve Information -----------------------------------------
DEPT.F     : 
DTSM.US/F  : SHEAR-WAVE INTERVAL TRANSIT TIME DELTA-T
GRS .GAPI  : GAMMA RAY FROM SONIC LOG
TNPH.DEC   : THERMAL NEUTRON POROSITY
~Params ----------------------------------------------------
~Other -----------------------------------------------------
~ASCII -----------------------------------------------------
# ...
 10748.00000   -9999.25   37.24470    0.09700
 10748.50000   -9999.25   47.61390    0.12590
 10749.00000   -9999.25   55.50200    0.15530
 10749.50000   -9999.25   58.65330    0.17410
 10750.00000   -9999.25   62.03010    0.18720
 10750.50000   -9999.25   65.47010    0.19850
 10751.00000   -9999.25   68.11570    0.19600
 10751.50000   -9999.25   64.05330    0.18330
 10752.00000   -9999.25   59.53980    0.16200
 10752.50000   -9999.25   58.18420    0.15900
 10753.00000   -9999.25   59.08420    0.14850
 10753.50000   -9999.25   52.28310    0.13460
 10754.00000   -9999.25   40.80860    0.10150
 10754.50000   -9999.25   39.00180    0.08050
 10755.00000   -9999.25   39.22520    0.07710
 10755.50000   -9999.25   43.05760    0.10530
 10756.00000   -9999.25   54.33350    0.15080
 10756.50000   -9999.25   68.31630    0.18690
 10757.00000   -9999.25   73.72760    0.20950
 10757.50000   -9999.25   76.65770    0.22110
 10758.00000   -9999.25   77.33220    0.21060
 10758.50000   -9999.25   78.68390    0.24030
 10759.00000   -9999.25   77.32780    0.24860
 10759.50000   -9999.25   73.94210    0.24560
 10760.00000   -9999.25   73.48870    0.23730
 10760.50000   -9999.25   71.63860    0.22530
 10761.00000   -9999.25   67.01630    0.19970
 10761.50000   -9999.25   53.18080    0.15380
 10762.00000   -9999.25   49.79510    0.12110
 10762.50000   -9999.25   47.76280    0.12540
 10763.00000   -9999.25   43.02370    0.12300
 10763.50000   -9999.25   36.48020    0.09900
 10764.00000   -9999.25   32.19220    0.07490
 10764.50000   -9999.25   34.89680    0.06930
 10765.00000   -9999.25   43.91710    0.07120
 10765.50000   -9999.25   52.26080    0.08400
 10766.00000   -9999.25   63.53650    0.09640
 10766.50000   -9999.25   75.94030    0.11700
 10767.00000   -9999.25   84.50960    0.14750
 10767.50000   -9999.25   86.53800    0.17680
 10768.00000   -9999.25   84.95620    0.18400
 10768.50000   -9999.25   76.60820    0.18140
 10769.00000   -9999.25   71.19240    0.16980
 10769.50000  108.59350   66.67890    0.15280
 10770.00000  107.85720   64.87220    0.14300
 10770.50000  107.43650   63.26210    0.13140
 10771.00000  107.33130   60.42980    0.12870
 10771.50000  107.33130   57.42140    0.12950
 10772.00000  107.33130   57.19410    0.13930
 10772.50000  107.21030   60.34930    0.14110
 10773.00000  106.70020   62.60270    0.14640
 10773.50000  105.85870   61.24710    0.15770
 10774.00000  104.28100   49.96670    0.14120
 10774.50000  102.07210   41.61860    0.08400
 10775.00000   99.12700   37.55620    0.06070
 10775.50000   94.81440   36.65170    0.04340
 10776.00000   92.71070   37.32620    0.03590
 10776.50000   91.76410   39.12850    0.03220
 10777.00000   91.97450   42.96090    0.03220
 10777.50000   92.39520   40.47740    0.03450
 10778.00000   93.13150   40.24970    0.03960
 10778.50000   94.28850   41.49070    0.05280
 10779.00000   96.76660   51.29730    0.06980
 10779.50000   -9999.25   66.85900    0.10360
 10780.00000   -9999.25   85.35300    0.16750
 10780.50000   -9999.25   83.77180    0.20440
 10781.00000   -9999.25   67.98020    0.14720
 10781.50000   -9999.25   57.66360    0.09990
 10782.00000   -9999.25   49.02870    0.08260
 10782.50000   -9999.25   60.98080    0.10290
 10783.00000   -9999.25   74.51250    0.13300
 10783.50000   -9999.25   83.30720    0.16570
 10784.00000   -9999.25   88.04180    0.23670
 10784.50000   -9999.25   90.06970    0.26530
 10785.00000   -9999.25   93.00040    0.27360
 10785.50000  121.42600   84.65170    0.21340
 10786.00000  110.48690   76.75480    0.15740
 10786.50000  103.75510   63.89540    0.10030
 10787.00000  100.59950   50.35940    0.07280
 10787.50000   99.23220   47.42480    0.06680
 10788.00000  100.38920   49.35600    0.07550
 10788.50000  101.33580   56.36170    0.07130
 10789.00000  101.86180   58.69580    0.06570
 10789.50000  102.07210   61.40030    0.06830
 10790.00000  101.02030   64.10490    0.06230
 10790.50000   99.75810   58.91470    0.04580
 10791.00000   98.25540   49.88990    0.02400
 10791.50000   96.87300   39.51180    0.01350
 10792.00000   95.44550   25.75020    0.01120
 10792.50000   94.28850   21.68780    0.01080
 10793.00000   93.86780   21.46060    0.01090
 10793.50000   93.02630   22.58620    0.01270
 10794.00000   94.07810   25.51570    0.01650
 10794.50000   97.65440   29.57360    0.02820
 10795.00000  102.07210   37.91730    0.04730
 10795.50000  105.54320   48.61250    0.07400
 10796.00000  108.38320   51.89780    0.09170
 10796.50000  108.27800   49.41380    0.08420
 10797.00000  105.01730   42.41910    0.06310
 10797.50000   99.44250   37.68010    0.04190
 10798.00000   95.00730   33.61770    0.03050
 10798.50000   94.07810   29.10420    0.02170
 10799.00000   94.28850   27.52300    0.01730
 10799.50000   94.91960   25.49080    0.01540
 10800.00000   95.73320   26.34740    0.01490
 10800.50000   96.69850   28.85950    0.01550
 10801.00000   97.44190   30.95670    0.01900
 10801.50000  101.22750   29.97840    0.02480
 10802.00000  108.06340   29.74790    0.03910
 10802.50000  116.50820   36.28090    0.07590
 10803.00000  126.16050   51.83820    0.12780
 10803.50000  138.87900   61.98190    0.17670
 10804.00000  139.71940   73.25350    0.20680
 10804.50000  142.03240   80.01370    0.22030
 10805.00000  137.61370   78.87930    0.23080
 10805.50000  127.72530   70.52670    0.19170
 10806.00000  112.57780   50.89600    0.11320
 10806.50000  107.10720   38.03230    0.05300
 10807.00000  105.63360   28.08990    0.03830
 10807.50000  106.15850   27.19170    0.04050
 10808.00000  111.20630   31.71770    0.04990
 10808.50000  120.98740   45.22210    0.06280
 10809.00000  122.35870   49.95220    0.07180
 10809.50000  122.66830   47.69000    0.07070
 10810.00000  122.66700   47.45940    0.06920
 10810.50000  122.66590   54.21800    0.09550
 10811.00000  122.66490   62.83870    0.12370
 10811.50000  122.45350   72.24980    0.14590
 10812.00000  119.92800   75.85390    0.12780
 10812.50000  107.83080   71.55990    0.07180
 10813.00000  105.51580   69.52320    0.06840
 10813.50000  102.99030   74.93000    0.08310
 10814.00000  106.03960   78.53240    0.10230
 10814.50000  109.19410   73.07980    0.10830
 10815.00000  111.92790   60.47240    0.09890
 10815.50000  116.31890   50.99200    0.08720
 10816.00000  125.65230   45.57190    0.08230
 10816.50000  133.38210   44.66460    0.09740
 10817.00000  140.95430   49.61870    0.12150
 10817.50000  142.74140   57.50680    0.13830
 10818.00000  142.31960   61.33470    0.16840
 10818.50000  141.16160   59.74920    0.18570
 10819.00000  139.58270   56.35900    0.17860
 10819.50000  138.52990   50.93890    0.16200
 10820.00000  138.00290   47.99990    0.14100
 10820.50000  137.89700   43.93310    0.10450
 10821.00000  139.47340   39.39710    0.07440
 10821.50000  141.90000   40.41340    0.06580
 10822.00000  139.63970   42.78370    0.05860
 10822.50000  120.64220   42.10030    0.04740
 10823.00000  114.11980   37.13130    0.03250
 10823.50000  105.07290   33.74120    0.01550
 10824.00000   93.50160   28.32100    0.00600
 10824.50000   93.08010   24.70530    0.00410
 10825.00000   94.23590   23.34530    0.00410
 10825.50000   94.65560   22.88920    0.00640
 10826.00000   94.75970   23.33200    0.00900
 10826.50000   94.54160   23.35060    0.01170
 10827.00000   94.32190   22.41650    0.01200
 10827.50000   94.12530   23.10800    0.01130
 10828.00000   94.22940   26.98410    0.00940
 10828.50000   94.22840   30.68120    0.00790
 10829.00000   94.33280   34.79420    0.00940
 10829.50000   94.75220   35.91540    0.01130
 10830.00000   95.38230   36.81270    0.01320
 10830.50000   95.90750   33.64650    0.01360
 10831.00000   96.01160   32.96320    0.01470
 10831.50000   95.90510   30.47530    0.01690
 10832.00000   95.69370   31.82200    0.01770
 10832.50000   95.69270   33.61990    0.01620
 10833.00000   95.79690   34.29000    0.01050
 10833.50000   95.91530   35.86230    0.00790
 10834.00000   96.32050   32.02100    0.00750
 10834.50000   96.63500   31.32330    0.00710
