~Version ---------------------------------------------------
VERS.   2.0 : CWLS log ASCII Standard -VERSION 2.0
WRAP.    NO : One line per depth step
DLM . SPACE : Column Data Section Delimiter
~Well ------------------------------------------------------
STRT .F               10400.0 : START DEPTH
STOP .F               12224.0 : STOP DEPTH
STEP .F                   0.5 : STEP
NULL .               -9999.25 : NULL VALUE
COMP .                        : COMPANY
WELL .                        : WELL
FLD  .                        : FIELD
LOC  .                        : LOCATION
PROV .                        : PROVINCE
CNTY .                        : COUNTY
STAT .                        : STATE
CTRY .                        : COUNTRY
SRVC .                        : SERVICE COMPANY
DATE .                        : DATE
UWI  .                        : UNIQUE WELL ID
API  .                        : API NUMBER
SLAT .WGS84 2.742791678076003 : SURFACE LATITUDE
SLON .WGS84 8.884144083726994 : SURFACE LONGITUDE
DATUM.F               3204.42 : DEPTH DATUM ELEV
~Curve Information -----------------------------------------
DEPT.F     : 
DTSM.US/F  : SHEAR-WAVE INTERVAL TRANSIT TIME DELTA-T
GRS .GAPI  : GAMMA RAY FROM SONIC LOG
TNPH.DEC   : THERMAL NEUTRON POROSITY
~Params ----------------------------------------------------
~Other -----------------------------------------------------
~ASCII -----------------------------------------------------
# ...
 10661.00000  100.72800   45.23920    0.06500
 10661.50000  101.36020   45.28870    0.06310
 10662.00000  102.20270   50.41710    0.07210
 10662.50000  103.67630   65.07440    0.09160
 10663.00000  106.93800   68.00220    0.12250
 10663.50000  109.77900   68.90120    0.13110
 10664.00000  111.25260   61.22640    0.12090
 10664.50000  112.51590   60.09530    0.11940
 10665.00000  114.41020   66.63110    0.12960
 10665.50000  117.05580   73.61910    0.14750
 10666.00000  122.29610   83.53950    0.17510
 10666.50000  124.93200   87.82190    0.20660
 10667.00000  125.35380   86.01180    0.21040
 10667.50000  124.09260   81.94720    0.19390
 10668.00000  116.73070   75.40140    0.15400
 10668.50000  107.79110   66.58390    0.11300
 10669.00000  103.37440   58.34630    0.08410
 10669.50000  102.32360   50.42260    0.07390
 10670.00000  102.00880   55.08180    0.07170
 10670.50000  101.69460   57.55860    0.07130
 10671.00000  101.38000   56.42630    0.06070
 10671.50000  100.64480   49.65500    0.04680
 10672.00000   99.69080   40.85350    0.04310
 10672.50000   99.38460   34.98440    0.04950
 10673.00000   99.91180   36.33340    0.06100
 10673.50000  100.64920   41.96800    0.07550
 10674.00000  101.38650   46.02370    0.08030
 10674.50000  101.38750   43.08700    0.06670
 10675.00000  100.96780   36.99230    0.05660
 10675.50000  100.75820   35.40890    0.05210
 10676.00000  100.96990   38.56240    0.05390
 10676.50000  101.91760   45.88340    0.07800
 10677.00000  105.99070   63.76820    0.11410
 10677.50000  113.49010   75.44750    0.14720
 10678.00000  123.48360   80.27390    0.18320
 10678.50000  128.65930   78.23940    0.19680
 10679.00000  132.20480   78.46050    0.20200
 10679.50000  134.63630   78.23050    0.22380
 10680.00000  136.32020   81.60840    0.22310
 10680.50000  136.74180   80.92840    0.22150
 10681.00000  133.16680   83.40410    0.21660
 10681.50000  130.74860   80.24170    0.18360
 10682.00000  129.17190   74.14710    0.17830
 10682.50000  129.06750   65.12010    0.19710
 10683.00000  130.43610   66.46900    0.23510
 10683.50000  133.06680   75.93820    0.25840
 10684.00000  136.64410   83.82850    0.26100
 10684.50000  140.74730   86.75640    0.26520
 10685.00000  143.19090   85.62410    0.24790
 10685.50000  145.44760   87.61200    0.23360
 10686.00000  147.69280   91.25330    0.24300
 10686.50000  148.43010   91.92660    0.25800
 10687.00000  150.11410   90.11660    0.26590
 10687.50000  150.64080   91.01440    0.25650
 10688.00000  148.95910   86.94980    0.26460
 10688.50000  147.80310   83.11080    0.26670
 10689.00000  146.54190   78.82060    0.27340
 10689.50000  145.70150   78.14060    0.27860
 10690.00000  146.01810   85.57870    0.27940
 10690.50000  146.86060   88.05540    0.27110
 10691.00000  148.01860   89.40440    0.26660
 10691.50000  149.28190   88.94880    0.28430
 10692.00000  148.82970   83.98190    0.29890
 10692.50000  147.15110   80.74440    0.29740
 10693.00000  143.28970   78.55950    0.27410
 10693.50000  141.39750   81.11780    0.25870
 10694.00000  140.55700   81.70850    0.25120
 10694.50000  140.34740   79.89850    0.23910
 10695.00000  140.97980   77.63840    0.22750
 10695.50000  141.40160   76.50610    0.22170
 10696.00000  141.29750   76.27610    0.21880
 10696.50000  140.56220   75.59500    0.23200
 10697.00000  140.33940   75.36610    0.23120
 10697.50000  142.14200   79.64630    0.23870
 10698.00000  143.31020   80.77080    0.24480
 10698.50000  144.58520   83.02080    0.24210
 10699.00000  145.65460   82.56530    0.23420
 10699.50000  146.45890   80.53080    0.23310
 10700.00000  145.99690   80.07520    0.23820
 10700.50000  140.35510   79.61690    0.23830
 10701.00000  135.83620   77.35460    0.21180
 10701.50000  132.36510   69.67870    0.16770
 10702.00000  131.41850   64.70970    0.12740
 10702.50000  131.52370   61.31950    0.13380
 10703.00000  132.80590   65.21130    0.15150
 10703.50000  134.07130   71.57890    0.16920
 10704.00000  134.80270   91.52350    0.19550
 10704.50000  135.52070   98.26040    0.20790
 10705.00000  136.15180  102.56390    0.22220
 10705.50000  137.93990  102.57150    0.23830
 10706.00000  139.79520  100.79820    0.25000
 10706.50000  141.48240   94.42200    0.26730
 10707.00000  142.98870   96.21980    0.27440
 10707.50000  143.83020  104.78460    0.27710
 10708.00000  144.04060  114.47720    0.26390
 10708.50000  142.35760  112.89160    0.25140
 10709.00000  140.88510  110.17820    0.24100
 10709.50000  139.62280  111.29930    0.25250
 10710.00000  138.67620  113.32440    0.24250
 10710.50000  138.57100  111.73710    0.24510
 10711.00000  138.46580  106.99370    0.24170
 10711.50000  138.57100  101.12230    0.23760
 10712.00000  139.09690   97.50670    0.23230
 10712.50000  139.93840   92.53760    0.22140
 10713.00000  140.35910   90.50090    0.22710
 10713.50000  140.67890   94.31600    0.23570
 10714.00000  141.23340  103.11750    0.26470
 10714.50000  142.67320  112.35890    0.26730
 10715.00000  145.40800  116.41240    0.26130
 10715.50000  146.03910  119.11250    0.24510
 10716.00000  146.35460  124.29380    0.21880
 10716.50000  146.67020  128.12180    0.21990
 10717.00000  147.30130  130.82190    0.23140
 10717.50000  148.14270  127.65730    0.26580
 10718.00000  150.24640  116.37250    0.28500
 10718.50000  150.56200  105.98990    0.28380
 10719.00000  150.87750   98.76520    0.27820
 10719.50000  150.98270   96.72840    0.28230
 10720.00000  151.08790   95.81950    0.28380
 10720.50000  151.08790   95.36170    0.28050
 10721.00000  151.08790   95.61090    0.27670
 10721.50000   -9999.25   97.37690    0.28530
 10722.00000   -9999.25   98.95080    0.28980
 10722.50000   -9999.25   97.36350    0.28350
 10723.00000   -9999.25   97.13300    0.27820
 10723.50000   -9999.25   99.60590    0.27070
 10724.00000   -9999.25  101.40370    0.26390
 10724.50000   -9999.25   99.81810    0.26310
 10725.00000   -9999.25   96.20240    0.27220
 10725.50000   -9999.25   95.51910    0.28610
 10726.00000   -9999.25   94.61020    0.29510
 10726.50000   -9999.25   91.89680    0.29280
 10727.00000   -9999.25   93.46910    0.27740
 10727.50000   -9999.25   93.23680    0.25640
 10728.00000   -9999.25   89.05540    0.24740
 10728.50000   -9999.25   82.61640    0.25790
 10729.00000   -9999.25   76.52350    0.28010
 10729.50000   -9999.25   74.26120    0.27780
 10730.00000   -9999.25   73.57950    0.26090
 10730.50000   -9999.25   75.60290    0.24700
 10731.00000   -9999.25   70.40660    0.24170
 10731.50000   -9999.25   67.01650    0.25530
 10732.00000   -9999.25   65.88370    0.25890
 10732.50000   -9999.25   69.71000    0.24210
 10733.00000   -9999.25   69.93050    0.20410
 10733.50000   -9999.25   64.95980    0.17370
 10734.00000   -9999.25   58.63740    0.10310
 10734.50000   -9999.25   48.02920    0.08350
 10735.00000   -9999.25   41.25560    0.07290
 10735.50000   -9999.25   36.70560    0.08080
 10736.00000   -9999.25   34.44500    0.08310
 10736.50000   -9999.25   35.59490    0.08380
 10737.00000   -9999.25   36.49220    0.07930
 10737.50000   -9999.25   32.19810    0.08680
 10738.00000   -9999.25   30.61250    0.07890
 10738.50000   -9999.25   28.12470    0.06730
 10739.00000   -9999.25   27.21580    0.05450
 10739.50000   -9999.25   25.17900    0.05340
 10740.00000   -9999.25   24.27010    0.05980
 10740.50000   -9999.25   27.19580    0.07180
 10741.00000   -9999.25   33.95610    0.08800
 10741.50000   -9999.25   39.36290    0.10980
 10742.00000   -9999.25   42.28860    0.11240
 10742.50000   -9999.25   39.12410    0.10690
 10743.00000   -9999.25   39.71280    0.10340
 10743.50000   -9999.25   46.70630    0.12440
 10744.00000   -9999.25   49.92950    0.13380
 10744.50000   -9999.25   46.99050    0.12410
 10745.00000   -9999.25   42.24700    0.10680
 10745.50000   -9999.25   37.05240    0.08680
 10746.00000   -9999.25   31.63220    0.07560
 10746.50000   -9999.25   29.36990    0.07110
 10747.00000   -9999.25   27.10760    0.07030
 10747.50000   -9999.25   30.48440    0.07820
