~Version ---------------------------------------------------
VERS.   2.0 : CWLS log ASCII Standard -VERSION 2.0
WRAP.    NO : One line per depth step
DLM . SPACE : Column Data Section Delimiter
~Well ------------------------------------------------------
STRT .F               10400.0 : START DEPTH
STOP .F               12224.0 : STOP DEPTH
STEP .F                   0.5 : STEP
NULL .               -9999.25 : NULL VALUE
COMP .                        : COMPANY
WELL .                        : WELL
FLD  .                        : FIELD
LOC  .                        : LOCATION
PROV .                        : PROVINCE
CNTY .                        : COUNTY
STAT .                        : STATE
CTRY .                        : COUNTRY
SRVC .                        : SERVICE COMPANY
DATE .                        : DATE
UWI  .                        : UNIQUE WELL ID
API  .                        : API NUMBER
SLAT .WGS84 2.742791678076003 : SURFACE LATITUDE
SLON .WGS84 8.884144083726994 : SURFACE LONGITUDE
DATUM.F               3204.42 : DEPTH DATUM ELEV
~Curve Information -----------------------------------------
DEPT.F     : 
DTSM.US/F  : SHEAR-WAVE INTERVAL TRANSIT TIME DELTA-T
GRS .GAPI  : GAMMA RAY FROM SONIC LOG
TNPH.DEC   : THERMAL NEUTRON POROSITY
~Params ----------------------------------------------------
~Other -----------------------------------------------------
~ASCII -----------------------------------------------------
# ...
 11792.00000   89.36590   29.43110    0.06610
 11792.50000   91.85370   35.06360    0.07360
 11793.00000   94.69470   36.42680    0.07960
 11793.50000   96.48380   37.78600    0.08790
 11794.00000   98.48340   40.51540    0.10260
 11794.50000  100.27250   42.47920    0.11050
 11795.00000  102.37720   44.05320    0.11420
 11795.50000  105.00790   42.91880    0.11800
 11796.00000  107.63850   53.06090    0.12830
 11796.50000  111.63650   62.52800    0.14130
 11797.00000  114.77120   66.13040    0.15110
 11797.50000  118.58100   61.83810    0.13830
 11798.00000  120.26490   52.13220    0.11770
 11798.50000  120.89710   43.90680    0.11690
 11799.00000  119.84630   33.78730    0.12070
 11799.50000  118.79540   33.16340    0.12330
 11800.00000  118.48070   35.16680    0.12290
 11800.50000  119.09800   38.79480    0.12370
 11801.00000  121.71480   39.34030    0.12670
 11801.50000  126.36960   44.20330    0.13690
 11802.00000  129.73550   51.64470    0.15830
 11802.50000  130.68220   59.31170    0.17170
 11803.00000  130.47180   62.69350    0.17710
 11803.50000  129.84070   57.50270    0.13050
 11804.00000  128.99930   50.95920    0.11170
 11804.50000  128.36810   46.67120    0.11540
 11805.00000  128.26300   44.86500    0.14080
 11805.50000  128.47330   46.66680    0.16810
 11806.00000  128.90670   48.69460    0.19400
 11806.50000  130.53920   53.42930    0.22110
 11807.00000  136.25690   58.84060    0.23160
 11807.50000  136.99320   67.98780    0.23690
 11808.00000  135.62580   78.45980    0.25680
 11808.50000  131.62880   79.58600    0.25870
 11809.00000  124.47630   69.43290    0.19630
 11809.50000  114.27350   57.92690    0.13800
 11810.00000  106.91060   36.27050    0.06250
 11810.50000  100.59950   30.17810    0.03240
 11811.00000   94.49890   26.56680    0.03130
 11811.50000   91.44850   26.33910    0.03430
 11812.00000   90.49350   27.24980    0.03810
 11812.50000   90.29150   29.07740    0.04180
 11813.00000   90.81740   31.14080    0.04600
 11813.50000   91.55370   33.32210    0.05120
 11814.00000   91.86930   34.44770    0.05570
 11814.50000   91.86930   34.44550    0.05390
 11815.00000   91.65890   33.31550    0.05040
 11815.50000   91.44850   31.73430    0.04660
 11816.00000   91.23820   31.95820    0.04260
 11816.50000   91.23820   29.69980    0.04000
 11817.00000   91.65890   28.56980    0.03700
 11817.50000   92.50870   27.66530    0.03470
 11818.00000   93.24930   27.21190    0.03430
 11818.50000   93.55220   27.43530    0.03590
 11819.00000   93.13150   27.88420    0.03470
 11819.50000   91.97450   27.65640    0.03290
 11820.00000   91.23820   26.06210    0.03210
 11820.50000   90.92260   26.04250    0.03060
 11821.00000   90.71220   28.10070    0.02830
 11821.50000   90.81740   28.77520    0.02850
 11822.00000   91.86930   27.59140    0.03630
 11822.50000   96.49740   24.71060    0.04640
 11823.00000   99.23220   32.82810    0.07160
 11823.50000  102.99620   47.26200    0.10810
 11824.00000  108.05760   68.46280    0.13550
 11824.50000  114.16830   70.71620    0.16330
 11825.00000  120.26900   72.96970    0.18740
 11825.50000  134.46880   75.67420    0.21900
 11826.00000  141.72650   81.76220    0.26490
 11826.50000  147.51160   90.78250    0.32430
 11827.00000  149.72050   94.16430    0.38440
 11827.50000  150.66720   91.45480    0.37990
 11828.00000  150.89270   88.97140    0.36460
 11828.50000  150.35160   88.06690    0.36150
 11829.00000  149.28640   82.32610    0.36040
 11829.50000  147.56670   75.77870    0.28300
 11830.00000  146.35460   71.81910    0.24750
 11830.50000  146.45980   73.62140    0.26640
 11831.00000  147.82720   73.61920    0.31980
 11831.50000  149.82570   75.19590    0.31190
 11832.00000  151.40350   85.34410    0.32350
 11832.50000  152.45530   93.68770    0.34080
 11833.00000  152.03460   97.74570    0.38370
 11833.50000  150.98270   98.42070    0.42690
 11834.00000  149.51010   91.42540    0.39990
 11834.50000  147.93240   82.62620    0.32810
 11835.00000  147.18940   76.53380    0.23300
 11835.50000  146.98570   74.05040    0.19760
 11836.00000  146.88050   70.62860    0.18640
 11836.50000  146.88050   66.85290    0.17730
 11837.00000  146.98570   56.69650    0.17020
 11837.50000  147.19610   52.61290    0.17430
 11838.00000  147.30130   62.53500    0.20500
 11838.50000  147.30130   74.26210    0.25150
 11839.00000  147.30130   81.70350    0.30410
 11839.50000  146.98570   82.82960    0.27100
 11840.00000  146.56500   82.37630    0.27810
 11840.50000  145.92890   85.98250    0.32210
 11841.00000  145.06900   90.71710    0.33260
 11841.50000  144.14580   93.87340    0.30860
 11842.00000  143.83020   80.56230    0.24090
 11842.50000  143.83020   65.89850    0.17700
 11843.00000  144.04060   55.02080    0.13870
 11843.50000  144.56650   52.13460    0.13450
 11844.00000  145.30280   64.63760    0.14040
 11844.50000  145.82870   71.75370    0.16200
 11845.00000  145.72350   76.71390    0.18870
 11845.50000  144.67170   83.47860    0.22820
 11846.00000  142.77840   92.95010    0.31540
 11846.50000  141.28740   97.00860    0.37550
 11847.00000  140.03730   86.85540    0.30940
 11847.50000  139.93310   74.67270    0.24100
 11848.00000  141.62790   60.91110    0.21050
 11848.50000  143.86070   57.07430    0.20130
 11849.00000  142.77650   55.49320    0.17860
 11849.50000  140.77900   56.39320    0.17100
 11850.00000  136.15190   56.39100    0.17230
 11850.50000  130.89380   57.08390    0.18380
 11851.00000  128.58070   61.37830    0.18910
 11851.50000  124.47960   74.75190    0.18950
 11852.00000  120.58880  103.49610    0.18460
 11852.50000  118.27580   97.17140    0.17290
 11853.00000  114.17470   87.68880    0.14600
 11853.50000  111.44090   69.18370    0.11900
 11854.00000  109.86420   47.06950    0.10300
 11854.50000  109.33930   36.91030    0.10600
 11855.00000  109.23520   32.84120    0.11540
 11855.50000  109.23620   32.60680    0.11840
 11856.00000  109.23730   32.82570    0.11580
 11856.50000  108.15640   32.58900    0.10980
 11857.00000  106.34640   31.45230    0.10110
 11857.50000  103.99040   29.86440    0.09660
 11858.00000  105.77060   30.53220    0.10530
 11858.50000  112.92410   42.53190    0.12410
 11859.00000  120.60360   54.15910    0.17820
 11859.50000  134.90970   74.98100    0.22740
 11860.00000  140.90620   90.94560    0.30150
 11860.50000  143.64200   94.54570    0.30640
 11861.00000  144.48430   93.86010    0.31240
 11861.50000  141.64560   92.27230    0.32420
 11862.00000  135.44080   86.84990    0.34170
 11862.50000  128.60490   73.30720    0.28790
 11863.00000  122.76920   66.98250    0.19700
 11863.50000  114.93320   64.94350    0.18050
 11864.00000  113.35650   64.70910    0.19140
 11864.50000  117.03890   67.40690    0.21470
 11865.00000  123.45620   75.06720    0.24100
 11865.50000  129.03200   81.59970    0.26690
 11866.00000  130.82120   85.87650    0.28080
 11866.50000  131.97920   90.83000    0.28270
 11867.00000  133.24250   90.81220    0.27410
 11867.50000  135.24200   91.48900    0.28650
 11868.00000  136.92600   88.44000    0.30710
 11868.50000  135.77000   87.63660    0.27820
 11869.00000  130.51180   90.78340    0.25490
 11869.50000  125.04330   96.18800    0.24740
 11870.00000  118.20740   93.02120    0.23000
 11870.50000  109.58330   83.53860    0.16580
 11871.00000  103.63400   73.60490    0.11390
 11871.50000   99.04300   69.53590    0.07520
 11872.00000   94.84900   53.51200    0.06730
 11872.50000   91.70640   42.90160    0.06170
 11873.00000   91.28650   37.48140    0.06130
 11873.50000   93.81220   47.39510    0.06580
 11874.00000   97.59990   58.21330    0.07070
 11874.50000   99.70460   62.71570    0.07560
 11875.00000   98.75900   64.28570    0.07630
 11875.50000   96.44590   68.36520    0.07480
 11876.00000   93.50180   66.56090    0.07140
 11876.50000   91.60960   58.20780    0.06350
 11877.00000   88.77060   44.62390    0.05410
 11877.50000   82.88130   35.14130    0.04400
 11878.00000   80.46320   31.74900    0.02470
 11878.50000   78.15010   27.90550    0.01610
