~Version ---------------------------------------------------
VERS.   2.0 : CWLS log ASCII Standard -VERSION 2.0
WRAP.    NO : One line per depth step
DLM . SPACE : Column Data Section Delimiter
~Well ------------------------------------------------------
STRT .F               10400.0 : START DEPTH
STOP .F               12224.0 : STOP DEPTH
STEP .F                   0.5 : STEP
NULL .               -9999.25 : NULL VALUE
COMP .                        : COMPANY
WELL .                        : WELL
FLD  .                        : FIELD
LOC  .                        : LOCATION
PROV .                        : PROVINCE
CNTY .                        : COUNTY
STAT .                        : STATE
CTRY .                        : COUNTRY
SRVC .                        : SERVICE COMPANY
DATE .                        : DATE
UWI  .                        : UNIQUE WELL ID
API  .                        : API NUMBER
SLAT .WGS84 2.742791678076003 : SURFACE LATITUDE
SLON .WGS84 8.884144083726994 : SURFACE LONGITUDE
DATUM.F               3204.42 : DEPTH DATUM ELEV
~Curve Information -----------------------------------------
DEPT.F     : 
DTSM.US/F  : SHEAR-WAVE INTERVAL TRANSIT TIME DELTA-T
GRS .GAPI  : GAMMA RAY FROM SONIC LOG
TNPH.DEC   : THERMAL NEUTRON POROSITY
~Params ----------------------------------------------------
~Other -----------------------------------------------------
~ASCII -----------------------------------------------------
 10400.00000   -9999.25   -9999.25   -9999.25
 10400.50000   -9999.25   25.93580    0.03800
 10401.00000   -9999.25   21.41890    0.03050
 10401.50000   -9999.25   21.41450    0.02520
 10402.00000   -9999.25   20.05660    0.02330
 10402.50000   -9999.25   19.37550    0.02480
 10403.00000   -9999.25   19.14540    0.02630
 10403.50000   -9999.25   18.91540    0.02740
 10404.00000   -9999.25   17.55760    0.02780
 10404.50000   -9999.25   17.10310    0.02820
 10405.00000   -9999.25   19.57870    0.02850
 10405.50000   -9999.25   21.82990    0.02740
 10406.00000   -9999.25   23.63000    0.02550
 10406.50000   -9999.25   22.04660    0.02360
 10407.00000   -9999.25   19.78650    0.02370
 10407.50000   -9999.25   20.70200    0.02480
 10408.00000   -9999.25   21.58200    0.02290
 10408.50000   -9999.25   20.08080    0.02360
 10409.00000   -9999.25   17.66020    0.02510
 10409.50000   -9999.25   16.15400    0.02510
 10410.00000   -9999.25   16.14960    0.02510
 10410.50000   -9999.25   14.79170    0.02510
 10411.00000   -9999.25   14.33720    0.02280
 10411.50000   -9999.25   16.81290    0.02100
 10412.00000   -9999.25   19.06410    0.01830
 10412.50000   -9999.25   18.15730    0.01870
 10413.00000   -9999.25   14.31830    0.02140
 10413.50000   -9999.25   12.05930    0.02170
 10414.00000   -9999.25   14.76050    0.02090
 10414.50000   -9999.25   15.88500    0.02020
 10415.00000   -9999.25   14.75160    0.02020
 10415.50000   -9999.25   14.29600    0.02280
 10416.00000   -9999.25   15.41940    0.02280
 10416.50000   -9999.25   17.44500    0.02130
 10417.00000   -9999.25   17.21490    0.01980
 10417.50000   -9999.25   16.30820    0.01790
 10418.00000   -9999.25   16.07820    0.01980
 10418.50000   -9999.25   15.37190    0.02280
 10419.00000   -9999.25   14.23980    0.02430
 10419.50000   -9999.25   13.13250    0.02500
 10420.00000   -9999.25   13.57920    0.02690
 10420.50000   -9999.25   13.57360    0.02770
 10421.00000   -9999.25   14.24580    0.03070
 10421.50000   -9999.25   15.36920    0.03440
 10422.00000   -9999.25   16.49370    0.03930
 10422.50000   -9999.25   15.81140    0.04460
 10423.00000   -9999.25   15.13020    0.05210
 10423.50000   -9999.25   15.12580    0.05360
 10424.00000   -9999.25   15.79800    0.05400
 10424.50000   -9999.25   16.69580    0.05360
 10425.00000   -9999.25   18.04470    0.04870
 10425.50000   -9999.25   19.84480    0.04110
 10426.00000   -9999.25   18.71250    0.03670
 10426.50000   -9999.25   16.45240    0.03590
 10427.00000   -9999.25   14.86900    0.03780
 10427.50000   -9999.25   14.84160    0.03740
 10428.00000   -9999.25   15.76230    0.03550
 10428.50000   -9999.25   17.78800    0.03210
 10429.00000   -9999.25   20.72640    0.03060
 10429.50000   -9999.25   20.40760    0.02990
 10430.00000   -9999.25   18.58540    0.03550
 10430.50000   -9999.25   17.23710    0.03920
 10431.00000   -9999.25   16.86230    0.04150
 10431.50000   -9999.25   17.31010    0.03730
 10432.00000   -9999.25   17.53120    0.03510
 10432.50000   -9999.25   17.52560    0.03130
 10433.00000   -9999.25   17.74780    0.02980
 10433.50000   -9999.25   18.64450    0.02790
 10434.00000   -9999.25   20.44460    0.03060
 10434.50000   -9999.25   21.11790    0.03280
 10435.00000   -9999.25   19.98450    0.03660
 10435.50000   -9999.25   21.33340    0.04330
 10436.00000   -9999.25   32.15600    0.04780
 10436.50000   -9999.25   50.87340    0.07530
 10437.00000   -9999.25   74.32760    0.12600
 10437.50000   -9999.25   75.90050    0.14600
 10438.00000   -9999.25   71.38630    0.12640
 10438.50000   -9999.25   64.61500    0.09710
 10439.00000   -9999.25   51.07670    0.07150
 10439.50000   -9999.25   41.97690    0.05350
 10440.00000   -9999.25   29.56600    0.03800
 10440.50000   -9999.25   26.47680    0.03690
 10441.00000   -9999.25   28.08670    0.04030
 10441.50000   -9999.25   28.27240    0.04520
 10442.00000   -9999.25   30.29690    0.05260
 10442.50000   -9999.25   35.48040    0.07970
 10443.00000   -9999.25   46.97970    0.10870
 10443.50000   -9999.25   61.18580    0.12860
 10444.00000   -9999.25   68.62490    0.13390
 10444.50000   -9999.25   72.00510    0.12560
 10445.00000   -9999.25   68.16490    0.12300
 10445.50000  116.07100   68.61270    0.13650
 10446.00000  122.48620   72.21610    0.16770
 10446.50000  128.48060   78.97860    0.18760
 10447.00000  131.74030   86.64330    0.22150
 10447.50000  135.63110   91.37570    0.22820
 10448.00000  137.21200   94.51690    0.24140
 10448.50000  137.08980   91.78740    0.23300
 10449.00000  136.28470   93.39240    0.22680
 10449.50000  134.46970   94.06460    0.21920
 10450.00000  135.58400   93.38350    0.22970
 10450.50000  136.35510   90.44450    0.24890
 10451.00000  137.09840   94.70180    0.26350
 10451.50000  137.51920  100.57990    0.27970
 10452.00000  137.52410  101.47720    0.27440
 10452.50000  136.76940   91.76960    0.25830
 10453.00000  132.83220   76.19910    0.20410
 10453.50000  124.73640   61.53080    0.16310
 10454.00000  113.11650   44.60680    0.12000
 10454.50000  108.69870   32.87090    0.07060
 10455.00000  103.96540   28.35290    0.05000
 10455.50000  101.54620   28.79740    0.04130
 10456.00000  100.59950   34.42990    0.05180
 10456.50000  100.49440   42.09240    0.06690
 10457.00000  101.54620   58.15490    0.08600
 10457.50000  104.59650   68.58630    0.11500
 10458.00000  108.27800   72.22970    0.13570
 10458.50000  112.69570   74.31980    0.17340
 10459.00000  115.32530   73.86200    0.19200
 10459.50000  116.16680   66.41180    0.16680
 10460.00000  113.92850   58.51040    0.12850
 10460.50000  109.64540   51.51130    0.11120
 10461.00000  106.80540   48.57230    0.10440
 10461.50000  104.80690   45.40770    0.09840
 10462.00000  103.64990   41.11540    0.09390
 10462.50000  102.91360   38.62750    0.09160
 10463.00000  102.70320   37.67910    0.09580
 10463.50000  103.33430   43.12550    0.11380
 10464.00000  106.17430   51.18900    0.13710
 10464.50000  111.22310   63.24810    0.16040
 10465.00000  116.79790   74.45730    0.19050
 10465.50000  119.53270   81.21760    0.20480
 10466.00000  121.43600   79.63200    0.21160
 10466.50000  124.24340   76.69300    0.21810
 10467.00000  127.69920   74.20520    0.22500
 10467.50000  131.31330   75.55190    0.22580
 10468.00000  135.20510   80.05650    0.22020
 10468.50000  138.46580   78.92210    0.21830
 10469.00000  139.62280   78.23870    0.22500
 10469.50000  139.93840   78.45790    0.22770
 10470.00000  139.51770   82.28560    0.22500
 10470.50000  138.88660   86.56470    0.22320
 10471.00000  138.46580   86.52210    0.23290
 10471.50000  138.36060   84.64380    0.23480
 10472.00000  138.46580   81.35510    0.23290
 10472.50000  138.78140   78.64170    0.23250
 10473.00000  139.10530   78.41110    0.24490
 10473.50000  139.74040   82.68860    0.26000
 10474.00000  140.77990   88.09540    0.24930
 10474.50000  141.20060   91.02280    0.23570
 10475.00000  141.20060   87.63100    0.23940
 10475.50000  141.30580   83.78980    0.25920
 10476.00000  141.51620   82.65700    0.24230
 10476.50000  141.83170   85.58100    0.24940
 10477.00000  142.88350   87.60440    0.25170
 10477.50000  144.56650   88.27450    0.25810
 10478.00000  145.61830   87.56770    0.26560
 10478.50000  146.56500   86.14850    0.26900
 10479.00000  147.19610   84.86940    0.27050
 10479.50000  147.51160   85.99060    0.27080
 10480.00000  147.40650   85.98400    0.27010
 10480.50000  146.85050   86.87960    0.22910
 10481.00000  146.14430   81.68500    0.22010
 10481.50000  146.03910   77.61820    0.21220
 10482.00000  146.98570   77.38760    0.24150
 10482.50000  149.72050   85.72520    0.27310
 10483.00000  153.61230   97.44790    0.29220
 10483.50000  157.39890  101.50140    0.31100
 10484.00000  160.34410   99.01350    0.32310
 10484.50000  162.23740  100.64300    0.30840
 10485.00000  163.81520  106.79010    0.30120
 10485.50000  165.70850  115.45810    0.29790
 10486.00000  166.38750  116.35530    0.32980
 10486.50000  167.28630  113.18920    0.33660
