~Version ---------------------------------------------------
VERS.   2.0 : CWLS log ASCII Standard -VERSION 2.0
WRAP.    NO : One line per depth step
DLM . SPACE : Column Data Section Delimiter
~Well ------------------------------------------------------
STRT .F               10400.0 : START DEPTH
STOP .F               12224.0 : STOP DEPTH
STEP .F                   0.5 : STEP
NULL .               -9999.25 : NULL VALUE
COMP .                        : COMPANY
WELL .                        : WELL
FLD  .                        : FIELD
LOC  .                        : LOCATION
PROV .                        : PROVINCE
CNTY .                        : COUNTY
STAT .                        : STATE
CTRY .                        : COUNTRY
SRVC .                        : SERVICE COMPANY
DATE .                        : DATE
UWI  .                        : UNIQUE WELL ID
API  .                        : API NUMBER
SLAT .WGS84 2.742791678076003 : SURFACE LATITUDE
SLON .WGS84 8.884144083726994 : SURFACE LONGITUDE
DATUM.F               3204.42 : DEPTH DATUM ELEV
~Curve Information -----------------------------------------
DEPT.F     : 
DTSM.US/F  : SHEAR-WAVE INTERVAL TRANSIT TIME DELTA-T
GRS .GAPI  : GAMMA RAY FROM SONIC LOG
TNPH.DEC   : THERMAL NEUTRON POROSITY
~Params ----------------------------------------------------
~Other -----------------------------------------------------
~ASCII -----------------------------------------------------
# ...
 11357.00000   -9999.25   58.06960    0.21150
 11357.50000   -9999.25   59.63740    0.22410
 11358.00000   -9999.25   63.68860    0.23010
 11358.50000   -9999.25   68.64220    0.21280
 11359.00000   -9999.25   71.11670    0.21880
 11359.50000   -9999.25   66.14320    0.21430
 11360.00000   -9999.25   60.73460    0.22110
 11360.50000   -9999.25   59.13440    0.21320
 11361.00000   -9999.25   58.22100    0.19660
 11361.50000   -9999.25   53.70090    0.17110
 11362.00000   -9999.25   50.71610    0.14850
 11362.50000   -9999.25   48.23530    0.13380
 11363.00000   -9999.25   49.16370    0.12140
 11363.50000   -9999.25   49.15480    0.10860
 11364.00000   -9999.25   45.52780    0.10260
 11364.50000   -9999.25   41.43550    0.10110
 11365.00000   -9999.25   42.79950    0.10230
 11365.50000   -9999.25   49.11700    0.10830
 11366.00000   -9999.25   50.91480    0.11810
 11366.50000   -9999.25   48.19920    0.13480
 11367.00000   -9999.25   52.24820    0.15520
 11367.50000   -9999.25   58.78070    0.21170
 11368.00000   -9999.25   68.92220    0.27590
 11368.50000   -9999.25   77.71030    0.31540
 11369.00000   -9999.25   82.21270    0.33610
 11369.50000   -9999.25   84.23610    0.36280
 11370.00000   -9999.25   76.33020    0.36800
 11370.50000   -9999.25   70.23110    0.36800
 11371.00000   -9999.25   66.16210    0.35710
 11371.50000   -9999.25   63.89750    0.32180
 11372.00000   -9999.25   63.21200    0.26800
 11372.50000   -9999.25   62.97750    0.22860
 11373.00000   -9999.25   67.16750    0.23230
 11373.50000   -9999.25   73.92250    0.23420
 11374.00000   -9999.25   75.80800    0.23270
 11374.50000   -9999.25   70.60890    0.22410
 11375.00000   -9999.25   64.73540    0.23080
 11375.50000   -9999.25   60.66630    0.22960
 11376.00000   -9999.25   55.24390    0.19850
 11376.50000   -9999.25   44.40790    0.12480
 11377.00000   -9999.25   35.37650    0.07260
 11377.50000   -9999.25   35.14210    0.05150
 11378.00000   -9999.25   36.93770    0.04360
 11378.50000   -9999.25   40.76340    0.04210
 11379.00000   -9999.25   38.04770    0.04140
 11379.50000   -9999.25   31.72300    0.04210
 11380.00000   -9999.25   27.20290    0.04020
 11380.50000   -9999.25   26.96840    0.03650
 11381.00000   -9999.25   25.35540    0.03420
 11381.50000   -9999.25   23.11580    0.03460
 11382.00000   -9999.25   24.08480    0.03570
 11382.50000   -9999.25   26.25390    0.03760
 11383.00000   -9999.25   27.82400    0.04020
 11383.50000   -9999.25   29.61960    0.04290
 11384.00000   -9999.25   29.83850    0.04290
 11384.50000   -9999.25   28.92510    0.04250
 11385.00000   -9999.25   28.46740    0.04060
 11385.50000   -9999.25   30.71190    0.04070
 11386.00000   -9999.25   35.89100    0.04530
 11386.50000   -9999.25   39.71670    0.05230
 11387.00000   94.70920   42.41450    0.05230
 11387.50000   94.39370   40.82670    0.05110
 11388.00000   94.07230   40.36670    0.04810
 11388.50000   93.65740   38.32770    0.04960
 11389.00000   93.23670   35.82690    0.05260
 11389.50000   92.92110   32.18730    0.05300
 11390.00000   93.13150   30.40600    0.05110
 11390.50000   93.34190   32.19970    0.05450
 11391.00000   93.02630   35.12320    0.05640
 11391.50000   93.23670   38.72330    0.05790
 11392.00000   92.29000   40.52110    0.05680
 11392.50000   91.86930   38.02880    0.05600
 11393.00000   91.55370   37.79440    0.05790
 11393.50000   92.07960   36.23370    0.05900
 11394.00000   92.07960   33.71640    0.06510
 11394.50000   92.29000   34.60980    0.07150
 11395.00000   92.71070   37.75880    0.07490
 11395.50000   93.76260   38.65440    0.07260
 11396.00000   95.34030   39.54550    0.06540
 11396.50000   97.23370   40.21330    0.05860
 11397.00000   99.66450   40.88110    0.05940
 11397.50000  102.75540   40.41380    0.06090
 11398.00000  105.39320   40.18670    0.06470
 11398.50000  106.92900   45.18640    0.07780
 11399.00000  105.85870   52.34710    0.10080
 11399.50000  104.28100   56.17280    0.13460
 11400.00000  102.38630   52.66680    0.13980
 11400.50000  100.07360   45.33600    0.13530
 11401.00000  100.17880   45.78490    0.13380
 11401.50000  104.59650   55.70750    0.14620
 11402.00000  112.69570   61.56990    0.16580
 11402.50000  126.29390   69.46240    0.19940
 11403.00000  139.45120   69.00900    0.24340
 11403.50000  154.66420   69.45750    0.28900
 11404.00000  164.76180   70.35750    0.33800
 11404.50000  165.39290   71.48310    0.31730
 11405.00000  165.18260   71.70700    0.31320
 11405.50000  164.02550   72.60650    0.32370
 11406.00000  162.86850   76.21330    0.35000
 11406.50000  161.71150   80.04570    0.34020
 11407.00000  160.44930   83.42690    0.31770
 11407.50000  158.87150   77.10900    0.28720
 11408.00000  157.92490   73.49770    0.29050
 11408.50000  157.38980   71.69100    0.31200
 11409.00000  157.39890   76.20010    0.32780
 11409.50000  157.81970   73.94170    0.34960
 11410.00000  157.92490   75.74400    0.36540
 11410.50000  157.92490   78.44850    0.39170
 11411.00000  157.71450   80.25080    0.34470
 11411.50000  157.39890   77.76740    0.30940
 11412.00000  156.87300   71.67500    0.28800
 11412.50000  156.03160   69.41710    0.29140
 11413.00000  155.08490   67.83600    0.28700
 11413.50000  154.34860   65.57810    0.28610
 11414.00000  153.40190   64.67360    0.30560
 11414.50000  152.64880   65.34810    0.30640
 11415.00000  151.77120   65.12030    0.32030
 11415.50000  149.82570   66.24590    0.31620
 11416.00000  147.30130   66.24320    0.31200
 11416.50000  145.19760   65.56430    0.29440
 11417.00000  143.09390   62.85530    0.25790
 11417.50000  139.51770   55.63500    0.21740
 11418.00000  135.52070   43.67790    0.13580
 11418.50000  127.21110   37.58550    0.09590
 11419.00000  120.26900   36.90660    0.08650
 11419.50000  109.75060   36.22770    0.08120
 11420.00000  102.49290   34.87210    0.07140
 11420.50000  101.33580   36.90000    0.06020
 11421.00000  103.56220   39.63700    0.05940
 11421.50000  110.48690   48.40830    0.07560
 11422.00000  119.95340   56.29130    0.11540
 11422.50000  131.41850   63.28160    0.16770
 11423.00000  142.91220   69.82070    0.22410
 11423.50000  156.97820   72.29970    0.28980
 11424.00000  162.97370   73.19970    0.32050
 11424.50000  162.55300   75.22760    0.32740
 11425.00000  160.55450   74.99980    0.32070
 11425.50000  158.24040   72.96750    0.29550
 11426.00000  154.45380   68.90520    0.25860
 11426.50000  148.77380   65.74510    0.25340
 11427.00000  139.30730   68.44960    0.24210
 11427.50000  133.73250   64.75780    0.22710
 11428.00000  124.05560   59.87190    0.20640
 11428.50000  116.68770   51.07400    0.16920
 11429.00000  110.71320   49.49280    0.13690
 11429.50000  105.12250   46.33270    0.11020
 11430.00000  102.91360   43.84930    0.10190
 11430.50000  101.96690   41.59150    0.09470
 11431.00000  102.07210   42.71710    0.10150
 11431.50000  102.59800   44.97050    0.10830
 11432.00000  103.75510   46.77280    0.11200
 11432.50000  105.22760   48.12400    0.11350
 11433.00000  106.17430   49.02410    0.11280
 11433.50000  106.48990   49.00010    0.10380
 11434.00000  104.38620   41.07470    0.08050
 11434.50000  101.16330   33.88300    0.05340
 11435.00000   97.87590   20.14250    0.03870
 11435.50000   93.76260   19.46410    0.03350
 11436.00000   93.23670   23.52150    0.03380
 11436.50000   94.07810   30.51180    0.03570
 11437.00000   95.65590   37.50200    0.04140
 11437.50000   98.60110   43.59000    0.05340
 11438.00000  102.17730   50.12920    0.07930
 11438.50000  105.75360   56.21720    0.12870
 11439.00000  108.27800   54.86160    0.20000
 11439.50000  108.59350   51.47590    0.18570
 11440.00000  105.75360   49.41500    0.15750
 11440.50000  101.12960   46.27090    0.12780
 11441.00000   96.01900   38.83720    0.10730
 11441.50000   91.86930   33.19590    0.06120
 11442.00000   91.13300   28.68240    0.03500
 11442.50000   91.02780   27.77790    0.03530
 11443.00000   91.76410   29.35460    0.04020
 11443.50000   92.50040   28.22460    0.04210
