~Version ---------------------------------------------------
VERS.   2.0 : CWLS log ASCII Standard -VERSION 2.0
WRAP.    NO : One line per depth step
DLM . SPACE : Column Data Section Delimiter
~Well ------------------------------------------------------
STRT .FT               1480.0 : START DEPTH
STOP .FT              10748.0 : STOP DEPTH
STEP .FT                  0.5 : STEP
NULL .               -9999.25 : NULL VALUE
COMP .                        : COMPANY
WELL .                        : WELL
FLD  .                        : FIELD
LOC  .                        : LOCATION
PROV .                        : PROVINCE
CNTY .                        : COUNTY
STAT .                        : STATE
CTRY .                        : COUNTRY
SRVC .                        : SERVICE COMPANY
DATE .                        : DATE
UWI  .                        : UNIQUE WELL ID
API  .                        : API NUMBER
SLAT .WGS84 5.930649512990897 : SURFACE LATITUDE
SLON .WGS84 2.851030789253926 : SURFACE LONGITUDE
DATUM.F                   nan : DEPTH DATUM ELEV
~Curve Information -----------------------------------------
DEPT   .FT    : 
AT10   .OHMM  : ARRAY INDUCTION TWO FOOT RESISTIVITY A10
AT30   .OHMM  : ARRAY INDUCTION TWO FOOT RESISTIVITY A30
AT90   .OHMM  : ARRAY INDUCTION TWO FOOT RESISTIVITY A90
DPHZ_LS.DEC   : HGRD STANDARD RESOLUTION DENSITY POROSITY
DTCO   .US/F  : DELTA-T COMPRESSIONAL
DTSM   .US/F  : DELTA-T SHEAR
ECGRD  .GAPI  : ENVIRONMENTALLY CORRECTED GAMMA RAY FROM DENSITY LOG
ECGRR  .GAPI  : ENVIRONMENTALLY CORRECTED GAMMA RAY FROM RESISTIVITY LOG
HCALD  .IN    : HRCC CALIPER CALIBRATED FROM DENSITY LOG
HCALR  .IN    : HRCC CALIPER CALIBRATED FROM RESISTIVITY LOG
HDRA   .G/C3  : HRDD SPINE AND RIBS DENSITY CORRECTION
PEFZ   .B/E   : HRDD STANDARD RESOLUTION FORMATION PHOTOELECTRIC FACTOR
RHOZ   .G/C3  : HRDD STANDARD RESOLUTION FORMATION DENSITY
TNPH_LS.DEC   : THERMAL NEUTRON POROSITY [LIMESTONE]
~Params ----------------------------------------------------
~Other -----------------------------------------------------
~ASCII -----------------------------------------------------
# ...
 3930.00000    1.57930    2.49180    3.55210    0.20930   -9999.25   -9999.25   -9999.25   83.11670   -9999.25   13.14680   -9999.25    4.73390   -9999.25    0.38100
 3930.50000    1.65660    2.63060    3.26880    0.20480   -9999.25   -9999.25   -9999.25   84.72270   -9999.25   13.36880   -9999.25    4.80580   -9999.25    0.37200
 3931.00000    1.74790    2.51720    2.93820    0.20680   -9999.25   -9999.25   -9999.25   84.59410   -9999.25   13.57460   -9999.25    4.89170   -9999.25    0.36510
 3931.50000    1.74770    2.42660    2.84090    0.20620   -9999.25   -9999.25   -9999.25   82.98880   -9999.25   13.67140   -9999.25    4.96840   -9999.25    0.36090
 3932.00000    1.74760    2.50280    3.06060    0.19710   -9999.25   -9999.25   -9999.25   81.91120   -9999.25   14.19600   -9999.25    4.99620   -9999.25    0.34730
 3932.50000    1.74750    2.46400    2.80550    0.19340   -9999.25   -9999.25   -9999.25   81.65240   -9999.25   13.38090   -9999.25    4.85110   -9999.25    0.38110
 3933.00000    1.65670    2.27100    2.61980    0.19750   -9999.25   -9999.25   -9999.25   81.05300   -9999.25   14.47050   -9999.25    4.74750   -9999.25    0.39600
 3933.50000    1.62610    2.11660    2.49340    0.24770   -9999.25   -9999.25   -9999.25   84.64060   -9999.25   15.56000   -9999.25    4.75540   -9999.25    0.41580
 3934.00000    1.69490    2.40230    2.95870    0.29870   -9999.25   -9999.25   -9999.25   86.39430   -9999.25   16.00400   -9999.25    4.90520   -9999.25    0.43840
 3934.50000    1.75140    2.61290    3.68790    0.29870   -9999.25   -9999.25   -9999.25   91.76590   -9999.25   17.48100   -9999.25    5.07800   -9999.25    0.44170
 3935.00000    1.81830    2.66180    3.74410    0.29870   -9999.25   -9999.25   -9999.25   93.57560   -9999.25   18.65130   -9999.25    5.22170   -9999.25    0.43100
 3935.50000    1.87140    2.54860    3.96760    0.29870   -9999.25   -9999.25   -9999.25   94.38530   -9999.25   18.52210   -9999.25    5.32070   -9999.25    0.41960
 3936.00000    1.79290    2.34020    4.03700    0.29870   -9999.25   -9999.25   -9999.25   93.73660   -9999.25   17.88450   -9999.25    5.41970   -9999.25    0.41940
 3936.50000    1.62540    2.12800    3.89290    0.29860   -9999.25   -9999.25   -9999.25   97.87140   -9999.25   17.81190   -9999.25    5.22940   -9999.25    0.41070
 3937.00000    1.51240    1.91570    3.65050    0.29860   -9999.25   -9999.25   -9999.25  106.16110   -9999.25   16.59320   -9999.25    4.91220   -9999.25    0.40690
 3937.50000    1.40170    1.74550    3.14270    0.29860   -9999.25   -9999.25   -9999.25  111.08570   -9999.25   17.10970   -9999.25    4.59510   -9999.25    0.44720
 3938.00000    1.45940    1.77270    3.07590    0.29450   -9999.25   -9999.25   -9999.25  111.80350   -9999.25   15.01120   -9999.25    4.27790   -9999.25    0.47110
 3938.50000    1.60170    1.94200    3.48390    0.27320   -9999.25   -9999.25   -9999.25  112.01160   -9999.25   14.25520   -9999.25    4.23480   -9999.25    0.44990
 3939.00000    1.84820    2.19310    4.22150    0.24610   -9999.25   -9999.25   -9999.25  111.48070   -9999.25   13.94590   -9999.25    4.52510   -9999.25    0.42330
 3939.50000    2.14440    2.44430    4.33620    0.23590   -9999.25   -9999.25   -9999.25  106.39090   -9999.25   13.87050   -9999.25    4.86550   -9999.25    0.38620
 3940.00000    2.27880    2.66010    4.07150    0.22090   -9999.25   -9999.25   -9999.25  102.79490   -9999.25   12.79980   -9999.25    4.99430   -9999.25    0.39280
 3940.50000    2.32760    2.67070    3.56930    0.20710   -9999.25   -9999.25   -9999.25  100.42340   -9999.25   13.55840   -9999.25    4.96250   -9999.25    0.40320
 3941.00000    2.35170    2.55850    3.11690    0.17960   -9999.25   -9999.25   -9999.25  103.49630   -9999.25   14.50280   -9999.25    4.80340   -9999.25    0.41630
 3941.50000    2.31290    2.46880    2.89040    0.14440   -9999.25   -9999.25   -9999.25  106.18640   -9999.25   13.67140   -9999.25    4.48040   -9999.25    0.40790
 3942.00000    2.12310    2.24930    3.11740    0.12890   -9999.25   -9999.25   -9999.25  101.13760   -9999.25   13.62620   -9999.25    4.04360   -9999.25    0.36580
 3942.50000    1.73400    2.04930    3.13270    0.09770   -9999.25   -9999.25   -9999.25   93.82410   -9999.25   12.91070   -9999.25    3.54520   -9999.25    0.29650
 3943.00000    1.34490    1.76230    2.39590    0.12830   -9999.25   -9999.25   -9999.25   81.34030   -9999.25   12.55420   -9999.25    3.26250   -9999.25    0.24490
 3943.50000    1.19080    1.47520    1.97230    0.15900   -9999.25   -9999.25   -9999.25   71.65240   -9999.25   12.32740   -9999.25    3.33850   -9999.25    0.23300
 3944.00000    1.07830    1.29490    1.72700    0.18970   -9999.25   -9999.25   -9999.25   59.10110   -9999.25   12.13000   -9999.25    3.63220   -9999.25    0.23190
 3944.50000    0.95230    1.20150    1.61190    0.22030   -9999.25   -9999.25   -9999.25   53.94960   -9999.25   12.00850   -9999.25    3.94360   -9999.25    0.22010
 3945.00000    0.83610    1.09870    1.56930    0.22100   -9999.25   -9999.25   -9999.25   51.86630   -9999.25   11.81410   -9999.25    4.13520   -9999.25    0.20830
 3945.50000    0.79310    1.00390    1.56790    0.19520   -9999.25   -9999.25   -9999.25   52.87240   -9999.25   11.76500   -9999.25    4.16890   -9999.25    0.21000
 3946.00000    0.78080    1.00210    1.67620    0.17000   -9999.25   -9999.25   -9999.25   54.71380   -9999.25   11.95830   -9999.25    3.98570   -9999.25    0.22930
 3946.50000    0.78080    1.00020    1.74170    0.14910   -9999.25   -9999.25   -9999.25   57.65160   -9999.25   12.14480   -9999.25    3.68880   -9999.25    0.24580
 3947.00000    0.78080    0.99840    1.74290    0.14700   -9999.25   -9999.25   -9999.25   60.35300   -9999.25   12.28930   -9999.25    3.39190   -9999.25    0.24890
 3947.50000    0.78080    0.99650    1.69560    0.16110   -9999.25   -9999.25   -9999.25   61.15060   -9999.25   12.37600   -9999.25    3.09490   -9999.25    0.23920
 3948.00000    0.78080    0.99470    1.68000    0.17520   -9999.25   -9999.25   -9999.25   58.28900   -9999.25   12.41790   -9999.25    2.85740   -9999.25    0.23160
 3948.50000    0.78080    0.99290    1.55270    0.18930   -9999.25   -9999.25   -9999.25   55.40900   -9999.25   12.33790   -9999.25    2.82490   -9999.25    0.21990
 3949.00000    0.78080    0.99720    1.50990    0.20200   -9999.25   -9999.25   -9999.25   52.09290   -9999.25   12.32400   -9999.25    2.83720   -9999.25    0.20710
 3949.50000    0.83030    1.10290    1.62710    0.19380   -9999.25   -9999.25   -9999.25   51.40720   -9999.25   12.31020   -9999.25    2.99530   -9999.25    0.18770
 3950.00000    0.93630    1.21340    1.71880    0.17770   -9999.25   -9999.25   -9999.25   48.47440   -9999.25   12.29630   -9999.25    3.07680   -9999.25    0.16830
 3950.50000    0.99390    1.32390    1.85860    0.16160   -9999.25   -9999.25   -9999.25   45.08890   -9999.25   12.26440   -9999.25    3.13090   -9999.25    0.14890
 3951.00000    1.07750    1.56820    2.29900    0.15150   -9999.25   -9999.25   -9999.25   42.46550   -9999.25   12.25550   -9999.25    3.05880   -9999.25    0.13870
 3951.50000    1.61220    1.96400    3.15820    0.14910   -9999.25   -9999.25   -9999.25   43.24620   -9999.25   12.25520   -9999.25    2.98670   -9999.25    0.13350
 3952.00000    2.06680    2.43900    4.01750    0.13880   -9999.25   -9999.25   -9999.25   47.48020   -9999.25   12.25500   -9999.25    2.91310   -9999.25    0.13040
 3952.50000    2.42220    3.19270    4.87670    0.10820   -9999.25   -9999.25   -9999.25   51.45260   -9999.25   12.28600   -9999.25    3.15410   -9999.25    0.12270
 3953.00000    3.25070    5.19360    5.73590    0.08000   -9999.25   -9999.25   -9999.25   53.88090   -9999.25   12.31710   -9999.25    3.51570   -9999.25    0.11440
 3953.50000    4.51600    7.19450    8.47020    0.05290   -9999.25   -9999.25   -9999.25   54.96350   -9999.25   12.34470   -9999.25    4.13850   -9999.25    0.10430
 3954.00000    6.63400    9.19550   12.45460    0.03490   -9999.25   -9999.25   -9999.25   54.21230   -9999.25   12.36120   -9999.25    4.64490   -9999.25    0.09790
