~Version ---------------------------------------------------
VERS.   2.0 : CWLS log ASCII Standard -VERSION 2.0
WRAP.    NO : One line per depth step
DLM . SPACE : Column Data Section Delimiter
~Well ------------------------------------------------------
STRT .FT               1480.0 : START DEPTH
STOP .FT              10748.0 : STOP DEPTH
STEP .FT                  0.5 : STEP
NULL .               -9999.25 : NULL VALUE
COMP .                        : COMPANY
WELL .                        : WELL
FLD  .                        : FIELD
LOC  .                        : LOCATION
PROV .                        : PROVINCE
CNTY .                        : COUNTY
STAT .                        : STATE
CTRY .                        : COUNTRY
SRVC .                        : SERVICE COMPANY
DATE .                        : DATE
UWI  .                        : UNIQUE WELL ID
API  .                        : API NUMBER
SLAT .WGS84 5.930649512990897 : SURFACE LATITUDE
SLON .WGS84 2.851030789253926 : SURFACE LONGITUDE
DATUM.F                   nan : DEPTH DATUM ELEV
~Curve Information -----------------------------------------
DEPT   .FT    : 
AT10   .OHMM  : ARRAY INDUCTION TWO FOOT RESISTIVITY A10
AT30   .OHMM  : ARRAY INDUCTION TWO FOOT RESISTIVITY A30
AT90   .OHMM  : ARRAY INDUCTION TWO FOOT RESISTIVITY A90
DPHZ_LS.DEC   : HGRD STANDARD RESOLUTION DENSITY POROSITY
DTCO   .US/F  : DELTA-T COMPRESSIONAL
DTSM   .US/F  : DELTA-T SHEAR
ECGRD  .GAPI  : ENVIRONMENTALLY CORRECTED GAMMA RAY FROM DENSITY LOG
ECGRR  .GAPI  : ENVIRONMENTALLY CORRECTED GAMMA RAY FROM RESISTIVITY LOG
HCALD  .IN    : HRCC CALIPER CALIBRATED FROM DENSITY LOG
HCALR  .IN    : HRCC CALIPER CALIBRATED FROM RESISTIVITY LOG
HDRA   .G/C3  : HRDD SPINE AND RIBS DENSITY CORRECTION
PEFZ   .B/E   : HRDD STANDARD RESOLUTION FORMATION PHOTOELECTRIC FACTOR
RHOZ   .G/C3  : HRDD STANDARD RESOLUTION FORMATION DENSITY
TNPH_LS.DEC   : THERMAL NEUTRON POROSITY [LIMESTONE]
~Params ----------------------------------------------------
~Other -----------------------------------------------------
~ASCII -----------------------------------------------------
# ...
 6968.00000    7.79900    8.37570    9.23360    0.04710   -9999.25   -9999.25   -9999.25   94.80860   -9999.25   12.56770   -9999.25    3.98670   -9999.25    0.21960
 6968.50000    7.83080    8.41660    9.19420    0.04520   -9999.25   -9999.25   -9999.25   99.80020   -9999.25   12.67350   -9999.25    4.02370   -9999.25    0.22890
 6969.00000    7.86260    8.40760    9.15490    0.04600   -9999.25   -9999.25   -9999.25   99.95030   -9999.25   12.54560   -9999.25    4.02350   -9999.25    0.23420
 6969.50000    7.71740    8.36440    9.06690    0.04230   -9999.25   -9999.25   -9999.25   99.94760   -9999.25   12.72280   -9999.25    3.99950   -9999.25    0.21610
 6970.00000    7.62200    8.32120    8.95130    0.03890   -9999.25   -9999.25   -9999.25   99.57600   -9999.25   12.51730   -9999.25    3.94490   -9999.25    0.20770
 6970.50000    7.57460    8.27800    8.87680    0.03720   -9999.25   -9999.25   -9999.25   99.42470   -9999.25   12.65730   -9999.25    3.89750   -9999.25    0.20840
 6971.00000    7.16360    8.23480    8.80240    0.04570   -9999.25   -9999.25   -9999.25  100.73620   -9999.25   12.38610   -9999.25    3.88120   -9999.25    0.21270
 6971.50000    7.07500    8.19160    8.72790    0.04590   -9999.25   -9999.25   -9999.25  102.75400   -9999.25   12.38410   -9999.25    3.97900   -9999.25    0.22160
 6972.00000    6.40720    8.10660    8.65340    0.03950   -9999.25   -9999.25   -9999.25  103.81330   -9999.25   12.45000   -9999.25    4.07670   -9999.25    0.22670
 6972.50000    6.62580    8.01660    8.57890    0.03220   -9999.25   -9999.25   -9999.25  108.05060   -9999.25   12.65740   -9999.25    4.17440   -9999.25    0.23390
 6973.00000    6.77370    7.91770    8.51930    0.03090   -9999.25   -9999.25   -9999.25  109.27650   -9999.25   12.59910   -9999.25    4.20290   -9999.25    0.22160
 6973.50000    6.90030    8.00540    8.79800    0.04760   -9999.25   -9999.25   -9999.25  110.37350   -9999.25   12.70560   -9999.25    4.10370   -9999.25    0.21270
 6974.00000    7.13980    8.41150    9.26470    0.04110   -9999.25   -9999.25   -9999.25  109.31170   -9999.25   12.67040   -9999.25    3.95760   -9999.25    0.20300
 6974.50000    7.57110    8.26660    9.40510    0.03920   -9999.25   -9999.25   -9999.25  106.78700   -9999.25   12.45550   -9999.25    3.86680   -9999.25    0.20160
 6975.00000    7.12920    7.90470    8.68920    0.03970   -9999.25   -9999.25   -9999.25  104.57440   -9999.25   12.63970   -9999.25    3.82010   -9999.25    0.20550
 6975.50000    7.02810    7.56980    8.19020    0.04840   -9999.25   -9999.25   -9999.25  104.60470   -9999.25   12.77960   -9999.25    3.85550   -9999.25    0.21860
 6976.00000    6.87860    7.34050    7.90650    0.05010   -9999.25   -9999.25   -9999.25  103.96470   -9999.25   12.44670   -9999.25    4.02340   -9999.25    0.23200
 6976.50000    6.53060    7.12180    7.90600    0.05470   -9999.25   -9999.25   -9999.25  102.60270   -9999.25   12.53240   -9999.25    4.15230   -9999.25    0.23620
 6977.00000    6.03400    6.90300    7.71220    0.04910   -9999.25   -9999.25   -9999.25  102.90530   -9999.25   13.01160   -9999.25    4.29330   -9999.25    0.22660
 6977.50000    5.79910    6.72790    7.43050    0.03610   -9999.25   -9999.25   -9999.25  104.11600   -9999.25   13.15460   -9999.25    4.34370   -9999.25    0.22300
 6978.00000    6.56580    7.18160    8.08530    0.03440   -9999.25   -9999.25   -9999.25  105.78060   -9999.25   12.96120   -9999.25    4.31840   -9999.25    0.22190
 6978.50000    7.06940    7.57120    8.74010    0.02810   -9999.25   -9999.25   -9999.25  106.53730   -9999.25   12.69890   -9999.25    4.26210   -9999.25    0.22850
 6979.00000    6.60940    7.70890    8.63570    0.03230   -9999.25   -9999.25   -9999.25  107.14260   -9999.25   12.95620   -9999.25    4.22010   -9999.25    0.23100
 6979.50000    6.05460    7.38120    8.02540    0.03660   -9999.25   -9999.25   -9999.25  109.26130   -9999.25   13.19320   -9999.25    4.18530   -9999.25    0.23700
 6980.00000    5.97980    6.94070    7.80200    0.04790   -9999.25   -9999.25   -9999.25  110.57280   -9999.25   13.08230   -9999.25    4.20250   -9999.25    0.25020
 6980.50000    5.97980    6.68410    7.78300    0.05450   -9999.25   -9999.25   -9999.25  110.98640   -9999.25   13.34460   -9999.25    4.22970   -9999.25    0.27210
 6981.00000    5.83270    6.66730    7.76410    0.05350   -9999.25   -9999.25   -9999.25  111.55640   -9999.25   13.01160   -9999.25    4.24160   -9999.25    0.29010
 6981.50000    5.39690    6.51970    7.51970    0.05070   -9999.25   -9999.25   -9999.25  113.95250   -9999.25   13.47370   -9999.25    4.25350   -9999.25    0.30140
 6982.00000    5.59650    6.35980    7.11160    0.04190   -9999.25   -9999.25   -9999.25  112.43920   -9999.25   12.75940   -9999.25    4.22380   -9999.25    0.30570
 6982.50000    6.16990    7.00760    7.75870    0.04300   -9999.25   -9999.25   -9999.25  105.53470   -9999.25   12.44670   -9999.25    4.17280   -9999.25    0.29830
 6983.00000    6.39910    8.12730    8.72640    0.04660   -9999.25   -9999.25   -9999.25   97.15470   -9999.25   12.75940   -9999.25    4.10350   -9999.25    0.27160
 6983.50000    6.24410    8.29930    9.12170    0.04880   -9999.25   -9999.25   -9999.25   95.79280   -9999.25   12.40630   -9999.25    4.06400   -9999.25    0.24750
 6984.00000    6.08900    7.66760    9.57160    0.05130   -9999.25   -9999.25   -9999.25   96.44850   -9999.25   12.47690   -9999.25    4.10150   -9999.25    0.22450
 6984.50000    5.68770    7.36500    9.45330    0.05660   -9999.25   -9999.25   -9999.25   97.45740   -9999.25   12.80990   -9999.25    4.18200   -9999.25    0.23130
 6985.00000    5.14790    7.06250    8.30310    0.06980   -9999.25   -9999.25   -9999.25   98.97070   -9999.25   12.75940   -9999.25    4.30420   -9999.25    0.25480
 6985.50000    4.73060    6.75990    7.15290    0.07500   -9999.25   -9999.25   -9999.25  101.24070   -9999.25   13.00160   -9999.25    4.34030   -9999.25    0.27930
 6986.00000    4.55350    6.47620    6.96610    0.07150   -9999.25   -9999.25   -9999.25  107.74790   -9999.25   13.36470   -9999.25    4.32270   -9999.25    0.28660
 6986.50000    4.58250    6.43580    6.97710    0.06300   -9999.25   -9999.25   -9999.25  110.62320   -9999.25   13.05200   -9999.25    4.30510   -9999.25    0.29400
 6987.00000    4.56830    6.55620    7.42190    0.05080   -9999.25   -9999.25   -9999.25  110.47190   -9999.25   13.18310   -9999.25    4.28740   -9999.25    0.29560
 6987.50000    4.38820    6.83280    8.20740    0.04120   -9999.25   -9999.25   -9999.25  106.83990   -9999.25   12.92080   -9999.25    4.28230   -9999.25    0.29980
 6988.00000    4.73180    7.28330    8.99290    0.03190   -9999.25   -9999.25   -9999.25  106.38600   -9999.25   12.36600   -9999.25    4.25400   -9999.25    0.28800
 6988.50000    5.29430    6.89820   10.52280    0.02600   -9999.25   -9999.25   -9999.25  106.71020   -9999.25   12.87040   -9999.25    4.24240   -9999.25    0.26050
 6989.00000    4.72600    6.30280    9.58810    0.03370   -9999.25   -9999.25   -9999.25  107.29390   -9999.25   12.40840   -9999.25    4.26000   -9999.25    0.24950
 6989.50000    4.33110    5.79050    8.15120    0.04270   -9999.25   -9999.25   -9999.25  107.61400   -9999.25   12.73250   -9999.25    4.32350   -9999.25    0.27240
 6990.00000    4.30370    5.79020    7.42800    0.04460   -9999.25   -9999.25   -9999.25  108.95860   -9999.25   13.30420   -9999.25    4.32870   -9999.25    0.28340
 6990.50000    4.98990    6.60460    7.98220    0.03810   -9999.25   -9999.25   -9999.25  104.74410   -9999.25   12.57790   -9999.25    4.16460   -9999.25    0.28560
 6991.00000    5.52260    7.34680    9.44670    0.04000   -9999.25   -9999.25   -9999.25  103.80660   -9999.25   12.39270   -9999.25    3.95430   -9999.25    0.26800
 6991.50000    5.95870    8.08900   10.59320    0.05690   -9999.25   -9999.25   -9999.25  104.53350   -9999.25   12.32900   -9999.25    3.77480   -9999.25    0.25340
 6992.00000    5.65820    8.03870   10.56000    0.06760   -9999.25   -9999.25   -9999.25  107.32420   -9999.25   12.26820   -9999.25    3.86610   -9999.25    0.25880
