~Version ---------------------------------------------------
VERS.   2.0 : CWLS log ASCII Standard -VERSION 2.0
WRAP.    NO : One line per depth step
DLM . SPACE : Column Data Section Delimiter
~Well ------------------------------------------------------
STRT .FT               1480.0 : START DEPTH
STOP .FT              10748.0 : STOP DEPTH
STEP .FT                  0.5 : STEP
NULL .               -9999.25 : NULL VALUE
COMP .                        : COMPANY
WELL .                        : WELL
FLD  .                        : FIELD
LOC  .                        : LOCATION
PROV .                        : PROVINCE
CNTY .                        : COUNTY
STAT .                        : STATE
CTRY .                        : COUNTRY
SRVC .                        : SERVICE COMPANY
DATE .                        : DATE
UWI  .                        : UNIQUE WELL ID
API  .                        : API NUMBER
SLAT .WGS84 5.930649512990897 : SURFACE LATITUDE
SLON .WGS84 2.851030789253926 : SURFACE LONGITUDE
DATUM.F                   nan : DEPTH DATUM ELEV
~Curve Information -----------------------------------------
DEPT   .FT    : 
AT10   .OHMM  : ARRAY INDUCTION TWO FOOT RESISTIVITY A10
AT30   .OHMM  : ARRAY INDUCTION TWO FOOT RESISTIVITY A30
AT90   .OHMM  : ARRAY INDUCTION TWO FOOT RESISTIVITY A90
DPHZ_LS.DEC   : HGRD STANDARD RESOLUTION DENSITY POROSITY
DTCO   .US/F  : DELTA-T COMPRESSIONAL
DTSM   .US/F  : DELTA-T SHEAR
ECGRD  .GAPI  : ENVIRONMENTALLY CORRECTED GAMMA RAY FROM DENSITY LOG
ECGRR  .GAPI  : ENVIRONMENTALLY CORRECTED GAMMA RAY FROM RESISTIVITY LOG
HCALD  .IN    : HRCC CALIPER CALIBRATED FROM DENSITY LOG
HCALR  .IN    : HRCC CALIPER CALIBRATED FROM RESISTIVITY LOG
HDRA   .G/C3  : HRDD SPINE AND RIBS DENSITY CORRECTION
PEFZ   .B/E   : HRDD STANDARD RESOLUTION FORMATION PHOTOELECTRIC FACTOR
RHOZ   .G/C3  : HRDD STANDARD RESOLUTION FORMATION DENSITY
TNPH_LS.DEC   : THERMAL NEUTRON POROSITY [LIMESTONE]
~Params ----------------------------------------------------
~Other -----------------------------------------------------
~ASCII -----------------------------------------------------
# ...
 8805.50000    7.28300    9.45570   10.05020    0.01600   -9999.25   -9999.25   -9999.25  109.20830   -9999.25   12.01860   -9999.25    4.12280   -9999.25    0.20240
 8806.00000    7.38260    9.77930   10.53040    0.01760   -9999.25   -9999.25   -9999.25  110.74980   -9999.25   12.05580   -9999.25    4.16220   -9999.25    0.20130
 8806.50000    7.73920    9.96290   11.01070    0.02110   -9999.25   -9999.25   -9999.25  113.13900   -9999.25   12.09770   -9999.25    4.26460   -9999.25    0.20610
 8807.00000    7.28800    9.59900   10.60840    0.01920   -9999.25   -9999.25   -9999.25  111.02070   -9999.25   12.04740   -9999.25    4.42120   -9999.25    0.20610
 8807.50000    6.87310    8.86780    9.45700    0.01720   -9999.25   -9999.25   -9999.25  113.64980   -9999.25   11.97410   -9999.25    4.53870   -9999.25    0.20780
 8808.00000    6.67750    8.47920    9.05660    0.01310   -9999.25   -9999.25   -9999.25  113.27630   -9999.25   11.93720   -9999.25    4.63050   -9999.25    0.20920
 8808.50000    6.82580    8.47920    9.05660    0.00180   -9999.25   -9999.25   -9999.25  112.70980   -9999.25   11.95540   -9999.25    4.59080   -9999.25    0.21450
 8809.00000    7.19670    8.78490    9.22670   -0.00480   -9999.25   -9999.25   -9999.25  110.25050   -9999.25   11.99680   -9999.25    4.47630   -9999.25    0.21360
 8809.50000    7.54260    9.07780   10.31650   -0.00070   -9999.25   -9999.25   -9999.25  108.45840   -9999.25   12.09560   -9999.25    4.35410   -9999.25    0.20650
 8810.00000    7.81150    9.02170   10.12630    0.01290   -9999.25   -9999.25   -9999.25  104.02980   -9999.25   12.10640   -9999.25    4.31280   -9999.25    0.19860
 8810.50000    7.62790    8.99580    9.84760    0.02450   -9999.25   -9999.25   -9999.25  103.73320   -9999.25   12.06080   -9999.25    4.36720   -9999.25    0.20680
 8811.00000    7.44420    9.03310    9.31290    0.02940   -9999.25   -9999.25   -9999.25  105.77740   -9999.25   12.04420   -9999.25    4.36940   -9999.25    0.21450
 8811.50000    7.40190    9.07040    9.48780    0.03290   -9999.25   -9999.25   -9999.25  106.87410   -9999.25   12.02750   -9999.25    4.33190   -9999.25    0.22550
 8812.00000    7.61540    9.07780   10.03250    0.03140   -9999.25   -9999.25   -9999.25  104.80630   -9999.25   12.04050   -9999.25    4.29440   -9999.25    0.22570
 8812.50000    7.68520    9.06540   10.31650    0.02560   -9999.25   -9999.25   -9999.25  102.11000   -9999.25   12.07630   -9999.25    4.21580   -9999.25    0.22580
 8813.00000    7.79160    9.03420    9.97460    0.02140   -9999.25   -9999.25   -9999.25  102.48280   -9999.25   12.11450   -9999.25    4.14360   -9999.25    0.22690
 8813.50000    7.50810    8.96590    9.56420    0.02090   -9999.25   -9999.25   -9999.25  103.52270   -9999.25   12.10020   -9999.25    4.10550   -9999.25    0.23080
 8814.00000    7.59650    8.72450    9.40000    0.02040   -9999.25   -9999.25   -9999.25  104.39950   -9999.25   12.08220   -9999.25    4.08750   -9999.25    0.23430
 8814.50000    7.49380    8.47920    9.48780    0.01980   -9999.25   -9999.25   -9999.25  107.30250   -9999.25   12.05140   -9999.25    4.06640   -9999.25    0.23740
 8815.00000    7.39100    8.47920    9.48780    0.01960   -9999.25   -9999.25   -9999.25  108.51340   -9999.25   12.05950   -9999.25    3.98290   -9999.25    0.23280
 8815.50000    7.65210    8.41640    9.22670    0.02000   -9999.25   -9999.25   -9999.25  111.04100   -9999.25   12.06340   -9999.25    3.88930   -9999.25    0.23700
 8816.00000    7.56130    8.32290    9.22670    0.02070   -9999.25   -9999.25   -9999.25  110.93160   -9999.25   12.05470   -9999.25    3.79900   -9999.25    0.23860
 8816.50000    7.49120    8.37460    9.22670    0.02140   -9999.25   -9999.25   -9999.25  109.49800   -9999.25   12.09450   -9999.25    3.69410   -9999.25    0.23800
 8817.00000    7.97880    9.03270   10.08410    0.02470   -9999.25   -9999.25   -9999.25  108.39440   -9999.25   12.04720   -9999.25    3.58920   -9999.25    0.23160
 8817.50000    8.84590    9.71880   13.93980    0.03070   -9999.25   -9999.25   -9999.25  103.82900   -9999.25   12.11040   -9999.25    3.49210   -9999.25    0.21120
 8818.00000   11.42740   13.10580   17.79560    0.03670   -9999.25   -9999.25   -9999.25   97.85180   -9999.25   12.15960   -9999.25    3.38930   -9999.25    0.18680
 8818.50000   15.15180   17.08960   21.65140    0.03680   -9999.25   -9999.25   -9999.25   84.46510   -9999.25   12.19900   -9999.25    3.41520   -9999.25    0.15010
 8819.00000   18.70620   21.69560   25.70990    0.03180   -9999.25   -9999.25   -9999.25   76.04260   -9999.25   12.23840   -9999.25    3.47310   -9999.25    0.12030
 8819.50000   22.00560   25.51530   28.60930    0.03000   -9999.25   -9999.25   -9999.25   67.22040   -9999.25   12.25430   -9999.25    3.52430   -9999.25    0.10210
 8820.00000   22.66540   28.62260   33.36800    0.03280   -9999.25   -9999.25   -9999.25   62.95190   -9999.25   12.24410   -9999.25    3.54340   -9999.25    0.09510
 8820.50000   20.88430   30.80520   35.88770    0.04290   -9999.25   -9999.25   -9999.25   62.18960   -9999.25   12.26140   -9999.25    3.55470   -9999.25    0.09390
 8821.00000   19.15910   29.31680   30.92430    0.05150   -9999.25   -9999.25   -9999.25   62.69750   -9999.25   12.28980   -9999.25    3.53630   -9999.25    0.09830
 8821.50000   18.55120   25.64880   30.29350    0.05670   -9999.25   -9999.25   -9999.25   64.53830   -9999.25   12.31820   -9999.25    3.45960   -9999.25    0.09970
 8822.00000   18.16060   23.74060   29.86310    0.05010   -9999.25   -9999.25   -9999.25   63.58340   -9999.25   12.29620   -9999.25    3.38290   -9999.25    0.09990
 8822.50000   17.66980   23.59390   29.24540    0.04000   -9999.25   -9999.25   -9999.25   66.89750   -9999.25   12.26030   -9999.25    3.34910   -9999.25    0.10370
 8823.00000   17.19040   22.45170   27.26740    0.03150   -9999.25   -9999.25   -9999.25   68.14000   -9999.25   12.26240   -9999.25    3.33590   -9999.25    0.10750
 8823.50000   16.33940   21.47430   25.13360    0.03160   -9999.25   -9999.25   -9999.25   69.56240   -9999.25   12.30010   -9999.25    3.41220   -9999.25    0.11150
 8824.00000   16.60190   20.97100   24.96720    0.02960   -9999.25   -9999.25   -9999.25   67.97050   -9999.25   12.27590   -9999.25    3.48070   -9999.25    0.10950
 8824.50000   16.75220   21.23440   25.43610    0.02660   -9999.25   -9999.25   -9999.25   68.32450   -9999.25   12.25170   -9999.25    3.52430   -9999.25    0.11140
 8825.00000   16.57330   21.49780   24.11090    0.02900   -9999.25   -9999.25   -9999.25   69.23640   -9999.25   12.22750   -9999.25    3.54510   -9999.25    0.11220
 8825.50000   15.76020   20.68110   22.95000    0.03470   -9999.25   -9999.25   -9999.25   70.74880   -9999.25   12.22210   -9999.25    3.56300   -9999.25    0.12040
 8826.00000   15.95320   20.58450   23.38100    0.03820   -9999.25   -9999.25   -9999.25   72.19800   -9999.25   12.25900   -9999.25    3.59450   -9999.25    0.11960
 8826.50000   16.16980   21.54820   24.11740    0.03550   -9999.25   -9999.25   -9999.25   74.33540   -9999.25   12.26000   -9999.25    3.57380   -9999.25    0.11920
 8827.00000   16.58020   21.76620   23.67280    0.02850   -9999.25   -9999.25   -9999.25   73.37030   -9999.25   12.27420   -9999.25    3.46640   -9999.25    0.11070
 8827.50000   16.59740   21.42090   23.23640    0.02440   -9999.25   -9999.25   -9999.25   71.22860   -9999.25   12.29720   -9999.25    3.35900   -9999.25    0.11630
 8828.00000   16.95320   21.15750   23.06420    0.02100   -9999.25   -9999.25   -9999.25   70.02610   -9999.25   12.30490   -9999.25    3.32120   -9999.25    0.12230
 8828.50000   17.00010   20.89410   23.23640    0.02150   -9999.25   -9999.25   -9999.25   70.36470   -9999.25   12.30600   -9999.25    3.30980   -9999.25    0.12680
 8829.00000   17.25550   21.23280   24.41840    0.02700   -9999.25   -9999.25   -9999.25   72.27260   -9999.25   12.30350   -9999.25    3.31570   -9999.25    0.12300
 8829.50000   17.55750   22.28030   25.18760    0.02970   -9999.25   -9999.25   -9999.25   71.88100   -9999.25   12.31480   -9999.25    3.33420   -9999.25    0.11850
