~Version ---------------------------------------------------
VERS.   2.0 : CWLS log ASCII Standard -VERSION 2.0
WRAP.    NO : One line per depth step
DLM . SPACE : Column Data Section Delimiter
~Well ------------------------------------------------------
STRT .FT               1480.0 : START DEPTH
STOP .FT              10748.0 : STOP DEPTH
STEP .FT                  0.5 : STEP
NULL .               -9999.25 : NULL VALUE
COMP .                        : COMPANY
WELL .                        : WELL
FLD  .                        : FIELD
LOC  .                        : LOCATION
PROV .                        : PROVINCE
CNTY .                        : COUNTY
STAT .                        : STATE
CTRY .                        : COUNTRY
SRVC .                        : SERVICE COMPANY
DATE .                        : DATE
UWI  .                        : UNIQUE WELL ID
API  .                        : API NUMBER
SLAT .WGS84 5.930649512990897 : SURFACE LATITUDE
SLON .WGS84 2.851030789253926 : SURFACE LONGITUDE
DATUM.F                   nan : DEPTH DATUM ELEV
~Curve Information -----------------------------------------
DEPT   .FT    : 
AT10   .OHMM  : ARRAY INDUCTION TWO FOOT RESISTIVITY A10
AT30   .OHMM  : ARRAY INDUCTION TWO FOOT RESISTIVITY A30
AT90   .OHMM  : ARRAY INDUCTION TWO FOOT RESISTIVITY A90
DPHZ_LS.DEC   : HGRD STANDARD RESOLUTION DENSITY POROSITY
DTCO   .US/F  : DELTA-T COMPRESSIONAL
DTSM   .US/F  : DELTA-T SHEAR
ECGRD  .GAPI  : ENVIRONMENTALLY CORRECTED GAMMA RAY FROM DENSITY LOG
ECGRR  .GAPI  : ENVIRONMENTALLY CORRECTED GAMMA RAY FROM RESISTIVITY LOG
HCALD  .IN    : HRCC CALIPER CALIBRATED FROM DENSITY LOG
HCALR  .IN    : HRCC CALIPER CALIBRATED FROM RESISTIVITY LOG
HDRA   .G/C3  : HRDD SPINE AND RIBS DENSITY CORRECTION
PEFZ   .B/E   : HRDD STANDARD RESOLUTION FORMATION PHOTOELECTRIC FACTOR
RHOZ   .G/C3  : HRDD STANDARD RESOLUTION FORMATION DENSITY
TNPH_LS.DEC   : THERMAL NEUTRON POROSITY [LIMESTONE]
~Params ----------------------------------------------------
~Other -----------------------------------------------------
~ASCII -----------------------------------------------------
# ...
 9393.50000    3.56820    4.02330    4.65790    0.04030   -9999.25   -9999.25   -9999.25  112.35470   -9999.25   12.15720   -9999.25    3.62360   -9999.25    0.22970
 9394.00000    4.00310    5.62130   12.46500    0.04460   -9999.25   -9999.25   -9999.25  113.49840   -9999.25   12.15410   -9999.25    3.59660   -9999.25    0.23180
 9394.50000    3.77730    6.16800   10.32180    0.05700   -9999.25   -9999.25   -9999.25  119.15000   -9999.25   12.15410   -9999.25    3.57550   -9999.25    0.23640
 9395.00000    3.58140    4.99930    7.19380    0.08630   -9999.25   -9999.25   -9999.25  129.13360   -9999.25   12.15410   -9999.25    3.57770   -9999.25    0.25740
 9395.50000    3.15960    3.83050    4.06580    0.11820   -9999.25   -9999.25   -9999.25  135.73730   -9999.25   12.15410   -9999.25    3.66010   -9999.25    0.29020
 9396.00000    3.11610    3.22260    3.42300    0.14240   -9999.25   -9999.25   -9999.25  140.09310   -9999.25   12.15410   -9999.25    3.79130   -9999.25    0.33780
 9396.50000    2.81380    3.17790    3.33570    0.15340   -9999.25   -9999.25   -9999.25  142.11510   -9999.25   12.16420   -9999.25    3.95170   -9999.25    0.36250
 9397.00000    3.05920    3.16170    3.39840    0.13850   -9999.25   -9999.25   -9999.25  141.66390   -9999.25   12.09240   -9999.25    4.04290   -9999.25    0.33890
 9397.50000    3.04520    3.40650    3.57110    0.11400   -9999.25   -9999.25   -9999.25  135.42770   -9999.25   11.99270   -9999.25    4.04420   -9999.25    0.32420
 9398.00000    3.28790    3.68210    3.81960    0.12440   -9999.25   -9999.25   -9999.25  130.37810   -9999.25   12.06340   -9999.25    3.97980   -9999.25    0.32100
 9398.50000    3.62820    3.95780    4.39100    0.17830   -9999.25   -9999.25   -9999.25  131.19120   -9999.25   12.07360   -9999.25    3.91750   -9999.25    0.32980
 9399.00000    3.96850    4.30970    5.02040    0.22600   -9999.25   -9999.25   -9999.25  133.91830   -9999.25   12.04650   -9999.25    3.85520   -9999.25    0.36750
 9399.50000    4.06830    4.44540    4.89800    0.22820   -9999.25   -9999.25   -9999.25  130.14190   -9999.25   12.07810   -9999.25    3.87830   -9999.25    0.38090
 9400.00000    4.02470    4.25720    4.60960    0.16250   -9999.25   -9999.25   -9999.25  124.29410   -9999.25   12.13330   -9999.25    3.93620   -9999.25    0.35270
 9400.50000    4.15800    4.74550    5.14740    0.09680   -9999.25   -9999.25   -9999.25  118.23710   -9999.25   12.20110   -9999.25    3.82590   -9999.25    0.30710
 9401.00000    5.53490    5.83830    7.54080    0.07450   -9999.25   -9999.25   -9999.25  113.49900   -9999.25   12.21770   -9999.25    3.65640   -9999.25    0.24570
 9401.50000    7.53370   10.44010    9.93420    0.06660   -9999.25   -9999.25   -9999.25   99.42590   -9999.25   12.19540   -9999.25    3.46390   -9999.25    0.21450
 9402.00000   10.88370   15.00560   13.42650    0.06660   -9999.25   -9999.25   -9999.25   89.28780   -9999.25   12.19920   -9999.25    3.33950   -9999.25    0.15970
 9402.50000   14.23370   19.57110   20.07720    0.07000   -9999.25   -9999.25   -9999.25   83.18340   -9999.25   12.19360   -9999.25    3.32700   -9999.25    0.14170
 9403.00000   17.95440   24.13660   32.76870    0.07630   -9999.25   -9999.25   -9999.25   81.61140   -9999.25   12.18560   -9999.25    3.33740   -9999.25    0.13300
 9403.50000   19.70330   25.80430   34.87500    0.08000   -9999.25   -9999.25   -9999.25   80.72600   -9999.25   12.17770   -9999.25    3.34790   -9999.25    0.13990
 9404.00000   18.70370   22.82850   25.91260    0.08150   -9999.25   -9999.25   -9999.25   82.78290   -9999.25   12.17940   -9999.25    3.34140   -9999.25    0.14480
 9404.50000   17.33900   20.28450   22.22190    0.08180   -9999.25   -9999.25   -9999.25   82.91230   -9999.25   12.17770   -9999.25    3.32360   -9999.25    0.15000
 9405.00000   16.29220   18.13670   19.25470    0.08130   -9999.25   -9999.25   -9999.25   84.75140   -9999.25   12.20470   -9999.25    3.31570   -9999.25    0.15300
 9405.50000   18.75240   20.28700   22.31100    0.07940   -9999.25   -9999.25   -9999.25   87.19230   -9999.25   12.23010   -9999.25    3.36490   -9999.25    0.15600
 9406.00000   22.34250   25.66020   29.94900    0.07440   -9999.25   -9999.25   -9999.25   89.45250   -9999.25   12.22350   -9999.25    3.45320   -9999.25    0.14190
 9406.50000   25.21510   27.98380   33.41710    0.06790   -9999.25   -9999.25   -9999.25   89.49040   -9999.25   12.21700   -9999.25    3.49350   -9999.25    0.13580
 9407.00000   21.12920   23.09010   26.83820    0.06540   -9999.25   -9999.25   -9999.25   86.81200   -9999.25   12.19490   -9999.25    3.49350   -9999.25    0.13930
 9407.50000   16.22400   17.70110   19.38220    0.07090   -9999.25   -9999.25   -9999.25   89.30220   -9999.25   12.17660   -9999.25    3.47680   -9999.25    0.15800
 9408.00000   15.11420   16.53720   15.80970    0.07940   -9999.25   -9999.25   -9999.25   90.73220   -9999.25   12.17630   -9999.25    3.37060   -9999.25    0.18600
 9408.50000   14.07950   15.67210   14.85510    0.08330   -9999.25   -9999.25   -9999.25   94.18330   -9999.25   12.17600   -9999.25    3.26450   -9999.25    0.19210
 9409.00000   13.53990   14.98010   13.87810    0.07560   -9999.25   -9999.25   -9999.25   97.31410   -9999.25   12.17570   -9999.25    3.25400   -9999.25    0.19340
 9409.50000   13.48870   15.21250   14.22740    0.06170   -9999.25   -9999.25   -9999.25   97.91990   -9999.25   12.17540   -9999.25    3.22740   -9999.25    0.18960
 9410.00000   15.99500   15.79180   14.22860    0.05780   -9999.25   -9999.25   -9999.25   99.61660   -9999.25   12.17510   -9999.25    3.20090   -9999.25    0.18730
 9410.50000   21.65300   16.24010   14.49660    0.05800   -9999.25   -9999.25   -9999.25  100.19070   -9999.25   12.17490   -9999.25    3.17430   -9999.25    0.18560
 9411.00000   21.19950   16.64890   15.42400    0.06390   -9999.25   -9999.25   -9999.25   93.82000   -9999.25   12.20730   -9999.25    3.19330   -9999.25    0.17220
 9411.50000   18.31940   15.55400   14.23230    0.06130   -9999.25   -9999.25   -9999.25   83.72300   -9999.25   12.21220   -9999.25    3.27090   -9999.25    0.14550
 9412.00000   31.02100   24.78300   21.41000    0.05640   -9999.25   -9999.25   -9999.25   75.83150   -9999.25   12.20130   -9999.25    3.41830   -9999.25    0.13200
 9412.50000   39.06490   29.99220   26.93860    0.04180   -9999.25   -9999.25   -9999.25   77.49660   -9999.25   12.19030   -9999.25    3.63440   -9999.25    0.12760
 9413.00000   26.34450   21.24780   16.75820    0.03090   -9999.25   -9999.25   -9999.25   81.26960   -9999.25   12.17940   -9999.25    3.75240   -9999.25    0.13750
 9413.50000   17.72630   14.65410   12.83600    0.02460   -9999.25   -9999.25   -9999.25   82.49180   -9999.25   12.17510   -9999.25    3.59400   -9999.25    0.15440
 9414.00000   11.78870   10.73120    9.63850    0.03640   -9999.25   -9999.25   -9999.25   83.52520   -9999.25   12.17510   -9999.25    3.44120   -9999.25    0.17540
 9414.50000   12.88810   11.33180   10.54050    0.04450   -9999.25   -9999.25   -9999.25   86.12990   -9999.25   12.17510   -9999.25    3.34580   -9999.25    0.19180
 9415.00000   14.25810   12.99800   11.94330    0.04810   -9999.25   -9999.25   -9999.25   89.45370   -9999.25   12.17590   -9999.25    3.29540   -9999.25    0.19260
 9415.50000   13.55760   13.16800   12.23580    0.04680   -9999.25   -9999.25   -9999.25   93.61300   -9999.25   12.17680   -9999.25    3.29450   -9999.25    0.18930
 9416.00000   12.97120   11.56490   10.77940    0.05080   -9999.25   -9999.25   -9999.25   97.21960   -9999.25   12.17770   -9999.25    3.29450   -9999.25    0.19890
 9416.50000   12.29720   10.27990    9.32300    0.05340   -9999.25   -9999.25   -9999.25  101.91850   -9999.25   12.17860   -9999.25    3.23200   -9999.25    0.21180
 9417.00000   10.38910    8.94420    7.90930    0.05820   -9999.25   -9999.25   -9999.25  103.70750   -9999.25   12.17950   -9999.25    3.23970   -9999.25    0.23190
 9417.50000    9.05140    7.92640    7.43470    0.06640   -9999.25   -9999.25   -9999.25  102.88120   -9999.25   12.18040   -9999.25    3.24360   -9999.25    0.23060
