~Version ---------------------------------------------------
VERS.   2.0 : CWLS log ASCII Standard -VERSION 2.0
WRAP.    NO : One line per depth step
DLM . SPACE : Column Data Section Delimiter
~Well ------------------------------------------------------
STRT .FT               1480.0 : START DEPTH
STOP .FT              10748.0 : STOP DEPTH
STEP .FT                  0.5 : STEP
NULL .               -9999.25 : NULL VALUE
COMP .                        : COMPANY
WELL .                        : WELL
FLD  .                        : FIELD
LOC  .                        : LOCATION
PROV .                        : PROVINCE
CNTY .                        : COUNTY
STAT .                        : STATE
CTRY .                        : COUNTRY
SRVC .                        : SERVICE COMPANY
DATE .                        : DATE
UWI  .                        : UNIQUE WELL ID
API  .                        : API NUMBER
SLAT .WGS84 5.930649512990897 : SURFACE LATITUDE
SLON .WGS84 2.851030789253926 : SURFACE LONGITUDE
DATUM.F                   nan : DEPTH DATUM ELEV
~Curve Information -----------------------------------------
DEPT   .FT    : 
AT10   .OHMM  : ARRAY INDUCTION TWO FOOT RESISTIVITY A10
AT30   .OHMM  : ARRAY INDUCTION TWO FOOT RESISTIVITY A30
AT90   .OHMM  : ARRAY INDUCTION TWO FOOT RESISTIVITY A90
DPHZ_LS.DEC   : HGRD STANDARD RESOLUTION DENSITY POROSITY
DTCO   .US/F  : DELTA-T COMPRESSIONAL
DTSM   .US/F  : DELTA-T SHEAR
ECGRD  .GAPI  : ENVIRONMENTALLY CORRECTED GAMMA RAY FROM DENSITY LOG
ECGRR  .GAPI  : ENVIRONMENTALLY CORRECTED GAMMA RAY FROM RESISTIVITY LOG
HCALD  .IN    : HRCC CALIPER CALIBRATED FROM DENSITY LOG
HCALR  .IN    : HRCC CALIPER CALIBRATED FROM RESISTIVITY LOG
HDRA   .G/C3  : HRDD SPINE AND RIBS DENSITY CORRECTION
PEFZ   .B/E   : HRDD STANDARD RESOLUTION FORMATION PHOTOELECTRIC FACTOR
RHOZ   .G/C3  : HRDD STANDARD RESOLUTION FORMATION DENSITY
TNPH_LS.DEC   : THERMAL NEUTRON POROSITY [LIMESTONE]
~Params ----------------------------------------------------
~Other -----------------------------------------------------
~ASCII -----------------------------------------------------
# ...
 1504.50000    0.93060    0.87580    0.81870    0.30000   -9999.25   -9999.25   -9999.25   66.97140   -9999.25   16.39840   -9999.25    3.89830   -9999.25    0.64030
 1505.00000    0.85880    0.79870    0.72510    0.30000   -9999.25   -9999.25   -9999.25   70.54140   -9999.25   16.50130   -9999.25    4.47450   -9999.25    0.64170
 1505.50000    0.87640    0.84620    0.78090    0.29990   -9999.25   -9999.25   -9999.25   76.79900   -9999.25   16.65960   -9999.25    4.95740   -9999.25    0.58070
 1506.00000    1.07010    0.96510    0.88760    0.29980   -9999.25   -9999.25   -9999.25   78.86490   -9999.25   15.50440   -9999.25    5.06710   -9999.25    0.50540
 1506.50000    1.12610    1.04480    0.99440    0.29970   -9999.25   -9999.25   -9999.25   80.79920   -9999.25   14.64480   -9999.25    5.17680   -9999.25    0.43010
 1507.00000    1.61490    1.25890    1.10110    0.29970   -9999.25   -9999.25   -9999.25   92.99470   -9999.25   14.36360   -9999.25    5.23930   -9999.25    0.40600
 1507.50000    1.20650    1.13470    1.13620    0.29960   -9999.25   -9999.25   -9999.25  109.62150   -9999.25   13.08310   -9999.25    5.80490   -9999.25    0.40730
 1508.00000    0.85470    1.09470    1.18600    0.29950   -9999.25   -9999.25   -9999.25  116.50330   -9999.25   14.57950   -9999.25    6.38530   -9999.25    0.42380
 1508.50000    0.79620    1.11090    1.26570    0.29940   -9999.25   -9999.25   -9999.25  118.72690   -9999.25   16.05440   -9999.25    6.86980   -9999.25    0.41030
 1509.00000    0.78400    1.12700    1.47510    0.29940   -9999.25   -9999.25   -9999.25  115.03520   -9999.25   19.79590   -9999.25    6.75200   -9999.25    0.39540
 1509.50000    0.78860    1.14720    1.68450    0.29930   -9999.25   -9999.25   -9999.25  123.47560   -9999.25   20.30690   -9999.25    6.26400   -9999.25    0.39860
 1510.00000    0.76960    1.12790    1.85210    0.29920   -9999.25   -9999.25   -9999.25  135.38940   -9999.25   19.32780   -9999.25    5.77610   -9999.25    0.41390
 1510.50000    0.74560    1.09560    1.90440    0.29910   -9999.25   -9999.25   -9999.25  127.12480   -9999.25   18.11190   -9999.25    5.15210   -9999.25    0.41690
 1511.00000    0.73130    1.06330    1.73060    0.29910   -9999.25   -9999.25   -9999.25  113.32050   -9999.25   18.03720   -9999.25    4.97200   -9999.25    0.42240
 1511.50000    0.73130    1.03110    1.62630    0.29900   -9999.25   -9999.25   -9999.25  100.77780   -9999.25   18.46700   -9999.25    4.79200   -9999.25    0.43130
 1512.00000    0.75540    1.06600    1.65120    0.29890   -9999.25   -9999.25   -9999.25  100.49060   -9999.25   18.28400   -9999.25    4.75600   -9999.25    0.46360
 1512.50000    0.81250    1.14390    1.70000    0.29880   -9999.25   -9999.25   -9999.25  101.41140   -9999.25   18.77060   -9999.25    4.84460   -9999.25    0.49850
 1513.00000    0.85640    1.22190    1.65680    0.29880   -9999.25   -9999.25   -9999.25  100.75890   -9999.25   18.37000   -9999.25    4.89780   -9999.25    0.49180
 1513.50000    0.90020    1.29980    1.59640    0.29870   -9999.25   -9999.25   -9999.25   99.09340   -9999.25   17.24540   -9999.25    4.47080   -9999.25    0.45870
 1514.00000    0.93530    1.34970    1.78450    0.29860   -9999.25   -9999.25   -9999.25   93.88660   -9999.25   16.50410   -9999.25    4.00690   -9999.25    0.42880
 1514.50000    0.93830    1.25130    1.63330    0.28010   -9999.25   -9999.25   -9999.25   90.59820   -9999.25   15.98180   -9999.25    3.58510   -9999.25    0.40890
 1515.00000    0.91300    1.13620    1.45480    0.26510   -9999.25   -9999.25   -9999.25   88.81100   -9999.25   15.08290   -9999.25    3.45810   -9999.25    0.38920
 1515.50000    0.89280    1.07500    1.32900    0.26670   -9999.25   -9999.25   -9999.25   93.20720   -9999.25   14.58270   -9999.25    3.45770   -9999.25    0.37090
 1516.00000    0.90960    1.10440    1.31360    0.26280   -9999.25   -9999.25   -9999.25   96.50040   -9999.25   15.95440   -9999.25    3.46360   -9999.25    0.36480
 1516.50000    0.95130    1.17790    1.37860    0.25740   -9999.25   -9999.25   -9999.25  101.77100   -9999.25   16.49800   -9999.25    3.43120   -9999.25    0.37910
 1517.00000    0.99240    1.19060    1.38290    0.24160   -9999.25   -9999.25   -9999.25  104.14060   -9999.25   15.01600   -9999.25    3.37710   -9999.25    0.39330
 1517.50000    1.03350    1.19620    1.40540    0.23360   -9999.25   -9999.25   -9999.25   97.44630   -9999.25   13.50040   -9999.25    3.43900   -9999.25    0.39120
 1518.00000    1.07460    1.22460    1.44710    0.26830   -9999.25   -9999.25   -9999.25   92.49890   -9999.25   13.19620   -9999.25    3.63190   -9999.25    0.35650
 1518.50000    1.11570    1.25320    1.53980    0.29560   -9999.25   -9999.25   -9999.25   90.77130   -9999.25   13.63740   -9999.25    3.95710   -9999.25    0.32700
 1519.00000    1.07780    1.25890    1.43440    0.30080   -9999.25   -9999.25   -9999.25   94.99590   -9999.25   14.50260   -9999.25    4.06090   -9999.25    0.31310
 1519.50000    1.03590    1.22630    1.40140    0.30070   -9999.25   -9999.25   -9999.25  103.62030   -9999.25   15.60710   -9999.25    3.80780   -9999.25    0.34120
 1520.00000    1.04550    1.18830    1.34520    0.30060   -9999.25   -9999.25   -9999.25  115.17300   -9999.25   15.98980   -9999.25    3.52510   -9999.25    0.36270
 1520.50000    1.07520    1.15790    1.33990    0.30050   -9999.25   -9999.25   -9999.25  117.99940   -9999.25   17.88600   -9999.25    3.22610   -9999.25    0.40860
 1521.00000    1.10030    1.16870    1.40920    0.30040   -9999.25   -9999.25   -9999.25  114.37440   -9999.25   18.00490   -9999.25    3.08520   -9999.25    0.42930
 1521.50000    1.12540    1.23570    1.54090    0.30030   -9999.25   -9999.25   -9999.25  113.40720   -9999.25   17.94560   -9999.25    3.07530   -9999.25    0.39940
 1522.00000    1.15050    1.29100    1.59170    0.30020   -9999.25   -9999.25   -9999.25  114.83090   -9999.25   18.75820   -9999.25    3.12170   -9999.25    0.36590
 1522.50000    1.17560    1.31260    1.57100    0.27230   -9999.25   -9999.25   -9999.25  115.91980   -9999.25   19.59910   -9999.25    3.19010   -9999.25    0.35150
 1523.00000    1.19060    1.30330    1.54370    0.23640   -9999.25   -9999.25   -9999.25  114.25820   -9999.25   19.84380   -9999.25    3.29140   -9999.25    0.34080
 1523.50000    1.17670    1.28010    1.48240    0.21240   -9999.25   -9999.25   -9999.25  115.17610   -9999.25   20.17670   -9999.25    3.35640   -9999.25    0.33700
 1524.00000    1.15570    1.25680    1.41380    0.19810   -9999.25   -9999.25   -9999.25  115.42390   -9999.25   19.40160   -9999.25    3.36940   -9999.25    0.34310
 1524.50000    1.13460    1.23360    1.37840    0.19820   -9999.25   -9999.25   -9999.25  111.95060   -9999.25   17.35710   -9999.25    3.34830   -9999.25    0.34670
 1525.00000    1.11350    1.21040    1.34010    0.21730   -9999.25   -9999.25   -9999.25  107.13140   -9999.25   15.98180   -9999.25    3.27050   -9999.25    0.34790
 1525.50000    1.09250    1.18710    1.32830    0.24970   -9999.25   -9999.25   -9999.25  108.14360   -9999.25   15.38060   -9999.25    3.15510   -9999.25    0.34940
 1526.00000    1.07140    1.16390    1.28630    0.28540   -9999.25   -9999.25   -9999.25  110.36000   -9999.25   15.98980   -9999.25    3.04730   -9999.25    0.35340
 1526.50000    1.05040    1.14070    1.23660    0.30060   -9999.25   -9999.25   -9999.25  112.84780   -9999.25   16.69650   -9999.25    2.98610   -9999.25    0.36330
 1527.00000    1.04550    1.13660    1.22650    0.30020   -9999.25   -9999.25   -9999.25  114.21570   -9999.25   16.70280   -9999.25    2.94630   -9999.25    0.37740
 1527.50000    1.04640    1.14190    1.26890    0.29970   -9999.25   -9999.25   -9999.25  116.17710   -9999.25   17.02090   -9999.25    2.99770   -9999.25    0.39580
 1528.00000    1.04790    1.14190    1.27790    0.29930   -9999.25   -9999.25   -9999.25  118.49580   -9999.25   18.64320   -9999.25    3.04580   -9999.25    0.41120
 1528.50000    1.04950    1.15260    1.29610    0.29890   -9999.25   -9999.25   -9999.25  121.51910   -9999.25   19.38810   -9999.25    3.05710   -9999.25    0.40620
