~Version ---------------------------------------------------
VERS.   2.0 : CWLS log ASCII Standard -VERSION 2.0
WRAP.    NO : One line per depth step
DLM . SPACE : Column Data Section Delimiter
~Well ------------------------------------------------------
STRT .FT               1480.0 : START DEPTH
STOP .FT              10748.0 : STOP DEPTH
STEP .FT                  0.5 : STEP
NULL .               -9999.25 : NULL VALUE
COMP .                        : COMPANY
WELL .                        : WELL
FLD  .                        : FIELD
LOC  .                        : LOCATION
PROV .                        : PROVINCE
CNTY .                        : COUNTY
STAT .                        : STATE
CTRY .                        : COUNTRY
SRVC .                        : SERVICE COMPANY
DATE .                        : DATE
UWI  .                        : UNIQUE WELL ID
API  .                        : API NUMBER
SLAT .WGS84 5.930649512990897 : SURFACE LATITUDE
SLON .WGS84 2.851030789253926 : SURFACE LONGITUDE
DATUM.F                   nan : DEPTH DATUM ELEV
~Curve Information -----------------------------------------
DEPT   .FT    : 
AT10   .OHMM  : ARRAY INDUCTION TWO FOOT RESISTIVITY A10
AT30   .OHMM  : ARRAY INDUCTION TWO FOOT RESISTIVITY A30
AT90   .OHMM  : ARRAY INDUCTION TWO FOOT RESISTIVITY A90
DPHZ_LS.DEC   : HGRD STANDARD RESOLUTION DENSITY POROSITY
DTCO   .US/F  : DELTA-T COMPRESSIONAL
DTSM   .US/F  : DELTA-T SHEAR
ECGRD  .GAPI  : ENVIRONMENTALLY CORRECTED GAMMA RAY FROM DENSITY LOG
ECGRR  .GAPI  : ENVIRONMENTALLY CORRECTED GAMMA RAY FROM RESISTIVITY LOG
HCALD  .IN    : HRCC CALIPER CALIBRATED FROM DENSITY LOG
HCALR  .IN    : HRCC CALIPER CALIBRATED FROM RESISTIVITY LOG
HDRA   .G/C3  : HRDD SPINE AND RIBS DENSITY CORRECTION
PEFZ   .B/E   : HRDD STANDARD RESOLUTION FORMATION PHOTOELECTRIC FACTOR
RHOZ   .G/C3  : HRDD STANDARD RESOLUTION FORMATION DENSITY
TNPH_LS.DEC   : THERMAL NEUTRON POROSITY [LIMESTONE]
~Params ----------------------------------------------------
~Other -----------------------------------------------------
~ASCII -----------------------------------------------------
# ...
 7580.50000    6.29400    7.16540    8.27190    0.04830   -9999.25   -9999.25   -9999.25  123.19650   -9999.25   12.90550   -9999.25    4.08190   -9999.25    0.27190
 7581.00000    6.14930    7.11000    8.26000    0.04030   -9999.25   -9999.25   -9999.25  120.08870   -9999.25   12.88060   -9999.25    4.00590   -9999.25    0.27710
 7581.50000    6.40470    7.27730    8.24810    0.03460   -9999.25   -9999.25   -9999.25  118.75360   -9999.25   12.98820   -9999.25    3.93560   -9999.25    0.27790
 7582.00000    6.60830    7.56450    8.23620    0.04020   -9999.25   -9999.25   -9999.25  120.67020   -9999.25   12.94030   -9999.25    3.91340   -9999.25    0.27050
 7582.50000    6.84370    7.69510    8.22440    0.04780   -9999.25   -9999.25   -9999.25  121.13550   -9999.25   12.92600   -9999.25    3.92480   -9999.25    0.26490
 7583.00000    6.93980    7.69510    8.21250    0.04880   -9999.25   -9999.25   -9999.25  117.13030   -9999.25   12.83000   -9999.25    4.00800   -9999.25    0.25720
 7583.50000    7.05990    7.61890    8.20060    0.04330   -9999.25   -9999.25   -9999.25  112.23460   -9999.25   12.76480   -9999.25    4.08170   -9999.25    0.25260
 7584.00000    7.16950    7.66580    8.18870    0.03490   -9999.25   -9999.25   -9999.25  111.43010   -9999.25   12.56900   -9999.25    4.09850   -9999.25    0.24940
 7584.50000    7.18560    7.71260    8.21780    0.03420   -9999.25   -9999.25   -9999.25  114.58360   -9999.25   12.78400   -9999.25    4.11530   -9999.25    0.24280
 7585.00000    7.20580    7.75940    8.25710    0.03790   -9999.25   -9999.25   -9999.25  115.04190   -9999.25   12.87010   -9999.25    4.14960   -9999.25    0.25240
 7585.50000    7.22590    7.80630    8.28850    0.04040   -9999.25   -9999.25   -9999.25  113.68810   -9999.25   12.83780   -9999.25    4.19170   -9999.25    0.24750
 7586.00000    7.24610    7.85310    8.43190    0.03830   -9999.25   -9999.25   -9999.25  114.28400   -9999.25   12.78900   -9999.25    4.23330   -9999.25    0.25490
 7586.50000    7.26620    7.89990    8.40130    0.03700   -9999.25   -9999.25   -9999.25  117.28770   -9999.25   12.71830   -9999.25    4.23310   -9999.25    0.24610
 7587.00000    7.27030    7.88830    8.37070    0.03220   -9999.25   -9999.25   -9999.25  116.63820   -9999.25   12.62500   -9999.25    4.22650   -9999.25    0.26900
 7587.50000    7.20290    7.83960    8.34010    0.03770   -9999.25   -9999.25   -9999.25  115.43790   -9999.25   12.49240   -9999.25    4.24450   -9999.25    0.26280
 7588.00000    7.17910    7.74290    8.34010    0.04120   -9999.25   -9999.25   -9999.25  116.21420   -9999.25   12.62540   -9999.25    4.28450   -9999.25    0.24930
 7588.50000    7.15530    7.74290    8.28850    0.04470   -9999.25   -9999.25   -9999.25  119.96020   -9999.25   12.57180   -9999.25    4.33030   -9999.25    0.23530
 7589.00000    7.13620    7.74290    8.30110    0.04300   -9999.25   -9999.25   -9999.25  121.35040   -9999.25   12.63190   -9999.25    4.35410   -9999.25    0.22940
 7589.50000    7.05400    7.83960    8.31380    0.04160   -9999.25   -9999.25   -9999.25  124.16210   -9999.25   12.71590   -9999.25    4.34770   -9999.25    0.24200
 7590.00000    6.97220    7.88830    8.32640    0.04420   -9999.25   -9999.25   -9999.25  125.45960   -9999.25   12.52470   -9999.25    4.33870   -9999.25    0.24440
 7590.50000    6.97220    7.88830    8.33900    0.04670   -9999.25   -9999.25   -9999.25  124.34660   -9999.25   12.76120   -9999.25    4.32980   -9999.25    0.25000
 7591.00000    7.05950    7.88830    8.35160    0.04720   -9999.25   -9999.25   -9999.25  117.64160   -9999.25   12.77880   -9999.25    4.32760   -9999.25    0.24390
 7591.50000    7.11430    7.79110    8.36420    0.04580   -9999.25   -9999.25   -9999.25  113.79230   -9999.25   12.78970   -9999.25    4.32760   -9999.25    0.23770
 7592.00000    7.09210    7.69510    8.37680    0.04440   -9999.25   -9999.25   -9999.25  112.87280   -9999.25   12.67490   -9999.25    4.34320   -9999.25    0.23540
 7592.50000    7.10310    7.69510    8.38940    0.05000   -9999.25   -9999.25   -9999.25  115.25930   -9999.25   12.69770   -9999.25    4.38920   -9999.25    0.22870
 7593.00000    6.85200    7.56960    8.44420    0.05470   -9999.25   -9999.25   -9999.25  119.39150   -9999.25   12.70640   -9999.25    4.45900   -9999.25    0.23790
 7593.50000    6.50230    7.41270    8.34320    0.05540   -9999.25   -9999.25   -9999.25  119.27090   -9999.25   12.79450   -9999.25    4.52390   -9999.25    0.25500
 7594.00000    6.44210    7.25580    8.24230    0.05110   -9999.25   -9999.25   -9999.25  120.06580   -9999.25   12.92990   -9999.25    4.52390   -9999.25    0.26100
 7594.50000    6.40370    7.09900    8.14140    0.05430   -9999.25   -9999.25   -9999.25  118.16540   -9999.25   13.04880   -9999.25    4.49030   -9999.25    0.26400
 7595.00000    6.23210    7.09900    8.04040    0.05340   -9999.25   -9999.25   -9999.25  116.31310   -9999.25   12.88280   -9999.25    4.51530   -9999.25    0.26850
 7595.50000    6.10370    7.27730    7.93950    0.04790   -9999.25   -9999.25   -9999.25  117.88480   -9999.25   12.77810   -9999.25    4.52050   -9999.25    0.27600
 7596.00000    5.97520    7.36810    7.83850    0.04160   -9999.25   -9999.25   -9999.25  121.19200   -9999.25   13.14670   -9999.25    4.51610   -9999.25    0.27240
 7596.50000    5.87060    7.12850    7.74200    0.04390   -9999.25   -9999.25   -9999.25  124.99870   -9999.25   13.16820   -9999.25    4.51170   -9999.25    0.28020
 7597.00000    5.86130    6.71350    7.69400    0.04710   -9999.25   -9999.25   -9999.25  125.57470   -9999.25   13.24570   -9999.25    4.44240   -9999.25    0.28880
 7597.50000    5.76540    7.23230    7.74190    0.05430   -9999.25   -9999.25   -9999.25  122.56900   -9999.25   13.25680   -9999.25    4.40760   -9999.25    0.29560
 7598.00000    5.45700    7.18760    8.00570    0.06050   -9999.25   -9999.25   -9999.25  117.09830   -9999.25   13.13910   -9999.25    4.48300   -9999.25    0.27990
 7598.50000    5.47100    7.01140    8.34010    0.07020   -9999.25   -9999.25   -9999.25  116.07100   -9999.25   13.07010   -9999.25    4.71710   -9999.25    0.26750
 7599.00000    5.53920    6.59380    7.85860    0.07790   -9999.25   -9999.25   -9999.25  120.36930   -9999.25   12.93760   -9999.25    4.96700   -9999.25    0.26780
 7599.50000    5.33900    6.07930    7.14220    0.08590   -9999.25   -9999.25   -9999.25  119.47720   -9999.25   13.06210   -9999.25    5.12690   -9999.25    0.28580
 7600.00000    5.30600    6.00440    7.25680    0.07940   -9999.25   -9999.25   -9999.25  114.55420   -9999.25   12.52740   -9999.25    5.53640   -9999.25    0.27870
 7600.50000    5.31090    6.15520    7.83000    0.06920   -9999.25   -9999.25   -9999.25  110.72150   -9999.25   12.67100   -9999.25    5.67140   -9999.25    0.27470
 7601.00000    5.38340    6.32020    8.28850    0.06220   -9999.25   -9999.25   -9999.25  111.63930   -9999.25   12.92290   -9999.25    5.72540   -9999.25    0.27650
 7601.50000    5.53360    6.40250    7.69940    0.05640   -9999.25   -9999.25   -9999.25  118.54920   -9999.25   13.07200   -9999.25    5.47990   -9999.25    0.28620
 7602.00000    5.54540    6.46830    7.16150    0.05330   -9999.25   -9999.25   -9999.25  125.53360   -9999.25   13.10850   -9999.25    5.19000   -9999.25    0.29670
 7602.50000    5.55710    6.53260    6.92410    0.04420   -9999.25   -9999.25   -9999.25  127.45260   -9999.25   12.98870   -9999.25    4.93820   -9999.25    0.28530
 7603.00000    5.64730    6.65290    7.03960    0.03190   -9999.25   -9999.25   -9999.25  122.65830   -9999.25   13.15290   -9999.25    4.79440   -9999.25    0.28410
 7603.50000    5.85060    6.77330    7.23770    0.02650   -9999.25   -9999.25   -9999.25  120.42430   -9999.25   12.85020   -9999.25    4.71320   -9999.25    0.28300
 7604.00000    5.82800    6.83960    7.58700    0.02080   -9999.25   -9999.25   -9999.25  120.44020   -9999.25   12.98070   -9999.25    4.68790   -9999.25    0.29120
 7604.50000    5.78240    6.92500    7.93640    0.02490   -9999.25   -9999.25   -9999.25  121.40060   -9999.25   13.02370   -9999.25    4.71000   -9999.25    0.29020
