~Version ---------------------------------------------------
VERS.   2.0 : CWLS log ASCII Standard -VERSION 2.0
WRAP.    NO : One line per depth step
DLM . SPACE : Column Data Section Delimiter
~Well ------------------------------------------------------
STRT .FT               1480.0 : START DEPTH
STOP .FT              10748.0 : STOP DEPTH
STEP .FT                  0.5 : STEP
NULL .               -9999.25 : NULL VALUE
COMP .                        : COMPANY
WELL .                        : WELL
FLD  .                        : FIELD
LOC  .                        : LOCATION
PROV .                        : PROVINCE
CNTY .                        : COUNTY
STAT .                        : STATE
CTRY .                        : COUNTRY
SRVC .                        : SERVICE COMPANY
DATE .                        : DATE
UWI  .                        : UNIQUE WELL ID
API  .                        : API NUMBER
SLAT .WGS84 5.930649512990897 : SURFACE LATITUDE
SLON .WGS84 2.851030789253926 : SURFACE LONGITUDE
DATUM.F                   nan : DEPTH DATUM ELEV
~Curve Information -----------------------------------------
DEPT   .FT    : 
AT10   .OHMM  : ARRAY INDUCTION TWO FOOT RESISTIVITY A10
AT30   .OHMM  : ARRAY INDUCTION TWO FOOT RESISTIVITY A30
AT90   .OHMM  : ARRAY INDUCTION TWO FOOT RESISTIVITY A90
DPHZ_LS.DEC   : HGRD STANDARD RESOLUTION DENSITY POROSITY
DTCO   .US/F  : DELTA-T COMPRESSIONAL
DTSM   .US/F  : DELTA-T SHEAR
ECGRD  .GAPI  : ENVIRONMENTALLY CORRECTED GAMMA RAY FROM DENSITY LOG
ECGRR  .GAPI  : ENVIRONMENTALLY CORRECTED GAMMA RAY FROM RESISTIVITY LOG
HCALD  .IN    : HRCC CALIPER CALIBRATED FROM DENSITY LOG
HCALR  .IN    : HRCC CALIPER CALIBRATED FROM RESISTIVITY LOG
HDRA   .G/C3  : HRDD SPINE AND RIBS DENSITY CORRECTION
PEFZ   .B/E   : HRDD STANDARD RESOLUTION FORMATION PHOTOELECTRIC FACTOR
RHOZ   .G/C3  : HRDD STANDARD RESOLUTION FORMATION DENSITY
TNPH_LS.DEC   : THERMAL NEUTRON POROSITY [LIMESTONE]
~Params ----------------------------------------------------
~Other -----------------------------------------------------
~ASCII -----------------------------------------------------
# ...
 4542.50000    2.81520    3.89520    4.36990    0.11420   -9999.25   -9999.25   -9999.25  114.10080   -9999.25   12.42650   -9999.25    3.93170   -9999.25    0.29560
 4543.00000    2.65640    3.77740    4.29030    0.12140   -9999.25   -9999.25   -9999.25  121.38780   -9999.25   12.98940   -9999.25    3.87880   -9999.25    0.31520
 4543.50000    2.64330    3.65960    4.13320    0.11970   -9999.25   -9999.25   -9999.25  118.05190   -9999.25   13.16300   -9999.25    3.92950   -9999.25    0.30200
 4544.00000    2.66360    3.54180    3.96030    0.11140   -9999.25   -9999.25   -9999.25  116.76030   -9999.25   13.09400   -9999.25    3.97670   -9999.25    0.28170
 4544.50000    2.66080    3.42400    3.73190    0.11510   -9999.25   -9999.25   -9999.25  115.76830   -9999.25   12.69890   -9999.25    4.03750   -9999.25    0.28570
 4545.00000    2.56860    3.30620    3.59630    0.12180   -9999.25   -9999.25   -9999.25  116.82760   -9999.25   13.73800   -9999.25    4.12190   -9999.25    0.29220
 4545.50000    2.50730    3.18840    3.46470    0.12850   -9999.25   -9999.25   -9999.25  113.10920   -9999.25   13.39500   -9999.25    4.20630   -9999.25    0.30100
 4546.00000    2.47980    3.07060    3.26270    0.13490   -9999.25   -9999.25   -9999.25  110.01770   -9999.25   13.35610   -9999.25    4.29070   -9999.25    0.33080
 4546.50000    2.43140    2.95280    3.15070    0.13760   -9999.25   -9999.25   -9999.25  111.81300   -9999.25   13.23360   -9999.25    4.43580   -9999.25    0.34650
 4547.00000    2.30610    2.83500    3.36360    0.13020   -9999.25   -9999.25   -9999.25  114.55770   -9999.25   13.49590   -9999.25    4.59790   -9999.25    0.35600
 4547.50000    2.45620    3.38410    4.68460    0.12150   -9999.25   -9999.25   -9999.25  115.72690   -9999.25   13.26890   -9999.25    4.65060   -9999.25    0.34460
 4548.00000    2.78000    4.50450    4.86140    0.11390   -9999.25   -9999.25   -9999.25  109.06650   -9999.25   13.47230   -9999.25    4.71240   -9999.25    0.34010
 4548.50000    2.82160    5.09320    3.94570    0.10360   -9999.25   -9999.25   -9999.25  101.89990   -9999.25   13.15290   -9999.25    4.83050   -9999.25    0.33270
 4549.00000    3.14260    5.51070    6.48980    0.08200   -9999.25   -9999.25   -9999.25   94.73330   -9999.25   12.89610   -9999.25    4.96450   -9999.25    0.29900
 4549.50000    3.49820    5.80020    7.21470    0.05450   -9999.25   -9999.25   -9999.25   84.20970   -9999.25   12.57050   -9999.25    5.09850   -9999.25    0.24380
 4550.00000    3.90140    5.83620    8.16010    0.02710   -9999.25   -9999.25   -9999.25   68.69770   -9999.25   12.24490   -9999.25    5.23250   -9999.25    0.12170
 4550.50000    4.26050    7.58460   13.87780    0.01030   -9999.25   -9999.25   -9999.25   57.73580   -9999.25   12.22600   -9999.25    5.12450   -9999.25    0.09900
 4551.00000    4.42400   14.27380   20.22900    0.01170   -9999.25   -9999.25   -9999.25   55.24820   -9999.25   12.20710   -9999.25    5.40810   -9999.25    0.08080
 4551.50000    3.86830   15.80510   27.71910    0.04370   -9999.25   -9999.25   -9999.25   67.34230   -9999.25   12.18830   -9999.25    5.19690   -9999.25    0.09300
 4552.00000    2.92400   12.56030   18.23900    0.11780   -9999.25   -9999.25   -9999.25   91.57360   -9999.25   12.17440   -9999.25    5.00050   -9999.25    0.11680
 4552.50000    1.93740    7.27940    6.29640    0.19180   -9999.25   -9999.25   -9999.25  124.19320   -9999.25   12.18460   -9999.25    4.90850   -9999.25    0.16680
 4553.00000    1.40490    1.99840    2.66930    0.26080   -9999.25   -9999.25   -9999.25  134.06740   -9999.25   12.52770   -9999.25    4.83190   -9999.25    0.29960
 4553.50000    1.40820    1.98590    2.59570    0.24660   -9999.25   -9999.25   -9999.25  127.08620   -9999.25   13.04900   -9999.25    4.74190   -9999.25    0.43540
 4554.00000    1.55870    2.49580    3.95160    0.20290   -9999.25   -9999.25   -9999.25  121.68300   -9999.25   13.10960   -9999.25    4.65190   -9999.25    0.46140
 4554.50000    1.72230    3.15620    5.64650    0.15920   -9999.25   -9999.25   -9999.25  114.72180   -9999.25   12.94860   -9999.25    4.47250   -9999.25    0.41730
 4555.00000    1.76840    3.57430    8.13110    0.14660   -9999.25   -9999.25   -9999.25  113.66500   -9999.25   12.83040   -9999.25    4.15900   -9999.25    0.37300
 4555.50000    1.70840    3.40860    6.02970    0.14740   -9999.25   -9999.25   -9999.25  113.35700   -9999.25   13.51670   -9999.25    3.84550   -9999.25    0.31500
 4556.00000    1.70840    3.20600    5.29340    0.15530   -9999.25   -9999.25   -9999.25  118.82310   -9999.25   12.99190   -9999.25    3.66950   -9999.25    0.32370
 4556.50000    1.70790    3.00330    4.44460    0.16220   -9999.25   -9999.25   -9999.25  117.83690   -9999.25   13.43780   -9999.25    3.57670   -9999.25    0.32920
 4557.00000    1.73660    2.82360    4.07240    0.16560   -9999.25   -9999.25   -9999.25  113.34930   -9999.25   13.55730   -9999.25    3.54670   -9999.25    0.35540
 4557.50000    1.76570    2.75390    3.86570    0.17030   -9999.25   -9999.25   -9999.25  111.09060   -9999.25   13.18410   -9999.25    3.55180   -9999.25    0.34190
 4558.00000    1.71930    2.62380    3.48570    0.17190   -9999.25   -9999.25   -9999.25  114.80300   -9999.25   13.14360   -9999.25    3.57490   -9999.25    0.34860
 4558.50000    1.73820    2.49370    3.30020    0.16830   -9999.25   -9999.25   -9999.25  118.98080   -9999.25   12.98210   -9999.25    3.58210   -9999.25    0.35010
 4559.00000    1.84880    2.68570    3.38040    0.15960   -9999.25   -9999.25   -9999.25  119.99190   -9999.25   13.37070   -9999.25    3.58940   -9999.25    0.33740
 4559.50000    2.00270    2.88850    3.48080    0.14480   -9999.25   -9999.25   -9999.25  113.37800   -9999.25   13.75930   -9999.25    3.59520   -9999.25    0.30950
 4560.00000    2.18260    3.09120    3.72240    0.13300   -9999.25   -9999.25   -9999.25  108.52250   -9999.25   12.83080   -9999.25    3.58070   -9999.25    0.29900
 4560.50000    2.40110    3.27300    3.87040    0.12070   -9999.25   -9999.25   -9999.25  106.55610   -9999.25   12.65940   -9999.25    3.55940   -9999.25    0.27160
 4561.00000    2.62860    3.61340    4.19900    0.11740   -9999.25   -9999.25   -9999.25  103.22110   -9999.25   12.53830   -9999.25    3.69940   -9999.25    0.24140
 4561.50000    2.76070    3.70360    5.15050    0.13930   -9999.25   -9999.25   -9999.25  100.80040   -9999.25   12.81080   -9999.25    4.00160   -9999.25    0.25130
 4562.00000    2.45410    3.27980    4.10410    0.16270   -9999.25   -9999.25   -9999.25  102.61700   -9999.25   12.77550   -9999.25    4.25870   -9999.25    0.27200
 4562.50000    2.30330    2.87230    3.52600    0.16970   -9999.25   -9999.25   -9999.25  109.36730   -9999.25   13.07350   -9999.25    4.50370   -9999.25    0.32770
 4563.00000    2.22920    2.80170    3.35830    0.15350   -9999.25   -9999.25   -9999.25  114.82350   -9999.25   12.91200   -9999.25    4.34480   -9999.25    0.32130
 4563.50000    2.36840    2.86610    3.26550    0.15410   -9999.25   -9999.25   -9999.25  110.64770   -9999.25   13.08630   -9999.25    4.09750   -9999.25    0.31600
 4564.00000    2.49150    3.07080    3.51980    0.15760   -9999.25   -9999.25   -9999.25  105.67000   -9999.25   13.27900   -9999.25    4.05810   -9999.25    0.30890
 4564.50000    2.60780    3.27560    3.93130    0.16240   -9999.25   -9999.25   -9999.25  103.22540   -9999.25   13.41690   -9999.25    4.05970   -9999.25    0.30190
 4565.00000    2.72410    3.48030    4.22500    0.15780   -9999.25   -9999.25   -9999.25  105.72750   -9999.25   12.96240   -9999.25    4.12820   -9999.25    0.30260
 4565.50000    2.96260    3.63170    4.47620    0.14760   -9999.25   -9999.25   -9999.25  106.11120   -9999.25   13.01290   -9999.25    4.18300   -9999.25    0.29720
 4566.00000    3.18140    3.69560    4.60210    0.13000   -9999.25   -9999.25   -9999.25  101.68030   -9999.25   13.52810   -9999.25    4.22490   -9999.25    0.28750
 4566.50000    3.26960    3.77560    4.37890    0.11490   -9999.25   -9999.25   -9999.25   97.47720   -9999.25   12.77120   -9999.25    4.24680   -9999.25    0.27970
