~Version ---------------------------------------------------
VERS.   2.0 : CWLS log ASCII Standard -VERSION 2.0
WRAP.    NO : One line per depth step
DLM . SPACE : Column Data Section Delimiter
~Well ------------------------------------------------------
STRT .FT               1480.0 : START DEPTH
STOP .FT              10748.0 : STOP DEPTH
STEP .FT                  0.5 : STEP
NULL .               -9999.25 : NULL VALUE
COMP .                        : COMPANY
WELL .                        : WELL
FLD  .                        : FIELD
LOC  .                        : LOCATION
PROV .                        : PROVINCE
CNTY .                        : COUNTY
STAT .                        : STATE
CTRY .                        : COUNTRY
SRVC .                        : SERVICE COMPANY
DATE .                        : DATE
UWI  .                        : UNIQUE WELL ID
API  .                        : API NUMBER
SLAT .WGS84 5.930649512990897 : SURFACE LATITUDE
SLON .WGS84 2.851030789253926 : SURFACE LONGITUDE
DATUM.F                   nan : DEPTH DATUM ELEV
~Curve Information -----------------------------------------
DEPT   .FT    : 
AT10   .OHMM  : ARRAY INDUCTION TWO FOOT RESISTIVITY A10
AT30   .OHMM  : ARRAY INDUCTION TWO FOOT RESISTIVITY A30
AT90   .OHMM  : ARRAY INDUCTION TWO FOOT RESISTIVITY A90
DPHZ_LS.DEC   : HGRD STANDARD RESOLUTION DENSITY POROSITY
DTCO   .US/F  : DELTA-T COMPRESSIONAL
DTSM   .US/F  : DELTA-T SHEAR
ECGRD  .GAPI  : ENVIRONMENTALLY CORRECTED GAMMA RAY FROM DENSITY LOG
ECGRR  .GAPI  : ENVIRONMENTALLY CORRECTED GAMMA RAY FROM RESISTIVITY LOG
HCALD  .IN    : HRCC CALIPER CALIBRATED FROM DENSITY LOG
HCALR  .IN    : HRCC CALIPER CALIBRATED FROM RESISTIVITY LOG
HDRA   .G/C3  : HRDD SPINE AND RIBS DENSITY CORRECTION
PEFZ   .B/E   : HRDD STANDARD RESOLUTION FORMATION PHOTOELECTRIC FACTOR
RHOZ   .G/C3  : HRDD STANDARD RESOLUTION FORMATION DENSITY
TNPH_LS.DEC   : THERMAL NEUTRON POROSITY [LIMESTONE]
~Params ----------------------------------------------------
~Other -----------------------------------------------------
~ASCII -----------------------------------------------------
# ...
 2729.50000    0.74530    0.82620    0.86410    0.16500   -9999.25   -9999.25   -9999.25  102.92200   -9999.25   12.80580   -9999.25    3.92580   -9999.25    0.39570
 2730.00000    0.75140    0.86090    0.90030    0.16390   -9999.25   -9999.25   -9999.25  106.08690   -9999.25   12.74020   -9999.25    3.85670   -9999.25    0.39090
 2730.50000    0.74970    0.87740    0.92280    0.18390   -9999.25   -9999.25   -9999.25  109.40670   -9999.25   12.95310   -9999.25    3.74650   -9999.25    0.38980
 2731.00000    0.78080    0.89200    0.95680    0.20580   -9999.25   -9999.25   -9999.25  112.87170   -9999.25   12.92690   -9999.25    3.60950   -9999.25    0.39260
 2731.50000    0.79240    0.90670    0.98780    0.22500   -9999.25   -9999.25   -9999.25  114.25500   -9999.25   12.79570   -9999.25    3.47250   -9999.25    0.40930
 2732.00000    0.79130    0.91540    1.01220    0.23900   -9999.25   -9999.25   -9999.25  115.66720   -9999.25   12.76030   -9999.25    3.41290   -9999.25    0.42860
 2732.50000    0.77280    0.89140    0.98610    0.23640   -9999.25   -9999.25   -9999.25  115.47900   -9999.25   12.92620   -9999.25    3.44670   -9999.25    0.43440
 2733.00000    0.74620    0.87570    0.94280    0.22840   -9999.25   -9999.25   -9999.25  112.99560   -9999.25   13.02580   -9999.25    3.52640   -9999.25    0.42180
 2733.50000    0.75360    0.85990    0.89940    0.19840   -9999.25   -9999.25   -9999.25  109.41240   -9999.25   12.90580   -9999.25    3.68640   -9999.25    0.40600
 2734.00000    0.81410    0.87830    0.95260    0.17180   -9999.25   -9999.25   -9999.25  105.91630   -9999.25   12.79980   -9999.25    3.78240   -9999.25    0.39530
 2734.50000    0.84230    0.90900    1.03690    0.14640   -9999.25   -9999.25   -9999.25  101.38550   -9999.25   12.66260   -9999.25    3.84570   -9999.25    0.37620
 2735.00000    0.83440    0.89850    0.96090    0.15360   -9999.25   -9999.25   -9999.25   96.70050   -9999.25   12.72380   -9999.25    3.83020   -9999.25    0.36650
 2735.50000    0.82620    0.89050    0.92520    0.15640   -9999.25   -9999.25   -9999.25   94.86170   -9999.25   12.63830   -9999.25    3.79300   -9999.25    0.37350
 2736.00000    0.81710    0.88240    0.92190    0.15600   -9999.25   -9999.25   -9999.25   92.12340   -9999.25   12.65450   -9999.25    3.74990   -9999.25    0.38100
 2736.50000    0.80790    0.86140    0.90970    0.15880   -9999.25   -9999.25   -9999.25   90.49600   -9999.25   12.54590   -9999.25    3.70670   -9999.25    0.38590
 2737.00000    0.75000    0.79200    0.84230    0.17960   -9999.25   -9999.25   -9999.25   96.32220   -9999.25   12.68880   -9999.25    3.65810   -9999.25    0.38830
 2737.50000    0.68950    0.72260    0.75800    0.20120   -9999.25   -9999.25   -9999.25  104.26710   -9999.25   12.83170   -9999.25    3.61850   -9999.25    0.40420
 2738.00000    0.66890    0.70420    0.73650    0.20610   -9999.25   -9999.25   -9999.25  108.53770   -9999.25   12.87690   -9999.25    3.58030   -9999.25    0.42740
 2738.50000    0.69850    0.73710    0.77090    0.20220   -9999.25   -9999.25   -9999.25  108.08750   -9999.25   12.90460   -9999.25    3.55190   -9999.25    0.42230
 2739.00000    0.72480    0.77270    0.80810    0.19460   -9999.25   -9999.25   -9999.25  104.91200   -9999.25   12.92110   -9999.25    3.53400   -9999.25    0.40390
 2739.50000    0.76540    0.80830    0.84540    0.18940   -9999.25   -9999.25   -9999.25  102.39300   -9999.25   12.92080   -9999.25    3.50300   -9999.25    0.38920
 2740.00000    0.80610    0.84400    0.88270    0.18510   -9999.25   -9999.25   -9999.25  101.39180   -9999.25   12.94500   -9999.25    3.49390   -9999.25    0.37830
 2740.50000    0.82520    0.87960    0.92000    0.18740   -9999.25   -9999.25   -9999.25  100.73600   -9999.25   12.91780   -9999.25    3.48030   -9999.25    0.36670
 2741.00000    0.78830    0.85790    0.89730    0.18700   -9999.25   -9999.25   -9999.25  100.78650   -9999.25   12.87240   -9999.25    3.47880   -9999.25    0.36250
 2741.50000    0.75910    0.83190    0.87010    0.18900   -9999.25   -9999.25   -9999.25  102.75380   -9999.25   12.87240   -9999.25    3.50280   -9999.25    0.37060
 2742.00000    0.73000    0.80620    0.84320    0.19070   -9999.25   -9999.25   -9999.25  103.04480   -9999.25   12.86780   -9999.25    3.53440   -9999.25    0.37910
 2742.50000    0.72400    0.80100    0.83770    0.19280   -9999.25   -9999.25   -9999.25  103.91370   -9999.25   12.89660   -9999.25    3.56600   -9999.25    0.39150
 2743.00000    0.77460    0.82100    0.85860    0.19500   -9999.25   -9999.25   -9999.25  101.39180   -9999.25   13.13070   -9999.25    3.61690   -9999.25    0.39750
 2743.50000    0.81500    0.87440    0.93360    0.18360   -9999.25   -9999.25   -9999.25   97.62840   -9999.25   12.97090   -9999.25    3.71510   -9999.25    0.38780
 2744.00000    0.85550    0.92830    1.02480    0.16980   -9999.25   -9999.25   -9999.25   93.97070   -9999.25   12.68880   -9999.25    3.75070   -9999.25    0.36410
 2744.50000    0.87690    0.98230    1.10260    0.15990   -9999.25   -9999.25   -9999.25   92.08490   -9999.25   12.49210   -9999.25    3.74110   -9999.25    0.35990
 2745.00000    0.81700    0.99050    1.07850    0.17310   -9999.25   -9999.25   -9999.25   93.51890   -9999.25   12.60610   -9999.25    3.65600   -9999.25    0.37330
 2745.50000    0.76180    0.96530    1.04010    0.18760   -9999.25   -9999.25   -9999.25   95.38400   -9999.25   12.77350   -9999.25    3.59520   -9999.25    0.40160
 2746.00000    0.74600    0.94010    1.00170    0.18300   -9999.25   -9999.25   -9999.25   95.77740   -9999.25   12.78360   -9999.25    3.57500   -9999.25    0.41260
 2746.50000    0.90750    0.99390    1.36560    0.15980   -9999.25   -9999.25   -9999.25   90.61780   -9999.25   12.66960   -9999.25    3.59290   -9999.25    0.40150
 2747.00000    1.13310    1.33170    1.97210    0.14320   -9999.25   -9999.25   -9999.25   85.71740   -9999.25   12.60610   -9999.25    3.60170   -9999.25    0.36530
 2747.50000    1.27110    1.60180    2.15950    0.14740   -9999.25   -9999.25   -9999.25   86.23550   -9999.25   12.60610   -9999.25    3.60370   -9999.25    0.33750
 2748.00000    1.22590    1.49620    1.88400    0.16830   -9999.25   -9999.25   -9999.25   92.91730   -9999.25   12.65450   -9999.25    3.61400   -9999.25    0.32330
 2748.50000    1.10430    1.38050    1.60840    0.19490   -9999.25   -9999.25   -9999.25  106.68840   -9999.25   13.32710   -9999.25    3.56790   -9999.25    0.36180
 2749.00000    1.02900    1.26490    1.40760    0.20950   -9999.25   -9999.25   -9999.25  106.99110   -9999.25   13.15490   -9999.25    3.53650   -9999.25    0.38870
 2749.50000    1.05600    1.24920    1.34760    0.20180   -9999.25   -9999.25   -9999.25  102.29970   -9999.25   13.71180   -9999.25    3.53510   -9999.25    0.43060
 2750.00000    1.06760    1.29920    1.38120    0.17410   -9999.25   -9999.25   -9999.25   95.48980   -9999.25   13.66340   -9999.25    3.63720   -9999.25    0.39010
 2750.50000    1.15500    1.36170    1.43730    0.14460   -9999.25   -9999.25   -9999.25   89.10250   -9999.25   12.73520   -9999.25    3.73940   -9999.25    0.34950
 2751.00000    1.18630    1.42430    1.49340    0.12810   -9999.25   -9999.25   -9999.25   87.22150   -9999.25   12.65040   -9999.25    3.84150   -9999.25    0.32370
 2751.50000    1.09450    1.38850    1.45220    0.14340   -9999.25   -9999.25   -9999.25   89.87170   -9999.25   12.70280   -9999.25    3.86920   -9999.25    0.33740
 2752.00000    1.02680    1.17370    1.22000    0.16680   -9999.25   -9999.25   -9999.25   96.24910   -9999.25   12.91510   -9999.25    3.86150   -9999.25    0.39450
 2752.50000    0.96070    0.99270    1.03830    0.18070   -9999.25   -9999.25   -9999.25   98.67160   -9999.25   13.34040   -9999.25    3.76620   -9999.25    0.39910
 2753.00000    0.91420    0.99400    1.03960    0.18880   -9999.25   -9999.25   -9999.25   97.50600   -9999.25   12.96300   -9999.25    3.53480   -9999.25    0.39260
 2753.50000    0.90290    0.99890    1.04470    0.19310   -9999.25   -9999.25   -9999.25   96.94150   -9999.25   13.09320   -9999.25    3.35200   -9999.25    0.36170
