~Version ---------------------------------------------------
VERS.   2.0 : CWLS log ASCII Standard -VERSION 2.0
WRAP.    NO : One line per depth step
DLM . SPACE : Column Data Section Delimiter
~Well ------------------------------------------------------
STRT .FT               1480.0 : START DEPTH
STOP .FT              10748.0 : STOP DEPTH
STEP .FT                  0.5 : STEP
NULL .               -9999.25 : NULL VALUE
COMP .                        : COMPANY
WELL .                        : WELL
FLD  .                        : FIELD
LOC  .                        : LOCATION
PROV .                        : PROVINCE
CNTY .                        : COUNTY
STAT .                        : STATE
CTRY .                        : COUNTRY
SRVC .                        : SERVICE COMPANY
DATE .                        : DATE
UWI  .                        : UNIQUE WELL ID
API  .                        : API NUMBER
SLAT .WGS84 5.930649512990897 : SURFACE LATITUDE
SLON .WGS84 2.851030789253926 : SURFACE LONGITUDE
DATUM.F                   nan : DEPTH DATUM ELEV
~Curve Information -----------------------------------------
DEPT   .FT    : 
AT10   .OHMM  : ARRAY INDUCTION TWO FOOT RESISTIVITY A10
AT30   .OHMM  : ARRAY INDUCTION TWO FOOT RESISTIVITY A30
AT90   .OHMM  : ARRAY INDUCTION TWO FOOT RESISTIVITY A90
DPHZ_LS.DEC   : HGRD STANDARD RESOLUTION DENSITY POROSITY
DTCO   .US/F  : DELTA-T COMPRESSIONAL
DTSM   .US/F  : DELTA-T SHEAR
ECGRD  .GAPI  : ENVIRONMENTALLY CORRECTED GAMMA RAY FROM DENSITY LOG
ECGRR  .GAPI  : ENVIRONMENTALLY CORRECTED GAMMA RAY FROM RESISTIVITY LOG
HCALD  .IN    : HRCC CALIPER CALIBRATED FROM DENSITY LOG
HCALR  .IN    : HRCC CALIPER CALIBRATED FROM RESISTIVITY LOG
HDRA   .G/C3  : HRDD SPINE AND RIBS DENSITY CORRECTION
PEFZ   .B/E   : HRDD STANDARD RESOLUTION FORMATION PHOTOELECTRIC FACTOR
RHOZ   .G/C3  : HRDD STANDARD RESOLUTION FORMATION DENSITY
TNPH_LS.DEC   : THERMAL NEUTRON POROSITY [LIMESTONE]
~Params ----------------------------------------------------
~Other -----------------------------------------------------
~ASCII -----------------------------------------------------
# ...
 5155.00000    3.35460    4.50200    5.10950    0.10040   -9999.25   -9999.25   -9999.25  119.24890   -9999.25   12.99950   -9999.25    4.50600   -9999.25    0.29270
 5155.50000    3.56250    4.66260    5.12810    0.08650   -9999.25   -9999.25   -9999.25  114.60950   -9999.25   13.14180   -9999.25    4.47750   -9999.25    0.27790
 5156.00000    3.67300    4.78850    5.14670    0.07390   -9999.25   -9999.25   -9999.25  110.05420   -9999.25   12.90910   -9999.25    4.32190   -9999.25    0.27460
 5156.50000    3.67200    4.78850    5.16540    0.06820   -9999.25   -9999.25   -9999.25  112.88330   -9999.25   13.10900   -9999.25    4.17160   -9999.25    0.27080
 5157.00000    3.61000    4.67120    5.18400    0.06730   -9999.25   -9999.25   -9999.25  110.40090   -9999.25   13.15290   -9999.25    4.07370   -9999.25    0.25960
 5157.50000    3.52530    4.58510    5.19890    0.06680   -9999.25   -9999.25   -9999.25  110.21070   -9999.25   12.90050   -9999.25    4.00350   -9999.25    0.27580
 5158.00000    3.48070    4.58510    5.15760    0.06680   -9999.25   -9999.25   -9999.25  111.55530   -9999.25   13.06470   -9999.25    3.93340   -9999.25    0.28450
 5158.50000    3.53420    4.58510    5.11630    0.07150   -9999.25   -9999.25   -9999.25  116.41900   -9999.25   13.25380   -9999.25    3.92240   -9999.25    0.29870
 5159.00000    3.52150    4.58100    5.07500    0.07740   -9999.25   -9999.25   -9999.25  118.03820   -9999.25   12.70900   -9999.25    3.96220   -9999.25    0.29310
 5159.50000    3.41800    4.56080    5.03370    0.08410   -9999.25   -9999.25   -9999.25  117.84150   -9999.25   13.39500   -9999.25    4.03650   -9999.25    0.28490
 5160.00000    3.26530    4.25950    4.91660    0.09200   -9999.25   -9999.25   -9999.25  115.55300   -9999.25   12.94100   -9999.25    4.11860   -9999.25    0.28720
 5160.50000    2.89200    3.60580    4.05710    0.10060   -9999.25   -9999.25   -9999.25  112.59030   -9999.25   13.70770   -9999.25    4.18230   -9999.25    0.28520
 5161.00000    2.59340    2.95190    3.35740    0.09750   -9999.25   -9999.25   -9999.25  113.49830   -9999.25   13.25380   -9999.25    4.26710   -9999.25    0.26400
 5161.50000    3.17530    3.75130    4.45310    0.08900   -9999.25   -9999.25   -9999.25  105.78040   -9999.25   13.66160   -9999.25    4.37330   -9999.25    0.25090
 5162.00000    4.65910    6.70660    7.53330    0.07600   -9999.25   -9999.25   -9999.25   95.64120   -9999.25   13.12840   -9999.25    4.53260   -9999.25    0.22630
 5162.50000    5.67700    9.49140   10.35200    0.06480   -9999.25   -9999.25   -9999.25   85.18420   -9999.25   12.40240   -9999.25    4.71080   -9999.25    0.19760
 5163.00000    5.64300   10.20070   11.46430    0.05160   -9999.25   -9999.25   -9999.25   84.29500   -9999.25   12.10360   -9999.25    4.79400   -9999.25    0.16890
 5163.50000    5.85180    9.22010   12.23570    0.04060   -9999.25   -9999.25   -9999.25   80.96210   -9999.25   12.51010   -9999.25    4.78240   -9999.25    0.14070
 5164.00000    6.09360    8.63170   14.06810    0.03700   -9999.25   -9999.25   -9999.25   71.19980   -9999.25   12.32200   -9999.25    4.73220   -9999.25    0.12680
 5164.50000    6.37470    9.38970   15.15510    0.06600   -9999.25   -9999.25   -9999.25   66.07110   -9999.25   12.31040   -9999.25    4.67680   -9999.25    0.12670
 5165.00000    5.52070    9.50040   13.25740    0.12210   -9999.25   -9999.25   -9999.25   73.75870   -9999.25   12.30390   -9999.25    4.61560   -9999.25    0.15210
 5165.50000    3.81200    6.29160    7.33510    0.17590   -9999.25   -9999.25   -9999.25   94.51590   -9999.25   13.04260   -9999.25    4.48490   -9999.25    0.23320
 5166.00000    2.51670    3.08280    4.50740    0.19240   -9999.25   -9999.25   -9999.25  108.42870   -9999.25   13.26720   -9999.25    4.32370   -9999.25    0.29800
 5166.50000    1.97430    2.30330    2.61170    0.17130   -9999.25   -9999.25   -9999.25  117.11870   -9999.25   13.14930   -9999.25    4.18400   -9999.25    0.37370
 5167.00000    2.24000    2.43550    3.16630    0.13620   -9999.25   -9999.25   -9999.25  119.08950   -9999.25   13.10610   -9999.25    4.07180   -9999.25    0.36080
 5167.50000    2.49000    3.38910    4.11340    0.11560   -9999.25   -9999.25   -9999.25  115.91440   -9999.25   13.10740   -9999.25    4.02780   -9999.25    0.30210
 5168.00000    2.83600    4.33470    4.98280    0.11350   -9999.25   -9999.25   -9999.25  109.14000   -9999.25   12.74430   -9999.25    4.13120   -9999.25    0.25860
 5168.50000    2.54140    4.67120    5.54120    0.13260   -9999.25   -9999.25   -9999.25  101.08910   -9999.25   12.47690   -9999.25    4.22200   -9999.25    0.23180
 5169.00000    2.56420    4.52850    5.57550    0.12800   -9999.25   -9999.25   -9999.25  100.90000   -9999.25   13.27730   -9999.25    4.30460   -9999.25    0.23320
 5169.50000    2.68870    4.52290    5.44640    0.12940   -9999.25   -9999.25   -9999.25  100.49520   -9999.25   13.55870   -9999.25    4.38710   -9999.25    0.24400
 5170.00000    2.73470    4.50050    5.60060    0.12470   -9999.25   -9999.25   -9999.25   99.35320   -9999.25   12.96460   -9999.25    4.46960   -9999.25    0.27370
 5170.50000    2.34660    4.21090    5.02010    0.13600   -9999.25   -9999.25   -9999.25   98.97070   -9999.25   12.68680   -9999.25    4.43180   -9999.25    0.29490
 5171.00000    2.19350    3.55640    4.36690    0.15270   -9999.25   -9999.25   -9999.25  104.41860   -9999.25   12.78990   -9999.25    4.40890   -9999.25    0.32020
 5171.50000    2.12370    2.90190    3.71370    0.17190   -9999.25   -9999.25   -9999.25  110.08640   -9999.25   13.01570   -9999.25    4.40230   -9999.25    0.34220
 5172.00000    1.93650    2.60750    3.38880    0.17750   -9999.25   -9999.25   -9999.25  113.19590   -9999.25   13.07040   -9999.25    4.39560   -9999.25    0.35540
 5172.50000    2.12520    3.01770    3.90400    0.16640   -9999.25   -9999.25   -9999.25  111.23380   -9999.25   12.56770   -9999.25    4.41460   -9999.25    0.34950
 5173.00000    2.33690    3.42570    4.58700    0.14370   -9999.25   -9999.25   -9999.25  115.45160   -9999.25   13.38490   -9999.25    4.46500   -9999.25    0.33500
 5173.50000    2.49820    3.69040    5.18190    0.12870   -9999.25   -9999.25   -9999.25  113.58930   -9999.25   12.84010   -9999.25    4.37460   -9999.25    0.32940
 5174.00000    2.55720    3.40450    4.36150    0.12140   -9999.25   -9999.25   -9999.25  114.94120   -9999.25   13.16760   -9999.25    4.27830   -9999.25    0.31580
 5174.50000    2.79410    3.76030    4.35650    0.11460   -9999.25   -9999.25   -9999.25  110.51890   -9999.25   13.01410   -9999.25    4.32030   -9999.25    0.30130
 5175.00000    4.00010    7.92110    9.63050    0.08390   -9999.25   -9999.25   -9999.25  105.80840   -9999.25   12.95690   -9999.25    4.53470   -9999.25    0.23550
 5175.50000    6.82880   13.03460   14.90440    0.03520   -9999.25   -9999.25   -9999.25   94.88490   -9999.25   12.88050   -9999.25    4.86330   -9999.25    0.17520
 5176.00000    9.97170   18.14810   22.16400   -0.01500   -9999.25   -9999.25   -9999.25   83.14770   -9999.25   12.38610   -9999.25    5.23810   -9999.25    0.09980
 5176.50000   16.27480   28.39770   37.36620   -0.02230   -9999.25   -9999.25   -9999.25   76.60400   -9999.25   12.36600   -9999.25    5.51680   -9999.25    0.05910
 5177.00000   23.11920   46.35140  108.66810   -0.01450   -9999.25   -9999.25   -9999.25   82.67440   -9999.25   12.35990   -9999.25    5.60230   -9999.25    0.03290
 5177.50000   26.38020   45.49700   99.90170   -0.01040   -9999.25   -9999.25   -9999.25   93.06890   -9999.25   12.36040   -9999.25    5.60880   -9999.25    0.02700
 5178.00000   25.89530   44.10770   66.40470   -0.00800   -9999.25   -9999.25   -9999.25   94.59730   -9999.25   12.36090   -9999.25    5.58450   -9999.25    0.03090
 5178.50000   29.22430   40.98310   80.87860   -0.00880   -9999.25   -9999.25   -9999.25   89.08240   -9999.25   12.36140   -9999.25    5.59520   -9999.25    0.03290
 5179.00000   32.97980   38.48180   74.19670   -0.00060   -9999.25   -9999.25   -9999.25   81.38610   -9999.25   12.36590   -9999.25    5.61830   -9999.25    0.03400
