~Version ---------------------------------------------------
VERS.   2.0 : CWLS log ASCII Standard -VERSION 2.0
WRAP.    NO : One line per depth step
DLM . SPACE : Column Data Section Delimiter
~Well ------------------------------------------------------
STRT .FT               1480.0 : START DEPTH
STOP .FT              10748.0 : STOP DEPTH
STEP .FT                  0.5 : STEP
NULL .               -9999.25 : NULL VALUE
COMP .                        : COMPANY
WELL .                        : WELL
FLD  .                        : FIELD
LOC  .                        : LOCATION
PROV .                        : PROVINCE
CNTY .                        : COUNTY
STAT .                        : STATE
CTRY .                        : COUNTRY
SRVC .                        : SERVICE COMPANY
DATE .                        : DATE
UWI  .                        : UNIQUE WELL ID
API  .                        : API NUMBER
SLAT .WGS84 5.930649512990897 : SURFACE LATITUDE
SLON .WGS84 2.851030789253926 : SURFACE LONGITUDE
DATUM.F                   nan : DEPTH DATUM ELEV
~Curve Information -----------------------------------------
DEPT   .FT    : 
AT10   .OHMM  : ARRAY INDUCTION TWO FOOT RESISTIVITY A10
AT30   .OHMM  : ARRAY INDUCTION TWO FOOT RESISTIVITY A30
AT90   .OHMM  : ARRAY INDUCTION TWO FOOT RESISTIVITY A90
DPHZ_LS.DEC   : HGRD STANDARD RESOLUTION DENSITY POROSITY
DTCO   .US/F  : DELTA-T COMPRESSIONAL
DTSM   .US/F  : DELTA-T SHEAR
ECGRD  .GAPI  : ENVIRONMENTALLY CORRECTED GAMMA RAY FROM DENSITY LOG
ECGRR  .GAPI  : ENVIRONMENTALLY CORRECTED GAMMA RAY FROM RESISTIVITY LOG
HCALD  .IN    : HRCC CALIPER CALIBRATED FROM DENSITY LOG
HCALR  .IN    : HRCC CALIPER CALIBRATED FROM RESISTIVITY LOG
HDRA   .G/C3  : HRDD SPINE AND RIBS DENSITY CORRECTION
PEFZ   .B/E   : HRDD STANDARD RESOLUTION FORMATION PHOTOELECTRIC FACTOR
RHOZ   .G/C3  : HRDD STANDARD RESOLUTION FORMATION DENSITY
TNPH_LS.DEC   : THERMAL NEUTRON POROSITY [LIMESTONE]
~Params ----------------------------------------------------
~Other -----------------------------------------------------
~ASCII -----------------------------------------------------
# ...
 2117.00000    1.18730    1.30730    1.60600    0.19850   -9999.25   -9999.25   -9999.25   99.74260   -9999.25   15.38760   -9999.25    3.69360   -9999.25    0.33280
 2117.50000    1.15480    1.31540    1.45970    0.20620   -9999.25   -9999.25   -9999.25   88.54980   -9999.25   13.85730   -9999.25    3.74430   -9999.25    0.29660
 2118.00000    1.04730    1.22870    1.37760    0.20780   -9999.25   -9999.25   -9999.25   81.47200   -9999.25   12.70100   -9999.25    3.81180   -9999.25    0.26610
 2118.50000    1.12290    1.21010    1.37120    0.20470   -9999.25   -9999.25   -9999.25   74.94310   -9999.25   12.46430   -9999.25    3.99210   -9999.25    0.26350
 2119.00000    1.08260    1.19160    1.54730    0.21990   -9999.25   -9999.25   -9999.25   75.87350   -9999.25   12.28140   -9999.25    4.19110   -9999.25    0.29790
 2119.50000    0.99510    1.17320    1.32730    0.22260   -9999.25   -9999.25   -9999.25   83.06200   -9999.25   12.89560   -9999.25    4.50780   -9999.25    0.33700
 2120.00000    0.95430    1.14070    1.25540    0.20320   -9999.25   -9999.25   -9999.25   85.38390   -9999.25   14.35220   -9999.25    4.32780   -9999.25    0.36990
 2120.50000    0.98030    1.10590    1.34810    0.18040   -9999.25   -9999.25   -9999.25   84.70170   -9999.25   14.25880   -9999.25    4.01660   -9999.25    0.35370
 2121.00000    1.00630    1.10590    1.49300    0.16720   -9999.25   -9999.25   -9999.25   77.54520   -9999.25   14.12970   -9999.25    3.70530   -9999.25    0.33150
 2121.50000    1.03240    1.12520    1.63780    0.16970   -9999.25   -9999.25   -9999.25   56.96570   -9999.25   14.27810   -9999.25    3.48390   -9999.25    0.32940
 2122.00000    1.00440    1.14070    1.87210    0.19340   -9999.25   -9999.25   -9999.25   33.94970   -9999.25   13.83430   -9999.25    3.47990   -9999.25    0.36890
 2122.50000    0.91710    1.06550    1.82720    0.23150   -9999.25   -9999.25   -9999.25   38.64150   -9999.25   14.73430   -9999.25    3.55850   -9999.25    0.42010
 2123.00000    0.82980    0.98310    1.60280    0.26260   -9999.25   -9999.25   -9999.25   43.95570   -9999.25   15.99750   -9999.25    3.67480   -9999.25    0.48470
 2123.50000    0.75640    0.90140    1.37840    0.27300   -9999.25   -9999.25   -9999.25   48.72410   -9999.25   16.90410   -9999.25    3.73700   -9999.25    0.48390
 2124.00000    0.77060    0.90700    1.39090    0.25440   -9999.25   -9999.25   -9999.25   53.82800   -9999.25   15.61440   -9999.25    3.62210   -9999.25    0.47390
 2124.50000    0.82240    1.03810    1.51870    0.22910   -9999.25   -9999.25   -9999.25   56.93840   -9999.25   14.29480   -9999.25    3.52260   -9999.25    0.44410
 2125.00000    0.91190    1.12710    1.63610    0.19620   -9999.25   -9999.25   -9999.25   55.37780   -9999.25   14.93260   -9999.25    3.47370   -9999.25    0.47620
 2125.50000    1.00440    1.21620    1.65140    0.16390   -9999.25   -9999.25   -9999.25   55.48310   -9999.25   14.53720   -9999.25    3.46880   -9999.25    0.47180
 2126.00000    1.06200    1.29920    1.58370    0.14940   -9999.25   -9999.25   -9999.25   55.65180   -9999.25   14.98120   -9999.25    3.43140   -9999.25    0.49000
 2126.50000    1.04240    1.29120    1.55460    0.14170   -9999.25   -9999.25   -9999.25   54.08520   -9999.25   13.74480   -9999.25    3.37350   -9999.25    0.35720
 2127.00000    1.00440    1.20610    1.62090    0.14780   -9999.25   -9999.25   -9999.25   53.69390   -9999.25   13.09280   -9999.25    3.38920   -9999.25    0.35970
 2127.50000    0.99050    1.11280    1.64370    0.15010   -9999.25   -9999.25   -9999.25   54.45810   -9999.25   13.43190   -9999.25    3.47600   -9999.25    0.29950
 2128.00000    0.99050    1.05890    1.33350    0.16370   -9999.25   -9999.25   -9999.25   58.49850   -9999.25   14.74750   -9999.25    3.57620   -9999.25    0.26980
 2128.50000    0.95040    1.07880    1.31190    0.16150   -9999.25   -9999.25   -9999.25   65.56210   -9999.25   14.50550   -9999.25    3.67630   -9999.25    0.24650
 2129.00000    0.98070    1.10320    1.36380    0.15930   -9999.25   -9999.25   -9999.25   77.56920   -9999.25   14.46520   -9999.25    3.83790   -9999.25    0.22900
 2129.50000    1.03010    1.10830    1.50030    0.19620   -9999.25   -9999.25   -9999.25   88.61780   -9999.25   13.84390   -9999.25    4.13800   -9999.25    0.20960
 2130.00000    0.91000    1.13220    1.60950    0.26550   -9999.25   -9999.25   -9999.25   90.10240   -9999.25   13.23860   -9999.25    4.45470   -9999.25    0.19340
 2130.50000    0.80580    1.06020    1.42320    0.29980   -9999.25   -9999.25   -9999.25   92.85840   -9999.25   14.73190   -9999.25    4.73360   -9999.25    0.17740
 2131.00000    0.70150    0.93430    1.16200    0.30010   -9999.25   -9999.25   -9999.25   97.21520   -9999.25   15.69380   -9999.25    4.69070   -9999.25    0.17230
 2131.50000    0.70010    0.92860    1.13060    0.30110   -9999.25   -9999.25   -9999.25  100.44660   -9999.25   15.53920   -9999.25    4.37390   -9999.25    0.17230
 2132.00000    0.74350    0.95780    1.40000    0.26900   -9999.25   -9999.25   -9999.25  101.98520   -9999.25   14.88290   -9999.25    4.05880   -9999.25    0.17370
 2132.50000    0.82060    1.17340    1.66960    0.24090   -9999.25   -9999.25   -9999.25  102.69050   -9999.25   14.47130   -9999.25    3.88470   -9999.25    0.17650
 2133.00000    0.88780    1.38910    1.93920    0.24290   -9999.25   -9999.25   -9999.25  103.42980   -9999.25   14.19160   -9999.25    3.99650   -9999.25    0.17890
 2133.50000    0.81860    1.24830    1.65630    0.26010   -9999.25   -9999.25   -9999.25  101.63900   -9999.25   13.86220   -9999.25    4.18990   -9999.25    0.17720
 2134.00000    0.76620    1.09820    1.27930    0.30210   -9999.25   -9999.25   -9999.25  103.90390   -9999.25   14.95860   -9999.25    4.45340   -9999.25    0.17630
 2134.50000    0.77750    1.02530    1.18440    0.30270   -9999.25   -9999.25   -9999.25  102.08860   -9999.25   15.74960   -9999.25    4.56790   -9999.25    0.21550
 2135.00000    0.79810    1.02530    1.27580    0.29510   -9999.25   -9999.25   -9999.25  101.99790   -9999.25   13.91760   -9999.25    4.36490   -9999.25    0.28680
 2135.50000    0.81100    1.01590    1.24680    0.26230   -9999.25   -9999.25   -9999.25  105.29050   -9999.25   14.34550   -9999.25    3.91940   -9999.25    0.41380
 2136.00000    0.82390    1.02690    1.24070    0.23010   -9999.25   -9999.25   -9999.25  109.66020   -9999.25   14.44240   -9999.25    3.52910   -9999.25    0.41750
 2136.50000    0.87090    1.09780    1.42560    0.19790   -9999.25   -9999.25   -9999.25  114.00220   -9999.25   14.30130   -9999.25    3.33450   -9999.25    0.37140
 2137.00000    0.89880    1.16880    1.80890    0.17070   -9999.25   -9999.25   -9999.25  113.18220   -9999.25   13.42090   -9999.25    3.22650   -9999.25    0.34670
 2137.50000    0.97180    1.21960    2.27010    0.16330   -9999.25   -9999.25   -9999.25  111.94720   -9999.25   13.39620   -9999.25    3.11850   -9999.25    0.32740
 2138.00000    1.03010    1.37920    2.29130    0.15280   -9999.25   -9999.25   -9999.25  104.87390   -9999.25   13.28870   -9999.25    3.03140   -9999.25    0.32350
 2138.50000    1.16990    1.53080    2.20760    0.14000   -9999.25   -9999.25   -9999.25   93.71480   -9999.25   12.90940   -9999.25    2.94420   -9999.25    0.33010
 2139.00000    1.27960    1.61180    2.19630    0.13580   -9999.25   -9999.25   -9999.25   86.92880   -9999.25   12.11660   -9999.25    3.08390   -9999.25    0.32470
 2139.50000    1.14290    1.48710    2.14690    0.16200   -9999.25   -9999.25   -9999.25   87.94010   -9999.25   12.11600   -9999.25    3.64580   -9999.25    0.34650
 2140.00000    0.95460    1.20640    1.59960    0.18050   -9999.25   -9999.25   -9999.25   91.67640   -9999.25   12.21560   -9999.25    4.12090   -9999.25    0.36910
 2140.50000    0.79900    0.98180    1.15960    0.16430   -9999.25   -9999.25   -9999.25   97.79150   -9999.25   12.55150   -9999.25    4.53350   -9999.25    0.38990
 2141.00000    0.78430    0.93430    1.29970    0.12410   -9999.25   -9999.25   -9999.25  100.36490   -9999.25   12.72890   -9999.25    4.81270   -9999.25    0.42210
