~Version ---------------------------------------------------
VERS.   2.0 : CWLS log ASCII Standard -VERSION 2.0
WRAP.    NO : One line per depth step
DLM . SPACE : Column Data Section Delimiter
~Well ------------------------------------------------------
STRT .FT               1480.0 : START DEPTH
STOP .FT              10748.0 : STOP DEPTH
STEP .FT                  0.5 : STEP
NULL .               -9999.25 : NULL VALUE
COMP .                        : COMPANY
WELL .                        : WELL
FLD  .                        : FIELD
LOC  .                        : LOCATION
PROV .                        : PROVINCE
CNTY .                        : COUNTY
STAT .                        : STATE
CTRY .                        : COUNTRY
SRVC .                        : SERVICE COMPANY
DATE .                        : DATE
UWI  .                        : UNIQUE WELL ID
API  .                        : API NUMBER
SLAT .WGS84 5.930649512990897 : SURFACE LATITUDE
SLON .WGS84 2.851030789253926 : SURFACE LONGITUDE
DATUM.F                   nan : DEPTH DATUM ELEV
~Curve Information -----------------------------------------
DEPT   .FT    : 
AT10   .OHMM  : ARRAY INDUCTION TWO FOOT RESISTIVITY A10
AT30   .OHMM  : ARRAY INDUCTION TWO FOOT RESISTIVITY A30
AT90   .OHMM  : ARRAY INDUCTION TWO FOOT RESISTIVITY A90
DPHZ_LS.DEC   : HGRD STANDARD RESOLUTION DENSITY POROSITY
DTCO   .US/F  : DELTA-T COMPRESSIONAL
DTSM   .US/F  : DELTA-T SHEAR
ECGRD  .GAPI  : ENVIRONMENTALLY CORRECTED GAMMA RAY FROM DENSITY LOG
ECGRR  .GAPI  : ENVIRONMENTALLY CORRECTED GAMMA RAY FROM RESISTIVITY LOG
HCALD  .IN    : HRCC CALIPER CALIBRATED FROM DENSITY LOG
HCALR  .IN    : HRCC CALIPER CALIBRATED FROM RESISTIVITY LOG
HDRA   .G/C3  : HRDD SPINE AND RIBS DENSITY CORRECTION
PEFZ   .B/E   : HRDD STANDARD RESOLUTION FORMATION PHOTOELECTRIC FACTOR
RHOZ   .G/C3  : HRDD STANDARD RESOLUTION FORMATION DENSITY
TNPH_LS.DEC   : THERMAL NEUTRON POROSITY [LIMESTONE]
~Params ----------------------------------------------------
~Other -----------------------------------------------------
~ASCII -----------------------------------------------------
# ...
 5767.50000    2.20290    3.80940    4.75890    0.14860   -9999.25   -9999.25   -9999.25  119.89750   -9999.25   13.54920   -9999.25    4.44490   -9999.25    0.34320
 5768.00000    2.17450    3.84360    5.38710    0.14830   -9999.25   -9999.25   -9999.25  119.59610   -9999.25   13.47530   -9999.25    4.41810   -9999.25    0.34980
 5768.50000    2.18190    3.84390    5.62640    0.14620   -9999.25   -9999.25   -9999.25  120.66210   -9999.25   13.46870   -9999.25    4.52870   -9999.25    0.32830
 5769.00000    2.09260    3.60560    4.98650    0.14050   -9999.25   -9999.25   -9999.25  113.15200   -9999.25   12.97400   -9999.25    4.60660   -9999.25    0.34770
 5769.50000    2.02170    3.35990    4.44690    0.14130   -9999.25   -9999.25   -9999.25  111.27290   -9999.25   13.31950   -9999.25    4.68440   -9999.25    0.34970
 5770.00000    2.00910    3.21260    4.25210    0.15080   -9999.25   -9999.25   -9999.25  108.40790   -9999.25   13.32180   -9999.25    4.69670   -9999.25    0.36850
 5770.50000    2.00590    3.21290    4.12900    0.14900   -9999.25   -9999.25   -9999.25  106.08360   -9999.25   13.10250   -9999.25    4.67760   -9999.25    0.34820
 5771.00000    2.19200    3.41860    4.15220    0.13540   -9999.25   -9999.25   -9999.25  106.48710   -9999.25   13.30420   -9999.25    4.54140   -9999.25    0.32420
 5771.50000    2.28200    3.70570    4.39410    0.12510   -9999.25   -9999.25   -9999.25  108.95890   -9999.25   13.00560   -9999.25    4.30090   -9999.25    0.32970
 5772.00000    2.43420    3.94100    4.63590    0.13460   -9999.25   -9999.25   -9999.25  108.95890   -9999.25   13.03180   -9999.25    4.11620   -9999.25    0.31120
 5772.50000    2.48770    4.11810    4.87780    0.14380   -9999.25   -9999.25   -9999.25  114.96170   -9999.25   12.99150   -9999.25    4.10280   -9999.25    0.30050
 5773.00000    2.49230    4.14410    4.85300    0.14250   -9999.25   -9999.25   -9999.25  116.00030   -9999.25   12.92090   -9999.25    4.17720   -9999.25    0.32370
 5773.50000    2.43810    4.14450    4.62470    0.13730   -9999.25   -9999.25   -9999.25  115.53080   -9999.25   13.07460   -9999.25    4.25160   -9999.25    0.32750
 5774.00000    2.36220    3.76810    4.39640    0.12910   -9999.25   -9999.25   -9999.25  113.47540   -9999.25   13.16460   -9999.25    4.36530   -9999.25    0.35350
 5774.50000    2.29490    3.39180    4.16810    0.13510   -9999.25   -9999.25   -9999.25  114.60680   -9999.25   13.29780   -9999.25    4.51180   -9999.25    0.34930
 5775.00000    2.21520    3.25640    3.95710    0.13590   -9999.25   -9999.25   -9999.25  115.66630   -9999.25   13.46240   -9999.25    4.70030   -9999.25    0.35960
 5775.50000    2.21300    3.18120    3.78950    0.13660   -9999.25   -9999.25   -9999.25  117.58470   -9999.25   13.87930   -9999.25    4.81590   -9999.25    0.36070
 5776.00000    2.21090    3.10590    3.67480    0.12070   -9999.25   -9999.25   -9999.25  117.83250   -9999.25   13.35670   -9999.25    4.79450   -9999.25    0.36660
 5776.50000    2.18890    3.00460    3.49290    0.11930   -9999.25   -9999.25   -9999.25  118.49480   -9999.25   12.95860   -9999.25    4.71650   -9999.25    0.37220
 5777.00000    2.12020    2.93130    3.39050    0.12260   -9999.25   -9999.25   -9999.25  118.59950   -9999.25   12.93070   -9999.25    4.63550   -9999.25    0.38380
 5777.50000    2.23510    3.05770    3.60620    0.12410   -9999.25   -9999.25   -9999.25  118.32180   -9999.25   12.90070   -9999.25    4.56010   -9999.25    0.40520
 5778.00000    2.40540    3.28580    3.96560    0.11570   -9999.25   -9999.25   -9999.25  117.13110   -9999.25   13.02510   -9999.25    4.48600   -9999.25    0.39070
 5778.50000    2.59810    3.65420    4.16080    0.10970   -9999.25   -9999.25   -9999.25  117.98600   -9999.25   13.20330   -9999.25    4.42810   -9999.25    0.37060
 5779.00000    2.87720    3.94800    4.61140    0.11540   -9999.25   -9999.25   -9999.25  117.32310   -9999.25   12.91080   -9999.25    4.47450   -9999.25    0.35500
 5779.50000    3.14400    3.94850    5.06200    0.12490   -9999.25   -9999.25   -9999.25  116.97940   -9999.25   12.81360   -9999.25    4.59050   -9999.25    0.34600
 5780.00000    3.17180    4.14950    5.46650    0.12600   -9999.25   -9999.25   -9999.25  113.40540   -9999.25   12.63480   -9999.25    4.76850   -9999.25    0.33250
 5780.50000    2.95260    4.08800    4.71970    0.11990   -9999.25   -9999.25   -9999.25  112.18720   -9999.25   12.73210   -9999.25    4.84440   -9999.25    0.33660
 5781.00000    2.71450    3.65030    3.87040    0.11660   -9999.25   -9999.25   -9999.25  118.38450   -9999.25   12.68230   -9999.25    4.84210   -9999.25    0.35640
 5781.50000    2.62230    3.30020    3.54370    0.11170   -9999.25   -9999.25   -9999.25  127.57250   -9999.25   12.66840   -9999.25    4.71730   -9999.25    0.36870
 5782.00000    2.72920    3.59150    3.98620    0.10730   -9999.25   -9999.25   -9999.25  143.00840   -9999.25   12.72200   -9999.25    4.57690   -9999.25    0.35050
 5782.50000    2.89100    3.97350    4.45600    0.09400   -9999.25   -9999.25   -9999.25  149.92010   -9999.25   12.56130   -9999.25    4.43650   -9999.25    0.33860
 5783.00000    2.92770    4.05860    4.83200    0.08460   -9999.25   -9999.25   -9999.25  165.02060   -9999.25   12.57410   -9999.25    4.38170   -9999.25    0.35250
 5783.50000    2.79660    3.72120    4.34960    0.08950   -9999.25   -9999.25   -9999.25  169.79840   -9999.25   12.78440   -9999.25    4.32730   -9999.25    0.33870
 5784.00000    2.47780    3.38390    3.54540    0.09590   -9999.25   -9999.25   -9999.25  174.36560   -9999.25   13.02080   -9999.25    4.27850   -9999.25    0.32660
 5784.50000    2.28210    3.04660    3.25330    0.09690   -9999.25   -9999.25   -9999.25  172.23730   -9999.25   13.19660   -9999.25    4.27020   -9999.25    0.33250
 5785.00000    2.24110    2.82850    3.05610    0.09790   -9999.25   -9999.25   -9999.25  165.88980   -9999.25   13.24670   -9999.25    4.24640   -9999.25    0.34830
 5785.50000    2.38130    2.97990    3.37100    0.10760   -9999.25   -9999.25   -9999.25  150.60530   -9999.25   13.11160   -9999.25    4.18610   -9999.25    0.34340
 5786.00000    2.56250    3.27000    3.66680    0.12180   -9999.25   -9999.25   -9999.25  118.39380   -9999.25   13.00830   -9999.25    4.14480   -9999.25    0.32270
 5786.50000    2.56450    3.26260    3.79720    0.12720   -9999.25   -9999.25   -9999.25  108.71170   -9999.25   12.94630   -9999.25    4.15070   -9999.25    0.32760
 5787.00000    2.52920    3.22280    3.75110    0.13170   -9999.25   -9999.25   -9999.25  108.59300   -9999.25   13.00940   -9999.25    4.21580   -9999.25    0.32250
 5787.50000    2.64880    3.30570    3.72800    0.13680   -9999.25   -9999.25   -9999.25  110.78070   -9999.25   13.19050   -9999.25    4.29020   -9999.25    0.31190
 5788.00000    2.80130    3.46240    4.26940    0.13490   -9999.25   -9999.25   -9999.25  109.94610   -9999.25   13.16150   -9999.25    4.36460   -9999.25    0.29860
 5788.50000    2.94150    4.26030    5.02670    0.13060   -9999.25   -9999.25   -9999.25  110.10300   -9999.25   12.59940   -9999.25    4.42170   -9999.25    0.29600
 5789.00000    3.21580    4.26070    5.11480    0.11970   -9999.25   -9999.25   -9999.25  110.73680   -9999.25   13.07040   -9999.25    4.50650   -9999.25    0.28210
 5789.50000    3.22860    4.34110    5.09770    0.10920   -9999.25   -9999.25   -9999.25  115.76860   -9999.25   13.00640   -9999.25    4.39450   -9999.25    0.27720
 5790.00000    3.24890    4.56200    5.11570    0.09420   -9999.25   -9999.25   -9999.25  117.78890   -9999.25   12.97370   -9999.25    4.33960   -9999.25    0.27150
 5790.50000    3.74690    5.29860    6.01060    0.07270   -9999.25   -9999.25   -9999.25  115.44430   -9999.25   12.94100   -9999.25    4.24220   -9999.25    0.27170
 5791.00000    4.82720    7.13860    8.77200    0.04750   -9999.25   -9999.25   -9999.25  100.83720   -9999.25   12.78970   -9999.25    4.07110   -9999.25    0.22250
 5791.50000    6.06010   10.18780   13.79040    0.03160   -9999.25   -9999.25   -9999.25   83.83760   -9999.25   12.24490   -9999.25    3.83130   -9999.25    0.15030
