~Version ---------------------------------------------------
VERS.   2.0 : CWLS log ASCII Standard -VERSION 2.0
WRAP.    NO : One line per depth step
DLM . SPACE : Column Data Section Delimiter
~Well ------------------------------------------------------
STRT .FT               1480.0 : START DEPTH
STOP .FT              10748.0 : STOP DEPTH
STEP .FT                  0.5 : STEP
NULL .               -9999.25 : NULL VALUE
COMP .                        : COMPANY
WELL .                        : WELL
FLD  .                        : FIELD
LOC  .                        : LOCATION
PROV .                        : PROVINCE
CNTY .                        : COUNTY
STAT .                        : STATE
CTRY .                        : COUNTRY
SRVC .                        : SERVICE COMPANY
DATE .                        : DATE
UWI  .                        : UNIQUE WELL ID
API  .                        : API NUMBER
SLAT .WGS84 5.930649512990897 : SURFACE LATITUDE
SLON .WGS84 2.851030789253926 : SURFACE LONGITUDE
DATUM.F                   nan : DEPTH DATUM ELEV
~Curve Information -----------------------------------------
DEPT   .FT    : 
AT10   .OHMM  : ARRAY INDUCTION TWO FOOT RESISTIVITY A10
AT30   .OHMM  : ARRAY INDUCTION TWO FOOT RESISTIVITY A30
AT90   .OHMM  : ARRAY INDUCTION TWO FOOT RESISTIVITY A90
DPHZ_LS.DEC   : HGRD STANDARD RESOLUTION DENSITY POROSITY
DTCO   .US/F  : DELTA-T COMPRESSIONAL
DTSM   .US/F  : DELTA-T SHEAR
ECGRD  .GAPI  : ENVIRONMENTALLY CORRECTED GAMMA RAY FROM DENSITY LOG
ECGRR  .GAPI  : ENVIRONMENTALLY CORRECTED GAMMA RAY FROM RESISTIVITY LOG
HCALD  .IN    : HRCC CALIPER CALIBRATED FROM DENSITY LOG
HCALR  .IN    : HRCC CALIPER CALIBRATED FROM RESISTIVITY LOG
HDRA   .G/C3  : HRDD SPINE AND RIBS DENSITY CORRECTION
PEFZ   .B/E   : HRDD STANDARD RESOLUTION FORMATION PHOTOELECTRIC FACTOR
RHOZ   .G/C3  : HRDD STANDARD RESOLUTION FORMATION DENSITY
TNPH_LS.DEC   : THERMAL NEUTRON POROSITY [LIMESTONE]
~Params ----------------------------------------------------
~Other -----------------------------------------------------
~ASCII -----------------------------------------------------
# ...
 6355.50000    4.47520    5.98460    6.32970    0.06530   -9999.25   -9999.25   -9999.25  110.42440   -9999.25   12.88190   -9999.25    4.33960   -9999.25    0.28830
 6356.00000    4.70320    6.08440    6.34340    0.06080   -9999.25   -9999.25   -9999.25  115.10080   -9999.25   13.12260   -9999.25    4.35510   -9999.25    0.27370
 6356.50000    4.85160    6.16060    6.70710    0.05430   -9999.25   -9999.25   -9999.25  115.63470   -9999.25   13.17310   -9999.25    4.23510   -9999.25    0.27320
 6357.00000    5.09860    6.47430    7.05570    0.05400   -9999.25   -9999.25   -9999.25  113.68320   -9999.25   12.23480   -9999.25    4.10990   -9999.25    0.24690
 6357.50000    4.53220    6.80400    7.38640    0.06710   -9999.25   -9999.25   -9999.25  112.27530   -9999.25   12.44670   -9999.25    4.08000   -9999.25    0.25610
 6358.00000    4.59120    6.10690    6.94110    0.07770   -9999.25   -9999.25   -9999.25  111.49790   -9999.25   12.83010   -9999.25    4.08250   -9999.25    0.26330
 6358.50000    4.42170    5.08440    5.91890    0.07850   -9999.25   -9999.25   -9999.25  110.65710   -9999.25   13.33450   -9999.25    4.08500   -9999.25    0.27620
 6359.00000    4.53300    5.08470    5.66270    0.06940   -9999.25   -9999.25   -9999.25  110.62350   -9999.25   13.02170   -9999.25    4.03560   -9999.25    0.27070
 6359.50000    4.97860    6.66270    7.11640    0.05960   -9999.25   -9999.25   -9999.25  111.38020   -9999.25   13.08230   -9999.25    3.90150   -9999.25    0.25550
 6360.00000    5.56310    7.65710    7.96990    0.06190   -9999.25   -9999.25   -9999.25  110.75970   -9999.25   12.56520   -9999.25    3.80590   -9999.25    0.24370
 6360.50000    5.13010    7.33890    8.02840    0.06590   -9999.25   -9999.25   -9999.25  107.94820   -9999.25   12.21460   -9999.25    3.76840   -9999.25    0.23530
 6361.00000    4.70600    6.80680    7.49480    0.07570   -9999.25   -9999.25   -9999.25  106.35410   -9999.25   12.72660   -9999.25    3.75930   -9999.25    0.23010
 6361.50000    5.39420    7.09920    7.55750    0.06730   -9999.25   -9999.25   -9999.25  102.75430   -9999.25   12.27520   -9999.25    3.73010   -9999.25    0.22310
 6362.00000    5.63380    7.72380    8.30880    0.04850   -9999.25   -9999.25   -9999.25   96.53400   -9999.25   12.27520   -9999.25    3.72620   -9999.25    0.20540
 6362.50000    6.26050    8.09880    8.77120    0.03320   -9999.25   -9999.25   -9999.25   91.30700   -9999.25   12.78970   -9999.25    3.70910   -9999.25    0.19010
 6363.00000    5.92110    7.96410    8.66360    0.03200   -9999.25   -9999.25   -9999.25   89.73350   -9999.25   12.27520   -9999.25    3.72360   -9999.25    0.18640
 6363.50000    6.07010    7.62690    8.08950    0.03930   -9999.25   -9999.25   -9999.25   90.12070   -9999.25   12.49710   -9999.25    3.74380   -9999.25    0.19400
 6364.00000    5.60030    7.28970    7.82150    0.05110   -9999.25   -9999.25   -9999.25   90.34510   -9999.25   12.27520   -9999.25    3.76390   -9999.25    0.19980
 6364.50000    5.26050    6.95250    7.51340    0.05830   -9999.25   -9999.25   -9999.25   91.80990   -9999.25   12.61820   -9999.25    3.80720   -9999.25    0.20750
 6365.00000    4.83070    6.61530    7.24070    0.06260   -9999.25   -9999.25   -9999.25   94.58230   -9999.25   12.77960   -9999.25    3.84240   -9999.25    0.21970
 6365.50000    4.93720    6.56160    6.89160    0.05890   -9999.25   -9999.25   -9999.25   97.60900   -9999.25   12.95110   -9999.25    3.84080   -9999.25    0.24040
 6366.00000    4.77200    6.49290    6.90270    0.05640   -9999.25   -9999.25   -9999.25  100.48430   -9999.25   13.06210   -9999.25    3.81490   -9999.25    0.23910
 6366.50000    4.65120    6.44140    6.91380    0.05950   -9999.25   -9999.25   -9999.25  104.47650   -9999.25   12.31550   -9999.25    3.83040   -9999.25    0.24270
 6367.00000    4.48740    6.24200    6.92490    0.06440   -9999.25   -9999.25   -9999.25  108.78220   -9999.25   13.01170   -9999.25    3.88590   -9999.25    0.24330
 6367.50000    4.47320    6.03250    6.93390    0.06980   -9999.25   -9999.25   -9999.25  113.18310   -9999.25   13.15290   -9999.25    3.94120   -9999.25    0.26340
 6368.00000    4.24520    5.90690    6.72090    0.07070   -9999.25   -9999.25   -9999.25  116.55180   -9999.25   12.51730   -9999.25    4.03270   -9999.25    0.25810
 6368.50000    4.12250    5.79840    6.29350    0.06550   -9999.25   -9999.25   -9999.25  118.80150   -9999.25   13.12640   -9999.25    4.08140   -9999.25    0.27400
 6369.00000    3.96510    5.58700    5.86610    0.06110   -9999.25   -9999.25   -9999.25  117.02140   -9999.25   13.07560   -9999.25    4.08140   -9999.25    0.29530
 6369.50000    3.83930    5.57410    5.89290    0.06230   -9999.25   -9999.25   -9999.25  114.74850   -9999.25   13.19330   -9999.25    4.08140   -9999.25    0.30020
 6370.00000    3.85960    5.50890    5.93730    0.06760   -9999.25   -9999.25   -9999.25  113.77280   -9999.25   13.07550   -9999.25    4.04590   -9999.25    0.31360
 6370.50000    3.90990    5.44370    5.98170    0.07210   -9999.25   -9999.25   -9999.25  115.53820   -9999.25   13.14370   -9999.25    4.02270   -9999.25    0.32490
 6371.00000    3.96020    5.41770    6.02610    0.07580   -9999.25   -9999.25   -9999.25  116.99630   -9999.25   13.01990   -9999.25    4.02390   -9999.25    0.32010
 6371.50000    4.01060    5.41800    6.07050    0.07470   -9999.25   -9999.25   -9999.25  118.00210   -9999.25   13.18910   -9999.25    4.02510   -9999.25    0.32190
 6372.00000    4.06080    5.26380    6.11490    0.07330   -9999.25   -9999.25   -9999.25  115.34470   -9999.25   13.27430   -9999.25    4.05030   -9999.25    0.31700
 6372.50000    4.22080    5.31790    6.15930    0.07210   -9999.25   -9999.25   -9999.25  115.91970   -9999.25   13.26530   -9999.25    4.09200   -9999.25    0.30470
 6373.00000    4.42130    5.37210    6.20370    0.06860   -9999.25   -9999.25   -9999.25  116.32830   -9999.25   13.28400   -9999.25    4.14020   -9999.25    0.29810
 6373.50000    4.50290    5.42620    6.24810    0.07120   -9999.25   -9999.25   -9999.25  116.18240   -9999.25   13.00150   -9999.25    4.19350   -9999.25    0.29350
 6374.00000    4.50210    5.48040    6.28380    0.06860   -9999.25   -9999.25   -9999.25  115.97630   -9999.25   13.22140   -9999.25    4.24340   -9999.25    0.30160
 6374.50000    4.54700    5.53450    6.28410    0.06730   -9999.25   -9999.25   -9999.25  114.31520   -9999.25   13.11570   -9999.25    4.27380   -9999.25    0.30870
 6375.00000    4.65010    5.57360    6.26300    0.06040   -9999.25   -9999.25   -9999.25  113.98340   -9999.25   13.05390   -9999.25    4.30420   -9999.25    0.29810
 6375.50000    4.57110    5.73170    6.24610    0.05410   -9999.25   -9999.25   -9999.25  111.45540   -9999.25   12.92770   -9999.25    4.33460   -9999.25    0.26860
 6376.00000    4.49390    5.93540    6.32430    0.05230   -9999.25   -9999.25   -9999.25  108.70200   -9999.25   12.65850   -9999.25    4.33680   -9999.25    0.26780
 6376.50000    4.54350    6.09890    6.30250    0.05270   -9999.25   -9999.25   -9999.25  108.67610   -9999.25   13.04190   -9999.25    4.29660   -9999.25    0.28340
 6377.00000    4.66020    5.80420    6.27510    0.06100   -9999.25   -9999.25   -9999.25  110.19920   -9999.25   13.07970   -9999.25    4.24970   -9999.25    0.29180
 6377.50000    4.72090    5.73070    6.24770    0.06590   -9999.25   -9999.25   -9999.25  113.60880   -9999.25   12.88110   -9999.25    4.19210   -9999.25    0.27720
 6378.00000    4.51720    5.65720    6.22030    0.06850   -9999.25   -9999.25   -9999.25  116.07970   -9999.25   12.84010   -9999.25    4.12640   -9999.25    0.25660
 6378.50000    4.55750    5.62800    6.20940    0.06570   -9999.25   -9999.25   -9999.25  116.06240   -9999.25   13.11920   -9999.25    4.05540   -9999.25    0.25550
 6379.00000    4.48820    5.52470    6.20940    0.06370   -9999.25   -9999.25   -9999.25  113.91100   -9999.25   13.01050   -9999.25    4.02620   -9999.25    0.27080
 6379.50000    4.47360    5.69770    6.20940    0.06150   -9999.25   -9999.25   -9999.25  110.65780   -9999.25   13.00260   -9999.25    4.02840   -9999.25    0.28600
