~Version ---------------------------------------------------
VERS.   2.0 : CWLS log ASCII Standard -VERSION 2.0
WRAP.    NO : One line per depth step
DLM . SPACE : Column Data Section Delimiter
~Well ------------------------------------------------------
STRT .FT               1480.0 : START DEPTH
STOP .FT              10748.0 : STOP DEPTH
STEP .FT                  0.5 : STEP
NULL .               -9999.25 : NULL VALUE
COMP .                        : COMPANY
WELL .                        : WELL
FLD  .                        : FIELD
LOC  .                        : LOCATION
PROV .                        : PROVINCE
CNTY .                        : COUNTY
STAT .                        : STATE
CTRY .                        : COUNTRY
SRVC .                        : SERVICE COMPANY
DATE .                        : DATE
UWI  .                        : UNIQUE WELL ID
API  .                        : API NUMBER
SLAT .WGS84 5.930649512990897 : SURFACE LATITUDE
SLON .WGS84 2.851030789253926 : SURFACE LONGITUDE
DATUM.F                   nan : DEPTH DATUM ELEV
~Curve Information -----------------------------------------
DEPT   .FT    : 
AT10   .OHMM  : ARRAY INDUCTION TWO FOOT RESISTIVITY A10
AT30   .OHMM  : ARRAY INDUCTION TWO FOOT RESISTIVITY A30
AT90   .OHMM  : ARRAY INDUCTION TWO FOOT RESISTIVITY A90
DPHZ_LS.DEC   : HGRD STANDARD RESOLUTION DENSITY POROSITY
DTCO   .US/F  : DELTA-T COMPRESSIONAL
DTSM   .US/F  : DELTA-T SHEAR
ECGRD  .GAPI  : ENVIRONMENTALLY CORRECTED GAMMA RAY FROM DENSITY LOG
ECGRR  .GAPI  : ENVIRONMENTALLY CORRECTED GAMMA RAY FROM RESISTIVITY LOG
HCALD  .IN    : HRCC CALIPER CALIBRATED FROM DENSITY LOG
HCALR  .IN    : HRCC CALIPER CALIBRATED FROM RESISTIVITY LOG
HDRA   .G/C3  : HRDD SPINE AND RIBS DENSITY CORRECTION
PEFZ   .B/E   : HRDD STANDARD RESOLUTION FORMATION PHOTOELECTRIC FACTOR
RHOZ   .G/C3  : HRDD STANDARD RESOLUTION FORMATION DENSITY
TNPH_LS.DEC   : THERMAL NEUTRON POROSITY [LIMESTONE]
~Params ----------------------------------------------------
~Other -----------------------------------------------------
~ASCII -----------------------------------------------------
# ...
 10054.00000    3.50310    3.72800    3.89410    0.08960   83.10420  173.66400   71.74190   -9999.25    8.69760   -9999.25    0.00600    4.08090    2.55860    0.23490
 10054.50000    3.03470    3.14120    3.35770    0.09870   85.94680  176.79600   76.16660   -9999.25    8.68880   -9999.25    0.00510    4.00140    2.54590    0.26870
 10055.00000    2.78610    2.88800    3.00510    0.11450   89.56380  179.92800   80.82800   -9999.25    8.70340   -9999.25    0.00420    3.80740    2.51730    0.29900
 10055.50000    2.62470    2.70330    2.76660    0.12810   91.79370  183.06000   82.66620   -9999.25    8.72790   -9999.25    0.00330    3.71080    2.49460    0.30830
 10056.00000    2.62470    2.68850    2.73230    0.12840   92.45650  185.77110   79.90090   -9999.25    8.75230   -9999.25    0.00250    3.61100    2.49230    0.30600
 10056.50000    2.61240    2.67600    2.73230    0.12480   92.80660  184.81850   81.12680   -9999.25    8.77680   -9999.25    0.00160    3.59290    2.49660    0.30040
 10057.00000    2.46370    2.52370    2.57010    0.12390   93.51650  182.10310   88.92390   -9999.25    8.78110   -9999.25    0.00310    3.62980    2.49960    0.29160
 10057.50000    2.30310    2.35910    2.41250    0.12960   93.43540  177.67250   99.09940   -9999.25    8.74910   -9999.25    0.00450    3.80870    2.48900    0.29860
 10058.00000    2.31380    2.35910    2.64260    0.12580   93.94350  168.94750  103.64470   -9999.25    8.72980   -9999.25    0.00840    4.04240    2.49060    0.31500
 10058.50000    3.11920    3.67090    3.71750    0.11000   87.27660  157.96730   97.52030   -9999.25    8.74090   -9999.25    0.01660    4.33520    2.52520    0.31800
 10059.00000    4.31480    5.10420    5.34270    0.08530   84.99670  140.26700   82.05050   -9999.25    8.76850   -9999.25    0.02530    4.45210    2.55970    0.30040
 10059.50000    7.26780   12.99170   32.05190    0.07130   82.50850  122.25870   67.79790   -9999.25    8.79610   -9999.25    0.02790    4.42360    2.59050    0.13630
 10060.00000   17.50870   25.18190   64.99770    0.07900   75.12300  118.82660   54.84650   -9999.25    8.78870   -9999.25    0.02910    4.33320    2.56970    0.07860
 10060.50000   31.82710   37.37210   97.94350    0.09990   71.65320  114.93990   47.18020   -9999.25    8.76710   -9999.25    0.02810    4.21860    2.53690    0.10390
 10061.00000   38.62280   41.13250  130.88940    0.12270   68.33660  108.41310   43.89300   -9999.25    8.74550   -9999.25    0.02490    4.17360    2.50660    0.09880
 10061.50000   37.51190   54.66260  119.06430    0.12250   67.46390  105.23910   41.82000   -9999.25    8.72390   -9999.25    0.02170    4.17580    2.50040    0.08750
 10062.00000   31.74640   65.90980   84.08950    0.11350   67.21640  103.99830   39.69580   -9999.25    8.71960   -9999.25    0.02420    4.24200    2.51050    0.07620
 10062.50000   79.89660  113.41930  146.09300    0.10140   66.56010  102.31160   37.86940   -9999.25    8.74010   -9999.25    0.02710    4.41160    2.53660    0.06350
 10063.00000  123.09630  165.58430  240.53800    0.08570   66.47430  101.46090   36.48400   -9999.25    8.74270   -9999.25    0.03000    4.56920    2.56450    0.06040
 10063.50000  181.09390  218.76810  263.49380    0.08130   67.17540  101.15290   34.55970   -9999.25    8.71270   -9999.25    0.02700    4.62860    2.57200    0.06030
 10064.00000  153.81810  199.33010  222.72960    0.08760   67.33040  103.13290   34.17490   -9999.25    8.68290   -9999.25    0.02100    4.50660    2.55670    0.06420
 10064.50000  114.27070  142.46160  144.96630    0.11150   69.41460  105.05430   34.63670   -9999.25    8.65360   -9999.25    0.01500    4.32960    2.52150    0.07250
 10065.00000   88.20850  116.95380  131.07060    0.13460   70.27190  106.11950   39.52450   -9999.25    8.67760   -9999.25    0.00970    4.23240    2.48510    0.07540
 10065.50000   64.05830   83.26640   90.32950    0.13980   70.09050  106.69700   44.41230   -9999.25    8.71490   -9999.25    0.00440    4.28920    2.47170    0.07830
 10066.00000   59.89860   85.68700   88.93450    0.13250   69.94850  107.98040   44.65900   -9999.25    8.72610   -9999.25    0.00660    4.38590    2.48710    0.08190
 10066.50000   74.94290  113.19110  113.34580    0.12380   69.48140  108.75040   43.26620   -9999.25    8.70720   -9999.25    0.02030    4.47460    2.50060    0.08860
 10067.00000   89.90800  129.69360  215.92390    0.12870   68.48440  112.43370   39.50160   -9999.25    8.68820   -9999.25    0.02150    4.56340    2.48930    0.08780
 10067.50000   81.76920  105.96040  332.76600    0.12770   67.30780  117.88800   39.97170   -9999.25    8.66930   -9999.25    0.02140    4.72730    2.49580    0.08470
 10068.00000   64.34640   71.39200  197.79920    0.11030   68.13600  119.40440   40.03310   -9999.25    8.65800   -9999.25    0.02120    4.97020    2.52970    0.07630
 10068.50000   46.68540   48.80100   60.27280    0.07890   69.05080  122.68190   41.10790   -9999.25    8.64770   -9999.25    0.01520    5.23940    2.59010    0.06120
 10069.00000   29.02440   34.19480   38.97130    0.04570   69.59370  125.95940   41.70510   -9999.25    8.72980   -9999.25    0.00350    5.33830    2.63280    0.05100
 10069.50000   24.90410   25.43110   26.09450    0.02970   69.38380  127.93490   44.98750   -9999.25    8.70930   -9999.25    0.00300    5.05110    2.66110    0.05790
 10070.00000   18.62040   20.28240   23.62130    0.03620   71.32810  129.58490   51.91220   -9999.25    8.69900   -9999.25    0.01580    4.69990    2.65600    0.07720
 10070.50000   11.76650   12.74360   14.85910    0.05140   72.34730  131.23490   59.15690   -9999.25    8.69900   -9999.25    0.02140    4.30030    2.62630    0.12590
 10071.00000    6.22500    6.65010    7.45530    0.07890   73.25790  131.95360   65.17700   -9999.25    8.68880   -9999.25    0.01600    4.00650    2.58200    0.16950
 10071.50000    5.88590    6.60890    6.86620    0.10090   74.63930  132.46700   68.24970   -9999.25    8.71680   -9999.25    0.01200    3.82830    2.54400    0.19020
 10072.00000    5.91340    6.60890    6.84490    0.11640   74.65360  132.67230   68.68020   -9999.25    8.74480   -9999.25    0.01110    3.90040    2.51450    0.20300
 10072.50000    6.10980    6.79660    7.03930    0.13530   74.66800  132.05630   68.03070   -9999.25    8.71700   -9999.25    0.01030    4.09610    2.47800    0.20560
 10073.00000    8.46280   10.42980   13.30400    0.12930   73.67530  128.10350   63.64080   -9999.25    8.67850   -9999.25    0.00920    4.36450    2.49590    0.19410
 10073.50000   13.83790   16.23570   19.43600    0.10510   70.32830  124.54430   57.03000   -9999.25    8.67850   -9999.25    0.00870    4.76860    2.53820    0.15710
 10074.00000   17.06290   18.00280   21.18310    0.07390   64.45720  121.42140   47.74040   -9999.25    8.67710   -9999.25    0.00820    5.12010    2.59370    0.09310
 10074.50000   15.25450   21.91120   24.32640    0.04470   63.24410  118.29860   42.63910   -9999.25    8.66970   -9999.25    0.00820    5.46810    2.63630    0.04250
 10075.00000   29.21530   35.54410   45.71880    0.02440   61.84780  119.04660   38.60400   -9999.25    8.66240   -9999.25    0.01270    5.81370    2.66670    0.03320
 10075.50000   40.46860   44.66840   67.62890    0.02170   65.61820  123.56890   37.71550   -9999.25    8.65800   -9999.25    0.01850    5.85440    2.67410    0.03580
 10076.00000   24.93290   27.66980   45.01980    0.02650   93.46140  125.99880   40.71230   -9999.25    8.66350   -9999.25    0.02050    5.42390    2.66240    0.04940
 10076.50000    9.50080   12.87950   14.65130    0.04630   93.46140  104.67770   47.49380   -9999.25    8.67030   -9999.25    0.01820    4.91140    2.62910    0.07120
 10077.00000    4.72740    6.28190    9.34650    0.07010   94.11680  104.45870   57.57390   -9999.25    8.67720   -9999.25    0.01540    4.47740    2.59450    0.10230
 10077.50000    2.76490    3.39800    4.04180    0.08860   93.79650  112.77490   73.00220   -9999.25    8.67030   -9999.25    0.01200    4.10130    2.56160    0.17220
