~Version ---------------------------------------------------
VERS.   2.0 : CWLS log ASCII Standard -VERSION 2.0
WRAP.    NO : One line per depth step
DLM . SPACE : Column Data Section Delimiter
~Well ------------------------------------------------------
STRT .FT               1480.0 : START DEPTH
STOP .FT              10748.0 : STOP DEPTH
STEP .FT                  0.5 : STEP
NULL .               -9999.25 : NULL VALUE
COMP .                        : COMPANY
WELL .                        : WELL
FLD  .                        : FIELD
LOC  .                        : LOCATION
PROV .                        : PROVINCE
CNTY .                        : COUNTY
STAT .                        : STATE
CTRY .                        : COUNTRY
SRVC .                        : SERVICE COMPANY
DATE .                        : DATE
UWI  .                        : UNIQUE WELL ID
API  .                        : API NUMBER
SLAT .WGS84 5.930649512990897 : SURFACE LATITUDE
SLON .WGS84 2.851030789253926 : SURFACE LONGITUDE
DATUM.F                   nan : DEPTH DATUM ELEV
~Curve Information -----------------------------------------
DEPT   .FT    : 
AT10   .OHMM  : ARRAY INDUCTION TWO FOOT RESISTIVITY A10
AT30   .OHMM  : ARRAY INDUCTION TWO FOOT RESISTIVITY A30
AT90   .OHMM  : ARRAY INDUCTION TWO FOOT RESISTIVITY A90
DPHZ_LS.DEC   : HGRD STANDARD RESOLUTION DENSITY POROSITY
DTCO   .US/F  : DELTA-T COMPRESSIONAL
DTSM   .US/F  : DELTA-T SHEAR
ECGRD  .GAPI  : ENVIRONMENTALLY CORRECTED GAMMA RAY FROM DENSITY LOG
ECGRR  .GAPI  : ENVIRONMENTALLY CORRECTED GAMMA RAY FROM RESISTIVITY LOG
HCALD  .IN    : HRCC CALIPER CALIBRATED FROM DENSITY LOG
HCALR  .IN    : HRCC CALIPER CALIBRATED FROM RESISTIVITY LOG
HDRA   .G/C3  : HRDD SPINE AND RIBS DENSITY CORRECTION
PEFZ   .B/E   : HRDD STANDARD RESOLUTION FORMATION PHOTOELECTRIC FACTOR
RHOZ   .G/C3  : HRDD STANDARD RESOLUTION FORMATION DENSITY
TNPH_LS.DEC   : THERMAL NEUTRON POROSITY [LIMESTONE]
~Params ----------------------------------------------------
~Other -----------------------------------------------------
~ASCII -----------------------------------------------------
# ...
 3317.50000    4.14530    5.16120    5.83520    0.03510   -9999.25   -9999.25   -9999.25   65.03830   -9999.25   12.51630   -9999.25    3.71910   -9999.25    0.24740
 3318.00000    4.09420    4.48480    5.25420    0.03770   -9999.25   -9999.25   -9999.25   67.01700   -9999.25   12.55620   -9999.25    3.69600   -9999.25    0.22510
 3318.50000    3.54990    3.97750    4.56120    0.04800   -9999.25   -9999.25   -9999.25   67.04420   -9999.25   12.59830   -9999.25    3.78780   -9999.25    0.23790
 3319.00000    3.48440    3.97750    4.29920    0.05030   -9999.25   -9999.25   -9999.25   63.40770   -9999.25   12.53950   -9999.25    3.77840   -9999.25    0.23630
 3319.50000    3.54990    3.87360    4.29920    0.05070   -9999.25   -9999.25   -9999.25   57.43010   -9999.25   12.70090   -9999.25    3.70140   -9999.25    0.23570
 3320.00000    3.31580    3.76970    4.19390    0.04920   -9999.25   -9999.25   -9999.25   51.26820   -9999.25   12.48770   -9999.25    3.64320   -9999.25    0.24530
 3320.50000    3.35720    3.66580    4.14220    0.04510   -9999.25   -9999.25   -9999.25   49.10730   -9999.25   12.60450   -9999.25    3.57180   -9999.25    0.26180
 3321.00000    3.51780    3.69230    4.22000    0.02930   -9999.25   -9999.25   -9999.25   47.73120   -9999.25   12.54350   -9999.25    3.49400   -9999.25    0.27470
 3321.50000    3.54990    3.97960    4.54210    0.03700   -9999.25   -9999.25   -9999.25   49.26080   -9999.25   12.51080   -9999.25    3.47420   -9999.25    0.27770
 3322.00000    3.18170    3.89120    4.45690    0.04350   -9999.25   -9999.25   -9999.25   53.46970   -9999.25   12.53100   -9999.25    3.52000   -9999.25    0.27320
 3322.50000    3.00250    3.76160    4.15210    0.04670   -9999.25   -9999.25   -9999.25   55.54460   -9999.25   12.55560   -9999.25    3.57140   -9999.25    0.28500
 3323.00000    4.10160    4.63630    5.11950    0.03060   -9999.25   -9999.25   -9999.25   53.61690   -9999.25   12.93900   -9999.25    3.58800   -9999.25    0.25510
 3323.50000    5.08680    5.54650    6.52400    0.02260   -9999.25   -9999.25   -9999.25   47.75870   -9999.25   12.48980   -9999.25    3.44330   -9999.25    0.20150
 3324.00000    5.11840    6.33340    6.97420    0.02410   -9999.25   -9999.25   -9999.25   42.73240   -9999.25   12.50230   -9999.25    3.32470   -9999.25    0.17260
 3324.50000    4.87060    6.41250    6.90990    0.02850   -9999.25   -9999.25   -9999.25   40.59780   -9999.25   12.53150   -9999.25    3.25520   -9999.25    0.17580
 3325.00000    4.63490    6.00550    6.71940    0.03120   -9999.25   -9999.25   -9999.25   41.36380   -9999.25   12.52880   -9999.25    3.28180   -9999.25    0.18990
 3325.50000    4.41850    5.55670    5.71550    0.02070   -9999.25   -9999.25   -9999.25   43.10050   -9999.25   12.67840   -9999.25    3.38260   -9999.25    0.21670
 3326.00000    4.16140    5.10790    5.30850    0.01950   -9999.25   -9999.25   -9999.25   44.65740   -9999.25   12.85780   -9999.25    3.49700   -9999.25    0.23130
 3326.50000    3.90430    4.65920    5.44190    0.01770   -9999.25   -9999.25   -9999.25   44.61350   -9999.25   12.87630   -9999.25    3.61350   -9999.25    0.24050
 3327.00000    3.64720    4.21040    4.95770    0.02570   -9999.25   -9999.25   -9999.25   49.60230   -9999.25   12.66700   -9999.25    3.77160   -9999.25    0.24110
 3327.50000    3.44150    3.76160    4.40720    0.02290   -9999.25   -9999.25   -9999.25   55.31160   -9999.25   12.88650   -9999.25    3.90610   -9999.25    0.25880
 3328.00000    3.46290    3.76160    4.09110    0.01690   -9999.25   -9999.25   -9999.25   62.34850   -9999.25   12.74930   -9999.25    3.95950   -9999.25    0.25780
 3328.50000    3.50610    3.79680    4.24620    0.00950   -9999.25   -9999.25   -9999.25   62.95390   -9999.25   12.96730   -9999.25    3.95950   -9999.25    0.24820
 3329.00000    3.26470    3.61160    3.86900    0.02380   -9999.25   -9999.25   -9999.25   62.31760   -9999.25   12.84620   -9999.25    3.93660   -9999.25    0.24600
 3329.50000    3.11210    3.38020    3.76990    0.03920   -9999.25   -9999.25   -9999.25   60.60270   -9999.25   12.84390   -9999.25    3.89030   -9999.25    0.26490
 3330.00000    2.95950    3.24130    3.61380    0.05070   -9999.25   -9999.25   -9999.25   60.37210   -9999.25   12.83810   -9999.25    3.86730   -9999.25    0.27240
 3330.50000    2.94720    3.30220    3.50350    0.04060   -9999.25   -9999.25   -9999.25   62.45080   -9999.25   13.16100   -9999.25    3.85860   -9999.25    0.27370
 3331.00000    3.03180    3.30220    3.55090    0.03010   -9999.25   -9999.25   -9999.25   65.85060   -9999.25   12.67670   -9999.25    3.85860   -9999.25    0.27720
 3331.50000    3.11640    3.38540    3.67900    0.02200   -9999.25   -9999.25   -9999.25   69.41570   -9999.25   13.22550   -9999.25    3.93430   -9999.25    0.27650
 3332.00000    3.13570    3.43830    3.72770    0.03660   -9999.25   -9999.25   -9999.25   69.56710   -9999.25   12.82200   -9999.25    4.01000   -9999.25    0.28280
 3332.50000    3.16850    3.39570    3.70470    0.04710   -9999.25   -9999.25   -9999.25   67.56530   -9999.25   13.78240   -9999.25    4.08580   -9999.25    0.28260
 3333.00000    3.19050    3.33310    3.65890    0.05750   -9999.25   -9999.25   -9999.25   63.24790   -9999.25   13.38690   -9999.25    4.13200   -9999.25    0.28110
 3333.50000    3.21250    3.45950    3.69580    0.06230   -9999.25   -9999.25   -9999.25   62.56040   -9999.25   13.17710   -9999.25    4.17990   -9999.25    0.27400
 3334.00000    3.23450    3.96740    3.88020    0.06660   -9999.25   -9999.25   -9999.25   65.41550   -9999.25   13.45960   -9999.25    4.17980   -9999.25    0.26610
 3334.50000    3.76920    4.65080    4.14220    0.06310   -9999.25   -9999.25   -9999.25   66.17830   -9999.25   13.13150   -9999.25    4.14440   -9999.25    0.25790
 3335.00000    4.49060    5.33420    5.26380    0.05460   -9999.25   -9999.25   -9999.25   64.22080   -9999.25   12.68350   -9999.25    4.04840   -9999.25    0.24530
 3335.50000    5.39410    6.01760    6.59550    0.04200   -9999.25   -9999.25   -9999.25   59.93930   -9999.25   12.55640   -9999.25    3.91780   -9999.25    0.21120
 3336.00000    6.12710    6.40910    6.73040    0.04050   -9999.25   -9999.25   -9999.25   57.49740   -9999.25   12.48700   -9999.25    3.85570   -9999.25    0.19690
 3336.50000    6.39890    6.78180    7.31640    0.04120   -9999.25   -9999.25   -9999.25   57.90950   -9999.25   12.48530   -9999.25    3.81650   -9999.25    0.17380
 3337.00000    6.55970    7.44430    7.92940    0.04620   -9999.25   -9999.25   -9999.25   58.34210   -9999.25   12.46200   -9999.25    3.91860   -9999.25    0.15770
 3337.50000    7.01870    8.12820    8.54240    0.05110   -9999.25   -9999.25   -9999.25   57.50600   -9999.25   12.44710   -9999.25    4.02960   -9999.25    0.15000
 3338.00000    6.85080    8.26490    8.88270    0.05280   -9999.25   -9999.25   -9999.25   57.19380   -9999.25   12.44160   -9999.25    4.15840   -9999.25    0.15060
 3338.50000    6.54970    7.64290    8.43490    0.05600   -9999.25   -9999.25   -9999.25   59.13140   -9999.25   12.42900   -9999.25    4.24460   -9999.25    0.15200
 3339.00000    6.24220    7.01790    7.57940    0.05850   -9999.25   -9999.25   -9999.25   61.74330   -9999.25   12.41640   -9999.25    4.29290   -9999.25    0.15250
 3339.50000    5.59810    6.39280    6.72810    0.06340   -9999.25   -9999.25   -9999.25   59.54680   -9999.25   12.42990   -9999.25    4.22380   -9999.25    0.15450
 3340.00000    5.34560    5.76780    6.00960    0.06170   -9999.25   -9999.25   -9999.25   55.64450   -9999.25   12.44670   -9999.25    4.17130   -9999.25    0.15780
 3340.50000    5.86400    6.20850    7.06190    0.05910   -9999.25   -9999.25   -9999.25   54.45780   -9999.25   12.45170   -9999.25    4.16450   -9999.25    0.15640
 3341.00000    7.09110    7.87030    8.83010    0.05320   -9999.25   -9999.25   -9999.25   54.69810   -9999.25   12.44670   -9999.25    4.22230   -9999.25    0.14270
 3341.50000    7.99980    9.53220   10.30840    0.04680   -9999.25   -9999.25   -9999.25   57.95100   -9999.25   12.48240   -9999.25    4.27720   -9999.25    0.12560
