~Version ---------------------------------------------------
VERS.   2.0 : CWLS log ASCII Standard -VERSION 2.0
WRAP.    NO : One line per depth step
DLM . SPACE : Column Data Section Delimiter
~Well ------------------------------------------------------
STRT .FT               1480.0 : START DEPTH
STOP .FT              10748.0 : STOP DEPTH
STEP .FT                  0.5 : STEP
NULL .               -9999.25 : NULL VALUE
COMP .                        : COMPANY
WELL .                        : WELL
FLD  .                        : FIELD
LOC  .                        : LOCATION
PROV .                        : PROVINCE
CNTY .                        : COUNTY
STAT .                        : STATE
CTRY .                        : COUNTRY
SRVC .                        : SERVICE COMPANY
DATE .                        : DATE
UWI  .                        : UNIQUE WELL ID
API  .                        : API NUMBER
SLAT .WGS84 5.930649512990897 : SURFACE LATITUDE
SLON .WGS84 2.851030789253926 : SURFACE LONGITUDE
DATUM.F                   nan : DEPTH DATUM ELEV
~Curve Information -----------------------------------------
DEPT   .FT    : 
AT10   .OHMM  : ARRAY INDUCTION TWO FOOT RESISTIVITY A10
AT30   .OHMM  : ARRAY INDUCTION TWO FOOT RESISTIVITY A30
AT90   .OHMM  : ARRAY INDUCTION TWO FOOT RESISTIVITY A90
DPHZ_LS.DEC   : HGRD STANDARD RESOLUTION DENSITY POROSITY
DTCO   .US/F  : DELTA-T COMPRESSIONAL
DTSM   .US/F  : DELTA-T SHEAR
ECGRD  .GAPI  : ENVIRONMENTALLY CORRECTED GAMMA RAY FROM DENSITY LOG
ECGRR  .GAPI  : ENVIRONMENTALLY CORRECTED GAMMA RAY FROM RESISTIVITY LOG
HCALD  .IN    : HRCC CALIPER CALIBRATED FROM DENSITY LOG
HCALR  .IN    : HRCC CALIPER CALIBRATED FROM RESISTIVITY LOG
HDRA   .G/C3  : HRDD SPINE AND RIBS DENSITY CORRECTION
PEFZ   .B/E   : HRDD STANDARD RESOLUTION FORMATION PHOTOELECTRIC FACTOR
RHOZ   .G/C3  : HRDD STANDARD RESOLUTION FORMATION DENSITY
TNPH_LS.DEC   : THERMAL NEUTRON POROSITY [LIMESTONE]
~Params ----------------------------------------------------
~Other -----------------------------------------------------
~ASCII -----------------------------------------------------
# ...
 10654.00000    5.11350    5.22090    5.33300    0.03010   75.75080  146.02620   87.33740   -9999.25    8.61790   -9999.25    0.01040    4.46410    2.65870    0.17610
 10654.50000    4.98520    5.08990    5.19920    0.03390   76.08830  146.51710   86.34000   -9999.25    8.61940   -9999.25    0.00860    4.48310    2.65230    0.17980
 10655.00000    4.85700    4.95900    5.06540    0.03810   76.58620  146.84110   87.02840   -9999.25    8.62100   -9999.25    0.00730    4.55710    2.64510    0.18360
 10655.50000    4.72870    4.82800    4.93170    0.03990   76.86350  146.85390   86.76230   -9999.25    8.64910   -9999.25    0.01010    4.64600    2.64120    0.18880
 10656.00000    4.60040    4.69710    4.79790    0.03670   77.18170  146.73620   86.71490   -9999.25    8.65590   -9999.25    0.01290    4.73500    2.64960    0.19050
 10656.50000    4.54300    4.62390    4.72320    0.03340   77.26590  146.07310   85.40620   -9999.25    8.66280   -9999.25    0.01640    4.70510    2.65530    0.18990
 10657.00000    4.52820    4.62320    4.72250    0.02800   76.13960  143.82130   84.21640   -9999.25    8.66570   -9999.25    0.01830    4.63730    2.66420    0.18350
 10657.50000    4.61270    4.69500    4.79590    0.03020   73.38020  139.43530   84.91630   -9999.25    8.66210   -9999.25    0.01600    4.54060    2.65970    0.17960
 10658.00000    4.68430    4.89810    5.09950    0.03510   71.11030  134.02320   87.45520   -9999.25    8.66670   -9999.25    0.01220    4.46510    2.65160    0.17790
 10658.50000    4.26020    4.42710    4.66760    0.03960   68.54210  130.03430   89.52260   -9999.25    8.65880   -9999.25    0.01110    4.44940    2.64390    0.18170
 10659.00000    3.46320    3.66680    4.35020    0.03900   66.89940  125.57140   91.25450   -9999.25    8.65090   -9999.25    0.01220    4.48900    2.64380    0.18680
 10659.50000    5.21260    9.71500    8.76680    0.03820   65.43870  123.60040   90.45000   -9999.25    8.64300   -9999.25    0.01330    4.55050    2.64510    0.18590
 10660.00000   11.18520   17.23260   18.24490    0.04110   64.11450  120.51850   90.36330   -9999.25    8.63510   -9999.25    0.01290    4.57810    2.64040    0.18730
 10660.50000   21.98870   24.75010   34.01980    0.04320   61.95900  114.91450   -9999.25   -9999.25    8.62720   -9999.25    0.01090    4.60570    2.63590    0.19130
 10661.00000   26.72290   25.13850   43.32160    0.04240   58.32650  110.94950   -9999.25   -9999.25    8.63440   -9999.25    0.00900    4.63330    2.63840    0.19140
 10661.50000   22.18050   24.90520   31.18900    0.03880   57.33400  107.24850   -9999.25   -9999.25    8.62720   -9999.25    0.00860    4.66090    2.64400    0.18630
 10662.00000   18.80240   19.46720   26.83240    0.03990   56.98340  105.47200   -9999.25   -9999.25    8.62720   -9999.25    0.01090    4.67900    2.64260    0.18680
 10662.50000   18.91980   19.78380   26.25490    0.04360   57.06040  104.49330   -9999.25   -9999.25    8.62720   -9999.25    0.01390    4.67860    2.63630    0.18670
 10663.00000   28.78710   33.15460   48.11030    0.04670   56.85320  103.51460   -9999.25   -9999.25    8.62720   -9999.25    0.01100    4.66320    2.63060    0.18440
 10663.50000   56.03390   68.33090   84.12530    0.04400   57.23010  102.05720   -9999.25   -9999.25    8.62720   -9999.25    0.00600    4.64350    2.63590    0.18040
 10664.00000  106.88450  118.04400  120.58000    0.04430   56.98610   99.48490   -9999.25   -9999.25    8.61970   -9999.25    0.00980    4.61780    2.63620    0.18000
 10664.50000  157.08880  221.25410  237.44380    0.04080   56.33530   96.79240   -9999.25   -9999.25    8.62720   -9999.25    0.01370    4.65370    2.64000    0.18260
 10665.00000  204.21160  324.46420  240.44800    0.03980   55.87710   94.81260   -9999.25   -9999.25    8.62040   -9999.25    0.01550    4.72410    2.64220    0.18400
 10665.50000  245.89770  727.74730  275.09690    0.03630   55.95040   93.73030   -9999.25   -9999.25    8.61510   -9999.25    0.01670    4.79810    2.64950    0.18140
 10666.00000  338.86990 1331.07900  764.66070    0.03630   56.02370   92.59860   -9999.25   -9999.25    8.61210   -9999.25    0.01790    4.82390    2.64920   -9999.25
 10666.50000  558.17290 1940.46590 1362.64410    0.03870   56.15840   92.65720   -9999.25   -9999.25    8.60910   -9999.25    0.01860    4.83640    2.64430   -9999.25
 10667.00000  755.70830 1971.30630 1960.62750    0.04310   56.42310   92.64880   -9999.25   -9999.25    8.60500   -9999.25    0.01860    4.84890    2.63680   -9999.25
 10667.50000  846.75180 1797.12000 1903.66910    0.04290   56.76610   92.44170   -9999.25   -9999.25    8.59640   -9999.25    0.01920    4.86390    2.63710   -9999.25
 10668.00000  841.65170 1402.51420 1715.78170    0.04120   56.72020   92.73360   -9999.25   -9999.25    8.60280   -9999.25    0.01960    4.88890    2.63960   -9999.25
 10668.50000  591.69050  956.25050 1737.61730    0.03910   56.47840   92.34050   -9999.25   -9999.25    8.61390   -9999.25    0.01960    4.90330    2.64390   -9999.25
 10669.00000  468.92140  768.19800 1986.99460    0.04190   56.17040   92.07450   -9999.25   -9999.25    8.58620   -9999.25    0.02060    4.92490    2.64100   -9999.25
 10669.50000  471.93250  993.61630 1981.29960    0.04270   55.96510   92.70810   -9999.25   -9999.25    8.58620   -9999.25    0.02380    4.94650    2.63730   -9999.25
 10670.00000  573.53990 1280.57990 1981.75960    0.04240   55.49020   93.13690   -9999.25   -9999.25    8.58620   -9999.25    0.02680    4.96820    2.63830   -9999.25
 10670.50000  648.30890 1482.04960 1981.51710    0.04190   54.96150   92.94080   -9999.25   -9999.25    8.58620   -9999.25    0.02640    4.98980    2.63790   -9999.25
 10671.00000  706.91760 1768.42820 1982.12260    0.04230   54.59580   92.80310   -9999.25   -9999.25    8.59360   -9999.25    0.02450    4.99690    2.63870   -9999.25
 10671.50000  743.19660 1906.33770 1982.72810    0.04060   53.97340   92.66540   -9999.25   -9999.25    8.59070   -9999.25    0.01860    4.99690    2.63860   -9999.25
 10672.00000  722.57440 1693.23080 1983.33360    0.03830   53.70830   92.01000   -9999.25   -9999.25    8.59370   -9999.25    0.01160    4.97640    2.64480   -9999.25
 10672.50000  755.89600 1902.17080 1983.93900    0.03840   53.76340   90.80830   -9999.25   -9999.25    8.58180   -9999.25    0.00730    4.96410    2.64480   -9999.25
 10673.00000  838.61000 1971.34220 1984.54450    0.04230   53.89790   90.79690   -9999.25   -9999.25    8.58360   -9999.25    0.00450    4.95380    2.63930   -9999.25
 10673.50000  807.89530 1726.75550 1941.90070    0.04550   55.02580   90.68800   -9999.25   -9999.25    8.58540   -9999.25    0.00170    4.94360    2.63270   -9999.25
 10674.00000  815.95000 1266.92140 1519.19690    0.04630   56.10070   90.57900   -9999.25   -9999.25    8.58620   -9999.25    0.00060    4.94050    2.64030   -9999.25
 10674.50000  843.33440  874.51710  991.34180   -9999.25   57.29730   90.71690   -9999.25   -9999.25    8.59330   -9999.25    0.00030    4.96610    2.65010   -9999.25
 10675.00000  621.12810  755.64320  981.44770   -9999.25   57.99230   90.81550   -9999.25   -9999.25    8.58980   -9999.25    0.00030    4.97640    2.65220   -9999.25
 10675.50000  389.86440  565.74190  751.41660   -9999.25   59.02960   90.11830   -9999.25   -9999.25    8.57680   -9999.25   -9999.25   -9999.25   -9999.25   -9999.25
 10676.00000  266.31900  375.84060  393.46520   -9999.25   59.16420   94.31980   -9999.25   -9999.25    8.57650   -9999.25   -9999.25   -9999.25   -9999.25   -9999.25
 10676.50000  163.36090  185.93930  270.93080   -9999.25   59.28100  111.75430   -9999.25   -9999.25    8.57620   -9999.25   -9999.25   -9999.25   -9999.25   -9999.25
 10677.00000  164.86210  199.99710  187.69640   -9999.25   59.42340  112.57240   -9999.25   -9999.25    8.57590   -9999.25   -9999.25   -9999.25   -9999.25   -9999.25
 10677.50000  160.28470  240.96900  220.02880   -9999.25   59.19230  128.07930   -9999.25   -9999.25    5.93840   -9999.25   -9999.25   -9999.25   -9999.25   -9999.25
