~Version ---------------------------------------------------
VERS.   2.0 : CWLS log ASCII Standard -VERSION 2.0
WRAP.    NO : One line per depth step
DLM . SPACE : Column Data Section Delimiter
~Well ------------------------------------------------------
STRT .FT               1480.0 : START DEPTH
STOP .FT              10748.0 : STOP DEPTH
STEP .FT                  0.5 : STEP
NULL .               -9999.25 : NULL VALUE
COMP .                        : COMPANY
WELL .                        : WELL
FLD  .                        : FIELD
LOC  .                        : LOCATION
PROV .                        : PROVINCE
CNTY .                        : COUNTY
STAT .                        : STATE
CTRY .                        : COUNTRY
SRVC .                        : SERVICE COMPANY
DATE .                        : DATE
UWI  .                        : UNIQUE WELL ID
API  .                        : API NUMBER
SLAT .WGS84 5.930649512990897 : SURFACE LATITUDE
SLON .WGS84 2.851030789253926 : SURFACE LONGITUDE
DATUM.F                   nan : DEPTH DATUM ELEV
~Curve Information -----------------------------------------
DEPT   .FT    : 
AT10   .OHMM  : ARRAY INDUCTION TWO FOOT RESISTIVITY A10
AT30   .OHMM  : ARRAY INDUCTION TWO FOOT RESISTIVITY A30
AT90   .OHMM  : ARRAY INDUCTION TWO FOOT RESISTIVITY A90
DPHZ_LS.DEC   : HGRD STANDARD RESOLUTION DENSITY POROSITY
DTCO   .US/F  : DELTA-T COMPRESSIONAL
DTSM   .US/F  : DELTA-T SHEAR
ECGRD  .GAPI  : ENVIRONMENTALLY CORRECTED GAMMA RAY FROM DENSITY LOG
ECGRR  .GAPI  : ENVIRONMENTALLY CORRECTED GAMMA RAY FROM RESISTIVITY LOG
HCALD  .IN    : HRCC CALIPER CALIBRATED FROM DENSITY LOG
HCALR  .IN    : HRCC CALIPER CALIBRATED FROM RESISTIVITY LOG
HDRA   .G/C3  : HRDD SPINE AND RIBS DENSITY CORRECTION
PEFZ   .B/E   : HRDD STANDARD RESOLUTION FORMATION PHOTOELECTRIC FACTOR
RHOZ   .G/C3  : HRDD STANDARD RESOLUTION FORMATION DENSITY
TNPH_LS.DEC   : THERMAL NEUTRON POROSITY [LIMESTONE]
~Params ----------------------------------------------------
~Other -----------------------------------------------------
~ASCII -----------------------------------------------------
# ...
 8193.00000   10.94910   11.40940   11.81270    0.00810   -9999.25   -9999.25   -9999.25  121.43830   -9999.25   12.21590   -9999.25    4.13230   -9999.25    0.28300
 8193.50000   10.25070   11.01610   11.81270    0.00700   -9999.25   -9999.25   -9999.25  121.77990   -9999.25   12.17930   -9999.25    4.14310   -9999.25    0.27620
 8194.00000    9.88500   11.22410   11.70340    0.00060   -9999.25   -9999.25   -9999.25  120.86900   -9999.25   12.22580   -9999.25    4.08650   -9999.25    0.27770
 8194.50000   10.79850   11.36280   11.74530   -0.00240   -9999.25   -9999.25   -9999.25  116.67710   -9999.25   12.24250   -9999.25    3.99160   -9999.25    0.25230
 8195.00000   12.02680   13.58060   13.96860    0.00270   -9999.25   -9999.25   -9999.25  115.46070   -9999.25   12.25930   -9999.25    3.89740   -9999.25    0.25760
 8195.50000   12.82320   15.39350   16.81620    0.01270   -9999.25   -9999.25   -9999.25  108.62630   -9999.25   12.25760   -9999.25    3.83530   -9999.25    0.23490
 8196.00000   12.12770   14.45020   16.04060    0.01880   -9999.25   -9999.25   -9999.25  112.23190   -9999.25   12.24810   -9999.25    3.81080   -9999.25    0.23020
 8196.50000   11.09030   12.54240   13.71110    0.01730   -9999.25   -9999.25   -9999.25  116.37450   -9999.25   12.28360   -9999.25    3.87720   -9999.25    0.24700
 8197.00000    9.87360   10.74650   11.38160    0.01850   -9999.25   -9999.25   -9999.25  123.21480   -9999.25   12.28270   -9999.25    4.05290   -9999.25    0.27240
 8197.50000    8.65690    9.91480   10.80610    0.01860   -9999.25   -9999.25   -9999.25  121.33100   -9999.25   12.26970   -9999.25    4.28550   -9999.25    0.29990
 8198.00000    7.94560    9.02920   10.37140    0.01710   -9999.25   -9999.25   -9999.25  117.72360   -9999.25   12.25670   -9999.25    4.40770   -9999.25    0.30180
 8198.50000    7.76310    8.75920    9.90050    0.00810   -9999.25   -9999.25   -9999.25  115.48780   -9999.25   12.19710   -9999.25    4.32410   -9999.25    0.30890
 8199.00000    8.36070   10.02590   10.46830    0.00060   -9999.25   -9999.25   -9999.25  114.16810   -9999.25   12.18640   -9999.25    4.09370   -9999.25    0.30180
 8199.50000   10.06550   11.77070   12.34640    0.00480   -9999.25   -9999.25   -9999.25  114.86730   -9999.25   12.26360   -9999.25    3.83830   -9999.25    0.29860
 8200.00000   10.74730   13.51520   14.47610    0.01460   -9999.25   -9999.25   -9999.25  112.24150   -9999.25   12.25030   -9999.25    3.74730   -9999.25    0.25620
 8200.50000   10.11680   13.02140   14.35770    0.02160   -9999.25   -9999.25   -9999.25  111.78870   -9999.25   12.23170   -9999.25    3.70350   -9999.25    0.23290
 8201.00000    9.61210   12.42130   13.20490    0.02420   -9999.25   -9999.25   -9999.25  111.68080   -9999.25   12.21310   -9999.25    3.69080   -9999.25    0.25050
 8201.50000   10.11570   11.97110   13.45200    0.02990   -9999.25   -9999.25   -9999.25  116.85520   -9999.25   12.19360   -9999.25    3.75660   -9999.25    0.27450
 8202.00000    9.97510   11.79060   13.83340    0.03310   -9999.25   -9999.25   -9999.25  114.07070   -9999.25   12.18290   -9999.25    3.79630   -9999.25    0.28640
 8202.50000    9.21040   11.82790   12.88290    0.03460   -9999.25   -9999.25   -9999.25  112.88360   -9999.25   12.15710   -9999.25    3.83530   -9999.25    0.27850
 8203.00000    8.88000   11.08100   11.91920    0.03360   -9999.25   -9999.25   -9999.25  111.63390   -9999.25   12.14030   -9999.25    3.81900   -9999.25    0.26800
 8203.50000    8.96300   10.28640   12.02980    0.03150   -9999.25   -9999.25   -9999.25  113.98030   -9999.25   12.13360   -9999.25    3.81600   -9999.25    0.25700
 8204.00000    9.08780   10.38560   12.95780    0.03350   -9999.25   -9999.25   -9999.25  114.34470   -9999.25   12.12690   -9999.25    3.81000   -9999.25    0.24210
 8204.50000    8.63530   10.12110   12.09360    0.03190   -9999.25   -9999.25   -9999.25  116.41780   -9999.25   12.11200   -9999.25    3.86310   -9999.25    0.24630
 8205.00000    7.80670    9.84820   10.65370    0.02430   -9999.25   -9999.25   -9999.25  119.13360   -9999.25   12.10100   -9999.25    4.01050   -9999.25    0.25210
 8205.50000    7.30660    9.54740   10.26960    0.01410   -9999.25   -9999.25   -9999.25  121.20810   -9999.25   12.01210   -9999.25    4.16240   -9999.25    0.27770
 8206.00000    7.00380    9.54690   10.36480    0.00170   -9999.25   -9999.25   -9999.25  120.09210   -9999.25   12.01960   -9999.25    4.18480   -9999.25    0.27980
 8206.50000    7.04550    9.99700   10.86420    0.00530   -9999.25   -9999.25   -9999.25  119.18010   -9999.25   12.04070   -9999.25    4.13260   -9999.25    0.29780
 8207.00000    7.15050   10.06560   11.26800    0.00950   -9999.25   -9999.25   -9999.25  120.45820   -9999.25   12.06180   -9999.25    4.06810   -9999.25    0.29100
 8207.50000    7.25560   10.09260   11.58600    0.01660   -9999.25   -9999.25   -9999.25  123.11010   -9999.25   12.06230   -9999.25    3.94630   -9999.25    0.28940
 8208.00000    7.13790   10.03560   11.58540    0.01870   -9999.25   -9999.25   -9999.25  124.19930   -9999.25   12.06490   -9999.25    3.92200   -9999.25    0.28480
 8208.50000    6.84550    9.97860   11.16200    0.01370   -9999.25   -9999.25   -9999.25  123.28080   -9999.25   12.06760   -9999.25    3.97950   -9999.25    0.29630
 8209.00000    6.58010    9.66600   10.45830    0.01120   -9999.25   -9999.25   -9999.25  120.64380   -9999.25   12.03770   -9999.25    4.13540   -9999.25    0.30170
 8209.50000    6.31080    9.36880   10.36090    0.01260   -9999.25   -9999.25   -9999.25  120.58750   -9999.25   11.95710   -9999.25    4.34820   -9999.25    0.30180
 8210.00000    6.16800    9.29040   10.26450    0.01780   -9999.25   -9999.25   -9999.25  121.89740   -9999.25   11.87650   -9999.25    4.58040   -9999.25    0.30200
 8210.50000    6.06170    9.19430   10.26390    0.02080   -9999.25   -9999.25   -9999.25  121.08170   -9999.25   11.80620   -9999.25    4.72710   -9999.25    0.31190
 8211.00000    5.90680    9.02400   10.26340    0.02470   -9999.25   -9999.25   -9999.25  121.80570   -9999.25   11.84560   -9999.25    4.85240   -9999.25    0.32800
 8211.50000    5.62660    7.88100   10.07550    0.02660   -9999.25   -9999.25   -9999.25  125.15630   -9999.25   11.87630   -9999.25    4.95510   -9999.25    0.33310
 8212.00000    5.59940    7.82430    9.88770    0.02830   -9999.25   -9999.25   -9999.25  128.74900   -9999.25   11.93020   -9999.25    5.00890   -9999.25    0.30390
 8212.50000    5.80410    9.30790    9.97950    0.02130   -9999.25   -9999.25   -9999.25  124.21970   -9999.25   11.96620   -9999.25    4.95700   -9999.25    0.29140
 8213.00000    6.06010   10.02440   10.35700    0.01820   -9999.25   -9999.25   -9999.25  116.18660   -9999.25   11.94610   -9999.25    4.78380   -9999.25    0.27990
 8213.50000    6.24340   10.07390   10.74890    0.01270   -9999.25   -9999.25   -9999.25  114.67270   -9999.25   11.93240   -9999.25    4.61060   -9999.25    0.30230
 8214.00000    6.49850   10.14840   11.15550    0.01290   -9999.25   -9999.25   -9999.25  116.83050   -9999.25   11.91220   -9999.25    4.44870   -9999.25    0.30980
 8214.50000    6.70340   10.40260   12.11010    0.01390   -9999.25   -9999.25   -9999.25  118.46410   -9999.25   11.89200   -9999.25    4.34540   -9999.25    0.29930
 8215.00000    6.98230   11.84800   13.68580    0.01950   -9999.25   -9999.25   -9999.25  116.71540   -9999.25   11.88150   -9999.25    4.28670   -9999.25    0.28270
 8215.50000    6.82740   11.77420   13.34000    0.02750   -9999.25   -9999.25   -9999.25  118.41810   -9999.25   11.85910   -9999.25    4.32580   -9999.25    0.27280
 8216.00000    6.67250   10.88840   12.15690    0.03260   -9999.25   -9999.25   -9999.25  122.77940   -9999.25   11.83680   -9999.25    4.37700   -9999.25    0.30230
 8216.50000    6.51750   10.33610   11.57540    0.03260   -9999.25   -9999.25   -9999.25  124.91920   -9999.25   11.79940   -9999.25    4.42830   -9999.25    0.30140
 8217.00000    6.33520   10.19270   11.57540    0.04450   -9999.25   -9999.25   -9999.25  123.48260   -9999.25   11.77440   -9999.25    4.49600   -9999.25    0.30560
