~Version ---------------------------------------------------
VERS.   2.0 : CWLS log ASCII Standard -VERSION 2.0
WRAP.    NO : One line per depth step
DLM . SPACE : Column Data Section Delimiter
~Well ------------------------------------------------------
STRT .FT                1164.0 : START DEPTH
STOP .FT                9660.0 : STOP DEPTH
STEP .FT                   0.5 : STEP
NULL .                -9999.25 : NULL VALUE
COMP .                         : COMPANY
WELL .                         : WELL
FLD  .                         : FIELD
LOC  .                         : LOCATION
PROV .                         : PROVINCE
CNTY .                         : COUNTY
STAT .                         : STATE
CTRY .                         : COUNTRY
SRVC .                         : SERVICE COMPANY
DATE .                         : DATE
UWI  .                         : UNIQUE WELL ID
API  .                         : API NUMBER
SLAT .WGS84 2.9809693809138977 : SURFACE LATITUDE
SLON .WGS84  8.923250822309996 : SURFACE LONGITUDE
DATUM.F                3444.66 : DEPTH DATUM ELEV
~Curve Information -----------------------------------------
DEPT  .FT    : 
CGRS  .GAPI  : CORRECTED GAMMA RAY FROM SONIC LOG
DTCO  .US/F  : DELTA-T COMPRESSIONAL
DTCO_1.US/F  : DELTA-T COMPRESSIONAL
DTSM  .US/F  : DELTA-T SHEAR
HCALS .IN    : HRCC CALIPER CALIBRATED FROM SONIC LOG
HLLD  .OHMM  : HALS LATEROLOG DEEP RESISTIVITY
HLLS  .OHMM  : HALS LATEROLOG SHALLOW RESISTIVITY
PR    .N/A   : POISSON'S RATIO
RXOZ  .OHMM  : INVADED FORMATION RESISTIVITY FILTERED AT 18 INCHES
SGRS  .GAPI  : SPECTROSCOPY GAMMA RAY FROM SONIC LOG
TENR  .LB    : TENSION FROM RESISTIVITY LOG
TENS  .LB    : TENSION FROM SONIC LOG
VPVS  .VPVS  : COMPRESSIONAL TO SHEAR VELOCITY RATIO
~Params ----------------------------------------------------
~Other -----------------------------------------------------
~ASCII -----------------------------------------------------
# ...
 4752.00000   28.94840   54.33010   53.18380   97.57360    9.74890  378.08980  354.38220    0.28250  299.65980   39.77690 1952.55300 1985.38370    1.81140
 4752.50000   29.74520   54.35630   53.61760   97.77530    9.74890  378.14990  338.41830    0.28210  324.10120   41.78690 1952.69440 1951.95870    1.81120
 4753.00000   30.02230   54.26980   53.44050   97.77530    9.74890  334.91170  311.12420    0.28170  299.23080   41.83730 1952.83580 1936.63170    1.81100
 4753.50000   29.86330   54.54220   53.78870   98.10090    9.74240  311.56690  294.74760    0.28000  269.98410   41.78700 1952.97720 1930.57950    1.81080
 4754.00000   30.12500   54.52460   53.92020   98.10070    9.72760  310.18360  359.25530    0.28090  289.69410   45.07040 1953.11860 1930.57950    1.81290
 4754.50000   33.22070   54.34520   53.53230   98.10050    9.74700  318.72020  399.97980    0.28280  340.16800   49.53650 1953.25990 1931.53370    1.82030
 4755.00000   31.90160   54.17360   53.50100   98.10020    9.74760  324.91760  341.71170    0.28320  266.65090   47.61640 1953.40130 1928.93120    1.82030
 4755.50000   30.15760   54.17360   53.48860   97.78340    9.74820  331.11510  264.41320    0.28240  247.46760   41.08710 1953.54270 1926.32870    1.82030
 4756.00000   29.48430   54.25260   53.41000   97.78340    9.74890  337.31250  292.95790    0.28160  254.55520   35.86370 1953.68410 1931.83030    1.81680
 4756.50000   30.12160   54.49520   53.52240   97.78340    9.74950  343.50990  366.63740    0.27850  340.21810   37.38040 1953.82550 1942.73470    1.81100
 4757.00000   31.71650   54.68520   54.03370   97.78340    9.75880  349.70730  346.19460    0.27500  307.72810   39.66110 1953.96690 1953.63900    1.79870
 4757.50000   32.86890   54.78920   54.14340   97.78340    9.75230  356.62430  317.70350    0.27400  286.84860   41.68680 1954.10830 1959.34580    1.79560
 4758.00000   32.52610   54.41150   53.72260   97.78340    9.77020  364.62070  313.04940    0.27680  282.72450   41.88810 1954.24970 1965.05260    1.80320
 4758.50000   32.09740   53.97730   53.04790   97.78340    9.77620  372.61710  318.08390    0.27940  281.05190   40.94480 1954.39110 1970.75940    1.80960
 4759.00000   31.66870   54.13160   53.29810   97.69920    9.78220  380.61340  323.11840    0.28190  269.50950   39.59250 1954.53250 1976.46620    1.81600
 4759.50000   31.92100   54.16740   53.50830   97.74580    9.78830  388.60980  335.08350    0.28150  280.56650   39.59350 1954.67390 1957.78140    1.81820
 4760.00000   32.65270   54.10570   53.38740   97.66630    9.77650  400.78890  349.87270    0.28210  302.74860   40.96620 1954.81530 1968.96370    1.81940
 4760.50000   33.52270   54.13970   53.38740   97.58690    9.78670  408.18040  364.66190    0.28210  312.43350   42.49480 1954.95670 1976.86310    1.81650
 4761.00000   33.16070   53.99440   53.27030   97.49290    9.79680  415.70350  379.45110    0.28220  327.73000   42.49740 1955.09810 1976.57080    1.81700
 4761.50000   32.20900   53.72870   53.27950   97.37710    9.79700  438.91440  394.24030    0.28230  346.65870   41.30990 1955.23950 1976.27850    1.81910
 4762.00000   31.25730   53.83370   53.16250   97.14700    9.79700  456.32090  399.77080    0.28240  356.53410   40.12240 1955.38090 1975.98620    1.81930
 4762.50000   30.74790   54.07260   53.46590   97.39150    9.79700  434.72500  385.30430    0.28230  329.36480   39.58480 1955.52220 1975.69390    1.81650
 4763.00000   30.56750   54.24090   53.52550   97.85220    9.81110  437.77760  389.96420    0.28240  301.97840   39.68740 1955.66360 1975.40170    1.81930
 4763.50000   31.05300   54.39070   53.68050   98.28240    9.83360  446.82710  401.66450    0.28230  357.52020   40.95080 1955.80500 1955.64920    1.81650
 4764.00000   31.76390   54.74640   53.75520   98.60150    9.83830  494.90950  405.71620    0.27940  332.23080   42.71390 1955.94640 1935.89680    1.80730
 4764.50000   30.93140   55.41640   54.50040   99.37520    9.81300  449.66350  390.98540    0.27490  307.85900   42.91750 1956.08780 1966.55050    1.79810
 4765.00000   30.09880   55.95630   55.27950   99.65570    9.81150  424.73730  376.64090    0.27050  272.90220   41.70260 1956.22920 1965.44860    1.78460
 4765.50000   29.44430   55.93760   55.26340   99.33140    9.81010  409.23940  360.04710    0.26970  320.06140   39.41600 1956.37060 1932.70870    1.78930
 4766.00000   27.57530   55.43620   54.66610   99.00700    9.80870  367.90270  343.26180    0.27290  351.04140   37.28550 1952.72600 1931.26400    1.79440
 4766.50000   27.05470   54.93470   54.35680   98.68260    9.80730  412.59280  324.86900    0.27630  402.48670   37.28740 1946.55750 1929.81930    1.80340
 4767.00000   26.89350   54.89470   54.37370   98.62050    9.80590  478.56700  314.28510    0.27810  464.29540   36.88720 1940.38890 1918.11990    1.81460
 4767.50000   26.73230   54.90070   54.03680   98.62410    9.80450  544.54120  351.91270    0.27610  521.91100   36.78870 1934.22030 1926.04610    1.81610
 4768.00000   28.00840   54.94990   53.94080   98.62760    9.80300  541.91820  382.53700    0.27410  508.49790   38.09840 1928.05170 1931.71510    1.80060
 4768.50000   30.63200   55.16580   54.57790   98.63110    9.80160  485.02730  394.81140    0.27220  434.57630   42.15200 1921.88320 1933.99850    1.79360
 4769.00000   33.77680   55.37560   54.57190   99.23790    9.80020  432.46270  395.64730    0.27340  333.60640   45.55650 1915.71460 1936.28190    1.79720
 4769.50000   34.95490   55.49580   54.70300   99.30950    9.79880  379.89800  325.19610    0.27120  255.78870   47.06780 1912.36490 1938.56520    1.79270
 4770.00000   36.96070   55.84510   55.58190   99.58000    9.79740  327.33330  281.81290    0.26840  238.28950   48.37830 1913.24350 1940.84860    1.78810
 4770.50000   39.56760   56.36060   55.94740  100.14900    9.79650  290.26120  260.80640    0.26830  242.26050   53.11680 1914.12210 1977.50010    1.78360
 4771.00000   41.23240   56.54470   56.36350  100.47540    9.81000  241.95560  239.79990    0.26880  224.28280   54.56550 1915.00070 1993.95990    1.78810
 4771.50000   39.20210   56.52780   56.40650  100.25500    9.82340  202.37340  219.92370    0.26930  186.10810   50.23960 1915.87930 1978.00940    1.78720
 4772.00000   35.81820   56.18340   56.01710  100.03460    9.83680  254.28410  229.91610    0.27030  196.55490   44.20340 1916.75790 1977.96720    1.78680
 4772.50000   33.58670   55.85360   55.61320   99.72860    9.85020  318.00240  269.68270    0.26860  259.99370   40.68230 1917.63650 1974.58790    1.78450
 4773.00000   35.80000   55.67630   55.58320   98.93110    9.86360  370.68520  309.44930    0.26890  366.95970   43.44900 1918.51510 1957.85950    1.78460
 4773.50000   38.31510   55.49990   55.24430   99.61170    9.87710  362.49090  337.96040    0.27140  301.62770   46.21560 1919.39370 1941.13110    1.79310
 4774.00000   37.51030   55.42080   55.24430   99.70880    9.89050  342.67350  350.19560    0.27100  279.93310   45.04200 1920.27230 1973.97920    1.79690
 4774.50000   37.40980   55.49230   55.24430   99.72370    9.90390  386.80390  360.53550    0.27070  327.88430   46.08500 1921.15090 1994.23010    1.79790
 4775.00000   39.01950   55.83280   55.67760   99.71790    9.90390  449.75310  373.26950    0.26950  381.94390   48.95220 1922.02950 1980.38170    1.80060
 4775.50000   39.52260   56.13600   56.01590   99.71220    9.90390  434.01620  382.84740    0.26560  366.60620   51.24600 1922.90810 1983.33590    1.79030
 4776.00000   39.52260   56.13480   56.04040   99.70640    9.89930  426.72190  382.84270    0.26480  322.19820   50.31550 1923.78670 1986.29020    1.77320
 4776.50000   39.18220   56.00730   56.06490   98.87220    9.89480  419.42760  373.23190    0.26460  317.50040   50.13950 1924.66530 1988.05900    1.76960
 4777.00000   38.84170   56.09370   56.08940   99.17660    9.89020  402.10740  352.73560    0.26530  328.67710   49.99580 1925.54390 1988.04980    1.76900
 4777.50000   38.35080   56.13890   56.11380   99.48100    9.88560  352.27480  325.72490    0.26630  341.63930   49.13350 1926.42250 1988.04060    1.77650
