~Version ---------------------------------------------------
VERS.   2.0 : CWLS log ASCII Standard -VERSION 2.0
WRAP.    NO : One line per depth step
DLM . SPACE : Column Data Section Delimiter
~Well ------------------------------------------------------
STRT .FT                1164.0 : START DEPTH
STOP .FT                9660.0 : STOP DEPTH
STEP .FT                   0.5 : STEP
NULL .                -9999.25 : NULL VALUE
COMP .                         : COMPANY
WELL .                         : WELL
FLD  .                         : FIELD
LOC  .                         : LOCATION
PROV .                         : PROVINCE
CNTY .                         : COUNTY
STAT .                         : STATE
CTRY .                         : COUNTRY
SRVC .                         : SERVICE COMPANY
DATE .                         : DATE
UWI  .                         : UNIQUE WELL ID
API  .                         : API NUMBER
SLAT .WGS84 2.9809693809138977 : SURFACE LATITUDE
SLON .WGS84  8.923250822309996 : SURFACE LONGITUDE
DATUM.F                3444.66 : DEPTH DATUM ELEV
~Curve Information -----------------------------------------
DEPT  .FT    : 
CGRS  .GAPI  : CORRECTED GAMMA RAY FROM SONIC LOG
DTCO  .US/F  : DELTA-T COMPRESSIONAL
DTCO_1.US/F  : DELTA-T COMPRESSIONAL
DTSM  .US/F  : DELTA-T SHEAR
HCALS .IN    : HRCC CALIPER CALIBRATED FROM SONIC LOG
HLLD  .OHMM  : HALS LATEROLOG DEEP RESISTIVITY
HLLS  .OHMM  : HALS LATEROLOG SHALLOW RESISTIVITY
PR    .N/A   : POISSON'S RATIO
RXOZ  .OHMM  : INVADED FORMATION RESISTIVITY FILTERED AT 18 INCHES
SGRS  .GAPI  : SPECTROSCOPY GAMMA RAY FROM SONIC LOG
TENR  .LB    : TENSION FROM RESISTIVITY LOG
TENS  .LB    : TENSION FROM SONIC LOG
VPVS  .VPVS  : COMPRESSIONAL TO SHEAR VELOCITY RATIO
~Params ----------------------------------------------------
~Other -----------------------------------------------------
~ASCII -----------------------------------------------------
# ...
 4232.00000   23.61720   55.78730   54.05970   96.68940    9.24220   85.84240   75.29180    0.25840   52.23700   46.78320 1865.37310 1843.27460    1.76100
 4232.50000   23.65920   56.34520   54.91230   97.09430    9.24690   94.20610   84.31220    0.25010   85.71800   46.75130 1865.36150 1835.23380    1.75280
 4233.00000   22.75050   57.23790   55.81300   97.88670    9.25160   95.97800   83.06650    0.24880  100.65750   45.93800 1865.34990 1835.23380    1.73380
 4233.50000   23.15250   57.84540   56.39570   97.90520    9.23300   96.86650   81.63620    0.24510  101.00010   46.14230 1865.33840 1835.23380    1.72340
 4234.00000   23.08050   57.79720   56.18360   97.92360    9.25240   95.80470   80.14490    0.24590   98.27630   46.50510 1865.32680 1840.48440    1.72420
 4234.50000   22.33970   57.71810   56.05750   98.39170    9.25240   92.92910   78.31750    0.24910   94.88540   45.47020 1865.31520 1848.22950    1.72920
 4235.00000   20.76670   57.31530   55.79260   98.36530    9.25240   75.44020   65.79910    0.25410   88.65860   43.93030 1865.30370 1833.34250    1.73980
 4235.50000   18.92580   56.68810   55.10280   97.91780    9.25240   57.95130   54.00160    0.25900   68.43940   41.24080 1865.29210 1833.34250    1.75390
 4236.00000   17.19590   56.32430   54.90850   98.03980    9.25240   50.48900   45.08520    0.26300   51.11140   38.27980 1865.28060 1827.54050    1.75840
 4236.50000   17.02480   56.39980   54.90850   98.19140    9.25240   48.65900   43.39650    0.26250   55.84990   38.19090 1865.26900 1838.46600    1.76290
 4237.00000   18.25990   56.83630   55.28200   98.34300    9.26670   40.71260   35.47810    0.26070   48.89400   39.69330 1865.25740 1849.39140    1.76020
 4237.50000   19.49510   57.37980   55.70920   98.86270    9.29480   33.21400   27.55960    0.25570   39.63430   41.34090 1865.24590 1851.57650    1.75030
 4238.00000   20.42630   58.13070   56.60590   99.19670    9.30980   25.71530   24.05420    0.25070   32.57040   42.83820 1865.23430 1851.57650    1.73620
 4238.50000   21.44290   58.64050   57.25230   99.48690    9.32480   24.51290   22.28390    0.24620   28.31470   43.84180 1865.22270 1849.46920    1.72750
 4239.00000   22.06360   58.58050   57.42920   99.79950    9.33970   23.62190   21.77730    0.24920   27.21170   44.40240 1865.21120 1844.06070    1.73330
 4239.50000   22.22340   58.25510   57.07380  100.24200    9.35190   23.34180   21.57760    0.25260   26.25920   45.07300 1865.19960 1838.65210    1.74370
 4240.00000   22.38330   57.82370   56.99800  100.09930    9.35510   23.34340   21.82940    0.25550   26.57900   47.44050 1865.18810 1833.24360    1.74860
 4240.50000   22.36370   57.45320   56.54170   99.47640    9.34630   23.23000   22.59420    0.25540   26.13120   44.51530 1865.17650 1827.83500    1.75400
 4241.00000   21.14440   57.20010   56.16900   98.79990    9.34530   22.14700   22.00420    0.25340   24.31430   42.39220 1865.16490 1852.80750    1.74910
 4241.50000   19.78500   57.13220   56.17520   98.18890    9.34430   21.56210   21.05940    0.25130   22.56310   40.67740 1865.78040 1862.03670    1.74440
 4242.00000   22.27120   57.05960   56.07210   97.94880    9.34330   21.65690   20.72580    0.24970   22.55600   42.94600 1867.33640 1862.48040    1.73960
 4242.50000   28.91230   56.94640   55.73610   97.70860    9.34230   23.46720   21.05860    0.25000   24.33240   49.39620 1868.89250 1876.57880    1.73670
 4243.00000   31.24700   56.89470   55.77050   97.97810    9.34130   25.81460   22.88210    0.25120   27.12290   53.82760 1870.44850 1890.67730    1.74070
 4243.50000   29.93000   57.21270   56.26230   98.84270    9.34030   28.16210   26.46690    0.25230   30.44880   51.64370 1872.00460 1880.21890    1.74350
 4244.00000   28.00280   57.55370   56.54370   98.98530    9.34030   30.03770   28.28680    0.25370   33.77470   48.39410 1873.56060 1867.01700    1.73780
 4244.50000   27.15820   58.21400   57.21890   99.70230    9.34400   28.62670   26.92770    0.25420   35.76550   46.27590 1875.11660 1863.59390    1.72870
 4245.00000   27.14600   57.99570   57.20090   99.61110    9.34770   26.48630   24.03320    0.25330   31.81030   45.29090 1876.67270 1867.98040    1.73330
 4245.50000   26.93960   57.50200   56.84520   99.41290    9.35140   24.34590   21.13870    0.25110   27.85520   43.74140 1878.22870 1872.36690    1.74080
 4246.00000   25.92840   57.31750   56.47410   98.79590    9.34990   23.48600   20.02400    0.24890   24.51840   41.62550 1879.78480 1880.97360    1.73530
 4246.50000   24.91720   56.90930   56.22470   97.62100    9.33680   23.80840   22.20260    0.24840   26.20540   38.98680 1881.34080 1890.63540    1.72520
 4247.00000   24.93110   56.19190   55.64490   97.52420    9.30030   27.72830   25.40860    0.24940   30.65960   39.05220 1887.04170 1894.50020    1.74570
 4247.50000   25.20970   55.50080   54.94370   97.64730    9.29920   31.64820   28.61460    0.25930   33.70110   39.52800 1898.95980 1894.50020    1.76620
 4248.00000   25.54660   54.97820   54.55960   97.77050    9.29820   35.56800   30.60220    0.26870   44.16040   40.60350 1910.87790 1902.55120    1.78680
 4248.50000   26.57760   54.42410   53.74100   97.89360    9.29710   34.43470   28.52330    0.27810   41.24060   42.34240 1922.79600 1919.83580    1.81300
 4249.00000   29.11260   54.71430   54.18190   98.35390    9.33430   30.43630   26.44440    0.27960   36.93390   44.91340 1934.71410 1937.12050    1.81240
 4249.50000   31.37770   56.45290   55.57200   98.78970    9.35240   26.43790   22.52400    0.27110   31.05740   49.73810 1946.63220 1929.72110    1.77930
 4250.00000   32.77640   58.03770   57.41290   99.65420    9.35470   28.13440   24.62700    0.25350   30.45770   52.54920 1958.55030 1920.34290    1.74320
 4250.50000   31.53410   58.45930   57.30110   99.16360    9.37350   32.38580   27.49670    0.24190   33.53070   51.44260 1952.90600 1895.83310    1.71160
 4251.00000   29.49500   58.10980   56.81930   99.05990    9.37410   34.40450   28.05720    0.24240   35.34810   48.42370 1947.26170 1887.05570    1.71780
 4251.50000   28.54730   57.37720   55.95450   98.35660    9.37460   32.67140   26.01390    0.25040   33.19960   46.71310 1941.61750 1878.27830    1.72610
 4252.00000   25.98500   56.98250   55.15270   97.80480    9.37520   29.46020   23.37670    0.25190   28.08530   42.26470 1935.97320 1876.52290    1.73080
 4252.50000   22.31540   57.07840   55.77330   97.40500    9.37580   26.99500   22.54670    0.24920   27.88270   36.80230 1930.32900 1876.52290    1.72290
 4253.00000   24.14230   57.25720   55.81590   97.28590    9.37630   24.52970   20.39440    0.24590   26.75280   35.69070 1924.68470 1876.52290    1.72220
 4253.50000   26.97970   57.33170   55.85140   97.16690    9.39280   22.06450   18.87040    0.24380   23.64770   38.61920 1919.04040 1876.52290    1.72110
 4254.00000   30.32630   56.97830   55.70320   97.04790    9.39980   19.59920   16.96490    0.24530   21.37970   41.08840 1913.39620 1879.87920    1.72430
 4254.50000   33.62980   56.23640   55.09490   96.57960    9.40670   18.61400   16.01750    0.25020   20.03410   44.52890 1907.75190 1877.62660    1.73550
 4255.00000   36.93330   55.37870   54.12270   96.24430    9.41370   19.29910   16.90900    0.25720   20.30780   47.39660 1902.10760 1875.37390    1.75940
 4255.50000   37.89510   55.20970   53.86260   96.51400    9.42060   22.26740   20.42990    0.26290   24.36260   46.92190 1896.46340 1873.12120    1.76360
 4256.00000   36.64350   55.56520   54.06190   96.81650    9.42760   27.12250   23.26820    0.26140   28.72470   44.48390 1890.81910 1870.86860    1.76220
 4256.50000   35.67950   55.41070   54.00080   97.40660    9.43240   27.25400   22.04860    0.26540   28.17370   42.61440 1874.18680 1852.62290    1.75500
 4257.00000   34.82900   55.71480   54.38210   97.44650    9.43920   23.04900   20.03370    0.26390   24.74420   41.71200 1881.87820 1852.62290    1.74780
 4257.50000   33.89180   57.01220   55.28670   97.91590    9.43890   19.68510   16.78320    0.25540   21.31480   40.14350 1889.56960 1852.62290    1.74060
