~Version ---------------------------------------------------
VERS.   2.0 : CWLS log ASCII Standard -VERSION 2.0
WRAP.    NO : One line per depth step
DLM . SPACE : Column Data Section Delimiter
~Well ------------------------------------------------------
STRT .FT                1164.0 : START DEPTH
STOP .FT                9660.0 : STOP DEPTH
STEP .FT                   0.5 : STEP
NULL .                -9999.25 : NULL VALUE
COMP .                         : COMPANY
WELL .                         : WELL
FLD  .                         : FIELD
LOC  .                         : LOCATION
PROV .                         : PROVINCE
CNTY .                         : COUNTY
STAT .                         : STATE
CTRY .                         : COUNTRY
SRVC .                         : SERVICE COMPANY
DATE .                         : DATE
UWI  .                         : UNIQUE WELL ID
API  .                         : API NUMBER
SLAT .WGS84 2.9809693809138977 : SURFACE LATITUDE
SLON .WGS84  8.923250822309996 : SURFACE LONGITUDE
DATUM.F                3444.66 : DEPTH DATUM ELEV
~Curve Information -----------------------------------------
DEPT  .FT    : 
CGRS  .GAPI  : CORRECTED GAMMA RAY FROM SONIC LOG
DTCO  .US/F  : DELTA-T COMPRESSIONAL
DTCO_1.US/F  : DELTA-T COMPRESSIONAL
DTSM  .US/F  : DELTA-T SHEAR
HCALS .IN    : HRCC CALIPER CALIBRATED FROM SONIC LOG
HLLD  .OHMM  : HALS LATEROLOG DEEP RESISTIVITY
HLLS  .OHMM  : HALS LATEROLOG SHALLOW RESISTIVITY
PR    .N/A   : POISSON'S RATIO
RXOZ  .OHMM  : INVADED FORMATION RESISTIVITY FILTERED AT 18 INCHES
SGRS  .GAPI  : SPECTROSCOPY GAMMA RAY FROM SONIC LOG
TENR  .LB    : TENSION FROM RESISTIVITY LOG
TENS  .LB    : TENSION FROM SONIC LOG
VPVS  .VPVS  : COMPRESSIONAL TO SHEAR VELOCITY RATIO
~Params ----------------------------------------------------
~Other -----------------------------------------------------
~ASCII -----------------------------------------------------
# ...
 2074.00000   11.77730   45.32650   44.45320   83.78420    9.75620  362.58970  377.06910    0.29970  439.85160   40.18420 1317.09700 1325.63490    1.87340
 2074.50000   13.52470   45.21900   44.45320   83.92640    9.76060  271.30900  306.89020    0.30300  314.92110   46.77280 1320.20910 1325.63490    1.88200
 2075.00000   14.76650   45.27910   44.49700   83.94150    9.76330  180.02820  229.31740    0.30370  194.93100   54.46990 1329.14100 1326.64600    1.88380
 2075.50000   15.31510   45.49560   44.44910   84.32780    9.77970  116.27980  151.74460    0.30390  152.62230   58.60690 1329.14100 1336.25140    1.88400
 2076.00000   14.53990   45.70010   44.72010   84.71750    9.80800  101.76400  117.15300    0.30440  126.18810   58.41520 1326.83170 1341.32970    1.88580
 2076.50000   12.77760   45.59380   44.53840   84.79490    9.83640  103.65620  116.33280    0.30480  119.67560   55.64590 1328.17640 1331.09410    1.89020
 2077.00000    9.00910   45.21010   44.04420   84.33870    9.86470  129.42190  160.58950    0.30630  141.08160   51.76640 1323.05500 1325.05000    1.89450
 2077.50000    8.45890   44.84830   43.71510   83.89780    9.87240  190.22840  257.50730    0.30610  211.72740   50.22680 1323.18190 1334.83740    1.89580
 2078.00000    9.10830   44.52850   43.54390   82.99140    9.87100  251.03490  354.42510    0.30540  348.18890   52.18330 1306.07470 1321.86120    1.89250
 2078.50000    8.97930   44.17800   43.23780   82.30500    9.86700  411.18440  451.34300    0.30480  430.75360   53.05050 1288.96740 1311.38930    1.89260
 2079.00000    8.85030   44.25000   43.22430   81.94920    9.85670  513.46860  548.26080    0.30020  586.76640   49.30620 1296.68600 1312.30650    1.88460
 2079.50000    7.03990   44.56020   43.44710   81.59340    9.84210  596.19770  612.00210    0.29560  773.30510   45.91280 1298.19640 1313.22360    1.86160
 2080.00000    6.15100   44.67800   43.55330   81.36690    9.82760  543.01340  563.79580    0.29250  943.83720   44.18370 1304.14800 1315.68750    1.84550
 2080.50000    6.72600   44.73800   43.54170   81.53990    9.82180  451.38240  483.53190    0.29180  996.34090   43.41110 1316.76130 1322.80400    1.84480
 2081.00000    8.35920   44.72980   43.53020   81.54410    9.82180  419.51360  441.81250    0.29300  926.29330   46.40800 1329.37470 1329.92050    1.85310
 2081.50000   12.27100   44.55760   43.51860   82.00360    9.80190  402.58530  422.95090    0.29560  798.17820   56.15530 1331.18720 1351.84980    1.86440
 2082.00000   15.65940   44.60890   43.50710   82.47710    9.79960  385.65710  404.08940    0.29740  570.29850   63.80130 1332.99970 1364.81250    1.86810
 2082.50000   15.73340   44.69580   43.49550   82.63210    9.78710  368.72880  385.22790    0.29920  441.87320   59.52970 1323.88890 1348.69600    1.87170
 2083.00000   14.31480   44.61200   43.48400   82.72090    9.77460  390.74680  375.66560    0.30100  378.30100   49.71620 1314.77820 1342.76030    1.87750
 2083.50000   12.53840   44.44940   43.47250   82.70330    9.77340  517.48770  514.51420    0.30410  459.44910   43.09710 1290.46990 1331.12460    1.88520
 2084.00000   10.07610   44.22260   43.23690   82.68580    9.79380  644.22850  651.62570    0.30650  643.57640   38.06160 1297.04300 1327.65250    1.89690
 2084.50000    8.74680   43.98640   42.76850   82.44790    9.81980  720.27310  757.84060    0.30880  978.42910   34.38960 1309.36280 1325.72770    1.90650
 2085.00000    7.51860   44.07660   43.08520   82.59220    9.86300  632.21360  689.34150    0.30930  876.00730   33.05690 1306.17060 1324.75140    1.90510
 2085.50000    9.18770   44.07500   43.12880   82.73650    9.88410  517.07160  608.06050    0.30980  700.31620   35.99560 1302.17570 1323.77500    1.90170
 2086.00000   13.20380   43.87670   42.99680   82.66210    9.90530  414.53160  526.77960    0.31030  457.33620   40.85270 1301.76610 1328.92640    1.90890
 2086.50000   15.76550   43.75270   42.74390   82.65460    9.92640  377.14740  445.49860    0.31170  370.62960   45.86380 1315.69740 1341.89690    1.91310
 2087.00000   18.51370   43.74110   42.70490   82.33750    9.94620  339.76320  364.22400    0.31090  336.02260   49.92450 1329.62880 1354.86750    1.91390
 2087.50000   20.97020   43.67980   42.66590   82.33750    9.94810  302.37890  343.07040    0.31190  290.03220   54.03220 1319.56930 1352.06240    1.92120
 2088.00000   21.44200   43.40540   42.46930   82.20600    9.95000  264.99470  296.02850    0.31380  253.13290   54.82170 1309.50980 1349.25740    1.92850
 2088.50000   17.72450   43.09900   42.07810   82.25460    9.95520  319.07520  370.94360    0.31480  271.31870   48.58020 1321.21300 1355.81800    1.93580
 2089.00000   12.03980   43.23880   42.30130   82.30320    9.97350  448.06890  517.66090    0.31570  454.45880   39.62570 1326.53360 1355.81800    1.93150
 2089.50000    9.25950   43.73750   42.67370   82.64520    9.99190  577.06260  664.37830    0.31290  716.58180   32.20500 1309.33040 1352.63520    1.91790
 2090.00000    9.51290   44.18550   42.88320   83.00940   10.00290  643.19220  797.97010    0.31010  842.97650   28.67260 1308.13480 1331.97460    1.90920
 2090.50000    9.52740   44.41290   43.68720   83.37350   10.01720  715.40650  911.87370    0.31000  793.80740   27.26160 1302.08070 1311.31410    1.90910
 2091.00000    9.54200   44.50600   43.65340   83.73760   10.07180  827.58850 1025.77740    0.30980  904.21760   27.05560 1312.83590 1322.37350    1.90550
 2091.50000    9.34460   44.55440   43.79170   83.73760   10.07440  939.77050 1094.20890    0.30950 1042.16830   26.45430 1323.59110 1327.56610    1.90250
 2092.00000    8.68300   44.52740   43.80210   83.65990   10.08200 1002.50270 1035.46070    0.30910 1101.15550   24.92370 1326.56350 1339.18230    1.90140
 2092.50000    8.21280   44.47630   43.65180   83.78100   10.08950  927.04990  974.78480    0.30880 1034.04670   23.53430 1328.21230 1345.98480    1.90100
 2093.00000    7.57210   44.59360   43.88710   83.39600   10.09570  815.20020  906.07670    0.30560  952.23340   21.76930 1329.86120 1352.78730    1.89140
 2093.50000    7.18420   44.85800   44.04440   83.36310   10.07570  724.48220  844.52640    0.30140  949.09260   20.21310 1313.70220 1333.40470    1.87940
 2094.00000    7.72150   45.26240   44.40070   83.54800   10.07480  661.56050  740.46370    0.29860  880.02610   20.51640 1297.54330 1314.02220    1.86750
 2094.50000    8.59420   45.50670   44.67590   83.80570   10.05950  581.00070  670.23200    0.29800  597.87250   21.71940 1292.75330 1309.24490    1.86510
 2095.00000    9.31240   45.71190   44.95110   84.23240   10.05120  500.44080  521.09810    0.29810  444.40540   23.13010 1290.80550 1299.41750    1.86520
 2095.50000   10.38560   45.82120   44.95110   84.29190   10.03720  419.88090  435.32390    0.29820  398.82950   24.05810 1282.58420 1290.71520    1.86590
 2096.00000    9.76600   45.48180   44.53460   84.35130   10.02320  339.32100  379.07310    0.30350  391.53800   23.54220 1282.58420 1286.51270    1.88360
 2096.50000    9.13870   44.68560   43.66290   84.41080   10.01760  356.79660  392.14110    0.31180  447.06740   21.90330 1286.15910 1283.01320    1.91100
 2097.00000    8.34750   44.61490   43.79510   84.37030   10.00590  378.61980  420.31190    0.31040  455.03870   21.02410 1289.69160 1291.64920    1.91320
 2097.50000    8.55160   44.98430   44.22310   84.33640    9.99790  391.71360  439.12070    0.30550  448.45990   21.94230 1289.69160 1293.81090    1.89760
 2098.00000    8.71330   45.20660   44.37650   84.15530    9.99550  389.99680  451.68810    0.30230  483.67760   22.18920 1298.63880 1295.97250    1.88130
 2098.50000    8.37000   45.33840   44.68220   83.84350    9.98310  366.29840  454.27400    0.30030  550.14630   21.79470 1298.92610 1298.13420    1.86880
 2099.00000    7.97570   45.55830   45.00230   83.80520    9.97060  311.44450  379.19920    0.29600  432.98600   23.52090 1299.21350 1306.76900    1.85640
 2099.50000    8.30020   46.00330   45.44060   83.99050    9.94460  256.59050  293.14770    0.29150  309.47480   29.37100 1299.50090 1309.12490    1.84390
