~Version ---------------------------------------------------
VERS.   2.0 : CWLS log ASCII Standard -VERSION 2.0
WRAP.    NO : One line per depth step
DLM . SPACE : Column Data Section Delimiter
~Well ------------------------------------------------------
STRT .FT                1164.0 : START DEPTH
STOP .FT                9660.0 : STOP DEPTH
STEP .FT                   0.5 : STEP
NULL .                -9999.25 : NULL VALUE
COMP .                         : COMPANY
WELL .                         : WELL
FLD  .                         : FIELD
LOC  .                         : LOCATION
PROV .                         : PROVINCE
CNTY .                         : COUNTY
STAT .                         : STATE
CTRY .                         : COUNTRY
SRVC .                         : SERVICE COMPANY
DATE .                         : DATE
UWI  .                         : UNIQUE WELL ID
API  .                         : API NUMBER
SLAT .WGS84 2.9809693809138977 : SURFACE LATITUDE
SLON .WGS84  8.923250822309996 : SURFACE LONGITUDE
DATUM.F                3444.66 : DEPTH DATUM ELEV
~Curve Information -----------------------------------------
DEPT  .FT    : 
CGRS  .GAPI  : CORRECTED GAMMA RAY FROM SONIC LOG
DTCO  .US/F  : DELTA-T COMPRESSIONAL
DTCO_1.US/F  : DELTA-T COMPRESSIONAL
DTSM  .US/F  : DELTA-T SHEAR
HCALS .IN    : HRCC CALIPER CALIBRATED FROM SONIC LOG
HLLD  .OHMM  : HALS LATEROLOG DEEP RESISTIVITY
HLLS  .OHMM  : HALS LATEROLOG SHALLOW RESISTIVITY
PR    .N/A   : POISSON'S RATIO
RXOZ  .OHMM  : INVADED FORMATION RESISTIVITY FILTERED AT 18 INCHES
SGRS  .GAPI  : SPECTROSCOPY GAMMA RAY FROM SONIC LOG
TENR  .LB    : TENSION FROM RESISTIVITY LOG
TENS  .LB    : TENSION FROM SONIC LOG
VPVS  .VPVS  : COMPRESSIONAL TO SHEAR VELOCITY RATIO
~Params ----------------------------------------------------
~Other -----------------------------------------------------
~ASCII -----------------------------------------------------
# ...
 9068.00000   37.83750   70.78260   70.10890  102.47950    9.51910   50.44150   56.60320    0.10140   47.23550   64.15240 2999.67230 3003.73480    1.51500
 9068.50000   38.14910   69.22320   68.17700  103.17860    9.51020   52.09650   60.65680    0.10760   42.60170   63.09970 2999.67230 3003.77460    1.53450
 9069.00000   42.66430   67.90740   66.85550  100.46320    9.49730   73.19750  119.28600    0.10820   71.96860   66.02660 2999.67230 3003.81440    1.53190
 9069.50000   45.56300   67.48010   66.61400   96.69920    9.51710  152.21970  157.52150    0.10220  139.97700   66.42990 2999.67230 3003.85420    1.50820
 9070.00000   46.43910   66.96880   66.09270   94.28080    9.50830  130.88680  136.36320    0.08250  105.97640   65.59040 2999.67230 3003.89410    1.48180
 9070.50000   51.35030   66.00460   65.26390   93.58480    9.55480   55.11210   97.72190    0.06280   33.64270   73.13440 2999.67230 3003.93390    1.45550
 9071.00000   62.42110   65.18190   64.37090   95.29370    9.60500   19.29300   59.08070    0.04300    4.98890   85.17220 2999.67230 3003.97370    1.45290
 9071.50000   69.46600   66.75650   65.57210   97.00260    9.78420   12.19450   20.43940    0.04260    2.34600   95.73980 2999.67230 3004.01360    1.45400
 9072.00000   75.03160   70.79450   68.96050  100.16880   10.20900   12.08280   12.94790    0.04770    1.99760  100.38330 2999.67230 3004.05340    1.45580
 9072.50000   77.83030   74.82870   72.79580  103.85830    9.83580   14.31200   15.68870    0.05330    3.14520  105.33250 2999.67230 3004.09320    1.46130
 9073.00000   77.63340   76.48290   75.11840  106.76130    9.66450   17.42210   19.44570    0.06900    9.42440  102.92460 2999.67230 3004.13300    1.48290
 9073.50000   73.59040   75.97550   75.32880  106.87010    9.66640   21.10810   21.90110    0.09710   18.64220  100.38920 2999.67230 3004.17290    1.50710
 9074.00000   70.98940   72.64610   73.08290  106.13710    9.66520   21.01130   21.90140    0.12510   18.98940   93.70340 2999.67230 3004.21270    1.54660
 9074.50000   70.28740   68.90830   69.03170  106.08770    9.68910   19.61600   20.58440    0.15150   16.99590   93.37720 2999.67230 3004.25250    1.58620
 9075.00000   71.29910   65.83980   65.21550  104.42080    9.72740   17.93010   19.26740    0.17500   11.23820   95.10040 2999.67230 3004.29240    1.62580
 9075.50000   71.61630   63.48040   62.73450  102.39950    9.76570   16.91870   18.29800    0.20240    9.71010   95.67910 2999.67230 3004.33220    1.64570
 9076.00000   70.81880   62.48670   61.72730   99.97720    9.74370   21.18430   25.61270    0.20290   12.44710   91.02560 2999.67230 3004.12160    1.64170
 9076.50000   62.98510   62.31260   61.52590   97.10750    9.65320   29.44210   32.11340    0.17570   20.80200   80.14410 2999.67230 3004.12160    1.59950
 9077.00000   58.70530   62.61620   61.92130   93.59310    9.66230   24.49620   28.54500    0.14600   12.63590   75.05320 2999.67230 3004.12160    1.55990
 9077.50000   60.92700   64.18670   62.98200   92.59630    9.84480   18.89920   20.72620    0.11630    7.66130   79.65020 2999.67230 3004.12160    1.52040
 9078.00000   64.62910   67.88900   65.53290   95.37870    9.79800   18.81260   19.60950    0.08650    8.38720   86.84780 3005.97690 3004.12160    1.48080
 9078.50000   67.79250   72.96410   70.12160  100.82620    9.60110   19.60980   20.94210    0.05680   15.99520   90.82260 3017.49920 3004.12160    1.44130
 9079.00000   67.39270   77.39030   75.77280  107.13280    9.63460   23.82820   21.90450    0.03900   23.23750   90.37580 3016.47230 3004.12160    1.44140
 9079.50000   64.47800   78.32750   77.39130  110.13270    9.66810   87.28370   28.80600    0.04110   19.15610   87.24890 3015.44530 3004.12160    1.44950
 9080.00000   57.76700   72.88290   74.05220  106.97990    9.66670  235.89560   43.53890    0.04780   23.13870   81.33850 3014.41840 3004.12160    1.46880
 9080.50000   48.10200   66.35170   67.71760  100.89300    9.54930  359.73390  266.42310    0.07180   51.64560   63.72670 3013.39140 3004.12160    1.49830
 9081.00000   37.90660   59.79620   60.94670   93.25100    9.53760  575.84790  400.05770    0.11770  354.40650   46.06910 3012.36450 3004.12160    1.55930
 9081.50000   27.71130   53.99160   53.76880   89.33810    9.58600  474.58410  325.54710    0.19290    7.21190   35.93570 3011.33750 3004.12160    1.69000
 9082.00000   25.19650   48.32300   48.15010   88.07420    9.79730  459.60020  243.24480    0.26800    0.71540   32.78170 3010.31060 3004.12160    1.82070
 9082.50000   25.29740   45.62410   44.67680   87.22900   11.64840  186.62350  156.16140    0.31510    0.35840   33.74820 3009.28360 3004.12160    1.92790
 9083.00000   30.84770   45.76190   44.35800   84.50090   13.60300   28.47010   71.40630    0.31310    0.30430   44.01010 3008.25670 3004.12160    1.89170
 9083.50000   42.45940   46.48620   45.16070   82.25440   14.62380   12.17680   18.04850    0.28540    0.32770   61.08800 3007.22970 3004.12160    1.82140
 9084.00000   54.07110   47.48430   46.05220   81.61330   15.67940    6.64720   11.78640    0.25410    0.33480   76.92430 3006.20280 3004.12160    1.75110
 9084.50000   58.41760   49.67190   48.12350   83.69490   18.09720    6.11370   10.10660    0.23120    0.32510   82.52140 3005.17580 3004.12160    1.68080
 9085.00000   60.40990   51.76430   49.88960   85.77650   16.02480    6.61300   11.34290    0.20830    0.34220   85.62810 3004.14890 3004.12160    1.64890
 9085.50000   63.51220   56.89120   53.93250   91.94170   13.12410   11.89750   16.55790    0.20780    0.46170   89.18300 3003.12200 3004.12160    1.65300
 9086.00000   66.61450   63.06100   61.06610  100.10560    9.79750   17.99330   30.05960    0.21280    0.81840   93.93910 3002.09500 3004.12160    1.66030
 9086.50000   69.71680   64.29370   63.41150  105.37450    9.92330   37.81260   43.38140    0.21480    1.69540   98.69530 3001.06810 3004.12160    1.66470
 9087.00000   72.38310   62.74520   62.37760  103.29600    9.72720   62.30640   56.43310    0.21250    5.78250  100.22800 3000.04110 3004.12160    1.65690
 9087.50000   72.03130   64.68610   63.07030  104.14500    9.67190   86.80010   69.48480    0.20220   27.78580  100.11890 2999.01420 3026.57980    1.64110
 9088.00000   69.36560   65.20230   64.44590  103.84960    9.59950  110.07240   93.18150    0.18160   56.28350   97.63690 2997.98720 3026.54910    1.61940
 9088.50000   63.48470   63.70780   63.02590   99.14030    9.54800  188.35780  129.24650    0.15650  158.13120   90.74820 2996.96030 3026.52700    1.58150
 9089.00000   61.16540   61.95600   61.58770   95.14800    9.54780  216.89260  159.56640    0.13150  184.18620   88.09660 2995.93330 3026.52700    1.53370
 9089.50000   60.43710   60.63390   60.03780   92.25370    9.54750  263.42910  210.29970    0.11140  193.16990   88.93540 2994.90640 3026.52700    1.51910
 9090.00000   59.70890   58.81080   58.45360   90.14490    9.54730  305.88650  261.03300    0.13150  242.16160   86.13590 2993.87940 3026.52700    1.54190
 9090.50000   55.94270   58.93180   57.30230   90.28620    9.54700  361.14010  304.39920    0.14460  313.53950   78.85370 2992.85250 3026.52700    1.56080
 9091.00000   53.79420   59.92750   58.08390   89.07600    9.54680  408.83950  290.60230    0.09980  182.31170   76.49880 2991.82550 3026.52700    1.53000
 9091.50000   56.98040   60.47400   59.27310   86.31880    9.56600  217.61650  185.27990    0.05500  118.92090   81.27480 2990.79860 3026.52700    1.49460
 9092.00000   62.42040   60.64910   59.62820   85.62900    9.57300   95.13840  101.01540    0.04500   47.78920   91.79300 2989.77160 3026.52700    1.45930
 9092.50000   72.12710   60.90570   59.84250   86.84770    9.59060  172.62490  191.73390    0.04310   39.87700   99.78800 2988.74470 3026.52700    1.44790
 9093.00000   70.14010   60.17390   59.11990   85.76830    9.60830  206.37030  187.49530    0.03410   45.20760   99.89710 2975.75010 3026.52700    1.44270
 9093.50000   61.66870   59.22150   58.04710   83.25840    9.62590  198.57520  179.65880    0.02610  171.27040   90.45300 2976.84550 3026.52700    1.43870
