~Version ---------------------------------------------------
VERS.   2.0 : CWLS log ASCII Standard -VERSION 2.0
WRAP.    NO : One line per depth step
DLM . SPACE : Column Data Section Delimiter
~Well ------------------------------------------------------
STRT .FT                1164.0 : START DEPTH
STOP .FT                9660.0 : STOP DEPTH
STEP .FT                   0.5 : STEP
NULL .                -9999.25 : NULL VALUE
COMP .                         : COMPANY
WELL .                         : WELL
FLD  .                         : FIELD
LOC  .                         : LOCATION
PROV .                         : PROVINCE
CNTY .                         : COUNTY
STAT .                         : STATE
CTRY .                         : COUNTRY
SRVC .                         : SERVICE COMPANY
DATE .                         : DATE
UWI  .                         : UNIQUE WELL ID
API  .                         : API NUMBER
SLAT .WGS84 2.9809693809138977 : SURFACE LATITUDE
SLON .WGS84  8.923250822309996 : SURFACE LONGITUDE
DATUM.F                3444.66 : DEPTH DATUM ELEV
~Curve Information -----------------------------------------
DEPT  .FT    : 
CGRS  .GAPI  : CORRECTED GAMMA RAY FROM SONIC LOG
DTCO  .US/F  : DELTA-T COMPRESSIONAL
DTCO_1.US/F  : DELTA-T COMPRESSIONAL
DTSM  .US/F  : DELTA-T SHEAR
HCALS .IN    : HRCC CALIPER CALIBRATED FROM SONIC LOG
HLLD  .OHMM  : HALS LATEROLOG DEEP RESISTIVITY
HLLS  .OHMM  : HALS LATEROLOG SHALLOW RESISTIVITY
PR    .N/A   : POISSON'S RATIO
RXOZ  .OHMM  : INVADED FORMATION RESISTIVITY FILTERED AT 18 INCHES
SGRS  .GAPI  : SPECTROSCOPY GAMMA RAY FROM SONIC LOG
TENR  .LB    : TENSION FROM RESISTIVITY LOG
TENS  .LB    : TENSION FROM SONIC LOG
VPVS  .VPVS  : COMPRESSIONAL TO SHEAR VELOCITY RATIO
~Params ----------------------------------------------------
~Other -----------------------------------------------------
~ASCII -----------------------------------------------------
# ...
 5298.00000   39.34420   55.97410   55.36870   95.58380    9.02970   77.06080   71.91970    0.24910   96.17400   70.40160 2147.72960 2165.38610    1.73220
 5298.50000   39.34410   56.73650   55.77380   94.58230    9.05100   43.18440   34.52590    0.22790   23.40640   68.27100 2148.78290 2170.06690    1.69670
 5299.00000   36.15330   56.43350   55.72250   92.53260    9.05100   36.57230   34.12070    0.21570   25.03990   59.11590 2141.46210 2159.46930    1.67450
 5299.50000   30.69180   55.26800   54.07750   91.45400    9.01080   97.39300   71.10280    0.21480   36.41040   45.68510 2134.14130 2148.87160    1.67180
 5300.00000   17.96510   53.33130   51.82630   89.72000    9.01080 1674.62250  440.96640    0.23230   92.30000   30.54360 2129.77950 2139.52020    1.71060
 5300.50000   10.77130   51.30830   50.06920   88.62880    9.01060 6490.66960 2142.35570    0.24990 1581.37040   20.40680 2127.39030 2139.20030    1.74960
 5301.00000    9.86540   50.08640   49.04530   88.84850    8.99700 2035.51890 2037.24440    0.26750 1952.19260   19.80590 2132.45790 2138.88040    1.78320
 5301.50000   13.03740   50.20570   49.13190   89.06820    8.98090 1670.49580 1027.65650    0.26740 1499.76880   24.05820 2129.55970 2138.56060    1.78840
 5302.00000   18.45650   52.29220   50.94660   89.39000    8.96090  853.79880  258.69650    0.25040  934.45800   31.75530 2128.07250 2143.51160    1.72960
 5302.50000   23.08790   55.23570   54.07570   90.15100    8.94090  197.71390  189.85710    0.21400  369.14720   38.51490 2128.07250 2143.69120    1.67840
 5303.00000   25.45060   55.20900   54.00260   90.57190    8.92080  184.07720  168.62190    0.21250  182.63390   41.82580 2128.07250 2143.87080    1.67020
 5303.50000   25.54960   54.58760   53.28610   90.99820    8.90080  170.44040  159.28790    0.22100  143.12300   41.73180 2133.83930 2144.05030    1.68490
 5304.00000   25.54790   54.97500   53.67430   91.50870    8.88870  164.57780  151.11860    0.22300  125.26080   41.65460 2129.16950 2144.22990    1.67680
 5304.50000   26.25050   55.93920   54.68900   91.78100    8.88860  164.37940  150.39980    0.21270  124.01620   42.15750 2126.61960 2144.40950    1.66020
 5305.00000   25.88000   56.68240   55.29320   91.79160    8.90180  164.18110  158.98340    0.20240  125.12230   42.05090 2132.54940 2144.58900    1.64230
 5305.50000   25.74430   56.53560   54.85630   90.91950    8.92850  179.41620  173.60400    0.19680  135.40700   41.74660 2138.47910 2144.76860    1.63510
 5306.00000   26.54740   55.11030   53.53840   89.82680    8.94170  193.44700  180.85330    0.20270  146.36710   43.16300 2147.50010 2144.94820    1.64910
 5306.50000   27.25010   54.01260   52.74230   89.45030    8.94520  170.95320  155.97960    0.21180  145.42740   43.99460 2157.29380 2145.12770    1.65490
 5307.00000   26.44340   54.41400   53.24370   89.78910    8.94960  157.40750  155.96100    0.21380  127.16970   42.52510 2161.21130 2149.83890    1.65110
 5307.50000   25.23460   54.42630   52.84670   90.12790    8.95400  177.41740  170.27990    0.21630  156.06550   41.69990 2161.21130 2145.67940    1.68730
 5308.00000   25.93720   53.18360   52.11350   90.11100    8.95830  199.75150  185.46770    0.23190  184.96130   43.01430 2161.40890 2143.60030    1.71620
 5308.50000   25.80810   52.09300   50.73310   89.87710    8.96270  217.36790  191.88870    0.25470  172.00710   42.94380 2154.83860 2145.27170    1.74480
 5309.00000   24.31870   51.96640   50.47170   89.35190    8.96710  179.85360  172.54070    0.25150  148.84340   39.91620 2148.26840 2146.94320    1.73900
 5309.50000   23.61830   52.32480   51.03540   89.37860    8.97150  219.30250  188.36360    0.24990  186.86700   38.32290 2144.32630 2150.96400    1.72740
 5310.00000   24.67170   52.64310   51.46200   89.29650    8.97590  209.81610  194.26070    0.24980  178.80050   39.50550 2144.32630 2145.23400    1.72240
 5310.50000   24.87600   52.75900   51.32040   90.20340    8.98020  177.59460  170.46640    0.24850  151.34550   39.76530 2120.64240 2139.50410    1.72840
 5311.00000   23.39550   52.62530   51.42970   90.93390    8.98460  200.46820  160.94620    0.25440  156.55110   36.96620 2112.36570 2133.77410    1.74450
 5311.50000   22.16590   53.21790   52.04220   91.06510    8.98900  291.77250  248.49050    0.24770  199.97580   33.90440 2104.08900 2128.04410    1.73180
 5312.00000   21.42750   54.74530   53.91200   91.13120    8.99340  383.07680  336.03490    0.22380  331.33280   33.89390 2102.43370 2128.04410    1.68520
 5312.50000   25.55050   56.35970   55.26520   91.65590    8.99770  367.17430  349.64020    0.21110  325.84340   39.24890 2102.43370 2128.04410    1.64860
 5313.00000   29.37180   56.23110   54.95210   92.18070    9.00210  267.78350  225.38250    0.21710  242.31190   43.76290 2104.61360 2131.11560    1.65930
 5313.50000   29.77290   55.30910   53.75720   91.91090    9.00650  187.40370  173.66260    0.22470  158.78040   43.03300 2113.90110 2136.10200    1.68650
 5314.00000   27.70690   53.75770   52.14130   90.19230    9.01090  211.58180  186.26230    0.23630  176.23630   40.71210 2123.18860 2140.09120    1.70730
 5314.50000   25.34270   50.85270   49.26050   87.11400    9.01530  246.04790  235.13860    0.24830  218.93900   38.55230 2121.77840 2140.09120    1.74660
 5315.00000   24.53630   48.74700   47.22130   84.98660    9.01960  286.12100  256.47850    0.26440  240.43070   37.03720 2120.36810 2140.09120    1.77030
 5315.50000   23.45150   48.84190   47.56670   85.48850    9.02400  354.27640  293.06600    0.26530  288.83040   35.30160 2118.95780 2144.43480    1.77700
 5316.00000   21.92440   49.72990   48.55250   87.23980    9.02840  422.43190  371.34890    0.26800  378.53320   33.23890 2117.54750 2149.87930    1.78710
 5316.50000   21.26180   50.25340   48.97110   88.79210    9.03280  436.05940  420.25250    0.27270  468.23610   32.25570 2122.12710 2149.58890    1.79720
 5317.00000   21.00880   49.67520   48.20350   88.98600    9.03440  360.22720  358.69410    0.27740  598.22110   33.07410 2113.85060 2136.42220    1.81070
 5317.50000   20.77850   49.22520   47.81170   89.35100    9.03320  232.76670  252.86030    0.28010  342.32530   33.49790 2105.57420 2125.77890    1.81550
 5318.00000   19.90400   49.98490   48.82470   89.71600    9.02830  257.89020  229.91540    0.27590  259.28090   32.91160 2103.91890 2128.70070    1.80570
 5318.50000   18.79760   51.13180   50.00190   90.44090    9.02340  315.30950  261.92010    0.27080  255.73400   31.69010 2103.91890 2132.49040    1.78710
 5319.00000   18.03630   51.04590   49.84820   90.07150    9.01850  338.27500  332.12920    0.27000  281.34480   30.59400 2123.95200 2149.10600    1.78890
 5319.50000   17.38480   50.00140   48.91430   88.35510    9.01360  338.27050  362.52050    0.27040  285.87090   28.92210 2134.01880 2148.68980    1.79820
 5320.00000   16.73320   49.49930   48.42910   86.78480    9.00870  341.40320  425.93030    0.26680  322.42700   27.43900 2124.80380 2148.27360    1.78340
 5320.50000   16.38400   49.80230   48.85370   84.91590    9.00380  549.18980  505.98690    0.25540  451.66560   27.80440 2125.57650 2147.85750    1.75030
 5321.00000   18.47580   50.61960   49.55060   85.11250    8.99890  537.49500  542.86880    0.24620  485.68110   30.53880 2126.34930 2147.44130    1.71440
 5321.50000   19.75740   52.14610   51.21850   87.23700    8.99400  466.40290  465.63990    0.22830  430.56620   32.71180 2127.12200 2145.36070    1.68850
 5322.00000   18.99850   52.79020   51.97740   88.43790    8.98910  425.99100  404.90110    0.22800  397.48700   31.77160 2127.89470 2142.17050    1.69030
 5322.50000   17.19350   52.84940   51.64940   88.80310    8.98420  636.79620  544.67410    0.22810  523.70810   28.93960 2128.66750 2144.58590    1.69670
 5323.00000   15.61600   53.19250   52.37430   88.93210    8.97930  847.45360  774.52740    0.22820  806.65350   26.94310 2129.44020 2131.01550    1.68850
 5323.50000   15.24890   53.21880   52.02410   89.06110    8.97440  867.22390  831.92880    0.22830  830.99430   26.77470 2130.21300 2120.15920    1.68980
