~Version ---------------------------------------------------
VERS.   2.0 : CWLS log ASCII Standard -VERSION 2.0
WRAP.    NO : One line per depth step
DLM . SPACE : Column Data Section Delimiter
~Well ------------------------------------------------------
STRT .FT                1164.0 : START DEPTH
STOP .FT                9660.0 : STOP DEPTH
STEP .FT                   0.5 : STEP
NULL .                -9999.25 : NULL VALUE
COMP .                         : COMPANY
WELL .                         : WELL
FLD  .                         : FIELD
LOC  .                         : LOCATION
PROV .                         : PROVINCE
CNTY .                         : COUNTY
STAT .                         : STATE
CTRY .                         : COUNTRY
SRVC .                         : SERVICE COMPANY
DATE .                         : DATE
UWI  .                         : UNIQUE WELL ID
API  .                         : API NUMBER
SLAT .WGS84 2.9809693809138977 : SURFACE LATITUDE
SLON .WGS84  8.923250822309996 : SURFACE LONGITUDE
DATUM.F                3444.66 : DEPTH DATUM ELEV
~Curve Information -----------------------------------------
DEPT  .FT    : 
CGRS  .GAPI  : CORRECTED GAMMA RAY FROM SONIC LOG
DTCO  .US/F  : DELTA-T COMPRESSIONAL
DTCO_1.US/F  : DELTA-T COMPRESSIONAL
DTSM  .US/F  : DELTA-T SHEAR
HCALS .IN    : HRCC CALIPER CALIBRATED FROM SONIC LOG
HLLD  .OHMM  : HALS LATEROLOG DEEP RESISTIVITY
HLLS  .OHMM  : HALS LATEROLOG SHALLOW RESISTIVITY
PR    .N/A   : POISSON'S RATIO
RXOZ  .OHMM  : INVADED FORMATION RESISTIVITY FILTERED AT 18 INCHES
SGRS  .GAPI  : SPECTROSCOPY GAMMA RAY FROM SONIC LOG
TENR  .LB    : TENSION FROM RESISTIVITY LOG
TENS  .LB    : TENSION FROM SONIC LOG
VPVS  .VPVS  : COMPRESSIONAL TO SHEAR VELOCITY RATIO
~Params ----------------------------------------------------
~Other -----------------------------------------------------
~ASCII -----------------------------------------------------
# ...
 7456.00000   22.57520   58.81710   57.18370  102.90720    8.89390  311.42370  445.59150    0.26550  276.63800   50.37900 2662.26080 2661.52210    1.77220
 7456.50000   20.34900   58.97600   57.83570  103.46800    8.90020  353.52220  528.70720    0.26390  329.30080   44.68070 2663.31330 2662.15980    1.77580
 7457.00000   19.70360   59.33290   57.96660  103.51780    8.90660  302.21340  407.66320    0.26230  211.12750   43.48650 2657.20420 2662.79740    1.76550
 7457.50000   22.70920   59.80780   58.67210  103.86510    8.91290  257.67300  279.61510    0.26180  177.73520   46.49320 2656.35880 2660.67280    1.76140
 7458.00000   25.49200   60.40770   59.06810  105.40260    8.91920  252.33080  266.97150    0.26190  162.77590   50.22180 2655.51330 2665.08070    1.76920
 7458.50000   27.37980   61.04130   59.78070  106.94000    8.92560  340.57940  372.17780    0.26390  258.23300   52.01590 2659.12760 2664.46600    1.77700
 7459.00000   27.96680   61.79780   60.49330  108.25660    8.93190  287.78140  323.48210    0.26540  190.73870   52.70950 2665.25690 2658.60270    1.77720
 7459.50000   28.79570   62.16480   61.24180  108.89660    8.93820  186.70170  218.82160    0.26840  171.58830   53.51600 2662.30840 2652.73940    1.77870
 7460.00000   29.06940   61.92530   61.09910  109.63550    8.94460  161.91980  173.70560    0.27420  139.16730   55.75040 2651.34330 2646.87600    1.79900
 7460.50000   29.27080   61.53550   60.38590  110.17460    8.95090  201.63820  210.23500    0.28050  192.31930   56.55450 2626.80530 2641.01270    1.81620
 7461.00000   29.17160   61.40460   60.33420  110.14830    8.95720  236.20600  250.34570    0.28130  272.89910   54.23210 2626.80530 2635.14940    1.82150
 7461.50000   26.75870   61.60150   60.33740  109.90860    8.96360  233.24170  276.96710    0.27930  224.74730   51.13110 2626.80530 2629.28600    1.81240
 7462.00000   26.05600   61.63170   60.78650  109.76860    8.96990  145.89150  161.21440    0.27770  150.73340   50.52450 2626.80530 2626.25010    1.80740
 7462.50000   27.92520   61.25620   60.29190  109.38230    8.97620  108.42840  124.65710    0.27880   91.52530   56.91330 2626.80530 2627.45530    1.81450
 7463.00000   30.95800   60.90060   59.58110  109.35510    8.98260  112.24260  131.56130    0.28050  102.26120   63.53020 2626.80530 2631.40430    1.81680
 7463.50000   31.05070   60.90110   59.86790  109.51600    8.98890  118.94200  134.24320    0.28180   61.48760   64.21020 2626.80530 2646.32880    1.81440
 7464.00000   31.14350   61.24240   60.29320  109.80240    8.99520   91.30280  108.35350    0.28040   53.83640   63.32450 2626.80530 2650.52180    1.81210
 7464.50000   31.99950   61.51300   60.30430  110.08880    9.00150   71.61190   82.71020    0.27940   49.24060   65.46890 2626.80530 2655.41720    1.81020
 7465.00000   34.62250   61.97840   60.78440  110.80730    9.00790   74.31470   87.43040    0.28070   67.43300   71.23650 2637.55030 2655.86320    1.81310
 7465.50000   37.65660   62.85400   61.68300  111.93830    9.01420   83.32740   94.57920    0.28110   83.56330   74.72170 2636.98220 2656.30920    1.80950
 7466.00000   39.21630   63.15580   62.11630  112.50850    9.01930   92.34010   97.69570    0.28190   84.82050   76.35180 2602.08050 2656.75520    1.80470
 7466.50000   38.69000   62.37820   61.26860  112.22080    9.02950   93.20730  106.66250    0.28260  105.59200   72.72020 2617.61670 2657.20120    1.81590
 7467.00000   38.16380   61.70600   60.38150  112.17430    9.02960   82.30600   88.58030    0.28990   85.11530   65.97660 2626.31860 2657.64720    1.83900
 7467.50000   37.63750   61.72880   60.74740  111.82100    9.04990   69.39580   71.74680    0.28980   85.56480   59.42860 2635.02050 2658.09320    1.83750
 7468.00000   37.21970   61.88390   60.77230  111.80500    9.04750   69.08640   75.49160    0.28820   77.40780   57.41070 2622.53110 2645.42970    1.83370
 7468.50000   38.13330   61.94130   60.73520  111.78910    9.04340   90.75070  140.87180    0.28650   98.58250   58.65800 2622.53110 2642.90860    1.82800
 7469.00000   37.88920   61.66440   60.72920  111.01680    9.03930  162.12780  198.95470    0.28480  170.29780   58.52410 2621.82850 2642.41650    1.82430
 7469.50000   36.13440   61.22380   60.30950  110.95460    9.03520  186.34250  208.36890    0.28310  216.28960   54.20780 2636.80420 2650.04080    1.82070
 7470.00000   33.62430   61.62040   60.29330  110.89230    9.03100  110.38170  164.49100    0.28100   89.73450   51.53490 2651.77990 2657.66510    1.81600
 7470.50000   34.13210   62.05440   61.17010  111.26080    9.02690   63.91500   85.08170    0.28160   63.42320   55.50520 2654.53940 2651.94450    1.81960
 7471.00000   34.92550   62.17980   61.47700  112.86350    9.02280   85.89410   67.93570    0.28560   65.88960   64.96670 2646.10120 2642.88760    1.83780
 7471.50000   32.89590   62.41340   61.48610  114.36270    9.01860  129.39280  102.98190    0.28900   91.55830   66.66150 2639.35070 2637.49780    1.84960
 7472.00000   30.43870   62.77660   61.97420  114.33930    9.01450  138.09420  147.45750    0.29070   98.74230   62.55900 2639.35070 2646.77690    1.84410
 7472.50000   28.56910   63.56730   62.84220  114.11360    9.01040  125.56800  132.58020    0.28460   79.53620   57.96930 2640.94660 2646.05780    1.81980
 7473.00000   29.40170   64.28850   63.71030  115.17150    9.00700  116.43080  125.47700    0.27860   76.33050   58.10050 2665.58380 2659.19980    1.81390
 7473.50000   31.74240   64.71390   63.81110  116.60110    9.00640  118.62370  130.21800    0.27830  122.46560   62.14690 2676.56540 2664.45130    1.81750
 7474.00000   33.82730   64.83380   63.88540  116.15900    9.02830  122.49460  131.40460    0.27810  119.37320   64.94220 2676.11330 2661.64100    1.80580
 7474.50000   34.64330   64.12230   63.30910  112.37920    9.04330  122.49670  132.62480    0.26420  110.99150   66.33440 2658.51090 2651.25100    1.76460
 7475.00000   35.48110   63.06330   62.32360  106.74330    9.06010  127.10330  140.17480    0.23980  116.69880   65.89200 2644.17080 2640.86100    1.71720
 7475.50000   33.87300   62.57390   61.91210  103.65420    9.07470  161.03700  167.03250    0.22500  132.66680   62.22840 2642.88000 2630.47110    1.68670
 7476.00000   32.18600   62.32410   61.76390  101.44580    9.10430  161.51430  160.24260    0.20850  134.31140   59.37150 2625.86490 2623.88200    1.65480
 7476.50000   34.35160   62.19850   61.37760   99.24140    9.10380  130.90930  131.95230    0.19050  109.47500   63.39040 2628.33170 2624.18140    1.62030
 7477.00000   38.75980   62.37420   61.58600   98.09630    9.14340  100.30420  104.73350    0.17510  101.13280   69.94580 2633.41110 2627.76200    1.60680
 7477.50000   42.68580   62.95890   62.38600   99.34980    9.17650   90.77230   94.28100    0.17370  101.73980   74.83850 2638.49060 2631.34260    1.59520
 7478.00000   44.48040   64.12730   63.08170  100.61420    9.19850   90.77370   97.37640    0.16690  100.49410   77.64080 2643.57000 2634.92330    1.58080
 7478.50000   45.15290   65.55480   64.82730  101.40500    9.18750   83.60730   89.66580    0.15430   89.66170   78.10850 2648.64950 2638.50390    1.56560
 7479.00000   45.76250   66.98990   65.99140  101.42150    9.17150   81.63940   88.38920    0.14560   83.14700   78.49490 2671.48110 2653.39210    1.55240
 7479.50000   45.92320   66.72260   65.83520  101.43810    9.18200   87.48950  145.52980    0.14060  107.56770   75.83800 2687.79630 2664.50490    1.55260
 7480.00000   43.57840   65.62710   64.49630  101.17720    9.18670  177.01640  226.52630    0.15280  193.11570   67.20350 2658.96800 2649.20830    1.56470
 7480.50000   39.39210   65.44340   65.01390  102.38000    9.20890  221.10140  242.71910    0.16020  261.08530   55.52300 2630.13960 2633.91170    1.57800
 7481.00000   37.36180   66.42000   65.95970  105.23840    9.23120  131.54770  160.35810    0.16840  154.52090   53.30460 2607.09600 2618.61520    1.59040
 7481.50000   37.48620   66.99420   66.49830  108.19870    9.25350   74.11420   81.33360    0.18580   95.06260   58.61500 2611.57520 2626.05390    1.61120
