~Version ---------------------------------------------------
VERS.   2.0 : CWLS log ASCII Standard -VERSION 2.0
WRAP.    NO : One line per depth step
DLM . SPACE : Column Data Section Delimiter
~Well ------------------------------------------------------
STRT .FT                1164.0 : START DEPTH
STOP .FT                9660.0 : STOP DEPTH
STEP .FT                   0.5 : STEP
NULL .                -9999.25 : NULL VALUE
COMP .                         : COMPANY
WELL .                         : WELL
FLD  .                         : FIELD
LOC  .                         : LOCATION
PROV .                         : PROVINCE
CNTY .                         : COUNTY
STAT .                         : STATE
CTRY .                         : COUNTRY
SRVC .                         : SERVICE COMPANY
DATE .                         : DATE
UWI  .                         : UNIQUE WELL ID
API  .                         : API NUMBER
SLAT .WGS84 2.9809693809138977 : SURFACE LATITUDE
SLON .WGS84  8.923250822309996 : SURFACE LONGITUDE
DATUM.F                3444.66 : DEPTH DATUM ELEV
~Curve Information -----------------------------------------
DEPT  .FT    : 
CGRS  .GAPI  : CORRECTED GAMMA RAY FROM SONIC LOG
DTCO  .US/F  : DELTA-T COMPRESSIONAL
DTCO_1.US/F  : DELTA-T COMPRESSIONAL
DTSM  .US/F  : DELTA-T SHEAR
HCALS .IN    : HRCC CALIPER CALIBRATED FROM SONIC LOG
HLLD  .OHMM  : HALS LATEROLOG DEEP RESISTIVITY
HLLS  .OHMM  : HALS LATEROLOG SHALLOW RESISTIVITY
PR    .N/A   : POISSON'S RATIO
RXOZ  .OHMM  : INVADED FORMATION RESISTIVITY FILTERED AT 18 INCHES
SGRS  .GAPI  : SPECTROSCOPY GAMMA RAY FROM SONIC LOG
TENR  .LB    : TENSION FROM RESISTIVITY LOG
TENS  .LB    : TENSION FROM SONIC LOG
VPVS  .VPVS  : COMPRESSIONAL TO SHEAR VELOCITY RATIO
~Params ----------------------------------------------------
~Other -----------------------------------------------------
~ASCII -----------------------------------------------------
# ...
 9614.00000   -9999.25   77.68830   77.04820  111.38690    9.81520   11.78000   14.53090    0.03620    1.12270   -9999.25 3239.52720 3243.64270    1.43880
 9614.50000   -9999.25   78.28390   77.22440  112.17720    9.90540   13.12440   15.62720    0.03820    1.10400   -9999.25 3252.16640 3238.30990    1.43880
 9615.00000   -9999.25   79.10840   77.86640  112.96760    9.36840   15.00070   16.72360    0.04700    0.96090   -9999.25 3240.79450 3215.64850    1.45210
 9615.50000   -9999.25   78.30710   77.35900  113.75790    9.97500   15.85200   17.81990    0.06300    0.95680   -9999.25 3199.57580 3206.04700    1.46550
 9616.00000   -9999.25   77.88400   76.82200  115.07080    9.96460   16.59720   19.32870    0.08380    0.94700   -9999.25 3216.95920 3229.90800    1.48420
 9616.50000   -9999.25   78.56690   77.30530  116.13220    8.64620   19.68430   20.72970    0.08530    0.87790   -9999.25 3234.34250 3249.07350    1.48950
 9617.00000   -9999.25   79.16040   77.98610  116.35190    8.95570   18.78180   21.18860    0.07700    0.75100   -9999.25 3241.29590 3242.75310    1.48550
 9617.50000   -9999.25   80.78490   79.41810  116.37210    9.48380   15.26360   17.16260    0.06630    0.73240   -9999.25 3241.29590 3234.75580    1.47570
 9618.00000   -9999.25   82.97530   81.72550  116.43470    9.65110   15.18960   16.35440    0.05820    0.82690   -9999.25 3241.29590 3229.95740    1.46580
 9618.50000   -9999.25   84.37700   83.32370  117.49250    9.78150   15.18650   17.28200    0.04870    1.17640   -9999.25 3241.29590 3229.95740    1.45590
 9619.00000   -9999.25   84.08600   82.82130  117.60800    9.41900   15.71880   18.52300    0.03930    1.87820   -9999.25 3241.29590 3229.95740    1.44610
 9619.50000   -9999.25   80.91900   80.42440  113.71380    8.72440   18.01790   19.92140    0.02980    3.22270   -9999.25 3241.29590 3229.95740    1.43620
 9620.00000   -9999.25   76.40790   76.09530  107.30630    8.66470   20.39210   21.31990    0.02030    5.31480   -9999.25 3241.29590 3229.95740    1.42640
 9620.50000   -9999.25   73.31100   72.51240  103.88510    8.58950   21.65300   22.67670    0.01090    9.32050   -9999.25 3209.76830 3224.00900    1.41650
 9621.00000   -9999.25   70.99750   69.76660  100.31470    8.59140   22.26200   23.63950    0.01040    8.22040   -9999.25 3186.55990 3204.27460    1.41940
 9621.50000   -9999.25   71.34340   70.14690   99.88790    8.59570   21.85570   23.31550    0.01090    9.31830   -9999.25 3172.31130 3194.41720    1.43050
 9622.00000   -9999.25   73.33310   72.27070  102.51060    8.60870   20.19040   21.95550    0.01440   14.98420   -9999.25 3179.90300 3203.94920    1.43040
 9622.50000   -9999.25   76.68230   75.22300  107.21540    8.64310   18.52520   19.88440    0.02310    8.54940   -9999.25 3187.49470 3213.48120    1.43720
 9623.00000   -9999.25   80.00150   78.27930  111.92020    8.67750   16.49350   17.81320    0.03890    3.31500   -9999.25 3188.41790 3221.30780    1.43960
 9623.50000   -9999.25   82.60420   80.98080  113.43370    8.77870   14.55260   16.04380    0.05470    1.51740   -9999.25 3184.89530 3214.68960    1.44200
 9624.00000   -9999.25   83.46900   82.17010  112.84470    9.01520   13.71300   15.75070    0.07050    1.57680   -9999.25 3181.37270 3190.86090    1.44440
 9624.50000   -9999.25   81.48430   81.15200  109.46070    9.26890   15.81820   18.98740    0.08630    2.12150   -9999.25 3169.70050 3172.95570    1.44680
 9625.00000   -9999.25   78.29000   78.01490  105.50470    8.95560   18.94650   21.26530    0.10040    4.18220   -9999.25 3146.49130 3155.05060    1.44920
 9625.50000   -9999.25   75.30140   74.88930  102.74760    8.85050   23.34170   26.78920    0.10520   -9999.25   -9999.25 3153.01430 3170.06990    1.45150
 9626.00000   -9999.25   74.27460   73.38860  102.63060    8.56840   25.34580   27.92740    0.10590   -9999.25   -9999.25 3161.36960 3188.74730    1.45390
 9626.50000   -9999.25   73.72480   72.57700  103.73030    8.55800   23.94320   28.58120    0.10590   -9999.25   -9999.25 3176.87730 3206.62670    1.45630
 9627.00000   -9999.25   73.85090   72.88000  104.82990    8.63300   23.54270   27.16710    0.09300   -9999.25   -9999.25 3168.42430 3190.18130    1.45870
 9627.50000   -9999.25   75.69610   74.54340  105.49600    8.63770   16.49820   21.49730    0.07400   -9999.25   -9999.25 3159.97120 3177.10040    1.46110
 9628.00000   -9999.25   78.05000   76.78200  107.51580    8.65170   16.34700   17.84680    0.05500   -9999.25   -9999.25 3168.66210 3197.60780    1.46350
 9628.50000   -9999.25   79.71870   79.09230  109.88930    8.65730   16.42340   17.93000    0.03590   -9999.25   -9999.25 3177.35310 3218.11530    1.46590
 9629.00000   -9999.25   80.78120   79.83370  110.28960    8.65730   16.49970   18.26500    0.02780   -9999.25   -9999.25 3187.59300 3212.41990    1.46830
 9629.50000   -9999.25   80.83610   79.97350  109.83450    8.66330   16.61500   18.77890    0.02880   -9999.25   -9999.25 3166.87140 3202.67080    1.47070
 9630.00000   -9999.25   80.33120   79.80960  109.70520    8.64440   17.04300   19.39670    0.03760   -9999.25   -9999.25 3138.56810 3179.04680    1.47310
 9630.50000   -9999.25   78.43330   78.19700  107.34180    8.64760   17.85570   20.41620    0.04630   -9999.25   -9999.25 3152.68900 3190.61100    1.47550
 9631.00000   -9999.25   75.34940   75.54240  105.27340    8.64900   19.00540   21.34030    0.05500   -9999.25   -9999.25 3166.81000 3199.93970    1.47780
 9631.50000   -9999.25   73.42640   73.07920  104.18420    8.65170   20.05650   22.20280    0.06370   -9999.25   -9999.25 3162.04690 3192.27760    1.48020
 9632.00000   -9999.25   72.07780   72.16130  103.09500    8.64620   23.15330   23.26180    0.07240   -9999.25   -9999.25 3152.56280 3182.60330    1.48260
 9632.50000   -9999.25   72.56570   72.29770  102.03270    8.64080   27.22530   28.12140    0.08120   -9999.25   -9999.25 3159.20770 3200.61230    1.48500
 9633.00000   -9999.25   74.99310   74.20010  103.50500    8.65350   23.61290   23.58990    0.08420   -9999.25   -9999.25 3179.96530 3210.89020    1.48740
 9633.50000   -9999.25   78.40780   77.52860  106.89580    8.65320   12.25550   16.89010    0.08470   -9999.25   -9999.25 3199.13380 3221.16810    1.48980
 9634.00000   -9999.25   80.86340   80.11450  111.76210    8.63840   12.31760   13.88860    0.08770   -9999.25   -9999.25 3199.85540 3231.44600    1.49220
 9634.50000   -9999.25   81.29220   81.13380  115.80450    8.64130   13.95810   14.68620    0.08910   -9999.25   -9999.25 3208.85210 3241.72390    1.49460
 9635.00000   -9999.25   80.85860   80.76810  118.39080    8.64490   14.35580   14.75990    0.09020   -9999.25   -9999.25 3214.25020 3242.33340    1.49650
 9635.50000   -9999.25   81.02360   80.76810  120.97720    8.64840   -9999.25   -9999.25    0.09720   -9999.25   -9999.25 3214.25020 3242.94280    1.50410
 9636.00000   -9999.25   82.30480   81.20480  122.36020    8.64480   -9999.25   -9999.25    0.10060   -9999.25   -9999.25 3214.25020 3243.55220    1.50490
 9636.50000   -9999.25   82.62840   82.10220  123.22500    8.64600   -9999.25   -9999.25    0.09030   -9999.25   -9999.25 3214.25020 3244.16160    1.49160
 9637.00000   -9999.25   82.55050   82.12630  121.41140    8.64420   -9999.25   -9999.25    0.06040   -9999.25   -9999.25 3214.25020 3244.77110    1.48430
 9637.50000   -9999.25   81.13420   81.04680  119.67190    8.65010   -9999.25   -9999.25    0.06580   -9999.25   -9999.25 3214.25020 3249.56140    1.48980
 9638.00000   -9999.25   79.54320   78.93260  119.29270    8.64260   -9999.25   -9999.25    0.09250   -9999.25   -9999.25 3214.25020 3255.39700    1.51530
 9638.50000   -9999.25   77.88150   77.72080  120.09280    8.63340   -9999.25   -9999.25    0.14360   -9999.25   -9999.25 3226.72710 3272.53370    1.55550
 9639.00000   -9999.25   76.53790   76.52330  120.46920    8.62420   -9999.25   -9999.25    0.15910   -9999.25   -9999.25 3267.64580 3306.62190    1.57910
 9639.50000   -9999.25   75.69720   75.43020  119.84180    8.61970   -9999.25   -9999.25    0.16500   -9999.25   -9999.25 3300.50010 3352.27230    1.58150
