~Version ---------------------------------------------------
VERS.   2.0 : CWLS log ASCII Standard -VERSION 2.0
WRAP.    NO : One line per depth step
DLM . SPACE : Column Data Section Delimiter
~Well ------------------------------------------------------
STRT .FT                1164.0 : START DEPTH
STOP .FT                9660.0 : STOP DEPTH
STEP .FT                   0.5 : STEP
NULL .                -9999.25 : NULL VALUE
COMP .                         : COMPANY
WELL .                         : WELL
FLD  .                         : FIELD
LOC  .                         : LOCATION
PROV .                         : PROVINCE
CNTY .                         : COUNTY
STAT .                         : STATE
CTRY .                         : COUNTRY
SRVC .                         : SERVICE COMPANY
DATE .                         : DATE
UWI  .                         : UNIQUE WELL ID
API  .                         : API NUMBER
SLAT .WGS84 2.9809693809138977 : SURFACE LATITUDE
SLON .WGS84  8.923250822309996 : SURFACE LONGITUDE
DATUM.F                3444.66 : DEPTH DATUM ELEV
~Curve Information -----------------------------------------
DEPT  .FT    : 
CGRS  .GAPI  : CORRECTED GAMMA RAY FROM SONIC LOG
DTCO  .US/F  : DELTA-T COMPRESSIONAL
DTCO_1.US/F  : DELTA-T COMPRESSIONAL
DTSM  .US/F  : DELTA-T SHEAR
HCALS .IN    : HRCC CALIPER CALIBRATED FROM SONIC LOG
HLLD  .OHMM  : HALS LATEROLOG DEEP RESISTIVITY
HLLS  .OHMM  : HALS LATEROLOG SHALLOW RESISTIVITY
PR    .N/A   : POISSON'S RATIO
RXOZ  .OHMM  : INVADED FORMATION RESISTIVITY FILTERED AT 18 INCHES
SGRS  .GAPI  : SPECTROSCOPY GAMMA RAY FROM SONIC LOG
TENR  .LB    : TENSION FROM RESISTIVITY LOG
TENS  .LB    : TENSION FROM SONIC LOG
VPVS  .VPVS  : COMPRESSIONAL TO SHEAR VELOCITY RATIO
~Params ----------------------------------------------------
~Other -----------------------------------------------------
~ASCII -----------------------------------------------------
# ...
 3686.00000   13.34670   48.64970   47.59670   88.98700   10.80570   84.94710   73.40850    0.29230   71.52060   44.51850 1677.18520 1701.67350    1.85400
 3686.50000   16.58040   49.65600   48.37830   89.79310   10.80570   80.29540   69.40440    0.27880   50.73880   48.34850 1686.34970 1712.13280    1.81800
 3687.00000   15.78660   50.61230   49.30780   90.59910   10.80560   75.07260   69.08910    0.27340   38.86320   47.27560 1695.51420 1722.59210    1.79190
 3687.50000   11.81810   50.84900   49.87190   91.57450   10.81900   94.40930   83.15140    0.27970   49.22010   41.77800 1690.01620 1719.52780    1.81560
 3688.00000    9.23570   50.31220   49.38780   91.88230   10.85920  118.14560  115.08320    0.29020  113.87680   38.28270 1680.85290 1701.40160    1.84130
 3688.50000    9.63800   49.67930   48.56970   91.87560   10.90710  128.23360  140.63000    0.29520  214.63290   39.39470 1689.38660 1706.68520    1.85010
 3689.00000   11.31470   49.62020   48.33510   91.86880   10.96650  107.39900  124.28610    0.29640  183.57930   42.06300 1682.37140 1706.68520    1.85660
 3689.50000   12.99130   49.57880   48.29580   90.91380   10.99330   90.31480  100.26270    0.29550  166.43500   47.01630 1675.35610 1706.68520    1.86000
 3690.00000   15.47620   49.13430   48.25650   89.33240   11.00670   97.67200   87.04770    0.29470  146.13780   57.02630 1696.24950 1722.25290    1.85080
 3690.50000   17.89710   48.46220   47.17180   88.66900   11.00820  109.93060  104.18210    0.29680  147.34210   60.71760 1720.60460 1748.15000    1.85430
 3691.00000   17.30490   47.71910   46.50840   87.86530   10.98290  122.18930  130.03830    0.29880  143.54520   56.01450 1731.02300 1757.81750    1.86650
 3691.50000   14.91650   46.80390   45.70450   86.45650   10.95760  134.44800  150.72270    0.30080  153.62980   42.34870 1710.45590 1730.56370    1.87590
 3692.00000   12.52800   45.85950   45.12130   85.92740   10.89190  141.29220  148.13710    0.30250  163.86420   33.33780 1694.00230 1708.34070    1.88040
 3692.50000   10.59500   45.37930   44.49820   85.69000   10.89080  133.68000  138.68850    0.30430  148.37550   28.66490 1694.00230 1707.61390    1.88680
 3693.00000    9.72060   45.84460   44.89870   85.45250   10.87750  126.06780  128.53960    0.30540  141.07780   27.87190 1694.00230 1706.88720    1.89060
 3693.50000    9.75090   46.92910   45.87650   87.04360   10.84750  117.13850  116.86940    0.30180  143.44840   27.30240 1694.00230 1712.94710    1.88010
 3694.00000    9.81030   48.00470   46.64440   88.16100   10.83170  101.75040  105.19920    0.29550   74.81740   26.32820 1694.00230 1712.94710    1.86980
 3694.50000   11.74350   48.94280   47.86420   89.91680   10.81590   86.36220   93.52900    0.29430   43.91930   28.88590 1690.33930 1706.47230    1.85960
 3695.00000   15.96370   49.38710   48.43010   90.57500   10.78690   74.05140   81.85880    0.29310   42.86270   32.98420 1682.17890 1697.18580    1.84930
 3695.50000   16.52750   48.51040   47.49770   88.51980   10.72740   74.39210   78.65440    0.29210   75.72590   34.18640 1674.01850 1687.89920    1.85080
 3696.00000   16.64820   47.23800   46.50460   87.62900   10.69730   78.07190   81.09410    0.29690  121.67100   34.20040 1670.75440 1682.32730    1.87060
 3696.50000   17.97920   46.58480   45.69110   87.92310   10.63100   95.44330   94.23550    0.30550  135.21480   36.98970 1670.75440 1682.32730    1.89610
 3697.00000   21.53230   46.49400   45.66840   87.87100   10.64770  131.97190  110.05230    0.30540  122.12320   42.01760 1666.59630 1675.46180    1.90950
 3697.50000   25.67330   46.42740   45.64570   86.66450   10.66450  168.50040  141.92920    0.30530  131.65620   47.25100 1658.43620 1664.21520    1.89930
 3698.00000   25.28540   45.84560   44.81460   85.17710   10.67400  205.02890  184.51280    0.30380  181.28750   46.81950 1650.27600 1652.96860    1.88970
 3698.50000   18.62040   45.13540   44.07950   83.92890   10.66970  241.55740  227.09640    0.30480  284.01440   41.08940 1652.74430 1652.96860    1.89060
 3699.00000   11.79670   44.94840   44.27360   83.69560   10.65940  256.16640  254.20640    0.30380  378.18140   34.28940 1659.71360 1652.96860    1.88300
 3699.50000    8.94760   46.03750   45.24730   85.18110   10.68600  239.17590  228.86730    0.30070  353.39900   29.03330 1671.42690 1671.66280    1.87020
 3700.00000    7.90420   48.06680   46.73300   87.08530   10.70760  171.84390  187.29290    0.29560  213.43840   26.51950 1702.11590 1694.07700    1.85750
 3700.50000    8.61990   48.76460   47.91730   88.85510   10.64030  111.59090  145.71850    0.28870  103.34000   25.93290 1708.56220 1710.46370    1.83850
 3701.00000    8.63200   49.81460   48.94210   89.80220   10.59630   79.65390  104.14410    0.28230   99.56880   25.80070 1698.84660 1702.74030    1.81880
 3701.50000    8.22780   49.94760   48.84270   89.95420   10.64600   59.59140   85.67250    0.28200   97.75120   24.78930 1689.13110 1695.01690    1.81910
 3702.00000   10.41390   49.44290   48.63830   89.39940   10.65800   52.92420   67.20090    0.28240  158.83410   25.87950 1685.24490 1690.89900    1.82010
 3702.50000   13.74520   49.09700   48.16770   88.41710   10.64590   41.58200   55.34670    0.28230   58.76500   32.80880 1685.24490 1689.18480    1.82020
 3703.00000   18.30720   48.98880   48.04990   87.72400   10.59230   43.05320   55.08730    0.28220   60.20250   40.79200 1685.24490 1687.47060    1.81910
 3703.50000   19.98500   49.21100   48.35330   86.68660   10.33740  111.35980  153.90380    0.27700   65.82030   43.54180 1685.24490 1685.75640    1.80540
 3704.00000   20.14750   49.54420   48.74010   85.64920   10.00200  271.48290  252.72040    0.26450  307.18170   43.07480 1689.66650 1684.95600    1.78790
 3704.50000   19.27990   49.33690   48.49810   84.46700    9.91700  262.59020  292.21860    0.25200  284.84050   40.31250 1712.87870 1714.82880    1.76400
 3705.00000   18.51290   48.67290   47.86510   83.45410    9.91140  205.77360  249.42650    0.24940  227.30970   36.11960 1736.09090 1738.31130    1.74020
 3705.50000   17.75580   48.63610   47.66740   83.59600    9.92150  148.95700  197.66040    0.24940  169.77900   32.86420 1745.37570 1768.67650    1.73800
 3706.00000   16.17610   48.29930   47.09650   83.84460    9.97510  120.89930  145.89430    0.25760  154.68140   29.06540 1745.37570 1809.36570    1.76020
 3706.50000   14.18680   47.61840   46.54970   84.39160   10.01530  114.04870  102.57820    0.27150  131.52500   25.36340 1745.24530 1748.14530    1.79090
 3707.00000   11.98050   47.31790   46.45180   85.13640   10.03560  111.46670  100.22340    0.28140  133.69070   22.63900 1714.95410 1722.67390    1.81990
 3707.50000   11.41330   47.61240   46.61310   85.94580   10.04330  108.88470  102.55340    0.28450  148.10840   21.70900 1684.66290 1697.20240    1.82410
 3708.00000   12.17300   47.58180   46.47630   85.61990   10.05110  108.35820  104.93870    0.28700  156.34160   23.10950 1690.66060 1702.18040    1.81920
 3708.50000   13.02840   46.95050   45.99610   86.19660   10.05880  111.89250  107.34990    0.29490  142.92690   25.05900 1700.69050 1718.96360    1.84910
 3709.00000   12.36420   46.54420   45.57780   87.86750   10.03900  111.87710  104.01810    0.30620  128.99580   25.19480 1723.22700 1730.84240    1.90440
 3709.50000   11.70000   46.92890   45.80870   89.53840    9.99670  103.39170   96.94300    0.30960  111.87460   23.90170 1721.22710 1723.10380    1.91430
 3710.00000   12.57580   47.21070   46.41670   88.77770    9.94090   94.07070   89.86790    0.30640  109.17760   25.45560 1704.58250 1715.36520    1.89600
 3710.50000   14.73630   47.02900   46.17810   87.80620    9.94350   91.84060   87.70480    0.30320  100.61100   29.65630 1737.69720 1712.26980    1.88320
 3711.00000   15.71710   46.60470   45.71500   87.33140    9.95040   93.63250   94.25640    0.30400   95.28620   35.69250 1729.16340 1712.26980    1.88380
 3711.50000   16.69780   45.87930   45.02660   87.21060    9.95740  102.92960  105.12350    0.31130  106.61270   41.78050 1720.62960 1708.28610    1.91520
