~Version ---------------------------------------------------
VERS.   2.0 : CWLS log ASCII Standard -VERSION 2.0
WRAP.    NO : One line per depth step
DLM . SPACE : Column Data Section Delimiter
~Well ------------------------------------------------------
STRT .FT                1164.0 : START DEPTH
STOP .FT                9660.0 : STOP DEPTH
STEP .FT                   0.5 : STEP
NULL .                -9999.25 : NULL VALUE
COMP .                         : COMPANY
WELL .                         : WELL
FLD  .                         : FIELD
LOC  .                         : LOCATION
PROV .                         : PROVINCE
CNTY .                         : COUNTY
STAT .                         : STATE
CTRY .                         : COUNTRY
SRVC .                         : SERVICE COMPANY
DATE .                         : DATE
UWI  .                         : UNIQUE WELL ID
API  .                         : API NUMBER
SLAT .WGS84 2.9809693809138977 : SURFACE LATITUDE
SLON .WGS84  8.923250822309996 : SURFACE LONGITUDE
DATUM.F                3444.66 : DEPTH DATUM ELEV
~Curve Information -----------------------------------------
DEPT  .FT    : 
CGRS  .GAPI  : CORRECTED GAMMA RAY FROM SONIC LOG
DTCO  .US/F  : DELTA-T COMPRESSIONAL
DTCO_1.US/F  : DELTA-T COMPRESSIONAL
DTSM  .US/F  : DELTA-T SHEAR
HCALS .IN    : HRCC CALIPER CALIBRATED FROM SONIC LOG
HLLD  .OHMM  : HALS LATEROLOG DEEP RESISTIVITY
HLLS  .OHMM  : HALS LATEROLOG SHALLOW RESISTIVITY
PR    .N/A   : POISSON'S RATIO
RXOZ  .OHMM  : INVADED FORMATION RESISTIVITY FILTERED AT 18 INCHES
SGRS  .GAPI  : SPECTROSCOPY GAMMA RAY FROM SONIC LOG
TENR  .LB    : TENSION FROM RESISTIVITY LOG
TENS  .LB    : TENSION FROM SONIC LOG
VPVS  .VPVS  : COMPRESSIONAL TO SHEAR VELOCITY RATIO
~Params ----------------------------------------------------
~Other -----------------------------------------------------
~ASCII -----------------------------------------------------
# ...
 5844.00000   14.76950   45.67360   45.04790   81.77060    9.37380 1280.21270  887.33010    0.27680  808.92080   39.43760 2177.46380 2170.39240    1.80770
 5844.50000   17.00530   45.20350   44.44970   81.43590    9.38910 1157.92350  726.22390    0.27900  562.11840   42.32270 2182.55830 2179.67760    1.81050
 5845.00000   17.79490   44.79780   44.11800   81.95200    9.37240  689.27140  521.72790    0.28550  303.72170   43.77410 2179.47200 2178.55110    1.82670
 5845.50000   16.91940   45.38580   44.51860   82.28800    9.37000  673.47280  498.64720    0.28760  316.45870   42.41490 2176.38570 2174.82150    1.84290
 5846.00000   16.04400   45.73340   44.85250   82.62400    9.36770  948.92970  537.44990    0.28800  329.38940   40.87380 2164.67730 2171.09200    1.83780
 5846.50000   15.36310   45.76230   45.04720   82.95990    9.34910 1233.56730  781.34200    0.28710  501.03660   40.41670 2157.99580 2167.36250    1.83810
 5847.00000   15.84360   45.38560   44.83800   82.72920    9.34670 1315.98590 1004.10090    0.28880  647.71420   41.19920 2154.65770 2163.63290    1.84260
 5847.50000   15.41080   44.93960   44.38180   82.79470    9.33690 1645.36750 1143.16040    0.29200  900.96440   39.37570 2151.58860 2153.17070    1.85300
 5848.00000   13.97950   45.35530   44.30740   82.85670    9.33940 1958.28440 1696.02950    0.29230 1149.43240   34.48840 2148.51950 2138.22010    1.85530
 5848.50000   11.79980   45.60200   45.04940   83.19470    9.32840 2863.22120 2276.56750    0.29250 1335.77050   29.62560 2157.15690 2160.18780    1.84350
 5849.00000   11.32310   45.68840   45.04940   84.09020    9.31740 2620.40910 2112.23110    0.29470 1777.61240   28.70020 2160.85910 2161.38050    1.85660
 5849.50000   12.80720   45.60910   44.89730   84.55510    9.30630 2322.20220 1990.53220    0.30060 1603.10340   30.21370 2166.71640 2162.57310    1.87710
 5850.00000   14.23640   46.05440   45.38810   84.95910    9.30410 1982.57990 1699.93760    0.29940  872.91010   32.65360 2181.19410 2171.93120    1.86180
 5850.50000   16.51020   46.87100   46.12930   85.36300    9.30410 1554.14910 1329.03270    0.29040  491.51700   34.28550 2195.67180 2183.33070    1.83870
 5851.00000   17.76480   47.23720   46.60090   84.83460    9.30630 1511.66780 1307.21010    0.28410  420.50910   35.50110 2199.13260 2194.73020    1.82350
 5851.50000   18.92010   46.44760   45.85180   83.96240    9.34900 1490.89600 1329.14070    0.28680  377.73620   36.69960 2202.59330 2206.12970    1.83870
 5852.00000   19.49690   45.51200   44.49360   83.09030    9.39170 1242.79270 1007.90990    0.29290  391.04910   37.84030 2203.40660 2215.24930    1.85310
 5852.50000   19.49700   44.81500   44.06660   81.93130    9.37120 1030.07720  969.66140    0.29430  447.91080   38.45090 2202.45510 2215.24930    1.85510
 5853.00000   19.60900   44.13550   43.23450   81.11650    9.36030 1589.60170 1315.65310    0.29780  766.46580   38.12110 2201.50360 2215.24930    1.86040
 5853.50000   19.74900   43.90940   43.03820   81.60570    9.36030 2032.28950 2001.95980    0.30120 1952.05890   37.42080 2211.54400 2220.70070    1.87590
 5854.00000   21.15770   44.39700   43.66970   82.68590    9.36030 2701.82610 2021.43140    0.30370 1970.45000   39.17210 2228.61320 2229.83550    1.88540
 5854.50000   23.98700   44.66990   43.83950   83.88490    9.36030 2031.28570 2044.64660    0.30600  650.12300   46.15770 2226.86570 2235.31280    1.89420
 5855.00000   27.16360   45.07230   44.24030   84.68330    9.36020   89.41780   79.15630    0.30830   42.54380   57.69370 2209.32590 2226.55310    1.90380
 5855.50000   28.02100   45.70020   44.93300   86.15860    9.36020   88.60870   79.17260    0.30970   38.80110   63.66710 2196.60640 2217.79340    1.89540
 5856.00000   24.82990   46.17940   45.54140   86.47670    9.36020  199.69770  113.91250    0.30630   67.55330   58.25650 2191.11720 2209.03370    1.88690
 5856.50000   19.81130   46.39960   45.47070   85.65580    9.36020 1257.78720  980.94090    0.29860  193.78780   50.41290 2185.62810 2200.27400    1.87440
 5857.00000   14.79280   46.64700   45.82940   84.66000    9.37830 1905.14710 1564.59380    0.29030  765.47820   44.64240 2180.13890 2195.63540    1.84770
 5857.50000   11.32630   46.39820   45.45890   83.66410    9.37360 2886.35450 1936.79430    0.28380 1154.48520   43.37580 2174.64980 2197.17850    1.82770
 5858.00000   11.19930   45.38330   44.61530   82.66820    9.36180 3703.63970 3288.30580    0.29080 1881.44920   43.91470 2170.77240 2198.72160    1.84860
 5858.50000   11.40400   44.90410   44.23540   82.60830    9.35000 2533.90240 1978.15340    0.29810 1642.87300   44.77450 2185.54100 2205.45300    1.86760
 5859.00000   12.34050   45.06990   44.23480   82.30000    9.33810 1461.58350 1198.51890    0.29520 1075.23650   47.86890 2200.30950 2213.48150    1.85750
 5859.50000   13.56050   44.25140   43.43060   81.04770    9.34050  873.02550  659.08880    0.29480  609.76700   50.30410 2203.26320 2219.08210    1.86100
 5860.00000   14.50160   43.78790   41.87370   80.12580    9.33820 1087.27060  841.63050    0.29500  640.61880   51.90500 2203.26320 2224.07560    1.84680
 5860.50000   13.98140   44.79750   42.72610   79.56360    9.33660 1735.92250 1493.79020    0.29180 1083.78530   51.35240 2188.88190 2215.81320    1.83250
 5861.00000   13.36100   45.16780   43.47400   80.56100    9.32260 1974.80930 1485.58570    0.28600 1308.51580   50.84630 2188.99090 2216.16020    1.82670
 5861.50000   13.00830   44.83970   42.87440   80.80050    9.30860 1582.71090 1174.00910    0.28800 1162.62550   51.63750 2195.61060 2216.50720    1.84960
 5862.00000   16.40800   44.88090   42.98440   80.79270    9.29460 1044.95780  820.28450    0.29090  670.36350   58.68590 2187.79170 2216.85420    1.85320
 5862.50000   19.52700   44.78800   43.05540   81.27380    9.29180  606.29980  537.30620    0.29440  368.14950   63.02740 2179.97290 2217.20120    1.85390
 5863.00000   24.10110   44.48710   42.72250   81.36760    9.29120  759.56830  629.75650    0.29800  416.39640   64.97730 2190.42560 2217.54820    1.87150
 5863.50000   24.01200   44.30910   42.58780   81.46140    9.28740  988.38140  843.56320    0.30150  584.20890   64.36260 2180.66980 2217.89520    1.88490
 5864.00000   22.74530   44.43230   42.36960   81.73380    9.29330 1125.67870 1025.89090    0.30510  536.18080   62.26890 2172.86510 2218.24220    1.89160
 5864.50000   20.96170   44.81100   42.61980   82.18880    9.29910 1026.40270  976.53500    0.30510  544.85420   58.82630 2172.86510 2211.15030    1.88660
 5865.00000   17.68690   44.94300   43.11880   82.43110    9.30500 1332.91770 1020.27780    0.30320  874.64490   51.83600 2181.20050 2221.63780    1.88450
 5865.50000   13.08020   44.88310   43.11540   82.27560    9.32280 1451.17060 1322.94960    0.30220 1157.56790   47.41100 2186.36390 2217.64010    1.88310
 5866.00000   11.47420   44.61340   42.91040   81.79390    9.32280 1298.97630 1281.67630    0.30200  926.77050   46.02210 2191.52730 2233.53950    1.88160
 5866.50000   10.82080   44.08320   42.62420   80.94150    9.32340 1390.89080 1204.33700    0.30250  960.21340   44.80410 2189.90930 2226.11570    1.88280
 5867.00000   10.39830   43.58890   41.92500   80.49230    9.32080 1605.99350 1367.61300    0.30450 1143.53370   43.60940 2182.70140 2218.71320    1.89420
 5867.50000   10.08140   43.61430   41.92800   80.39960    9.32520 1821.09620 1561.63350    0.30450 1302.14630   43.04180 2184.10760 2211.31070    1.89360
 5868.00000    9.87180   43.62890   41.77120   80.49840    9.32960 1995.70560 1668.75970    0.30700 1236.39780   42.94290 2173.48870 2209.83020    1.90070
 5868.50000    9.87180   43.95950   41.91100   80.93910    9.33070 2645.28290 1820.76750    0.30750 1557.57160   42.84790 2165.11040 2209.83020    1.89630
 5869.00000    9.60480   44.68150   42.60260   81.41480    9.34660 3150.22470 2813.66870    0.30600 1475.04150   45.40920 2174.85550 2209.83020    1.87940
 5869.50000   13.67450   44.58820   42.57190   81.89050    9.35070 2529.46030 2030.96570    0.30350  849.05580   52.51190 2184.60050 2209.83020    1.89260
