~Version ---------------------------------------------------
VERS.   2.0 : CWLS log ASCII Standard -VERSION 2.0
WRAP.    NO : One line per depth step
DLM . SPACE : Column Data Section Delimiter
~Well ------------------------------------------------------
STRT .FT                1164.0 : START DEPTH
STOP .FT                9660.0 : STOP DEPTH
STEP .FT                   0.5 : STEP
NULL .                -9999.25 : NULL VALUE
COMP .                         : COMPANY
WELL .                         : WELL
FLD  .                         : FIELD
LOC  .                         : LOCATION
PROV .                         : PROVINCE
CNTY .                         : COUNTY
STAT .                         : STATE
CTRY .                         : COUNTRY
SRVC .                         : SERVICE COMPANY
DATE .                         : DATE
UWI  .                         : UNIQUE WELL ID
API  .                         : API NUMBER
SLAT .WGS84 2.9809693809138977 : SURFACE LATITUDE
SLON .WGS84  8.923250822309996 : SURFACE LONGITUDE
DATUM.F                3444.66 : DEPTH DATUM ELEV
~Curve Information -----------------------------------------
DEPT  .FT    : 
CGRS  .GAPI  : CORRECTED GAMMA RAY FROM SONIC LOG
DTCO  .US/F  : DELTA-T COMPRESSIONAL
DTCO_1.US/F  : DELTA-T COMPRESSIONAL
DTSM  .US/F  : DELTA-T SHEAR
HCALS .IN    : HRCC CALIPER CALIBRATED FROM SONIC LOG
HLLD  .OHMM  : HALS LATEROLOG DEEP RESISTIVITY
HLLS  .OHMM  : HALS LATEROLOG SHALLOW RESISTIVITY
PR    .N/A   : POISSON'S RATIO
RXOZ  .OHMM  : INVADED FORMATION RESISTIVITY FILTERED AT 18 INCHES
SGRS  .GAPI  : SPECTROSCOPY GAMMA RAY FROM SONIC LOG
TENR  .LB    : TENSION FROM RESISTIVITY LOG
TENS  .LB    : TENSION FROM SONIC LOG
VPVS  .VPVS  : COMPRESSIONAL TO SHEAR VELOCITY RATIO
~Params ----------------------------------------------------
~Other -----------------------------------------------------
~ASCII -----------------------------------------------------
# ...
 6390.00000  199.83100   55.29690   54.45690  101.68470    9.00620 1035.13650 1179.29790    0.29260 1594.06060  200.23680 2412.44310 2460.53190    1.87360
 6390.50000  199.83100   55.01110   53.87820  100.16350    9.00690 1789.45720 1915.57480    0.29630 2024.01570  200.23520 2400.58580 2460.53190    1.87360
 6391.00000  199.90710   52.87870   51.57910   96.02270    8.96890 10711.22410 9914.95150    0.29320 2020.67260  200.23360 2386.01000 2449.07980    1.85250
 6391.50000  179.93970   50.44570   49.16320   90.55890    8.93080 10477.33160 9867.54660    0.28710 2017.32940  200.23190 2371.43420 2424.15640    1.83080
 6392.00000  187.83910   49.27840   48.14010   87.54370    8.89270 8293.82000 8210.95570    0.28070 2013.98630  200.23030 2356.85840 2404.17220    1.80900
 6392.50000  195.93970   48.58480   47.53010   86.02020    8.85470 6486.65690 7039.58220    0.27400 2010.64320  200.22870 2372.26340 2424.83740    1.79590
 6393.00000  190.85440   47.96780   46.65890   86.30690    8.84720 6307.88420 7051.97260    0.27820 2007.30000  200.22710 2392.44950 2445.50250    1.79870
 6393.50000  186.48770   47.18850   45.91030   86.72860    8.84750 5938.91670 7036.89570    0.28810 2003.95690  200.22550 2391.03810 2451.84340    1.83160
 6394.00000  193.38120   46.56400   45.44680   87.15020    8.86860 4933.42460 5609.96100    0.30260 2000.61380  200.22380 2375.22820 2436.69790    1.88000
 6394.50000  199.66630   46.25010   45.14880   87.48760    8.88750 1994.83620 2067.36610    0.30930 1706.01590  200.22220 2359.41840 2423.86050    1.91180
 6395.00000  199.65700   46.92150   45.91670   87.87980    8.90640  964.27540 1402.27760    0.30850 1180.65230  200.22060 2357.25520 2420.25530    1.90130
 6395.50000  199.64780   47.98400   46.89400   88.69940    8.92530  643.00240  689.86370    0.30370  854.83150  200.21900 2355.09200 2416.65000    1.88250
 6396.00000  199.63850   49.20110   47.91040   89.86040    8.95620  696.65300  717.55310    0.29710  987.94040  200.21730 2350.44490 2409.56160    1.85660
 6396.50000  199.62920   50.50920   49.16120   92.08650    8.95640  685.94550  756.63160    0.29090  903.54480  200.21570 2335.86190 2409.56160    1.84630
 6397.00000  199.61990   52.59570   51.49540   95.64200    8.96010  542.68190  629.23970    0.29080  833.97110  200.21410 2334.05920 2420.55780    1.84550
 6397.50000  199.61060   54.42490   52.87370   98.44030    8.96390  393.91690  495.93630    0.29050  439.34920  200.21250 2345.20420 2417.77480    1.84100
 6398.00000  199.60130   53.66270   52.45630   98.64200    8.96760  376.11330  434.49650    0.29110  428.63610  200.21090 2346.80590 2415.54850    1.84220
 6398.50000  199.59210   50.32830   48.83400   92.93500    8.97140  460.91380  727.26680    0.29480  442.03720  200.20920 2348.40760 2415.54850    1.85680
 6399.00000  183.00860   47.55600   46.28620   88.85740    8.97510 1066.95060 1364.97820    0.30070 1089.57900  200.20760 2350.00930 2415.54850    1.87570
 6399.50000  100.10540   47.31450   46.33290   87.44980    8.97890 1554.31930 1724.88350    0.30490 1597.25020  193.39320 2351.61090 2415.54850    1.88630
 6400.00000   14.79770   48.21880   46.96340   85.90230    8.98260 1887.38070 1942.41630    0.29440 1869.56660  162.40100 2353.21260 2415.54850    1.85060
 6400.50000   10.67560   47.82330   46.95510   84.63360    9.01250 2340.57730 2170.77490    0.27890 1576.38260  131.40880 2354.81430 2393.25540    1.81600
 6401.00000   15.45700   47.44770   46.48580   83.42820    9.06640 1955.24400 1962.19900    0.27000 1418.68740  100.21570 2356.41600 2393.25540    1.78300
 6401.50000   22.80360   47.67200   46.90610   84.23050    9.10690 1070.61730 1175.33050    0.27020  956.33070   79.39190 2358.01760 2397.07150    1.78290
 6402.00000   24.56640   47.32650   46.35040   85.15270    9.13400  936.79390 1117.53940    0.28050  986.75490   67.45680 2359.61930 2394.57930    1.80170
 6402.50000   26.94690   46.42050   45.45730   85.44950    9.12530  693.88290  864.83240    0.29700  570.41390   63.32760 2357.43020 2404.41000    1.85900
 6403.00000   29.32740   45.90590   44.86330   85.74640    9.08080  710.41040  682.18690    0.30520  517.11460   65.51580 2384.98080 2414.24070    1.89300
 6403.50000   29.05110   45.10850   44.19000   85.86290    9.03640  864.34470  788.94960    0.31220  588.82620   63.63340 2395.72980 2424.07150    1.91510
 6404.00000   25.78430   44.00040   43.44950   85.28280    9.00090 1160.15850  941.32660    0.31920 1091.54750   60.19860 2406.47880 2442.07350    1.96070
 6404.50000   24.17730   44.70720   43.46880   86.01050    9.01450 1423.07550 1002.56220    0.32460 1485.50880   56.65760 2416.12820 2455.29890    1.96600
 6405.00000   23.97870   47.70370   46.07810   90.00110    9.09530 1404.13740  664.27940    0.32130  499.79810   56.04610 2421.37910 2459.15890    1.93530
 6405.50000   27.72370   50.99390   49.62930   93.84670    9.21620  948.64280  348.23770    0.30330    1.05700   60.75190 2426.63000 2456.80310    1.88410
 6406.00000   42.94620   52.53710   51.50940   95.55400    9.87010  494.52610  188.36430    0.29020    0.42640   72.40800 2413.45110 2445.12370    1.85200
 6406.50000   68.34900   53.87640   52.75560   97.70000   10.87020   40.22500   59.09010    0.28130    0.33500   84.08100 2400.27220 2433.44430    1.83150
 6407.00000   91.14640   58.29170   57.27900  101.19690   11.49720   40.42970   71.92860    0.25340    0.45380   91.38720 2387.09330 2421.76500    1.76620
 6407.50000   66.64380   65.18650   63.61830  104.22550   11.42200   72.27590   99.71600    0.20800    0.82470   90.70060 2373.91440 2410.08560    1.64290
 6408.00000   49.64600   69.04970   67.54600  105.79590   11.24620  119.15320  175.33850    0.16260    1.55670   89.21190 2370.06740 2410.03280    1.57710
 6408.50000   38.78460   66.92030   66.53730  103.26500   11.10890  335.03540  262.16510    0.14340    2.15250   84.32510 2380.21830 2416.47820    1.55670
 6409.00000   33.45510   61.62570   61.49750   96.46600   10.03620  571.81640  381.46970    0.15200    7.78010   68.26040 2390.36920 2422.92360    1.57020
 6409.50000   21.08510   58.53470   57.76450   93.80630    9.33900 1549.86590  522.19390    0.17310  988.00630   48.56030 2400.52010 2429.36910    1.59750
 6410.00000   13.90700   56.78190   55.54530   91.14660    9.27270 2013.22850  646.67850    0.19090 1946.10860   37.42060 2410.67100 2436.09350    1.61620
 6410.50000   16.71700   54.47000   53.70350   90.62000    9.20590 2007.71840  640.57960    0.21740   75.66700   44.58580 2418.91750 2443.93370    1.68100
 6411.00000   23.00750   53.58010   52.53840   92.22300    9.23290 1995.10320  640.43890    0.24400   73.36840   50.37130 2424.30730 2451.77390    1.73620
 6411.50000   22.60740   52.01730   51.06710   92.34950    9.25340 1995.37860  738.81530    0.27050   79.94680   45.57260 2400.62800 2435.96710    1.79690
 6412.00000   18.49480   48.53470   48.19700   89.39420    9.26220 6634.33880 1710.02770    0.30140 1943.49200   34.63170 2374.97840 2414.24840    1.88820
 6412.50000   14.38210   44.82990   43.77840   85.57410    9.27100 6146.34970 4080.08040    0.31230 1979.01890   28.01150 2372.17730 2398.01610    1.92840
 6413.00000   12.65630   43.60630   42.59820   82.98350    9.27970 4758.74180 3668.80940    0.31260  669.23560   26.63980 2378.80470 2403.72950    1.91870
 6413.50000   15.92830   44.29820   43.28490   82.86680    9.28850 3352.28600 2069.33290    0.30410    1.64250   30.16310 2385.43210 2409.44290    1.88870
 6414.00000   21.33820   45.50850   44.52550   83.32850    9.96010  526.16510  174.59760    0.29540    0.81350   38.27430 2393.49120 2407.20560    1.85510
 6414.50000   24.63560   46.60510   45.70640   83.79020   10.64450  135.26260  169.79430    0.28960    0.72730   41.23390 2392.01550 2412.00610    1.82860
 6415.00000   22.36470   46.29220   45.60380   83.69380    9.30870  151.79050  341.04080    0.28800    1.02060   38.26880 2390.53980 2415.49790    1.84540
 6415.50000   19.24880   45.49510   45.03330   83.31860    9.32510 1001.82230 1985.08530    0.29530  636.05680   32.03440 2389.06410 2413.75460    1.86210
