~Version ---------------------------------------------------
VERS.   2.0 : CWLS log ASCII Standard -VERSION 2.0
WRAP.    NO : One line per depth step
DLM . SPACE : Column Data Section Delimiter
~Well ------------------------------------------------------
STRT .FT                1164.0 : START DEPTH
STOP .FT                9660.0 : STOP DEPTH
STEP .FT                   0.5 : STEP
NULL .                -9999.25 : NULL VALUE
COMP .                         : COMPANY
WELL .                         : WELL
FLD  .                         : FIELD
LOC  .                         : LOCATION
PROV .                         : PROVINCE
CNTY .                         : COUNTY
STAT .                         : STATE
CTRY .                         : COUNTRY
SRVC .                         : SERVICE COMPANY
DATE .                         : DATE
UWI  .                         : UNIQUE WELL ID
API  .                         : API NUMBER
SLAT .WGS84 2.9809693809138977 : SURFACE LATITUDE
SLON .WGS84  8.923250822309996 : SURFACE LONGITUDE
DATUM.F                3444.66 : DEPTH DATUM ELEV
~Curve Information -----------------------------------------
DEPT  .FT    : 
CGRS  .GAPI  : CORRECTED GAMMA RAY FROM SONIC LOG
DTCO  .US/F  : DELTA-T COMPRESSIONAL
DTCO_1.US/F  : DELTA-T COMPRESSIONAL
DTSM  .US/F  : DELTA-T SHEAR
HCALS .IN    : HRCC CALIPER CALIBRATED FROM SONIC LOG
HLLD  .OHMM  : HALS LATEROLOG DEEP RESISTIVITY
HLLS  .OHMM  : HALS LATEROLOG SHALLOW RESISTIVITY
PR    .N/A   : POISSON'S RATIO
RXOZ  .OHMM  : INVADED FORMATION RESISTIVITY FILTERED AT 18 INCHES
SGRS  .GAPI  : SPECTROSCOPY GAMMA RAY FROM SONIC LOG
TENR  .LB    : TENSION FROM RESISTIVITY LOG
TENS  .LB    : TENSION FROM SONIC LOG
VPVS  .VPVS  : COMPRESSIONAL TO SHEAR VELOCITY RATIO
~Params ----------------------------------------------------
~Other -----------------------------------------------------
~ASCII -----------------------------------------------------
# ...
 1528.00000   12.87710   43.42470   41.73770   78.95350   -9999.25   -9999.25   -9999.25   -9999.25   -9999.25   29.19640   -9999.25   -9999.25   -9999.25
 1528.50000   14.48880   44.61270   42.99790   79.35210   -9999.25   -9999.25   -9999.25   -9999.25   -9999.25   32.56210   -9999.25   -9999.25   -9999.25
 1529.00000   14.81940   45.50930   43.95630   79.75060   -9999.25   -9999.25   -9999.25   -9999.25   -9999.25   34.00750   -9999.25   -9999.25   -9999.25
 1529.50000   13.96270   46.15790   44.66640   79.98700   -9999.25   -9999.25   -9999.25   -9999.25   -9999.25   33.43460   -9999.25   -9999.25   -9999.25
 1530.00000   12.93180   46.02100   44.96790   79.98040   -9999.25   -9999.25   -9999.25   -9999.25   -9999.25   32.09050   -9999.25   -9999.25   -9999.25
 1530.50000   11.90090   45.17580   44.14140   79.97370   -9999.25   -9999.25   -9999.25   -9999.25   -9999.25   30.74650   -9999.25   -9999.25   -9999.25
 1531.00000   10.69580   44.96950   43.86940   80.25330   -9999.25   -9999.25   -9999.25   -9999.25   -9999.25   29.22920   -9999.25   -9999.25   -9999.25
 1531.50000    9.26340   44.96200   43.41520   79.30060   -9999.25   -9999.25   -9999.25   -9999.25   -9999.25   26.94000   -9999.25   -9999.25   -9999.25
 1532.00000    8.29970   44.04100   42.81410   78.07150   -9999.25   -9999.25   -9999.25   -9999.25   -9999.25   25.82460   -9999.25   -9999.25   -9999.25
 1532.50000    8.26060   43.13420   42.21300   78.00780   -9999.25   -9999.25   -9999.25   -9999.25   -9999.25   25.67720   -9999.25   -9999.25   -9999.25
 1533.00000    8.22140   43.02260   41.80360   78.57150   -9999.25   -9999.25   -9999.25   -9999.25   -9999.25   25.93180   -9999.25   -9999.25   -9999.25
 1533.50000    8.21450   43.69330   42.31970   78.56270   -9999.25   -9999.25   -9999.25   -9999.25   -9999.25   26.53860   -9999.25   -9999.25   -9999.25
 1534.00000    9.41630   44.43900   43.10090   78.55390   -9999.25   -9999.25   -9999.25   -9999.25   -9999.25   28.08970   -9999.25   -9999.25   -9999.25
 1534.50000   11.34860   44.92270   43.70840   78.54500   -9999.25   -9999.25   -9999.25   -9999.25   -9999.25   30.29920   -9999.25   -9999.25   -9999.25
 1535.00000   11.65460   45.44570   44.04390   78.53620   -9999.25   -9999.25   -9999.25   -9999.25   -9999.25   31.38670   -9999.25   -9999.25   -9999.25
 1535.50000   10.46040   45.95770   44.52810   77.93530   -9999.25   -9999.25   -9999.25   -9999.25   -9999.25   28.17760   -9999.25   -9999.25   -9999.25
 1536.00000    9.12570   46.34010   44.82530   77.56280   -9999.25   -9999.25   -9999.25   -9999.25   -9999.25   26.25260   -9999.25   -9999.25   -9999.25
 1536.50000    8.15420   46.86210   45.48370   77.33290   -9999.25   -9999.25   -9999.25   -9999.25   -9999.25   24.32750   -9999.25   -9999.25   -9999.25
 1537.00000    8.00110   47.13260   46.05920   77.56290   -9999.25   -9999.25   -9999.25   -9999.25   -9999.25   23.64280   -9999.25   -9999.25   -9999.25
 1537.50000    8.49540   46.26940   45.09630   77.77620   -9999.25   -9999.25   -9999.25   -9999.25   -9999.25   23.74660   -9999.25   -9999.25   -9999.25
 1538.00000    9.08800   45.33660   43.95980   77.88520   -9999.25   -9999.25   -9999.25   -9999.25   -9999.25   24.30290   -9999.25   -9999.25   -9999.25
 1538.50000    9.68050   45.17200   43.68690   77.87760   -9999.25   -9999.25   -9999.25   -9999.25   -9999.25   25.06070   -9999.25   -9999.25   -9999.25
 1539.00000   10.27310   45.53720   44.01430   78.63900   -9999.25   -9999.25   -9999.25   -9999.25   -9999.25   25.36540   -9999.25   -9999.25   -9999.25
 1539.50000   10.12500   45.37100   44.02390   77.65450   -9999.25   -9999.25   -9999.25   -9999.25   -9999.25   25.04190   -9999.25   -9999.25   -9999.25
 1540.00000   10.38480   45.03200   43.41350   76.02010   -9999.25   -9999.25   -9999.25   -9999.25   -9999.25   24.46630   -9999.25   -9999.25   -9999.25
 1540.50000   10.48960   44.28570   43.12310   74.38570   -9999.25   -9999.25   -9999.25   -9999.25   -9999.25   23.98860   -9999.25   -9999.25   -9999.25
 1541.00000    9.15000   43.70410   42.66290   74.78800   -9999.25   -9999.25   -9999.25   -9999.25   -9999.25   23.23920   -9999.25   -9999.25   -9999.25
 1541.50000    7.73630   43.25510   41.85920   75.55130   -9999.25   -9999.25   -9999.25   -9999.25   -9999.25   21.42840   -9999.25   -9999.25   -9999.25
 1542.00000    6.85310   43.91510   42.66140   76.34540    9.18000    0.20590    0.19720    0.26260    0.20060   19.87920 1198.00610 1238.09630    1.79140
 1542.50000    7.66590   45.66580   44.24250   77.68250    9.27560    0.20870    0.20090    0.25300    0.20150   20.68420 1196.75780 1238.08270    1.75870
 1543.00000    9.01630   46.88880   45.66120   78.08550    9.76800    1.14190    0.20270    0.23750    0.45450   24.21460 1195.86260 1238.07170    1.70280
 1543.50000   10.78840   48.18280   46.81050   79.68270   10.33200    3.46510   10.54590    0.22930    7.43790   27.64430 1193.89870 1238.06190    1.68670
 1544.00000   11.94960   49.98270   48.86680   81.17480   10.56300   13.94880   36.15990    0.20590   16.83250   28.93400 1192.64910 1221.11570    1.65860
 1544.50000   13.22480   51.22130   50.00010   81.99600   10.68160   57.07470  244.29930    0.19640   20.86870   30.44310 1167.81850 1211.21620    1.63340
 1545.00000   15.27220   50.67480   49.28200   81.32190   10.80020  342.79900  574.12230    0.19880   26.20570   33.74300 1174.87960 1211.21620    1.63890
 1545.50000   17.76730   50.37040   49.04930   80.27390   10.87520  550.55570  833.39330    0.19750   26.50670   38.20360 1181.94060 1211.21620    1.63580
 1546.00000   19.16240   49.84430   48.34920   79.22600   11.03160  444.68730  890.47230    0.19360   17.97360   42.31870 1181.94060 1211.21620    1.63040
 1546.50000   18.71500   47.65780   46.12780   78.17800   11.27550  268.32490  577.06040    0.21160   10.67580   40.34090 1181.94060 1211.21620    1.67260
 1547.00000   15.78570   46.05680   44.99270   78.80400   11.42190  162.50740  263.60320    0.24330    5.46920   36.94940 1181.94060 1211.21620    1.71360
 1547.50000   13.94480   46.28210   45.13850   79.45900   11.08660  166.24280  252.11760    0.25100    4.15070   33.93960 1181.94060 1211.21620    1.73410
 1548.00000   13.15290   46.74990   45.76410   80.75080   10.75140  209.57130  297.87490    0.25750    4.89010   33.13800 1181.96900 1213.51770    1.75470
 1548.50000   13.14300   46.71120   45.46220   80.99820   10.49300  312.14890  522.70130    0.25880   11.03980   33.17500 1197.44120 1219.45270    1.76400
 1549.00000   13.84450   46.20560   44.89930   80.37280   10.22810  390.54050  552.33410    0.26020  642.46290   34.26700 1208.43590 1231.23990    1.76550
 1549.50000   16.04150   45.79830   44.74850   79.38730   10.08730  404.91350  605.57230    0.26170  607.63730   37.48320 1192.45840 1224.19570    1.76330
 1550.00000   17.94090   44.98370   43.87060   79.18780   10.03150  412.35480  685.95400    0.26890  678.52060   40.97750 1192.45840 1224.19570    1.80170
 1550.50000   19.02510   43.67820   43.00970   79.48900    9.97560  526.80440  766.33570    0.28340  855.96530   41.71200 1192.45840 1224.19570    1.84170
 1551.00000   19.87930   43.38840   42.79350   80.15740    9.94190  422.82320  665.70610    0.29600  790.84970   44.37910 1192.45840 1224.19570    1.85780
 1551.50000   22.07430   44.16740   43.41390   80.82580    9.90180  326.85300  476.94390    0.28970  569.80490   50.20740 1192.45840 1224.19570    1.84320
 1552.00000   23.86140   44.65760   43.89420   81.12510    9.91290  196.90740  296.64830    0.29300  449.70950   55.47130 1192.45840 1224.19570    1.84050
 1552.50000   24.98810   44.21060   43.59780   81.17830    9.94340  145.37810  224.55950    0.29720  239.06380   57.60770 1192.45840 1224.19570    1.86020
 1553.00000   19.69470   43.49060   42.94640   80.64500    9.95480  173.36680  241.83290    0.30110  269.85270   51.15010 1192.45840 1231.16810    1.87940
 1553.50000   15.75680   42.46600   41.76150   79.84750    9.96630  648.49490 1487.90060    0.30670 1137.07350   40.23710 1192.45840 1231.16810    1.89740
