~Version ---------------------------------------------------
VERS.   2.0 : CWLS log ASCII Standard -VERSION 2.0
WRAP.    NO : One line per depth step
DLM . SPACE : Column Data Section Delimiter
~Well ------------------------------------------------------
STRT .FT                1164.0 : START DEPTH
STOP .FT                9660.0 : STOP DEPTH
STEP .FT                   0.5 : STEP
NULL .                -9999.25 : NULL VALUE
COMP .                         : COMPANY
WELL .                         : WELL
FLD  .                         : FIELD
LOC  .                         : LOCATION
PROV .                         : PROVINCE
CNTY .                         : COUNTY
STAT .                         : STATE
CTRY .                         : COUNTRY
SRVC .                         : SERVICE COMPANY
DATE .                         : DATE
UWI  .                         : UNIQUE WELL ID
API  .                         : API NUMBER
SLAT .WGS84 2.9809693809138977 : SURFACE LATITUDE
SLON .WGS84  8.923250822309996 : SURFACE LONGITUDE
DATUM.F                3444.66 : DEPTH DATUM ELEV
~Curve Information -----------------------------------------
DEPT  .FT    : 
CGRS  .GAPI  : CORRECTED GAMMA RAY FROM SONIC LOG
DTCO  .US/F  : DELTA-T COMPRESSIONAL
DTCO_1.US/F  : DELTA-T COMPRESSIONAL
DTSM  .US/F  : DELTA-T SHEAR
HCALS .IN    : HRCC CALIPER CALIBRATED FROM SONIC LOG
HLLD  .OHMM  : HALS LATEROLOG DEEP RESISTIVITY
HLLS  .OHMM  : HALS LATEROLOG SHALLOW RESISTIVITY
PR    .N/A   : POISSON'S RATIO
RXOZ  .OHMM  : INVADED FORMATION RESISTIVITY FILTERED AT 18 INCHES
SGRS  .GAPI  : SPECTROSCOPY GAMMA RAY FROM SONIC LOG
TENR  .LB    : TENSION FROM RESISTIVITY LOG
TENS  .LB    : TENSION FROM SONIC LOG
VPVS  .VPVS  : COMPRESSIONAL TO SHEAR VELOCITY RATIO
~Params ----------------------------------------------------
~Other -----------------------------------------------------
~ASCII -----------------------------------------------------
# ...
 6910.00000   27.48270   49.58010   48.65160   94.87150    9.48180  942.27830 1292.40880    0.31980  493.66370   70.56220 2497.47320 2508.30610    1.93240
 6910.50000   30.55490   51.09620   50.57340   98.38550    9.55050  408.46670  733.99350    0.32320  213.13370   75.46060 2479.85080 2502.40510    1.96780
 6911.00000   32.59860   53.03160   52.22360  101.86840    9.76040  282.21690  299.22470    0.32110    9.53910   78.87930 2493.04140 2496.50420    1.96640
 6911.50000   31.28880   52.26030   51.54090   99.49610    9.84890  257.86020  303.37980    0.31410    7.14510   73.12860 2491.24540 2501.67280    1.92880
 6912.00000   25.95650   49.39700   48.68350   95.58090    9.55990  380.34170  686.96800    0.31220   13.53130   56.30610 2503.76450 2518.13520    1.92070
 6912.50000   19.71890   48.29050   47.45470   91.57840    9.40750  597.47970  788.63040    0.31040   48.42010   39.63440 2511.40260 2526.63180    1.91210
 6913.00000   13.68250   48.71660   48.12040   90.32720    9.37620  484.95610  551.79310    0.30120  822.54550   29.77670 2519.04070 2535.12840    1.90390
 6913.50000   12.82360   48.78320   47.92770   89.21010    9.39180  364.98530  367.33160    0.29240  551.32650   26.38840 2531.33580 2549.22100    1.84670
 6914.00000   12.62420   47.68260   47.04830   88.91680    9.40750  245.01450  299.11510    0.30330  461.18300   25.46960 2544.79520 2564.71270    1.87840
 6914.50000   12.15460   46.92220   46.04280   89.46420    9.42310  248.41430  345.09380    0.31210  174.75240   24.94310 2546.57940 2565.61710    1.92000
 6915.00000   11.69730   46.95670   46.16150   90.01160    9.48960  332.16410  406.45660    0.31660  147.89620   23.80440 2537.72360 2561.82660    1.93210
 6915.50000   11.23990   47.21830   46.59050   90.55910    9.54520  414.63510  467.81950    0.31740  121.24640   22.85270 2536.42200 2560.23740    1.93310
 6916.00000   12.20950   47.63960   46.72670   91.51410    9.57750  373.04280  455.38450    0.31820  173.36800   23.69200 2546.45180 2567.45330    1.93660
 6916.50000   13.56430   48.12300   47.20000   92.80170    9.59880  335.26750  364.69200    0.31870   97.73760   25.20530 2556.48160 2574.66910    1.94260
 6917.00000   13.54040   48.39430   47.40910   93.55740    9.54110  345.33320  378.79130    0.32060  117.55120   25.74040 2532.99330 2566.09570    1.94870
 6917.50000   12.78850   48.10050   47.38010   93.59880    9.48350  420.33370  572.19400    0.32260  108.96190   24.36870 2523.54230 2546.99610    1.95480
 6918.00000   12.03660   48.15940   47.35120   93.20100    9.42760  797.36330 1124.97080    0.32030  131.44590   24.35180 2504.31650 2524.60450    1.94600
 6918.50000   12.93220   48.31420   47.39560   92.80690    9.36880 1567.01710 1697.03030    0.32100  166.59070   26.14630 2487.22840 2507.71020    1.93700
 6919.00000   12.57700   48.03470   47.16500   92.92220    9.34990 1899.97750 1963.04130    0.32170  240.40620   30.06970 2476.86100 2497.79650    1.94810
 6919.50000   12.08710   47.99120   47.06520   92.90570    9.35090 2035.08020 1998.61130    0.32250 1564.22540   39.27080 2485.88900 2502.27460    1.95560
 6920.00000   12.50630   48.17180   47.10820   92.87180    9.35180 2010.91500 1738.18990    0.32000 1700.32020   53.46880 2494.91710 2503.37000    1.94760
 6920.50000   13.16240   48.51790   47.82820   92.83800    9.35270 1559.77280 1359.37930    0.31610 1700.32600   65.09710 2499.71020 2503.88950    1.93700
 6921.00000   13.81860   48.76660   47.82820   92.80420    9.36020 1563.42460 1353.12580    0.31190 1946.97050   70.00620 2489.22160 2502.10510    1.92100
 6921.50000   14.42130   49.09790   48.18580   93.19790    9.33980 1702.82430 1404.06000    0.31180 1944.05260   72.48260 2478.73290 2494.40240    1.90810
 6922.00000   15.20830   49.21580   48.36030   93.63880    9.33720 1955.84430 1744.39020    0.31330 1955.32910   73.71690 2468.24420 2490.30970    1.91720
 6922.50000   16.29670   49.07000   48.31010   93.84000    9.34160 2325.35480 1720.39730    0.31470 1966.60560   75.74770 2457.75550 2486.21710    1.92910
 6923.00000   18.72180   49.12830   48.25990   93.99590    9.34590 1987.74080 1016.28060    0.31720 1899.63130   79.84400 2447.26680 2484.59960    1.94390
 6923.50000   21.11990   49.29250   48.54220   95.59570    9.35030  767.85760  412.09920    0.32320  232.78070   83.20470 2445.42380 2484.59960    1.95860
 6924.00000   21.52130   49.74720   48.79750   97.42620    9.35470  329.96460  243.99950    0.32840  174.26800   79.83210 2475.98600 2495.58830    1.97510
 6924.50000   20.58640   50.15550   49.27950   98.83920    9.35820  283.87710  225.58590    0.32580  238.57870   70.21860 2493.12260 2513.60480    1.98620
 6925.00000   19.10890   49.94550   49.10860   97.60260    9.31960  278.48690  222.49030    0.32090  222.24170   60.45610 2523.83800 2531.62140    1.96740
 6925.50000   17.63140   49.21750   48.40680   94.64530    9.28080  315.30550  300.30180    0.31440  332.04890   45.75470 2514.82660 2540.34730    1.93300
 6926.00000   15.87940   48.34950   47.70900   91.68810    9.27940  377.99990  335.58580    0.30830  469.64370   36.05990 2502.53190 2546.75060    1.89970
 6926.50000   13.59250   47.93970   47.00460   90.06230    9.27800  293.32910  183.52540    0.30440  232.69290   25.29530 2490.23710 2521.70550    1.89170
 6927.00000   11.34870   47.79840   47.00460   89.31420    9.27660  152.97300   99.64360    0.30420   98.03320   21.90220 2477.94230 2498.58700    1.89680
 6927.50000   11.01270   47.88470   47.00460   89.67150    9.26850   89.30140   81.03070    0.30410   70.75600   20.92350 2465.64750 2475.46860    1.90360
 6928.00000   11.31310   48.00680   47.15550   90.01640    9.28150   76.75280   71.47500    0.30470   62.31760   21.66820 2453.35270 2471.05580    1.90170
 6928.50000   12.03070   47.97030   46.99780   90.58450    9.29620   63.31640   58.90220    0.30790   55.34370   23.19330 2448.60460 2466.64310    1.90200
 6929.00000   12.26810   48.56730   47.39760   91.36530    9.31220   50.93190   51.44050    0.30610   48.36980   24.66840 2447.00020 2474.09710    1.89830
 6929.50000   12.30430   49.67850   48.60050   92.36740    9.30430   47.13450   45.47110    0.30190   43.91600   25.16180 2442.46010 2476.41090    1.88090
 6930.00000   11.47570   50.57790   49.26270   93.53110    9.29650   54.64020   54.67890    0.29480   46.13670   24.12880 2437.91990 2478.72480    1.87150
 6930.50000   10.26430   52.46220   51.02750   95.22760    9.27190   91.24880   82.14560    0.28770   72.55780   23.35310 2433.37980 2481.03860    1.84940
 6931.00000    9.95890   55.99740   54.05830   96.09050    9.24960  227.73080  186.10350    0.26600  119.39530   27.10410 2428.83960 2483.35250    1.77370
 6931.50000    9.95890   58.21700   56.81150   96.95330    9.25950  502.55180  318.65420    0.23160  336.04150   35.86140 2424.29950 2503.65990    1.68960
 6932.00000    9.94810   57.01800   56.28230   96.63000    9.26930  776.31890  565.57580    0.22430  657.21840   41.19610 2419.75930 2535.96290    1.74110
 6932.50000    8.55670   52.00010   51.78050   95.61420    9.26940  953.99890  820.03510    0.28400  865.86880   39.95460 2421.15980 2444.30680    1.88720
 6933.00000    6.71980   47.55070   47.46160   92.98930    9.26950 1132.18680  875.14350    0.31980  866.27750   37.39520 2446.32270 2450.94340    1.97030
 6933.50000    6.17010   46.47050   45.37580   89.78220    9.26960 1475.46580  951.40960    0.31970 1068.49580   37.11000 2456.38790 2457.58000    1.97180
 6934.00000    6.10720   46.51100   45.68040   88.69920    9.26970 1927.22290 1144.92580    0.31350 1477.46440   37.67360 2456.38790 2464.64120    1.93980
 6934.50000    7.36020   46.92550   46.09270   89.31760    9.26980 2434.36020 1986.94120    0.31310 1838.42660   39.61820 2456.38790 2464.64120    1.91150
 6935.00000    8.58530   47.47940   46.74580   90.25250    9.29650  869.05720 1393.38130    0.31340  495.57910   45.50660 2457.21070 2468.93680    1.91160
 6935.50000   10.95630   47.63840   46.95410   90.65420    9.31270  482.92350  496.99430    0.31460  477.79480   50.69070 2465.07620 2479.09420    1.92380
