~Version ---------------------------------------------------
VERS.   2.0 : CWLS log ASCII Standard -VERSION 2.0
WRAP.    NO : One line per depth step
DLM . SPACE : Column Data Section Delimiter
~Well ------------------------------------------------------
STRT .FT                1164.0 : START DEPTH
STOP .FT                9660.0 : STOP DEPTH
STEP .FT                   0.5 : STEP
NULL .                -9999.25 : NULL VALUE
COMP .                         : COMPANY
WELL .                         : WELL
FLD  .                         : FIELD
LOC  .                         : LOCATION
PROV .                         : PROVINCE
CNTY .                         : COUNTY
STAT .                         : STATE
CTRY .                         : COUNTRY
SRVC .                         : SERVICE COMPANY
DATE .                         : DATE
UWI  .                         : UNIQUE WELL ID
API  .                         : API NUMBER
SLAT .WGS84 2.9809693809138977 : SURFACE LATITUDE
SLON .WGS84  8.923250822309996 : SURFACE LONGITUDE
DATUM.F                3444.66 : DEPTH DATUM ELEV
~Curve Information -----------------------------------------
DEPT  .FT    : 
CGRS  .GAPI  : CORRECTED GAMMA RAY FROM SONIC LOG
DTCO  .US/F  : DELTA-T COMPRESSIONAL
DTCO_1.US/F  : DELTA-T COMPRESSIONAL
DTSM  .US/F  : DELTA-T SHEAR
HCALS .IN    : HRCC CALIPER CALIBRATED FROM SONIC LOG
HLLD  .OHMM  : HALS LATEROLOG DEEP RESISTIVITY
HLLS  .OHMM  : HALS LATEROLOG SHALLOW RESISTIVITY
PR    .N/A   : POISSON'S RATIO
RXOZ  .OHMM  : INVADED FORMATION RESISTIVITY FILTERED AT 18 INCHES
SGRS  .GAPI  : SPECTROSCOPY GAMMA RAY FROM SONIC LOG
TENR  .LB    : TENSION FROM RESISTIVITY LOG
TENS  .LB    : TENSION FROM SONIC LOG
VPVS  .VPVS  : COMPRESSIONAL TO SHEAR VELOCITY RATIO
~Params ----------------------------------------------------
~Other -----------------------------------------------------
~ASCII -----------------------------------------------------
# ...
 2594.00000    9.62840   45.77010   44.65220   87.27080    9.73760  144.43390  154.78420    0.31620  193.33090   29.61830 1447.31070 1467.95690    1.93410
 2594.50000    7.49610   45.76360   44.90720   87.52020    9.74010  143.10400  146.44430    0.31240  195.01240   26.52440 1447.29290 1458.82840    1.92450
 2595.00000    6.11210   46.16190   44.89640   87.13100    9.74140  139.22370  140.56960    0.30870  165.08560   24.85390 1447.27500 1455.17700    1.91490
 2595.50000    4.61760   47.01030   46.06730   87.46250    9.73600  132.81300  134.48130    0.30420  134.00220   23.16380 1447.25720 1455.17700    1.88360
 2596.00000    3.78230   47.92130   46.95290   87.51050    9.79800  126.40230  128.39300    0.29360  100.28390   22.52550 1447.23940 1463.12640    1.84450
 2596.50000    3.26810   48.65140   47.50290   87.93060    9.77950  119.99160  122.30470    0.28930   81.52380   22.38550 1447.22150 1461.42500    1.82400
 2597.00000    2.91310   48.58190   47.49910   88.09890    9.77520  113.58090  116.21640    0.28690   81.00490   22.75170 1447.20370 1459.72350    1.82870
 2597.50000    3.10580   48.17640   47.20120   87.19070    9.77090  111.01570  112.56270    0.28810   89.32620   23.92560 1447.18580 1458.02210    1.83490
 2598.00000    4.20160   47.65940   46.77900   86.28240    9.79210  138.79360  154.72130    0.28860  117.97980   26.08740 1447.16800 1456.32060    1.84110
 2598.50000    5.29750   47.20850   46.50210   85.90260    9.81000  173.51710  196.87990    0.29020  152.97120   28.63360 1447.15010 1455.29980    1.84400
 2599.00000    5.71660   46.88840   46.16640   85.56360    9.80180  208.24060  239.03850    0.29280  306.43460   29.58920 1447.13230 1455.29980    1.84800
 2599.50000    6.62650   46.66900   45.62260   85.32770    9.79010  229.07260  245.07430    0.29550  400.97260   31.29220 1447.11450 1455.29980    1.85230
 2600.00000    9.51570   46.48020   45.61830   85.45410    9.78440  182.75070  202.70010    0.29820  295.32620   36.96930 1452.70890 1464.87810    1.86100
 2600.50000   13.75410   46.46770   45.61410   86.06400    9.78340  145.45960  160.32590    0.29930  245.53230   42.46460 1462.04490 1476.79570    1.86870
 2601.00000   17.41900   46.66030   45.72640   86.23980    9.78230  153.30680  153.92540    0.30050  232.63500   46.20330 1466.24020 1481.56280    1.87390
 2601.50000   17.18060   46.64550   45.66670   86.90000    9.78100  170.75770  175.16980    0.30230  214.09670   46.23740 1462.72420 1481.56280    1.87970
 2602.00000   16.10670   46.66050   45.63880   87.10530    9.76370  188.20850  196.41420    0.30440  211.47960   44.68280 1460.61950 1479.93010    1.88650
 2602.50000   14.41960   47.23730   46.07830   87.89220    9.70950  205.65940  214.37580    0.30240  226.71480   41.92830 1456.04980 1471.56380    1.88730
 2603.00000   10.47890   48.01270   46.70500   87.80860    9.73330  207.50420  215.30330    0.29860  261.29860   37.14460 1451.48010 1463.19750    1.87830
 2603.50000    8.39120   47.94350   47.36180   87.45890    9.73110  205.53130  210.70790    0.29550  282.71900   32.25950 1446.91040 1461.52420    1.86760
 2604.00000    7.15040   47.37060   46.74660   87.10910    9.72880  203.56420  206.40500    0.29420  271.99080   30.28430 1442.34080 1461.52420    1.85700
 2604.50000    6.54530   46.91960   46.22520   86.65730    9.73140  218.87530  220.07800    0.29610  257.33590   29.66360 1446.87060 1461.52420    1.86060
 2605.00000    7.04170   46.92770   46.15470   86.28850    9.76920  235.67840  239.72210    0.29550  273.11530   29.65990 1443.35460 1461.52420    1.85970
 2605.50000    7.53480   47.18920   46.35330   86.28280    9.75940  244.59630  251.49170    0.29520  236.86360   29.97510 1440.54430 1461.52420    1.85190
 2606.00000    8.02790   47.33780   46.38220   86.89710    9.75870  197.13650  222.28930    0.29520  172.43980   30.67940 1452.92810 1468.32860    1.85320
 2606.50000    8.52100   47.43390   46.41120   87.38310    9.72680  142.03660  177.56520    0.29520   80.91670   32.14790 1465.31190 1476.72970    1.85580
 2607.00000    9.01410   47.59620   46.91170   87.87720    9.68700   96.54340  132.84120    0.29610   72.93100   33.00760 1462.15310 1481.77030    1.86100
 2607.50000    9.50710   47.45980   46.64050   88.27130    9.65140   91.73250   88.11710    0.30020   72.46230   33.27370 1465.69340 1481.77030    1.87110
 2608.00000    9.36600   46.98840   46.36120   88.27450    9.63490   88.83300   78.78690    0.30430  125.06140   33.45770 1460.19750 1481.77030    1.88770
 2608.50000    9.10170   46.51350   45.74400   87.46820    9.67460   88.80660   85.25400    0.30690  117.92590   33.05430 1460.49370 1481.77030    1.89980
 2609.00000    8.13360   46.11960   45.34130   86.99820    9.66500   90.00900   94.22570    0.30790  110.84190   32.38960 1460.78990 1481.77030    1.90510
 2609.50000    8.46190   45.75210   45.11910   86.52810    9.66160   96.87200  121.27450    0.30900  115.52850   32.28180 1465.73960 1481.77030    1.91050
 2610.00000    9.76310   45.98420   44.93830   86.05800    9.65900  147.30200  171.96510    0.30620  223.27350   34.41370 1462.21900 1481.77030    1.89180
 2610.50000   11.24000   46.63160   45.12730   85.59910    9.65640  208.08630  222.65570    0.29800  354.62870   37.39920 1458.78320 1483.36480    1.86900
 2611.00000   13.02600   46.95680   45.92080   85.18450    9.65380  226.90720  238.18460    0.29190  436.28940   40.17130 1450.55590 1475.62650    1.84020
 2611.50000   13.43190   46.87550   45.95650   85.03550    9.62570  230.54230  262.25460    0.28990  391.13070   41.39190 1442.32860 1467.88820    1.83540
 2612.00000   12.88890   46.76380   45.89020   84.69610    9.63450  268.18540  349.42300    0.28790  376.14770   40.30890 1439.71080 1464.79280    1.83080
 2612.50000   12.34600   46.60430   45.65940   84.42200    9.63650  379.69690  436.59140    0.28840  513.68960   38.65580 1438.49540 1464.79280    1.83600
 2613.00000   12.08130   46.13720   45.07120   84.45910    9.64040  491.20840  523.75980    0.29450  651.22450   37.62880 1433.89150 1468.45140    1.85790
 2613.50000   12.59480   45.95710   44.65850   84.84490    9.64420  442.51980  482.67080    0.30050  498.86020   37.83290 1449.59460 1477.59780    1.87510
 2614.00000   13.20820   45.99660   44.64730   85.01940    9.63100  353.90320  385.21720    0.30220  296.80260   37.85660 1457.04020 1477.87320    1.88010
 2614.50000   14.11710   46.06750   44.97070   85.68080    9.63840  265.28660  287.76350    0.30390  223.93990   37.96710 1452.85210 1479.71020    1.88500
 2615.00000   14.53050   46.03060   45.06830   85.93530    9.64580  230.87110  208.82820    0.30560  198.30980   38.33950 1448.66410 1481.54720    1.89200
 2615.50000   14.78700   46.14620   45.10960   86.18980    9.67290  263.68390  225.94000    0.30560  227.00600   37.96730 1440.50490 1477.51290    1.89240
 2616.00000   15.04350   46.68290   45.45400   86.56940    9.67180  284.00990  248.74770    0.30060  211.19430   38.47030 1431.35290 1469.56440    1.87660
 2616.50000   16.06690   47.11870   45.96800   87.12290    9.65400  249.74260  238.85510    0.29520  212.61110   39.99840 1445.33470 1481.80170    1.86090
 2617.00000   16.94960   47.28850   46.20250   87.01420    9.63630  224.91930  219.99680    0.29130  198.46540   41.99170 1445.63160 1482.27400    1.86040
 2617.50000   17.23990   48.06690   46.97580   87.27530    9.57570  216.62300  209.98690    0.28730  209.98550   42.58460 1445.92850 1482.74620    1.83570
 2618.00000   14.64420   48.69720   47.67070   87.62950    9.55420  214.07240  208.47380    0.28130  216.53710   40.10070 1446.22550 1483.21850    1.81030
 2618.50000   12.34730   49.07350   47.68990   87.66650    9.55150  209.12410  209.38570    0.27720  198.10260   36.08740 1446.52240 1483.69070    1.81230
 2619.00000   11.24270   48.89760   47.70900   87.70350    9.54880  207.16210  210.01490    0.28090  220.24190   35.16560 1446.81930 1484.16300    1.82120
 2619.50000   11.77100   48.61300   47.59290   87.79650    9.54610  207.09300  210.24300    0.28630  246.46060   36.89330 1447.11620 1484.63530    1.83020
