~Version ---------------------------------------------------
VERS.   2.0 : CWLS log ASCII Standard -VERSION 2.0
WRAP.    NO : One line per depth step
DLM . SPACE : Column Data Section Delimiter
~Well ------------------------------------------------------
STRT .FT                1164.0 : START DEPTH
STOP .FT                9660.0 : STOP DEPTH
STEP .FT                   0.5 : STEP
NULL .                -9999.25 : NULL VALUE
COMP .                         : COMPANY
WELL .                         : WELL
FLD  .                         : FIELD
LOC  .                         : LOCATION
PROV .                         : PROVINCE
CNTY .                         : COUNTY
STAT .                         : STATE
CTRY .                         : COUNTRY
SRVC .                         : SERVICE COMPANY
DATE .                         : DATE
UWI  .                         : UNIQUE WELL ID
API  .                         : API NUMBER
SLAT .WGS84 2.9809693809138977 : SURFACE LATITUDE
SLON .WGS84  8.923250822309996 : SURFACE LONGITUDE
DATUM.F                3444.66 : DEPTH DATUM ELEV
~Curve Information -----------------------------------------
DEPT  .FT    : 
CGRS  .GAPI  : CORRECTED GAMMA RAY FROM SONIC LOG
DTCO  .US/F  : DELTA-T COMPRESSIONAL
DTCO_1.US/F  : DELTA-T COMPRESSIONAL
DTSM  .US/F  : DELTA-T SHEAR
HCALS .IN    : HRCC CALIPER CALIBRATED FROM SONIC LOG
HLLD  .OHMM  : HALS LATEROLOG DEEP RESISTIVITY
HLLS  .OHMM  : HALS LATEROLOG SHALLOW RESISTIVITY
PR    .N/A   : POISSON'S RATIO
RXOZ  .OHMM  : INVADED FORMATION RESISTIVITY FILTERED AT 18 INCHES
SGRS  .GAPI  : SPECTROSCOPY GAMMA RAY FROM SONIC LOG
TENR  .LB    : TENSION FROM RESISTIVITY LOG
TENS  .LB    : TENSION FROM SONIC LOG
VPVS  .VPVS  : COMPRESSIONAL TO SHEAR VELOCITY RATIO
~Params ----------------------------------------------------
~Other -----------------------------------------------------
~ASCII -----------------------------------------------------
# ...
 8002.00000   47.08720   60.22380   62.49000  114.19530   11.63440  474.62140   99.72540    0.29960    8.59420   70.31030 2751.88230 2763.43940    1.86320
 8002.50000   36.02090   56.21020   56.77640  101.55760   10.47920 1696.72120  194.64040    0.28190  159.65730   65.08250 2750.15230 2764.84100    1.82940
 8003.00000   28.55910   53.14410   52.80880   95.89230    9.89050 1994.22080  267.79260    0.28140  268.51980   61.78070 2748.42220 2766.24270    1.82930
 8003.50000   26.49720   50.22820   49.96550   92.54660    9.75650 2991.07270  809.94570    0.28950  303.69820   61.65150 2746.69210 2767.64430    1.84540
 8004.00000   25.45840   49.19270   48.26470   95.65660    9.72210 10792.15110 1796.86600    0.31770 1459.10850   60.64210 2744.96210 2764.21960    1.99120
 8004.50000   23.34640   48.75310   47.86400  105.14730    9.69580 10050.76670 2174.64030    0.35110 2007.15240   55.78740 2743.23200 2753.55520    2.18050
 8005.00000   20.96530   47.35520   46.92960  103.20030    9.68360 8608.60560 2305.03760    0.36090 2018.02340   51.69090 2741.50190 2742.89080    2.21020
 8005.50000   17.83460   46.22670   44.99710   97.69590    9.64720 9885.87020 2414.05770    0.34580 2010.34100   54.30470 2739.77190 2752.35220    2.11780
 8006.00000   16.67230   45.93880   44.82420   94.73430    9.62630 11097.52730 3079.72920    0.33780 2002.65860   58.54820 2738.04180 2752.91210    2.04100
 8006.50000   16.60570   55.72460   53.63230   92.17550    9.60670 9916.39590 3460.58590    0.33070 1994.97620   58.78100 2736.31170 2753.47190    2.01660
 8007.00000   15.70070   77.19710   76.54580   91.82420    9.57940 6773.30710 3574.45740    0.32360 1987.29380   54.80400 2728.54400 2749.41110    1.99270
 8007.50000   10.94810   96.24180   94.25770   91.69520    9.55020 2648.09350 2073.52320    0.31650 1386.09130   50.13540 2719.26680 2726.86730    1.96880
 8008.00000   10.74080  100.68850   99.85260   91.71990    9.53530 2002.99720 1966.93460    0.30930  769.25890   49.64690 2715.44300 2710.28430    1.94500
 8008.50000   12.78460  100.04720   98.91580   91.88560    9.51990 1458.62810 1236.83180    0.30220  700.81090   55.72600 2705.09210 2702.64240    1.92110
 8009.00000   15.45230   85.71770   87.24160   90.42680    9.48250  565.73340  634.92350    0.29510  424.44570   63.41000 2694.74110 2695.00050    1.89730
 8009.50000   16.56530   68.05580   67.85950   89.58620    9.53720  520.64180  583.20040    0.28940   74.49590   66.57230 2693.88790 2692.87100    1.88230
 8010.00000   17.60570   59.78030   59.83010   89.38480    9.60550  527.91860  609.10730    0.28870   48.50210   70.66550 2695.40910 2694.41630    1.88230
 8010.50000   19.74150   56.27430   56.10970   89.53740    9.40520  878.80760 1057.74540    0.28840   59.43400   76.13810 2701.06270 2695.96160    1.88400
 8011.00000   21.32940   49.33320   49.72800   89.76560    9.38850 1531.63260 1870.47770    0.28820  393.16800   81.39290 2723.24650 2722.38840    1.93570
 8011.50000   22.83910   46.34730   46.08570   89.99370    9.36850 1977.37840 2027.36110    0.30640 1313.77660   90.63580 2751.68520 2748.81520    1.95410
 8012.00000   21.54760   47.06000   46.46090   90.27280    9.34840 3194.28660 2987.68670    0.32250 1972.47300  100.05580 2745.12920 2746.62800    1.92470
 8012.50000   19.61220   47.33370   46.67460   90.51980    9.33510 2723.89480 1972.21580    0.31550 1960.80460  103.67320 2738.57320 2737.28730    1.93020
 8013.00000   18.16420   46.50440   45.84840   90.28940    9.33740  850.03290  907.07900    0.32090  102.61710  105.93700 2735.95070 2735.34370    1.94970
 8013.50000   16.30110   46.50900   45.57790   90.53760    9.32120  945.76960 1018.25700    0.32520  101.62890  103.12030 2735.95070 2735.34370    1.96800
 8014.00000   13.80660   47.16120   46.21150   91.38240    9.28940 2016.66860 1796.94180    0.32460  110.79500  100.20300 2735.95070 2746.75360    1.96440
 8014.50000   12.42880   47.75060   47.12080   93.27580    9.26800 4353.58970 4015.98720    0.32320 1986.73280   72.04920 2735.95070 2740.63750    1.96920
 8015.00000   11.67470   48.30260   47.56190   94.07000    9.26920 3724.99830 3488.42770    0.32180 1987.48710   59.35420 2735.95070 2734.52150    1.96590
 8015.50000   12.02440   48.52970   47.86870   93.94550    9.27040 3210.71420 2603.06950    0.32070 1963.65510   57.79990 2751.47920 2752.35780    1.95330
 8016.00000   12.59780   48.45940   47.94980   93.46110    9.27170 2005.14690 2028.47850    0.31870 1525.73580   58.85380 2753.73540 2752.84030    1.94080
 8016.50000   12.07850   48.00940   47.53910   92.96430    9.27290 1192.91670 1434.86680    0.32060  861.11720   58.36110 2734.39050 2748.54590    1.95140
 8017.00000   12.19410   47.80910   47.31420   92.62360    9.27810 1304.88870 1496.04990    0.32190 1017.04480   58.66480 2734.39050 2741.06670    1.95240
 8017.50000   12.93260   47.90170   47.30760   92.40480    9.27530 1409.27240 1596.30500    0.32240  766.41300   59.99010 2734.39050 2733.58750    1.94110
 8018.00000   13.67110   47.95870   47.35570   92.63320    9.26100  987.53580 1341.93320    0.32340  338.62670   61.10680 2734.39050 2736.12910    1.94030
 8018.50000   15.09850   47.93180   47.31450   93.16770    9.24670  469.90220  885.42730    0.32450  215.75000   63.96790 2733.48050 2739.35280    1.95100
 8019.00000   20.95720   47.82380   47.44640   93.82960    9.24180  470.01650  520.22260    0.32570   69.95230   78.20290 2771.54990 2742.57660    1.96320
 8019.50000   27.77810   48.22340   47.77890   94.30200    9.26690  557.21840  603.18840    0.32600   91.73050   99.94420 2772.28820 2745.80030    1.96990
 8020.00000   32.94410   48.75220   48.33610   94.06070    9.21730 1147.07730 2050.75450    0.32010  105.05170  138.00930 2806.66890 2749.02410    1.95710
 8020.50000   34.08720   49.22320   48.44770   93.71070    9.40240 14080.67480 11256.22290    0.31350 2043.23540  195.27420 2795.65870 2752.24780    1.94220
 8021.00000   28.96620   49.42790   48.61420   93.28820    9.31100 12063.69980 10602.16560    0.30820 2043.23540  184.36040 2784.64840 2755.47160    1.92720
 8021.50000   23.84520   49.35990   48.46640   93.72180    9.21960 10046.72470 8477.03270    0.30920   83.48290  167.23330 2773.63810 2742.55300    1.91230
 8022.00000   21.59620   49.65670   48.72780   94.15480    9.20350 8675.23640 7535.85700    0.30900   50.89830  151.70270 2762.62790 2748.35100    1.90670
 8022.50000   18.77580   50.10160   49.27750   95.27870    9.18620 12451.24720 10064.05040    0.30780   51.55420  142.56060 2751.61760 2736.26030    1.90690
 8023.00000   17.22790   50.51940   49.66210   96.40260    9.16800 16658.15290 13781.76750    0.31150  193.40970  129.15950 2740.60730 2740.03010    1.92100
 8023.50000   16.50880   51.16920   50.26180   98.17110    9.15680 18174.62400 14261.98460    0.31290 2051.82930  111.25030 2729.59710 2746.47820    1.92950
 8024.00000   16.93640   51.44280   50.58440   98.67340    9.15000 2054.16550 7498.70700    0.31420 2040.75560   99.89930 2730.16550 2751.60640    1.92680
 8024.50000   17.18000   51.30170   50.64830   97.77170    9.14320 1507.28390 2030.79620    0.31210  690.64820   78.08530 2738.45310 2753.72660    1.91540
 8025.00000   17.27190   50.69770   50.05320   95.28170    9.13640 1565.20530 1848.40750    0.30730  682.64550   96.22100 2745.08320 2755.84670    1.89820
 8025.50000   18.00130   49.47660   48.84600   92.84700    9.13380 2000.86200 3070.25170    0.30570 1363.39530  115.29780 2745.08320 2757.96690    1.88710
 8026.00000   18.52520   48.43330   47.78440   90.91350    9.13770 5015.17930 2702.02860    0.30680 1960.08490  145.88920 2744.83520 2760.93980    1.87890
 8026.50000   18.31600   47.91760   47.16640   89.77030    9.15490 1971.12940 1712.82250    0.30960  938.29130  134.87040 2754.80390 2767.32400    1.88710
 8027.00000   17.14940   47.75840   47.07150   90.91970    9.19200  381.59650  467.60860    0.31230   41.71860  117.41100 2764.77250 2773.70820    1.91520
 8027.50000   16.80780   48.54430   47.49050   93.59120    9.22920  130.67580  215.39330    0.32030   20.85500  102.69820 2764.74980 2758.34120    1.95470
