~Version ---------------------------------------------------
VERS.   2.0 : CWLS log ASCII Standard -VERSION 2.0
WRAP.    NO : One line per depth step
DLM . SPACE : Column Data Section Delimiter
~Well ------------------------------------------------------
STRT .FT                1164.0 : START DEPTH
STOP .FT                9660.0 : STOP DEPTH
STEP .FT                   0.5 : STEP
NULL .                -9999.25 : NULL VALUE
COMP .                         : COMPANY
WELL .                         : WELL
FLD  .                         : FIELD
LOC  .                         : LOCATION
PROV .                         : PROVINCE
CNTY .                         : COUNTY
STAT .                         : STATE
CTRY .                         : COUNTRY
SRVC .                         : SERVICE COMPANY
DATE .                         : DATE
UWI  .                         : UNIQUE WELL ID
API  .                         : API NUMBER
SLAT .WGS84 2.9809693809138977 : SURFACE LATITUDE
SLON .WGS84  8.923250822309996 : SURFACE LONGITUDE
DATUM.F                3444.66 : DEPTH DATUM ELEV
~Curve Information -----------------------------------------
DEPT  .FT    : 
CGRS  .GAPI  : CORRECTED GAMMA RAY FROM SONIC LOG
DTCO  .US/F  : DELTA-T COMPRESSIONAL
DTCO_1.US/F  : DELTA-T COMPRESSIONAL
DTSM  .US/F  : DELTA-T SHEAR
HCALS .IN    : HRCC CALIPER CALIBRATED FROM SONIC LOG
HLLD  .OHMM  : HALS LATEROLOG DEEP RESISTIVITY
HLLS  .OHMM  : HALS LATEROLOG SHALLOW RESISTIVITY
PR    .N/A   : POISSON'S RATIO
RXOZ  .OHMM  : INVADED FORMATION RESISTIVITY FILTERED AT 18 INCHES
SGRS  .GAPI  : SPECTROSCOPY GAMMA RAY FROM SONIC LOG
TENR  .LB    : TENSION FROM RESISTIVITY LOG
TENS  .LB    : TENSION FROM SONIC LOG
VPVS  .VPVS  : COMPRESSIONAL TO SHEAR VELOCITY RATIO
~Params ----------------------------------------------------
~Other -----------------------------------------------------
~ASCII -----------------------------------------------------
# ...
 3140.00000   10.68590   46.77560   45.60200   88.08900    9.91130  176.52080  203.54480    0.30320  334.02470   31.00980 1582.60100 1603.65060    1.90090
 3140.50000   10.90630   46.71750   45.55560   87.70050    9.94430  164.59800  189.69200    0.30690  387.35870   30.46280 1595.19320 1611.68590    1.90040
 3141.00000   10.55530   46.64030   45.39400   87.61590    9.95270  156.88700  182.53500    0.30720  363.28450   27.57520 1607.78550 1616.84600    1.89930
 3141.50000    9.90120   46.75810   45.37290   87.53130    9.95070  163.89780  188.28050    0.30480  376.70360   22.35690 1606.27430 1617.40570    1.89000
 3142.00000    9.83420   46.85700   45.81290   87.44670    9.96370  170.08480  190.66580    0.30360  355.98410   19.60380 1601.23720 1617.96550    1.88480
 3142.50000    9.67700   47.00110   45.83310   87.36210    9.96370  152.23650  172.03870    0.30040  389.11010   18.31400 1602.75230 1615.98390    1.88260
 3143.00000    9.29290   47.40470   46.04110   87.27160    9.96370  123.59960  151.23440    0.29630  300.51050   17.30300 1606.95550 1610.19030    1.86670
 3143.50000    9.64520   47.56320   46.42250   86.90360    9.96370  111.24160  132.62130    0.29220  239.31500   17.30770 1607.69970 1604.39670    1.84950
 3144.00000   10.12390   47.37530   46.13100   86.89080    9.96230  105.46950  122.00470    0.29440  216.96600   17.70740 1594.60770 1598.60310    1.85340
 3144.50000   10.41140   47.26260   46.10560   86.87790    9.95070   97.44830  111.18910    0.29500  208.45400   18.14070 1570.00350 1592.80950    1.85800
 3145.00000   10.56330   47.21470   46.08010   86.86510    9.93920   93.81190  112.62730    0.29520  184.56250   19.24870 1575.24860 1592.10500    1.86150
 3145.50000   10.81590   47.00860   45.80010   86.08360    9.91430  104.66700  117.54400    0.29760  193.96540   20.37250 1581.80410 1602.37580    1.86490
 3146.00000   10.87720   46.79470   45.42630   85.99330    9.88770  116.59470  134.19190    0.29880  210.79670   21.79200 1591.26670 1610.62670    1.87120
 3146.50000   11.11970   46.71950   45.17440   86.09950    9.86100  126.13860  150.83990    0.29990  255.56020   22.70970 1593.99980 1610.79810    1.87700
 3147.00000   11.02000   46.71610   45.24820   86.08780    9.83530  147.49120  167.48780    0.30090  293.55800   23.75690 1596.73300 1610.96940    1.87350
 3147.50000   10.69050   46.65290   45.21910   86.07610    9.80910  161.79420  184.13580    0.30090  329.98120   24.45370 1599.46610 1609.68620    1.87710
 3148.00000   10.40410   46.60130   45.34900   86.06430    9.80220  180.74260  200.78370    0.30090  372.82400   24.69890 1602.19920 1616.93500    1.87820
 3148.50000   10.11770   46.72150   45.38010   85.95510    9.80550  201.95920  218.04770    0.29960  391.94510   24.41140 1608.51790 1613.62050    1.86920
 3149.00000    9.72370   46.84400   45.68520   86.09470    9.81470  229.05310  241.53630    0.29990  428.55860   23.84850 1599.35710 1607.66520    1.86530
 3149.50000    9.06900   46.70370   45.41780   86.09370    9.82400  251.79980  268.12920    0.30060  453.18970   22.58500 1590.19620 1601.70990    1.87240
 3150.00000    8.49090   46.49070   45.22760   86.05830    9.83320  257.24680  262.56070    0.30140  469.23600   21.97520 1588.12410 1594.57730    1.87410
 3150.50000    8.45730   46.88010   45.70960   86.86250    9.86250  228.06100  228.32770    0.30090  415.85200   22.55800 1570.01310 1603.25310    1.87200
 3151.00000    8.69210   47.36180   45.97800   87.22260    9.86250  198.87520  202.52310    0.29760  319.31560   23.15210 1570.01430 1610.29380    1.86990
 3151.50000    8.43600   47.48620   46.17780   87.44120    9.86250  169.68940  180.77970    0.29740  272.47570   22.53880 1570.01430 1610.29380    1.86780
 3152.00000    8.11590   47.74750   46.40440   88.08550    9.87180  181.73320  193.45920    0.29860  293.49630   22.07960 1579.89300 1603.25060    1.86070
 3152.50000    8.53620   48.64010   47.05530   88.42620    9.89530  230.14770  232.83810    0.29150  378.67390   22.52830 1582.60410 1603.25060    1.84490
 3153.00000    9.70510   49.24200   47.88720   88.63970    9.89910  228.01250  261.91570    0.28430  454.34360   26.16720 1585.31520 1610.29020    1.82130
 3153.50000   14.52710   49.37460   48.06520   88.85320    9.87330  202.61840  239.87640    0.28290  408.62050   33.76010 1588.02640 1610.29020    1.82060
 3154.00000   19.15490   49.31760   48.01010   88.77460    9.84750  177.22420  197.98040    0.28430  266.53150   39.07190 1587.84380 1603.24810    1.82270
 3154.50000   16.99650   49.16580   47.67290   88.36300    9.89060  151.83000  164.26040    0.28370  204.15570   36.91910 1585.71890 1609.30230    1.82140
 3155.00000   14.29850   48.79990   47.50410   87.95140    9.93620  151.12170  159.36450    0.28720  178.29970   32.79000 1574.52200 1604.36910    1.82140
 3155.50000   12.82690   48.06530   46.73230   87.11410    9.95110  155.69240  171.30480    0.29070  193.12610   30.94110 1572.54480 1609.96750    1.83900
 3156.00000   12.37420   47.26340   45.72750   86.31830    9.95350  168.49160  185.77470    0.29510  239.67060   30.19990 1585.04630 1608.36650    1.85850
 3156.50000   12.01200   46.71810   45.12420   86.59090    9.95600  188.58050  200.24460    0.30050  276.22550   28.82740 1570.05120 1606.76550    1.87800
 3157.00000   10.44410   46.48940   45.12370   86.88350    9.96060  185.47160  199.30780    0.30560  279.05200   25.24460 1581.76380 1605.16440    1.89450
 3157.50000    8.60990   46.18800   45.02190   86.69590    9.94950  169.98510  191.41170    0.30940  290.79930   21.92470 1574.44850 1603.56340    1.90640
 3158.00000    7.81990   46.17410   44.94050   87.19530    9.96090  154.49860  183.39030    0.30920  266.55000   20.89250 1578.12470 1604.07170    1.91460
 3158.50000    9.07270   46.43330   44.97300   87.71750    9.95980  142.26530  171.19590    0.30900  231.24130   21.77790 1598.28840 1607.10700    1.90970
 3159.00000   10.76170   46.94670   45.58780   88.23970    9.96160  152.92960  166.94120    0.30880  206.74210   24.64100 1603.33210 1610.14220    1.90160
 3159.50000   13.06120   47.47880   45.92140   88.65500    9.96310  158.91190  184.20150    0.30510  228.62250   28.46840 1602.16170 1613.17750    1.89160
 3160.00000   15.44230   47.86780   46.37420   88.64280    9.94940  138.44380  164.08660    0.30290  200.32810   32.25190 1600.99120 1616.21280    1.88280
 3160.50000   16.39460   48.17280   46.73930   88.63070    9.95060  110.37750  123.87300    0.29810  153.00100   33.97150 1593.56990 1615.57600    1.87000
 3161.00000   15.43800   47.84380   46.34930   88.36140    9.95180  111.41510  155.93390    0.29890  133.47610   33.34180 1576.77240 1612.01530    1.87450
 3161.50000   14.29190   47.33620   45.80320   87.79740    9.95650  147.29610  206.47860    0.29980  189.22150   32.04990 1577.63300 1602.31440    1.87780
 3162.00000   13.14570   47.33430   46.13390   87.13050    9.96240  183.17710  257.02330    0.29690  274.14610   30.14710 1574.19190 1603.60760    1.86700
 3162.50000   11.49050   47.99930   46.57030   86.14000    9.96240  234.65860  307.56790    0.28610  378.37470   27.34630 1570.75090 1604.90080    1.83480
 3163.00000    9.85470   48.63490   47.09120   85.75190    9.96240  296.54040  358.11260    0.27590  449.03150   25.23600 1563.34490 1598.20390    1.80310
 3163.50000    9.47640   48.77160   47.22220   85.37100    9.95400  358.42230  398.54830    0.26830  460.27150   24.12170 1554.94770 1589.50950    1.78690
 3164.00000    9.46220   48.36820   46.96590   85.14340    9.93820  331.75080  370.55300    0.27260  409.63740   23.65430 1552.84740 1592.44910    1.79480
 3164.50000    9.44800   47.98410   46.44680   85.13910    9.90990  252.46540  323.82270    0.27840  376.90080   23.62150 1560.19250 1589.69910    1.80900
 3165.00000    9.13390   47.92390   46.44680   85.13470    9.96060  216.24060  277.09230    0.27980  371.46460   23.06990 1567.53770 1594.63220    1.81080
 3165.50000    9.66960   47.80370   46.44680   85.05000    9.95660  226.85070  249.45480    0.28110  400.98650   23.59180 1563.77080 1589.49460    1.81030
