~Version ---------------------------------------------------
VERS.   2.0 : CWLS log ASCII Standard -VERSION 2.0
WRAP.    NO : One line per depth step
DLM . SPACE : Column Data Section Delimiter
~Well ------------------------------------------------------
STRT .FT                1164.0 : START DEPTH
STOP .FT                9660.0 : STOP DEPTH
STEP .FT                   0.5 : STEP
NULL .                -9999.25 : NULL VALUE
COMP .                         : COMPANY
WELL .                         : WELL
FLD  .                         : FIELD
LOC  .                         : LOCATION
PROV .                         : PROVINCE
CNTY .                         : COUNTY
STAT .                         : STATE
CTRY .                         : COUNTRY
SRVC .                         : SERVICE COMPANY
DATE .                         : DATE
UWI  .                         : UNIQUE WELL ID
API  .                         : API NUMBER
SLAT .WGS84 2.9809693809138977 : SURFACE LATITUDE
SLON .WGS84  8.923250822309996 : SURFACE LONGITUDE
DATUM.F                3444.66 : DEPTH DATUM ELEV
~Curve Information -----------------------------------------
DEPT  .FT    : 
CGRS  .GAPI  : CORRECTED GAMMA RAY FROM SONIC LOG
DTCO  .US/F  : DELTA-T COMPRESSIONAL
DTCO_1.US/F  : DELTA-T COMPRESSIONAL
DTSM  .US/F  : DELTA-T SHEAR
HCALS .IN    : HRCC CALIPER CALIBRATED FROM SONIC LOG
HLLD  .OHMM  : HALS LATEROLOG DEEP RESISTIVITY
HLLS  .OHMM  : HALS LATEROLOG SHALLOW RESISTIVITY
PR    .N/A   : POISSON'S RATIO
RXOZ  .OHMM  : INVADED FORMATION RESISTIVITY FILTERED AT 18 INCHES
SGRS  .GAPI  : SPECTROSCOPY GAMMA RAY FROM SONIC LOG
TENR  .LB    : TENSION FROM RESISTIVITY LOG
TENS  .LB    : TENSION FROM SONIC LOG
VPVS  .VPVS  : COMPRESSIONAL TO SHEAR VELOCITY RATIO
~Params ----------------------------------------------------
~Other -----------------------------------------------------
~ASCII -----------------------------------------------------
# ...
 8548.00000   12.90790   48.72470   47.73470   91.64500   13.49540 10042.55940 1711.36160    0.30740   17.16430   37.60180 2857.89760 2869.88190    1.89860
 8548.50000   12.71010   48.86680   48.04400   93.28380   13.77450 6923.48430 1606.09540    0.31130   14.48700   36.72430 2882.62150 2870.23090    1.92230
 8549.00000   14.28480   49.06450   48.23160   95.16450   13.43910 6299.44110 1496.23230    0.32010   17.52960   38.81500 2879.08310 2870.58000    1.95390
 8549.50000   15.00930   49.76040   48.81530   96.88010   13.52620 6627.24850 1388.87610    0.32440   30.19220   40.10750 2873.21910 2870.92910    1.96420
 8550.00000   14.60320   50.79570   49.84890   98.46750   13.49930 6535.81520 1295.51360    0.32440   54.73110   38.06240 2858.05270 2871.27810    1.96020
 8550.50000   12.42460   51.64910   50.57960  100.34470   13.53100 6416.23340 1208.26320    0.32420   66.66500   35.00080 2853.15170 2871.62720    1.96660
 8551.00000   11.61740   52.76030   51.55320  101.69710   13.56410 6626.92980 1181.19430    0.32260   66.74170   34.42690 2863.64880 2871.97630    1.96400
 8551.50000   12.31020   55.65320   54.39160  106.59160   13.58370 9810.99670 1631.72660    0.31470   64.83710   35.55150 2874.14590 2872.31100    1.93590
 8552.00000   13.44870   61.98430   59.40010  115.30870   13.55640 8424.73510 1419.91890    0.30830   61.13620   37.16850 2866.18720 2872.62410    1.90720
 8552.50000   14.96230   67.45960   65.72950  124.91820   13.58270 10180.02500 1307.39870    0.30240   55.91950   40.71650 2871.25630 2872.93710    1.88040
 8553.00000   17.30020   70.21530   69.12500  128.50010   13.58230 9455.23230 1558.04900    0.29680   48.36890   47.97090 2876.32530 2873.25020    1.85400
 8553.50000   20.45740   70.44690   69.25670  126.28490   13.58180 8621.38230 1624.11880    0.27090   35.67140   52.66560 2873.62930 2873.56330    1.81830
 8554.00000   22.34860   68.57630   67.70110  117.89580   13.37210 7266.66060 1797.69150    0.23950   16.22470   55.83420 2870.93320 2873.87640    1.74510
 8554.50000   23.12770   65.54950   64.90460  111.91520   13.12480 3562.11660 1285.85750    0.23160    5.00150   57.07450 2868.23720 2874.18950    1.70110
 8555.00000   22.81470   63.14110   62.64320  112.25730   11.90370 1621.34420  761.18790    0.24280    1.41470   56.89120 2865.54120 2874.50260    1.79070
 8555.50000   22.12730   62.84080   61.66090  117.31710   12.96290  794.03130  578.28920    0.28140    0.78880   55.21030 2862.84510 2874.81570    1.89960
 8556.00000   21.43990   63.79890   62.60000  121.92000   10.66870  645.08980  441.83750    0.31470    0.34140   53.46120 2860.14910 2875.12880    1.94020
 8556.50000   21.16260   64.70720   63.63170  124.66860   16.01730  553.20310  344.98360    0.32530    0.25420   53.12880 2857.45300 2881.07250    1.95630
 8557.00000   20.49310   63.38820   62.73330  124.09270   19.05810  471.29290  255.09070    0.32830    0.24990   51.38080 2857.29890 2878.13110    1.97060
 8557.50000   19.96450   61.77360   60.70740  118.34770   19.08440  276.23980  156.67440    0.31120    0.25000   49.24700 2861.86460 2875.18960    1.96440
 8558.00000   24.18260   63.31930   62.80610  113.25440   19.09140  111.17210  102.06560    0.31020    0.25010   53.48830 2866.43040 2880.89020    1.90260
 8558.50000   34.59960   74.42130   73.15550  115.28640   19.10940   66.04660   47.45680    0.31650    0.24980   61.87640 2870.99610 2877.16770    1.87300
 8559.00000   43.83820   89.78550   86.98020  121.75650   19.12750   35.15570   31.72250    0.31870    0.25050   73.60560 2875.56190 2873.44510    1.88910
 8559.50000   54.97140   81.09020   80.33490  128.81900   19.14550   26.06540   24.45260    0.31870    0.25100   84.30270 2880.12760 2869.72260    1.93090
 8560.00000   62.35330   71.15030   70.52540  132.74000   19.16360   18.62040   16.97940    0.31970    0.25150   88.88410 2884.69340 2866.85600    1.96700
 8560.50000   64.05310   70.01970   68.67010  135.38320   19.18170   18.08050   16.48710    0.32360    0.25190   90.56770 2889.25910 2886.92640    1.96650
 8561.00000   65.03140   73.21130   71.92930  137.31570   19.17530   17.92470   16.34510    0.32160    0.25240   91.23990 2893.82490 2900.91870    1.91600
 8561.50000   66.38090   75.68870   73.96520  130.75020   19.16140   17.86230   16.16350    0.26110    0.24960   93.09230 2909.83160 2920.40960    1.78350
 8562.00000   67.57410   69.03750   67.99300  118.41280   19.14770   17.86220   15.99010    0.24160    0.24960   95.88380 2897.69640 2911.54680    1.72120
 8562.50000   67.58380   63.78640   63.11850  118.16610   19.13390   17.86210   16.04240    0.26430    0.24960   95.57960 2885.56120 2902.68390    1.82250
 8563.00000   65.74080   65.15240   64.07320  129.69090   19.13360   17.86210   16.10790    0.30240    0.24960   92.70340 2877.08450 2893.82100    1.95750
 8563.50000   63.79250   65.66700   64.75580  134.15990   19.11570   17.86210   16.17340    0.34040    0.24960   91.14570 2878.16990 2884.95810    2.04660
 8564.00000   65.43990   65.45170   64.56130  133.24210   19.09470   17.86210   16.43870    0.34590    0.25120   94.08830 2879.25530 2865.35810    2.05590
 8564.50000   68.77420   63.17380   62.01000  129.46940   19.07360   18.27860   17.29480    0.34790    0.24960   99.44590 2880.34060 2866.23090    2.08230
 8565.00000   68.25540   58.60540   57.16520  128.44280   19.06510   58.22450   26.97000    0.35920    0.24960   98.11650 2881.42600 2867.10370    2.19350
 8565.50000   62.47940   57.04490   55.19230  136.60360   19.13180   41.04070   34.03570    0.38210    0.24870   88.52820 2882.51140 2867.97650    2.33030
 8566.00000   57.23960   56.86980   55.19130  141.97390   19.52990  101.43880   39.70580    0.40200    0.30210   83.79950 2881.81800 2868.84920    2.41510
 8566.50000   57.03790   56.42560   54.78560  139.15660   20.35370 1539.26190  695.47410    0.40250    0.36210   81.29070 2881.12470 2869.72200    2.47780
 8567.00000   57.54020   55.30210   53.52380  130.00570   15.99690 13614.72810 1961.77110    0.39340    0.38070   82.29780 2880.43130 2870.59480    2.40420
 8567.50000   57.79120   51.28530   49.19920  118.62600   11.65670 10513.53160 13812.31250    0.38850    0.32180   82.52770 2879.73790 2871.46760    2.33460
 8568.00000   57.74030   47.32800   45.44200  105.88190   14.45330 10105.88210 13590.06300    0.37940    0.33880   81.90900 2879.04450 2872.34040    2.27860
 8568.50000   54.90270   45.80630   44.55860   95.99160   13.34180 9973.45550 13367.81360    0.35860    0.48200   80.28110 2878.35120 2873.21320    2.18640
 8569.00000   55.52580   46.07430   44.87460   91.11520   11.96680 9901.15110 13145.56410    0.33340    0.90030   79.07220 2877.65780 2874.08600    2.02520
 8569.50000   53.95580   48.87970   48.51990   91.33100   11.26070 9901.12590 12923.31460    0.30910    1.42380   82.09660 2876.96440 2874.95880    1.89700
 8570.00000   52.62690   54.07370   54.06410   98.15270   11.56250 9870.70020 12701.06510    0.28480    1.67280   88.98850 2876.27100 2877.44040    1.81820
 8570.50000   51.81780   57.45510   56.23280   99.42590   11.69140 9855.49120 12478.81570    0.26060    3.90260   92.75940 2875.57770 2882.33540    1.75540
 8571.00000   41.33640   57.29970   55.57430   96.39010   10.83940 9855.45470 12256.56620    0.24070   12.44940   85.15270 2874.88430 2887.23040    1.71990
 8571.50000   34.51050   56.97160   55.39900   95.83200    9.92040 9821.55340 12034.31670    0.23970  469.07900   75.93780 2874.19090 2892.12540    1.71330
 8572.00000   27.97030   55.82230   54.47160   94.66920    9.85300 9779.18650 11812.06720    0.25020  350.68000   74.92930 2873.49760 2897.02040    1.74810
 8572.50000   24.54750   53.69350   51.98920   93.50650    9.79900 9736.81950 11589.81780    0.26750  320.81700   85.88040 2872.80420 2901.91540    1.78290
 8573.00000   21.62770   52.08980   50.34380   92.06530    9.74510 9694.45260 11367.56830    0.27550  544.37970   98.35290 2872.11080 2906.81040    1.80280
 8573.50000   19.05280   50.43520   48.77580   89.26120    9.70010 9652.08560 11189.76400    0.27760 1473.66460  100.21710 2854.60030 2904.62060    1.80580
