~Version ---------------------------------------------------
VERS.   2.0 : CWLS log ASCII Standard -VERSION 2.0
WRAP.    NO : One line per depth step
DLM . SPACE : Column Data Section Delimiter
~Well ------------------------------------------------------
STRT .F                3285.0 : START DEPTH
STOP .F                8987.0 : STOP DEPTH
STEP .F                   0.5 : STEP
NULL .               -9999.25 : NULL VALUE
COMP .                        : COMPANY
WELL .                        : WELL
FLD  .                        : FIELD
LOC  .                        : LOCATION
PROV .                        : PROVINCE
CNTY .                        : COUNTY
STAT .                        : STATE
CTRY .                        : COUNTRY
SRVC .                        : SERVICE COMPANY
DATE .                        : DATE
UWI  .                        : UNIQUE WELL ID
API  .                        : API NUMBER
SLAT .WGS84 5.837222014957298 : SURFACE LATITUDE
SLON .WGS84  4.66713011398501 : SURFACE LONGITUDE
DATUM.F                2554.0 : DEPTH DATUM ELEV
~Curve Information -----------------------------------------
DEPT.F     : 
GRR .GAPI  : GAMMA RAY FROM RES.
IDPH.OHMM  : INDUCTION DEEP PHASOR RES.
IMPH.OHMM  : INDUCTION MEDIUM PHASOR RES.
SFLU.OHMM  : SPHERICALLY FOCUSED LOG UNAVERAGED RES.
SPR .MV    : SPONTANEOUS POTENTIAL FROM RES.
CALD.IN    : CALIPER FROM DENSITY LOG
DRHO.G/C3  : DENSITY CORRECTION
PEF .B/E   : PHOTOELECTRIC FACTOR
RHOB.G/C3  : BULK DENSITY
DPHI.DEC   : DENSITY POROSITY SANDSTONE
NPHI.DEC   : NEUTRON POROSITY SANDSTONE
DTCO.US/F  : COMPRESSIONAL-WAVE INTERVAL TRANSIT TIME ACOUSTIC SLOWNESS
DTSM.US/F  : SHEAR-WAVE INTERVAL TRANSIT TIME DELTA-T
~Params ----------------------------------------------------
~Other -----------------------------------------------------
~ASCII -----------------------------------------------------
# ...
 7523.00000   65.38920    8.15270    8.54550    9.01370   19.15500    7.85390    0.02580    3.57580    2.60710    0.06180    0.21000   -9999.25   -9999.25
 7523.50000   63.26370    8.43710    9.09280   11.01050   18.83960    7.82460    0.01830    3.73340    2.61460    0.05820    0.20760   -9999.25   -9999.25
 7524.00000   59.73630    9.10160    9.74230   12.29430   18.22350    7.82520    0.01080    4.00390    2.63110    0.04980    0.19090   -9999.25   -9999.25
 7524.50000   56.34770    9.88640   10.96650   12.63630   17.90810    7.79580    0.00640    4.07240    2.64470    0.03970    0.18790   -9999.25   -9999.25
 7525.00000   53.40890   10.73890   11.68470   12.28770   17.59280    7.79640    0.00190    3.91270    2.65070    0.03430    0.18370   -9999.25   -9999.25
 7525.50000   49.12070   11.34690   13.11000   14.10490   17.57810    7.79700    0.00040    3.76760    2.64620    0.03670    0.17170   -9999.25   -9999.25
 7526.00000   43.48330   12.00280   15.26270   17.48100   17.86470    7.79760    0.00040    3.90080    2.67170    0.02590    0.15010   -9999.25   -9999.25
 7526.50000   42.79340   12.75540   16.46650   26.61820   18.15040    7.79820    0.00190    3.95380    2.69420    0.01450    0.13820   -9999.25   -9999.25
 7527.00000   46.15140   13.38480   17.40030   28.51670   18.47230    7.82870    0.00200    3.90560    2.70040    0.00560    0.13100   -9999.25   -9999.25
 7527.50000   50.03730   14.24070   17.88600   21.62340   19.01970    7.82930    0.00350    3.86450    2.67630    0.01330    0.14410   -9999.25   -9999.25
 7528.00000   51.51820   14.84050   17.75810   16.39750   19.30590    7.82990    0.00350    3.97400    2.65840    0.02590    0.15370   -9999.25   -9999.25
 7528.50000   48.57550   14.53310   16.90850   16.96930   19.59200    7.83050    0.00350    4.07390    2.64340    0.03670    0.14770   -9999.25   -9999.25
 7529.00000   46.98600   13.56010   15.85690   19.21150   19.57740    7.83110    0.00360    4.18810    2.63290    0.04210    0.13990   -9999.25   -9999.25
 7529.50000   49.21960   12.82830   14.62060   19.88150   19.56280    7.83170    0.00210    4.06600    2.62100    0.04810    0.13340   -9999.25   -9999.25
 7530.00000   59.32430   12.13030   13.08560   17.14210   19.54810    7.83230    0.00060    3.72710    2.60750    0.05350    0.14890   -9999.25   -9999.25
 7530.50000   65.15610   11.72100   12.12410   12.16560   19.53350    7.83290    0.00210    3.48820    2.60300    0.05710    0.16770   -9999.25   -9999.25
 7531.00000   66.71970   11.32070   11.38980   11.91370   19.81960    7.83350    0.00210    3.47890    2.61070    0.06130    0.18120   -9999.25   -9999.25
 7531.50000   63.25810   10.85880   10.92430   13.11930   19.50380    7.83410    0.00220    3.54880    2.62130    0.06000    0.18300   -9999.25   -9999.25
 7532.00000   60.60870   10.41570   10.62400   13.95730   19.48600    7.83470    0.00220    3.57340    2.62410    0.05330    0.17100   -9999.25   -9999.25
 7532.50000   59.92260    9.99070   10.25950   13.66730   19.47140    7.83530    0.00220    3.52300    2.61490    0.04990    0.16270   -9999.25   -9999.25
 7533.00000   60.35710    9.85160    9.97840   12.40380   19.15600    7.83590    0.00220    3.50830    2.60720    0.05370    0.16370   -9999.25   -9999.25
 7533.50000   59.88830    9.98670    9.97600   10.71910   18.84060    7.83650    0.00230    3.49370    2.59720    0.06040    0.17770   -9999.25   -9999.25
 7534.00000   56.72460   10.34320   10.39680   10.20420   18.52520    7.83710    0.00210    3.61420    2.57930    0.06590    0.18840   -9999.25   -9999.25
 7534.50000   53.78580   10.99610   11.37310   10.79350   17.90910    7.83770    0.00080    3.71960    2.57480    0.07370    0.19320   -9999.25   -9999.25
 7535.00000   47.69850   11.69920   12.35540   14.42370   17.59370    7.80830   -0.00090    3.82510    2.59880    0.06990    0.16280   -9999.25   -9999.25
 7535.50000   41.10130   12.79610   14.68590   23.71460   17.27820    7.80900   -0.00220    3.93060    2.62730    0.05720    0.13440   -9999.25   -9999.25
 7536.00000   37.99400   13.89950   16.97940   28.37390   16.96240    7.77960   -0.00210    3.69070    2.65280    0.04500    0.11860   -9999.25   -9999.25
 7536.50000   38.65340   15.52120   19.22780   26.47250   16.34320    7.78020   -0.00210    3.51090    2.65750    0.02940    0.11060   -9999.25   -9999.25
 7537.00000   40.21230   16.74350   20.51280   23.85990   16.32860    7.78080   -0.00020    3.58640    2.65140    0.03170    0.11670   -9999.25   -9999.25
 7537.50000   41.77130   17.56970   21.32120   23.52600   16.31400    7.78140    0.00280    3.79700    2.64690    0.03470    0.12110   -9999.25   -9999.25
 7538.00000   43.10530   18.06340   20.30900   21.94810   15.99860    7.78200    0.00440    3.85740    2.65900    0.03160    0.12740   -9999.25   -9999.25
 7538.50000   42.64030   18.18000   19.34480   18.71820   15.98400    7.78260    0.00590    3.99290    2.65750    0.03060    0.13440   -9999.25   -9999.25
 7539.00000   41.50060   17.80250   18.68310   18.45760   16.27070    7.75320    0.00700    4.12840    2.65440    0.03160    0.14160   -9999.25   -9999.25
 7539.50000   40.56830   17.19450   18.16940   19.63520   16.85700    7.75390    0.00700    4.27890    2.66050    0.02890    0.14410   -9999.25   -9999.25
 7540.00000   42.81550   16.04340   17.54800   20.04250   17.44390    7.75450    0.00610    4.41440    2.66360    0.02690    0.13920   -9999.25   -9999.25
 7540.50000   45.94870   14.76380   16.71490   18.44150   17.73000    7.75510    0.00200    4.26460    2.66360    0.02600    0.13750   -9999.25   -9999.25
 7541.00000   47.73250   13.87090   15.45070   16.50700   18.01610    7.75570   -0.00100    4.06980    2.65750    0.02890    0.14040   -9999.25   -9999.25
 7541.50000   48.61680   13.12240   13.86000   15.04630   18.30220    7.75630   -0.00190    3.99510    2.65000    0.03370    0.14890   -9999.25   -9999.25
 7542.00000   52.42460   12.15250   12.57780   14.07310   18.28400    7.75690   -0.00130    3.85970    2.64550    0.03650    0.15720   -9999.25   -9999.25
 7542.50000   56.45730   11.07860   11.49340   13.31280   18.26930    7.75750    0.00180    3.86220    2.63950    0.03860    0.16440   -9999.25   -9999.25
 7543.00000   61.38960    9.81060   10.87220   12.59350   18.25470    7.78800    0.00910    3.93700    2.63300    0.04570    0.16680   -9999.25   -9999.25
 7543.50000   62.27390    8.90430    9.79830   12.33180   17.93930    7.80340    0.02180    3.95160    2.61120    0.06040    0.16140   -9999.25   -9999.25
 7544.00000   63.37920    7.86140    8.29730   11.34750   17.62400    7.86430    0.04650    3.80840    2.56600    0.09030    0.16620   -9999.25   -9999.25
 7544.50000   66.06260    6.79820    6.83440    9.34900   17.21020    7.89520    0.08350    3.62520    2.49620    0.12390    0.20030   -9999.25   -9999.25
 7545.00000   69.87040    5.44860    5.93350    6.42340   16.79410    7.98600    0.11090    3.25490    2.43670    0.16850    0.22130   -9999.25   -9999.25
 7545.50000   77.05150    4.97950    5.28830    5.42640   16.37590    8.16950    0.13130    2.99560    2.39400    0.18410    0.24640   -9999.25   -9999.25
 7546.00000   82.20870    4.77550    4.79900    5.01560   15.75940    8.32100    0.14500    2.85210    2.46360    0.15960    0.26440   -9999.25   -9999.25
 7546.50000   83.54660    4.61320    4.41570    4.87750   15.74150    8.37820    0.15700    2.79480    2.49170    0.13320    0.27940   -9999.25   -9999.25
 7547.00000   82.40300    4.58050    4.29450    4.87620   15.72680    8.37400    0.16500    2.74980    2.50210    0.12600    0.28650   -9999.25   -9999.25
 7547.50000   81.48800    4.80630    4.82940    4.90900   15.71220    8.15280    0.15920    2.79190    2.50130    0.12300    0.29070   -9999.25   -9999.25
 7548.00000   82.41080    5.18480    5.50690    5.18630   16.00200    8.00370    0.12900    3.08070    2.49910    0.12120    0.29310   -9999.25   -9999.25
 7548.50000   81.00410    5.74990    6.27940    5.87160   16.28450    7.88450    0.10050    3.42580    2.50990    0.12010    0.27940   -9999.25   -9999.25
