~Version ---------------------------------------------------
VERS.   2.0 : CWLS log ASCII Standard -VERSION 2.0
WRAP.    NO : One line per depth step
DLM . SPACE : Column Data Section Delimiter
~Well ------------------------------------------------------
STRT .F                3285.0 : START DEPTH
STOP .F                8987.0 : STOP DEPTH
STEP .F                   0.5 : STEP
NULL .               -9999.25 : NULL VALUE
COMP .                        : COMPANY
WELL .                        : WELL
FLD  .                        : FIELD
LOC  .                        : LOCATION
PROV .                        : PROVINCE
CNTY .                        : COUNTY
STAT .                        : STATE
CTRY .                        : COUNTRY
SRVC .                        : SERVICE COMPANY
DATE .                        : DATE
UWI  .                        : UNIQUE WELL ID
API  .                        : API NUMBER
SLAT .WGS84 5.837222014957298 : SURFACE LATITUDE
SLON .WGS84  4.66713011398501 : SURFACE LONGITUDE
DATUM.F                2554.0 : DEPTH DATUM ELEV
~Curve Information -----------------------------------------
DEPT.F     : 
GRR .GAPI  : GAMMA RAY FROM RES.
IDPH.OHMM  : INDUCTION DEEP PHASOR RES.
IMPH.OHMM  : INDUCTION MEDIUM PHASOR RES.
SFLU.OHMM  : SPHERICALLY FOCUSED LOG UNAVERAGED RES.
SPR .MV    : SPONTANEOUS POTENTIAL FROM RES.
CALD.IN    : CALIPER FROM DENSITY LOG
DRHO.G/C3  : DENSITY CORRECTION
PEF .B/E   : PHOTOELECTRIC FACTOR
RHOB.G/C3  : BULK DENSITY
DPHI.DEC   : DENSITY POROSITY SANDSTONE
NPHI.DEC   : NEUTRON POROSITY SANDSTONE
DTCO.US/F  : COMPRESSIONAL-WAVE INTERVAL TRANSIT TIME ACOUSTIC SLOWNESS
DTSM.US/F  : SHEAR-WAVE INTERVAL TRANSIT TIME DELTA-T
~Params ----------------------------------------------------
~Other -----------------------------------------------------
~ASCII -----------------------------------------------------
# ...
 8355.00000  102.90740   12.35320   13.68770   16.48180   18.58560    7.55690    0.01060    3.37990    2.57200    0.08000    0.25460   -9999.25   -9999.25
 8355.50000  101.32430   12.59330   13.87560   16.70550   18.57970    7.55690    0.01360    3.32000    2.57500    0.07880    0.25280   -9999.25   -9999.25
 8356.00000   97.49240   12.76500   14.06680   17.29160   18.87600    7.55690    0.01510    3.38020    2.57660    0.07790    0.24560   -9999.25   -9999.25
 8356.50000   92.53610   12.93910   14.35830   17.90400   19.17090    7.55690    0.01970    3.45540    2.57660    0.07730    0.24620   -9999.25   -9999.25
 8357.00000   89.60370   13.02620   14.65650   18.38350   19.46430    7.55690    0.02120    3.51560    2.57660    0.07850    0.25100   -9999.25   -9999.25
 8357.50000   92.51840   13.11300   14.96090   18.50320   19.45840    7.55690    0.02260    3.54580    2.57210    0.08090    0.25760   -9999.25   -9999.25
 8358.00000   95.43320   13.10850   15.16630   18.62510   19.45250    7.58680    0.02110    3.51560    2.56460    0.08620    0.26230   -9999.25   -9999.25
 8358.50000   96.09900   13.10500   15.26850   18.74950   19.44660    7.58680    0.01940    3.45510    2.55860    0.08890    0.25570   -9999.25   -9999.25
 8359.00000   97.33930   12.92160   15.16000   18.87310   19.44060    7.58860    0.01500    3.37910    2.55560    0.09100    0.26000   -9999.25   -9999.25
 8359.50000  102.60090   12.65310   14.74250   18.86520   19.43460    7.61860    0.00900    3.31870    2.55260    0.09530    0.26970   -9999.25   -9999.25
 8360.00000  108.43920   12.13600   14.04250   18.99110   19.42740    7.64670    0.00770    3.24520    2.53910    0.11130    0.28180   -9999.25   -9999.25
 8360.50000  119.67470   11.54600   13.28360   18.21220   19.12070    7.67660    0.00790    3.20020    2.50770    0.12080    0.29250   -9999.25   -9999.25
 8361.00000  134.95830   10.90990   12.05460   16.41360   19.11480    7.67660    0.00940    3.13740    2.48480    0.12980    0.29340   -9999.25   -9999.25
 8361.50000  138.99960   10.06170   10.78900   13.80510   18.80820    7.67660    0.01100    3.06650    2.47450    0.14110    0.28660   -9999.25   -9999.25
 8362.00000  135.39040    9.32280   10.06560   13.32440   18.50150    7.67660    0.01400    3.15010    2.47170    0.13210    0.28560   -9999.25   -9999.25
 8362.50000  129.08470    8.88020    9.39070   13.03860   18.49560    7.67660    0.01550    3.26390    2.48070    0.13630    0.30230   -9999.25   -9999.25
 8363.00000  127.27900    8.69570    9.13250   11.36430   18.48970    7.67660    0.01860    3.26220    2.47450    0.13870    0.29830   -9999.25   -9999.25
 8363.50000  129.74170    8.63410    9.19400   10.74950   18.48380    7.67660    0.01970    3.24070    2.47580    0.12850    0.29470   -9999.25   -9999.25
 8364.00000  129.77600    8.99650    9.58180   10.16800   18.47790    7.67660    0.01970    3.20240    2.50060    0.10570    0.25940   -9999.25   -9999.25
 8364.50000  122.30280    9.90760   10.40930   11.11980   18.47200    7.67660    0.01820    3.30560    2.53910    0.08050    0.19350   -9999.25   -9999.25
 8365.00000  102.58830   11.06270   11.81970   13.03070   18.46610    7.67660    0.01630    3.45380    2.63830    0.05240    0.15670   -9999.25   -9999.25
 8365.50000   78.12300   12.26750   14.07290   18.78720   18.46010    7.67660    0.01520    3.56910    2.71840    0.01760    0.12400   -9999.25   -9999.25
 8366.00000   49.41060   12.96110   20.40660   46.75350   18.75510    7.67660    0.01480    3.64780    2.75720   -0.02970    0.11620   -9999.25   -9999.25
 8366.50000   46.70310   13.32810   23.86130   79.01770   19.04990    7.64670    0.01180    3.69860    2.76410   -0.01960    0.13140   -9999.25   -9999.25
 8367.00000   56.36450   13.40950   22.39030   63.76080   19.04250    7.64670    0.00930    3.55320    2.71390    0.00500    0.17440   -9999.25   -9999.25
 8367.50000   76.82040   12.59670   19.93440   29.66180   19.33890    7.64670    0.00930    3.47780    2.66080    0.04090    0.22400   -9999.25   -9999.25
 8368.00000   85.80710   11.43220   13.61380   14.62040   19.93300    7.64670    0.01490    3.36870    2.62170    0.05760    0.23420   -9999.25   -9999.25
 8368.50000   97.49240   10.37530   10.32000   10.63860   20.22930    7.64310    0.01980    3.27080    2.60510    0.06540    0.23980   -9999.25   -9999.25
 8369.00000  105.80450    9.28690    9.36530   10.13280   20.52420    7.61680    0.01620    3.19970    2.59540    0.06960    0.24190   -9999.25   -9999.25
 8369.50000  108.04450    8.37030    8.67710   10.12940   21.11830    7.61680    0.01250    3.22130    2.59840    0.06000    0.24250   -9999.25   -9999.25
 8370.00000  108.76820    7.91810    8.03950   10.55460   21.71390    7.61680    0.01020    3.41580    2.60960    0.05450    0.24280   -9999.25   -9999.25
 8370.50000  105.55310    7.59450    7.92740   10.99760   22.01020    7.61680    0.00930    3.55440    2.61770    0.05450    0.24220   -9999.25   -9999.25
 8371.00000  103.50600    7.43670    8.03660   11.14780   22.60450    7.61680    0.00780    3.53050    2.61880    0.05570    0.23980   -9999.25   -9999.25
 8371.50000  103.55800    7.33260    8.09080   11.29910   22.89930    7.61680    0.00630    3.38470    2.61580    0.05210    0.23920   -9999.25   -9999.25
 8372.00000  108.22310    7.33060    8.14490   11.06260   22.89320    7.61680    0.00630    3.44560    2.62780    0.04850    0.24290   -9999.25   -9999.25
 8372.50000  109.34090    7.38390    8.14320   10.68340   22.88720    7.61680    0.00630    3.56210    2.63080    0.04790    0.24840   -9999.25   -9999.25
 8373.00000  107.98060    7.42860    8.14150   10.24610   22.88000    7.61680    0.00640    3.64220    2.62370    0.05140    0.25540   -9999.25   -9999.25
 8373.50000  107.52200    7.47760    8.08370    9.95840   22.87410    7.61680    0.00640    3.70080    2.61560    0.05860    0.25890   -9999.25   -9999.25
 8374.00000  107.51320    7.42410    7.97100    9.67770   22.56750    7.61680    0.00640    3.63820    2.59940    0.06520    0.25650   -9999.25   -9999.25
 8374.50000  106.37990    7.42210    7.85950    9.55150   22.56160    7.61680    0.00720    3.53870    2.59810    0.06450    0.25230   -9999.25   -9999.25
 8375.00000  104.12220    7.31820    7.80370    9.68110   22.25490    7.61680    0.00790    3.55730    2.60930    0.05850    0.24920   -9999.25   -9999.25
 8375.50000  104.78810    7.21580    7.80210    9.67790   22.24900    7.61680    0.00790    3.58760    2.61860    0.05370    0.24560   -9999.25   -9999.25
 8376.00000  107.25300    7.16420    7.80050    9.60800   22.24310    7.61680    0.00940    3.55500    2.62350    0.05070    0.24260   -9999.25   -9999.25
 8376.50000  108.59350    7.16230    7.79890    9.40770   22.23720    7.61150    0.00940    3.42740    2.61820    0.05130    0.24500   -9999.25   -9999.25
 8377.00000  108.58470    7.11100    7.85190    9.27540   22.23130    7.58680    0.00940    3.29860    2.61450    0.05490    0.25040   -9999.25   -9999.25
 8377.50000  108.10990    7.10910    7.84990    9.27230   22.22540    7.58680    0.00940    3.22150    2.61210    0.05900    0.25640   -9999.25   -9999.25
 8378.00000  108.18170    7.05820    7.79420    9.26920   22.21950    7.58680    0.00790    3.22860    2.61210    0.05650    0.25730   -9999.25   -9999.25
 8378.50000  111.70440    7.05630    7.79260    9.39500   22.21350    7.58680    0.00790    3.28930    2.61360    0.05470    0.24970   -9999.25   -9999.25
 8379.00000  114.39430    7.05430    7.68390    9.59010   21.90680    7.58680    0.00640    3.38000    2.61740    0.05340    0.24940   -9999.25   -9999.25
 8379.50000  115.50990    7.05200    7.68230    9.78600   21.89960    7.58680    0.00490    3.50160    2.61970    0.05240    0.25390   -9999.25   -9999.25
 8380.00000  115.95300    7.09900    7.78780    9.78190   21.59440    7.59280    0.00350    3.60660    2.62190    0.05170    0.25930   -9999.25   -9999.25
 8380.50000  115.94200    7.09710    7.84030    9.64440   21.88920    7.61680    0.00200    3.71240    2.62030    0.05320    0.26110   -9999.25   -9999.25
