~Version ---------------------------------------------------
VERS.   2.0 : CWLS log ASCII Standard -VERSION 2.0
WRAP.    NO : One line per depth step
DLM . SPACE : Column Data Section Delimiter
~Well ------------------------------------------------------
STRT .F                3285.0 : START DEPTH
STOP .F                8987.0 : STOP DEPTH
STEP .F                   0.5 : STEP
NULL .               -9999.25 : NULL VALUE
COMP .                        : COMPANY
WELL .                        : WELL
FLD  .                        : FIELD
LOC  .                        : LOCATION
PROV .                        : PROVINCE
CNTY .                        : COUNTY
STAT .                        : STATE
CTRY .                        : COUNTRY
SRVC .                        : SERVICE COMPANY
DATE .                        : DATE
UWI  .                        : UNIQUE WELL ID
API  .                        : API NUMBER
SLAT .WGS84 5.837222014957298 : SURFACE LATITUDE
SLON .WGS84  4.66713011398501 : SURFACE LONGITUDE
DATUM.F                2554.0 : DEPTH DATUM ELEV
~Curve Information -----------------------------------------
DEPT.F     : 
GRR .GAPI  : GAMMA RAY FROM RES.
IDPH.OHMM  : INDUCTION DEEP PHASOR RES.
IMPH.OHMM  : INDUCTION MEDIUM PHASOR RES.
SFLU.OHMM  : SPHERICALLY FOCUSED LOG UNAVERAGED RES.
SPR .MV    : SPONTANEOUS POTENTIAL FROM RES.
CALD.IN    : CALIPER FROM DENSITY LOG
DRHO.G/C3  : DENSITY CORRECTION
PEF .B/E   : PHOTOELECTRIC FACTOR
RHOB.G/C3  : BULK DENSITY
DPHI.DEC   : DENSITY POROSITY SANDSTONE
NPHI.DEC   : NEUTRON POROSITY SANDSTONE
DTCO.US/F  : COMPRESSIONAL-WAVE INTERVAL TRANSIT TIME ACOUSTIC SLOWNESS
DTSM.US/F  : SHEAR-WAVE INTERVAL TRANSIT TIME DELTA-T
~Params ----------------------------------------------------
~Other -----------------------------------------------------
~ASCII -----------------------------------------------------
# ...
 7757.00000   92.33400    5.09470    5.76990    6.33070   16.93260    9.37040    0.13500    3.20690    2.50910    0.11440    0.28080   -9999.25   -9999.25
 7757.50000   89.62890    5.12900    5.72960    6.41810   16.91430    9.34060    0.13810    3.13140    2.49560    0.12280    0.28550   -9999.25   -9999.25
 7758.00000   89.64030    5.12770    5.57280    6.46260   16.89970    9.25090    0.14710    3.04490    2.51660    0.11680    0.27120   -9999.25   -9999.25
 7758.50000   91.18840    5.05630    5.42030    6.28640   16.28360    9.13130    0.15320    2.96960    2.52410    0.11140    0.26700   -9999.25   -9999.25
 7759.00000   91.85650    4.98590    5.30860    5.94840   15.66750    9.10150    0.15920    2.90930    2.51660    0.10840    0.27470   -9999.25   -9999.25
 7759.50000   92.07650    4.91650    5.19920    5.58970   15.05140    9.13430    0.16080    2.84900    2.50310    0.11800    0.28850   -9999.25   -9999.25
 7760.00000   91.84340    4.81470    5.12740    5.28910   14.73610    9.25550    0.16080    2.81380    2.48520    0.12510    0.29870   -9999.25   -9999.25
 7760.50000   91.38710    4.78060    5.02170    5.21660   14.72150    9.37400    0.15940    2.82460    2.46120    0.13590    0.29310   -9999.25   -9999.25
 7761.00000   90.93080    4.74670    4.98660    5.25270   14.70680    9.46460    0.15640    2.87050    2.44470    0.14910    0.29990   -9999.25   -9999.25
 7761.50000   90.47450    4.71250    4.95190    5.28910   14.39100    9.55890    0.15340    2.91980    2.43120    0.16110    0.31420   -9999.25   -9999.25
 7762.00000   89.99160    4.67540    4.98610    5.36270   14.37340    9.64570    0.15200    2.92610    2.44320    0.16830    0.32270   -9999.25   -9999.25
 7762.50000   89.78510    4.64630    4.98560    5.43740   14.35880    9.67140    0.15200    2.93540    2.48520    0.14610    0.31380   -9999.25   -9999.25
 7763.00000   89.77860    4.61340    5.02000    5.51300   14.34420    9.61920    0.15360    2.93570    2.51100    0.12500    0.29910   -9999.25   -9999.25
 7763.50000   89.77210    4.61240    5.05450    5.62850   14.63400    9.40140    0.15820    2.92100    2.53920    0.10820    0.28550   -9999.25   -9999.25
 7764.00000   91.56460    4.61150    5.05410    5.74640   14.61580    9.18600    0.16270    2.90630    2.55420    0.09810    0.28100   -9999.25   -9999.25
 7764.50000   91.33320    4.61060    5.05380    5.70680   14.90220    9.28240    0.16270    2.89160    2.53920    0.09640    0.27880   -9999.25   -9999.25
 7765.00000   89.52760    4.60960    5.01280    5.62850   14.88730    9.52440    0.15980    2.89190    2.52120    0.10160    0.27830   -9999.25   -9999.25
 7765.50000   87.93400    4.60870    4.91510    5.55130   15.17350    9.71090    0.15830    2.89220    2.49720    0.11540    0.28460   -9999.25   -9999.25
 7766.00000   86.59070    4.60780    4.84720    5.55130   15.45970    9.74150    0.16000    2.86950    2.49090    0.12440    0.29540   -9999.25   -9999.25
 7766.50000   86.35950    4.60660    4.74730    5.51300   15.44140    9.80220    0.16460    2.85450    2.50470    0.12390    0.30400   -9999.25   -9999.25
 7767.00000   86.80120    4.60570    4.71420    5.51300   15.42680    9.82250    0.16630    2.79450    2.52270    0.11270    0.30700   -9999.25   -9999.25
 7767.50000   87.24440    4.57310    4.68140    5.47510   15.41230    9.82260    0.17070    2.73450    2.51080    0.10900    0.28480   -9999.25   -9999.25
 7768.00000   88.13740    4.54070    4.64880    5.47510   15.39770    9.81120    0.17680    2.69250    2.49430    0.12030    0.28180   -9999.25   -9999.25
 7768.50000   88.80550    4.50850    4.61640    5.39990   15.08230    9.76300    0.17960    2.78890    2.48530    0.13310    0.29260   -9999.25   -9999.25
 7769.00000   88.57410    4.41510    4.58110    5.21660   14.76090    9.72050    0.17790    2.84930    2.48430    0.13710    0.29800   -9999.25   -9999.25
 7769.50000   89.48330    4.35360    4.48970    5.00360   14.40750    9.66010    0.17340    2.90970    2.50330    0.12860    0.29440   -9999.25   -9999.25
 7770.00000   93.50690    4.23410    4.39720    4.79710   14.13270    9.65760    0.16980    2.92500    2.46730    0.12280    0.29680   -9999.25   -9999.25
 7770.50000   97.32350    4.11120    4.24740    4.60650   13.81730    9.77740    0.16380    2.86520    2.40740    0.15370    0.30510   -9999.25   -9999.25
 7771.00000  100.01560    3.84200    4.13110    4.03980   13.50200    9.91380    0.15550    2.73040    2.34740    0.19120    0.32850   -9999.25   -9999.25
 7771.50000  100.46050    3.73650    4.01810    4.09600   13.18660   10.01920    0.14720    2.55050    2.30540    0.22240    0.34880   -9999.25   -9999.25
 7772.00000   91.45680    3.68450    3.82780    4.26940   13.17210   10.09340    0.13480    2.37060    2.23200    0.24900    0.37100   -9999.25   -9999.25
 7772.50000   87.62720    3.65840    3.69740    4.15300   13.15750   10.02570    0.12550    2.22080    2.10450    0.28930    0.39910   -9999.25   -9999.25
 7773.00000   85.59670    3.63240    3.67170    3.92960   13.14290    9.74900    0.11630    2.10090    1.95430    0.30000    0.41950   -9999.25   -9999.25
 7773.50000   85.14040    3.63170    3.67520    3.87570   13.12780   10.09390    0.10230    2.01110    1.90490    0.30000    0.42970   -9999.25   -9999.25
 7774.00000   88.95530    3.70700    3.90700    3.96200   13.41450   10.45330    0.08480    1.96640    1.94390    0.30000    0.42550   -9999.25   -9999.25
 7774.50000   95.24560    3.83930    4.15780    4.32880   13.99770   10.52390    0.06750    2.26700    2.00730    0.30000    0.41290   -9999.25   -9999.25
 7775.00000  104.90920    4.03510    4.48630    4.73560   14.28750    9.58540    0.09610    2.53760    2.22110    0.30000    0.38890   -9999.25   -9999.25
 7775.50000  111.87420    4.34270    4.94240    5.43740   14.87080    8.56750    0.13290    2.71800    2.35080    0.29850    0.34580   -9999.25   -9999.25
 7776.00000  113.89170    4.55700    5.33290    6.07300   15.16060    8.35810    0.15940    2.85350    2.44800    0.22440    0.31830   -9999.25   -9999.25
 7776.50000  115.45930    4.68370    5.48220    6.59800   15.74440    7.84930    0.16380    2.67360    2.46430    0.15800    0.30390   -9999.25   -9999.25
 7777.00000  118.38540    4.78090    5.36920    6.64370   16.33080    8.02910    0.16120    2.56880    2.43390    0.14430    0.29580   -9999.25   -9999.25
 7777.50000  120.68550    4.88000    5.18340    6.20020   16.91770    8.26870    0.15250    2.56530    2.38930    0.16110    0.29900   -9999.25   -9999.25
 7778.00000  121.28680    4.98120    5.00950    6.02880   17.50460    8.41860    0.14040    2.68950    2.36830    0.17980    0.35060   -9999.25   -9999.25
 7778.50000  121.50350    4.91190    4.97460    5.93420   18.08790    8.50850    0.13950    2.76490    2.35700    0.19490    0.36250   -9999.25   -9999.25
 7779.00000  123.74590    4.87700    5.00880    5.74640   18.67480    8.53860    0.15170    2.81020    2.34710    0.20840    0.36730   -9999.25   -9999.25
 7779.50000  129.13660    4.84230    5.04330    5.82630   18.66020    8.47890    0.16170    2.82550    2.33330    0.21980    0.36740   -9999.25   -9999.25
 7780.00000  133.40300    4.84130    5.18440    5.78620   18.95000    8.35930    0.16270    2.81080    2.34000    0.22630    0.32660   -9999.25   -9999.25
 7780.50000  127.54940    4.84030    5.32960    6.11510   19.23310    8.20970    0.15300    2.71970    2.37750    0.21270    0.30200   -9999.25   -9999.25
 7781.00000  123.26990    4.83930    5.36620    6.24310   19.21800    8.06020    0.13730    2.58370    2.32660    0.19910    0.30260   -9999.25   -9999.25
 7781.50000  130.45820    4.90570    5.29150    6.28640   18.90230    8.18010    0.11760    2.44840    2.25760    0.21930    0.32840   -9999.25   -9999.25
 7782.00000  142.37070    4.93900    5.18300    6.37390   18.58360    8.53950    0.11790    2.34650    2.19610    0.26770    0.36430   -9999.25   -9999.25
 7782.50000  147.76150    4.97200    5.29130    6.47460   17.96760    8.56960    0.13000    2.58600    2.17960    0.30000    0.39410   -9999.25   -9999.25
