~Version ---------------------------------------------------
VERS.   2.0 : CWLS log ASCII Standard -VERSION 2.0
WRAP.    NO : One line per depth step
DLM . SPACE : Column Data Section Delimiter
~Well ------------------------------------------------------
STRT .F                3285.0 : START DEPTH
STOP .F                8987.0 : STOP DEPTH
STEP .F                   0.5 : STEP
NULL .               -9999.25 : NULL VALUE
COMP .                        : COMPANY
WELL .                        : WELL
FLD  .                        : FIELD
LOC  .                        : LOCATION
PROV .                        : PROVINCE
CNTY .                        : COUNTY
STAT .                        : STATE
CTRY .                        : COUNTRY
SRVC .                        : SERVICE COMPANY
DATE .                        : DATE
UWI  .                        : UNIQUE WELL ID
API  .                        : API NUMBER
SLAT .WGS84 5.837222014957298 : SURFACE LATITUDE
SLON .WGS84  4.66713011398501 : SURFACE LONGITUDE
DATUM.F                2554.0 : DEPTH DATUM ELEV
~Curve Information -----------------------------------------
DEPT.F     : 
GRR .GAPI  : GAMMA RAY FROM RES.
IDPH.OHMM  : INDUCTION DEEP PHASOR RES.
IMPH.OHMM  : INDUCTION MEDIUM PHASOR RES.
SFLU.OHMM  : SPHERICALLY FOCUSED LOG UNAVERAGED RES.
SPR .MV    : SPONTANEOUS POTENTIAL FROM RES.
CALD.IN    : CALIPER FROM DENSITY LOG
DRHO.G/C3  : DENSITY CORRECTION
PEF .B/E   : PHOTOELECTRIC FACTOR
RHOB.G/C3  : BULK DENSITY
DPHI.DEC   : DENSITY POROSITY SANDSTONE
NPHI.DEC   : NEUTRON POROSITY SANDSTONE
DTCO.US/F  : COMPRESSIONAL-WAVE INTERVAL TRANSIT TIME ACOUSTIC SLOWNESS
DTSM.US/F  : SHEAR-WAVE INTERVAL TRANSIT TIME DELTA-T
~Params ----------------------------------------------------
~Other -----------------------------------------------------
~ASCII -----------------------------------------------------
# ...
 8589.00000  101.69770   12.23100   12.82720   17.58530   18.37420    7.67990    0.01390    3.30820    2.61170    0.05220    0.22820   -9999.25   -9999.25
 8589.50000   97.75070   12.56740   13.27330   19.50040   18.66030    7.67980    0.01400    3.26300    2.61770    0.05580    0.22340   -9999.25   -9999.25
 8590.00000  100.43190   12.91430   14.02310   21.18040   18.64560    7.67960    0.01400    3.26270    2.62520    0.05460    0.21790   -9999.25   -9999.25
 8590.50000  104.01250   13.27080   15.02180   23.82570   18.93170    7.67950    0.01400    3.26250    2.63270    0.04980    0.21270   -9999.25   -9999.25
 8591.00000  104.44910   13.54330   15.76090   25.16040   18.91700    7.67930    0.01400    3.32240    2.63570    0.04620    0.20670   -9999.25   -9999.25
 8591.50000   99.02990   13.72620   16.53640   24.63590   18.90230    7.67920    0.01250    3.33720    2.63720    0.04260    0.20310   -9999.25   -9999.25
 8592.00000   95.63900   13.91150   16.87640   23.46640   18.88720    7.67900    0.01250    3.30690    2.63720    0.04140    0.20210   -9999.25   -9999.25
 8592.50000   97.64550   13.60770   16.05250   21.74310   19.17370    7.67890    0.01100    3.20160    2.63720    0.04140    0.20910   -9999.25   -9999.25
 8593.00000  101.67590   13.15130   15.04340   19.59710   19.15540    7.67870    0.00950    3.24640    2.63720    0.04260    0.22160   -9999.25   -9999.25
 8593.50000  108.20670   12.74950   13.69460   17.66290   19.14070    7.67860    0.00810    3.26120    2.63570    0.04690    0.23420   -9999.25   -9999.25
 8594.00000  109.54160   12.35840   12.86250   16.47930   19.12600    7.67840    0.00810    3.21480    2.63110    0.05230    0.24380   -9999.25   -9999.25
 8594.50000  109.94410   11.96730   12.50630   15.37490   19.11130    7.67830    0.00650    3.15560    2.62050    0.05460    0.25100   -9999.25   -9999.25
 8595.00000  109.69720   11.51420   12.15990   14.74660   19.09660    7.67810    0.00510    3.24920    2.61920    0.05460    0.24920   -9999.25   -9999.25
 8595.50000  107.88060   11.27340   11.98790   14.34070   19.08200    7.67800    0.00360    3.34020    2.61900    0.05390    0.25100   -9999.25   -9999.25
 8596.00000  106.06390   11.11420   11.73680   14.04270   19.36840    7.67780    0.00360    3.42920    2.61580    0.05470    0.25280   -9999.25   -9999.25
 8596.50000  105.59660   11.10970   11.65110   14.03880   19.65410    7.67770    0.00210    3.48740    2.61170    0.05700    0.24970   -9999.25   -9999.25
 8597.00000  107.37810   11.10520   11.56610   14.03500   19.63910    7.67750    0.00220    3.49990    2.61020    0.05880    0.24670   -9999.25   -9999.25
 8597.50000  110.28410   11.10070   11.64180   14.22560   19.62110    7.67740    0.00220    3.49340    2.60990    0.06060    0.24610   -9999.25   -9999.25
 8598.00000  110.50780   11.09610   11.79910   14.72170   19.30560    7.67720    0.00220    3.38830    2.60650    0.06200    0.24550   -9999.25   -9999.25
 8598.50000  109.34210   11.09160   11.79420   14.71770   18.99020    7.67710    0.00220    3.25510    2.60120    0.06350    0.24910   -9999.25   -9999.25
 8599.00000  109.61430   11.01080   11.78930   14.61240   18.97550    7.67690    0.00220    3.28650    2.60650    0.06130    0.25390   -9999.25   -9999.25
 8599.50000  112.23350   11.08270   11.62160   14.30870   18.66010    7.67680    0.00070    3.34740    2.61170    0.05890    0.25390   -9999.25   -9999.25
 8600.00000  114.74900   11.15490   11.61800   14.36490   18.63030    7.67580    0.00230    3.42150    2.61020    0.05750    0.25390   -9999.25   -9999.25
 8600.50000  120.30540   11.18190   11.65750   14.72500   18.51460    7.67320    0.00280    3.51380    2.59970    0.06170    0.25570   -9999.25   -9999.25
 8601.00000  122.77030   11.20880   11.77240   15.00500   18.39890    7.67070    0.00330    3.55900    2.59820    0.06410    0.25990   -9999.25   -9999.25
 8601.50000  125.23540   11.37680   12.01610   15.31520   18.32730    7.66810    0.00380    3.45420    2.59380    0.06710    0.26600   -9999.25   -9999.25
 8602.00000  123.81720   11.55310   12.18030   15.63170   18.32150    7.66550    0.00440    3.37930    2.59230    0.06900    0.27370   -9999.25   -9999.25
 8602.50000  120.26810   11.93150   12.34670   15.95480   18.31560    7.66290    0.00490    3.37550    2.60130    0.06470    0.27660   -9999.25   -9999.25
 8603.00000  117.33580   12.17840   12.60230   16.17360   18.30980    7.66030    0.00530    3.39480    2.59980    0.06590    0.26310   -9999.25   -9999.25
 8603.50000  113.05420   12.60120   13.04250   16.62130   18.60470    7.65770    0.00530    3.35000    2.59530    0.06600    0.25750   -9999.25   -9999.25
 8604.00000  110.12190   13.13020   13.59170   16.96480   18.59730    7.65510    0.00530    3.26010    2.59980    0.06230    0.26300   -9999.25   -9999.25
 8604.50000  110.56290   14.16220   14.57640   17.68700   18.59150    7.65220    0.00680    3.17020    2.60130    0.06410    0.26660   -9999.25   -9999.25
 8605.00000  111.90350   15.81240   16.22660   19.12320   18.28490    7.65280    0.00680    3.26050    2.59540    0.07250    0.26770   -9999.25   -9999.25
 8605.50000  109.64580   18.27550   18.92980   22.65700   18.27900    7.65340    0.00680    3.38090    2.57590    0.08200    0.26890   -9999.25   -9999.25
 8606.00000  104.91440   20.88910   21.88470   27.29640   18.27320    7.65400    0.00530    3.47120    2.55040    0.09340    0.28700   -9999.25   -9999.25
 8606.50000  101.28560   25.26830   25.47650   32.65940   18.26730    7.65460    0.00530    3.53150    2.52490    0.10660    0.29910   -9999.25   -9999.25
 8607.00000  100.17430   29.00310   30.49020   41.01250   17.96070    7.65520    0.00440    3.53390    2.49800    0.12280    0.30230   -9999.25   -9999.25
 8607.50000  101.06290   33.52080   42.49080   49.41050   17.65410    7.65580    0.00230    3.44180    2.48000    0.13470    0.29760   -9999.25   -9999.25
 8608.00000  101.72880   39.55370   53.37680   62.47820   17.32070    7.65640    0.00230    3.38200    2.46950    0.14310    0.28140   -9999.25   -9999.25
 8608.50000  102.17200   46.03180   64.32460   77.38110   16.43790    7.62700    0.00230    3.36720    2.47400    0.13650    0.27130   -9999.25   -9999.25
 8609.00000  102.38810   51.75170   76.61880   80.07960   15.52980    7.62760    0.00230    3.36740    2.48000    0.13590    0.25570   -9999.25   -9999.25
 8609.50000  102.37710   57.78180   84.20150   80.70100   14.62170    7.62820    0.00230    3.38270    2.50250    0.12690    0.23770   -9999.25   -9999.25
 8610.00000  101.69370   58.56620   87.14230   97.11360   14.01440    7.62880    0.00230    3.42790    2.53250    0.10180    0.22100   -9999.25   -9999.25
 8610.50000   96.51260   54.45860   80.17690  116.19380   13.40700    7.62940    0.00230    3.47320    2.56100    0.08560    0.22030   -9999.25   -9999.25
 8611.00000   93.35350   48.22780   70.28010  112.99600   12.19810    7.63000    0.00230    3.51850    2.58050    0.07600    0.25150   -9999.25   -9999.25
 8611.50000   95.28040   45.30490   60.75820   83.92940   11.89150    7.63060    0.00530    3.48870    2.55190    0.08980    0.27370   -9999.25   -9999.25
 8612.00000   99.40760   44.05510   49.69770   55.43100   11.58490    7.63120    0.00680    3.30870    2.52180    0.10840    0.29580   -9999.25   -9999.25
 8612.50000  102.09750   42.54480   43.86560   45.35380   12.18060    7.63180    0.00980    3.15880    2.49810    0.12400    0.29100   -9999.25   -9999.25
 8613.00000  101.63900   41.08630   42.36240   42.31460   12.77620    7.63240    0.01430    3.37130    2.51200    0.10960    0.24250   -9999.25   -9999.25
 8613.50000   93.30930   39.13330   43.88820   45.51540   13.37190    7.63300    0.02030    3.62590    2.56980    0.07250    0.19280   -9999.25   -9999.25
 8614.00000   86.77890   37.27310   46.00250   57.71350   13.66680    7.60360    0.02330    3.76270    2.63490    0.04430    0.17070   -9999.25   -9999.25
 8614.50000   83.84870   35.97120   46.63420   79.28270   13.96170    7.60420    0.02480    3.75640    2.67660    0.02100    0.18920   -9999.25   -9999.25
