~Version ---------------------------------------------------
VERS.   2.0 : CWLS log ASCII Standard -VERSION 2.0
WRAP.    NO : One line per depth step
DLM . SPACE : Column Data Section Delimiter
~Well ------------------------------------------------------
STRT .F                3285.0 : START DEPTH
STOP .F                8987.0 : STOP DEPTH
STEP .F                   0.5 : STEP
NULL .               -9999.25 : NULL VALUE
COMP .                        : COMPANY
WELL .                        : WELL
FLD  .                        : FIELD
LOC  .                        : LOCATION
PROV .                        : PROVINCE
CNTY .                        : COUNTY
STAT .                        : STATE
CTRY .                        : COUNTRY
SRVC .                        : SERVICE COMPANY
DATE .                        : DATE
UWI  .                        : UNIQUE WELL ID
API  .                        : API NUMBER
SLAT .WGS84 5.837222014957298 : SURFACE LATITUDE
SLON .WGS84  4.66713011398501 : SURFACE LONGITUDE
DATUM.F                2554.0 : DEPTH DATUM ELEV
~Curve Information -----------------------------------------
DEPT.F     : 
GRR .GAPI  : GAMMA RAY FROM RES.
IDPH.OHMM  : INDUCTION DEEP PHASOR RES.
IMPH.OHMM  : INDUCTION MEDIUM PHASOR RES.
SFLU.OHMM  : SPHERICALLY FOCUSED LOG UNAVERAGED RES.
SPR .MV    : SPONTANEOUS POTENTIAL FROM RES.
CALD.IN    : CALIPER FROM DENSITY LOG
DRHO.G/C3  : DENSITY CORRECTION
PEF .B/E   : PHOTOELECTRIC FACTOR
RHOB.G/C3  : BULK DENSITY
DPHI.DEC   : DENSITY POROSITY SANDSTONE
NPHI.DEC   : NEUTRON POROSITY SANDSTONE
DTCO.US/F  : COMPRESSIONAL-WAVE INTERVAL TRANSIT TIME ACOUSTIC SLOWNESS
DTSM.US/F  : SHEAR-WAVE INTERVAL TRANSIT TIME DELTA-T
~Params ----------------------------------------------------
~Other -----------------------------------------------------
~ASCII -----------------------------------------------------
# ...
 8121.00000  132.90600    8.45210    8.78300    9.69150   16.41480    7.96500    0.08250    3.10360    2.60780    0.05210    0.29850   -9999.25   -9999.25
 8121.50000  127.99170    8.39470    8.84340    8.87110   16.11110    8.02540    0.07160    2.99640    2.58920    0.07000    0.29260   -9999.25   -9999.25
 8122.00000  122.59000    8.45440    9.15410   10.05670   16.10820    7.93600    0.06180    2.94440    2.58450    0.07050    0.24890   -9999.25   -9999.25
 8122.50000  119.88690    8.63260    9.61470   12.63220   16.40600    7.81670    0.05470    3.06120    2.63370    0.05040    0.24030   -9999.25   -9999.25
 8123.00000  117.18390    8.81460   10.17370   13.72430   16.70740    7.75720    0.04870    3.11270    2.64160    0.04170    0.25090   -9999.25   -9999.25
 8123.50000  119.20340    8.93850   10.58350   13.07630   17.02920    7.75770    0.04200    3.16170    2.63710    0.04290    0.25590   -9999.25   -9999.25
 8124.00000  123.47190    9.06410   10.43740   11.78890   17.60010    7.75810    0.03710    3.18310    2.65390    0.03480    0.25120   -9999.25   -9999.25
 8124.50000  125.04280    9.12840    9.94320   11.95290   17.89790    7.75860    0.04910    3.19550    2.65960    0.02840    0.24740   -9999.25   -9999.25
 8125.00000  118.96530    9.06650    9.53810   12.20330   18.19570    7.75900    0.06160    3.12940    2.65780    0.03050    0.25010   -9999.25   -9999.25
 8125.50000  118.69850    8.94330    9.27710   12.28790   18.19200    7.75950    0.07290    3.16780    2.64940    0.03820    0.26360   -9999.25   -9999.25
 8126.00000  124.57870    8.64100    9.14900   11.61610   18.18910    7.75990    0.08200    3.26730    2.63980    0.04540    0.28860   -9999.25   -9999.25
 8126.50000  129.78420    8.23410    8.96040   10.38370   17.88540    7.79030    0.08910    3.38150    2.62950    0.05250    0.29780   -9999.25   -9999.25
 8127.00000  129.62920    7.84640    8.53610    9.71520   17.58170    7.82070    0.09520    3.40690    2.61510    0.05640    0.30670   -9999.25   -9999.25
 8127.50000  127.03820    7.58100    8.07590    9.12950   17.27800    7.82120    0.09970    3.32640    2.60010    0.06490    0.31270   -9999.25   -9999.25
 8128.00000  126.13420    7.42650    7.85270    8.88060   16.97430    7.76170    0.10340    3.22120    2.59020    0.07260    0.30970   -9999.25   -9999.25
 8128.50000  126.80560    7.32550    7.63990    8.94220   16.97130    7.73220    0.09860    3.13100    2.61070    0.05370    0.30490   -9999.25   -9999.25
 8129.00000  125.90050    7.17650    7.63930    9.19280   16.96840    7.73270    0.09360    3.05530    2.63720    0.03800    0.30010   -9999.25   -9999.25
 8129.50000  126.57080    7.17740    7.63880    9.58190   16.96540    7.73310    0.08420    3.04750    2.65170    0.03270    0.29890   -9999.25   -9999.25
 8130.00000  131.96370    7.07990    7.69130    9.85040   16.96240    7.73360    0.07670    3.08560    2.65550    0.03730    0.29770   -9999.25   -9999.25
 8130.50000  140.95470    7.03210    7.69080    9.25650   17.25960    7.76400    0.06710    3.10100    2.63670    0.04780    0.29530   -9999.25   -9999.25
 8131.00000  145.22320    7.03300    7.63720    9.06660   17.25660    7.76440    0.06460    3.11640    2.62850    0.05270    0.29290   -9999.25   -9999.25
 8131.50000  143.86950    7.03400    7.47980    9.00420   17.25370    7.76490    0.07110    3.13960    2.62010    0.06440    0.29400   -9999.25   -9999.25
 8132.00000  130.82160    7.03490    7.47930    9.06660   17.55220    7.79520    0.08160    3.16220    2.59750    0.07740    0.29760   -9999.25   -9999.25
 8132.50000  125.75620    6.98740    7.51420    9.06660   17.84930    7.76570    0.09370    3.20880    2.58270    0.07550    0.29640   -9999.25   -9999.25
 8133.00000  126.05320    6.94020    7.55130    9.19280   18.14780    7.76620    0.10630    3.23120    2.60740    0.05360    0.29640   -9999.25   -9999.25
 8133.50000  131.70680    6.94120    7.58210    9.25650   18.44490    7.76660    0.11590    3.26840    2.63750    0.03740    0.30960   -9999.25   -9999.25
 8134.00000  132.37820    6.99050    7.32360    9.25650   18.44190    7.76710    0.10390    3.28380    2.65630    0.02570    0.31690   -9999.25   -9999.25
 8134.50000  121.80300    6.99140    7.22250    8.69840   18.43900    7.73760    0.09040    3.28420    2.64350    0.04890    0.30300   -9999.25   -9999.25
 8135.00000  117.30080    7.04080    7.22040    8.23060   18.73680    7.73800    0.08600    3.28450    2.61940    0.06040    0.29760   -9999.25   -9999.25
 8135.50000  116.17200    7.04180    7.43290    8.28770   18.73380    7.73850    0.08600    3.25210    2.59740    0.07000    0.29280   -9999.25   -9999.25
 8136.00000  120.44040    6.99420    7.90860    8.57900   18.43010    7.73890    0.08290    3.16520    2.57790    0.08130    0.28620   -9999.25   -9999.25
 8136.50000  126.95770    6.94680    8.12170    9.27110   18.42710    7.73940    0.07600    3.10560    2.59740    0.06090    0.28320   -9999.25   -9999.25
 8137.00000  133.02530    6.80540    8.12120   10.58880   18.12280    7.76980    0.07410    3.16600    2.64090    0.03700    0.28800   -9999.25   -9999.25
 8137.50000  133.69570    6.71290    8.00900   11.23230   18.11980    7.89000    0.07920    3.19640    2.66790    0.02260    0.29750   -9999.25   -9999.25
 8138.00000  132.79160    6.66260    7.47310   10.92610   17.51540    8.07010    0.08600    3.12170    2.63050    0.04580    0.31430   -9999.25   -9999.25
 8138.50000  127.70790    6.62260    7.07010    8.63850   17.21170    8.22020    0.10320    3.00190    2.56000    0.08390    0.32430   -9999.25   -9999.25
 8139.00000  122.06240    6.57790    6.68890    7.26810   17.20870    8.43020    0.11810    2.86720    2.51960    0.11970    0.32940   -9999.25   -9999.25
 8139.50000  117.93470    6.57900    6.46100    6.82990   16.90500    8.58040    0.12980    2.73240    2.47010    0.15290    0.33540   -9999.25   -9999.25
 8140.00000  116.80590    6.57990    6.50540    6.64370   16.60130    8.67070    0.14550    2.59770    2.43570    0.17420    0.34110   -9999.25   -9999.25
 8140.50000  116.35170    6.76520    6.82780    6.63600   16.29760    8.76120    0.16210    2.50790    2.40420    0.18360    0.34740   -9999.25   -9999.25
 8141.00000  116.79820    7.05250    7.48000    7.07000   16.29470    8.66830    0.17100    2.50830    2.39280    0.18100    0.32340   -9999.25   -9999.25
 8141.50000  116.56780    7.50600    8.70460    8.13020   16.29170    8.21990    0.14690    2.61380    2.45230    0.15960    0.30640   -9999.25   -9999.25
 8142.00000  113.41490    8.21250   10.92810   10.18660   17.19100    7.98080    0.11620    3.03460    2.52280    0.12470    0.28660   -9999.25   -9999.25
 8142.50000  109.58740    8.75230   11.54940   16.08820   17.83010    7.86080    0.08680    3.48540    2.58430    0.08150    0.25790   -9999.25   -9999.25
 8143.00000  108.00880    9.45480   11.79100   18.72940   18.38810    7.74520    0.06600    3.65100    2.60830    0.06150    0.24620   -9999.25   -9999.25
 8143.50000  107.32970   10.10850   11.23250   17.00250   19.28670    7.74570    0.03480    3.59130    2.61430    0.05590    0.23360   -9999.25   -9999.25
 8144.00000  105.97600   10.39320   10.84980   15.22300   19.58520    7.74610    0.01790    3.45650    2.61280    0.05950    0.22000   -9999.25   -9999.25
 8144.50000  103.25410   10.11120   10.55290   14.10890   20.48380    7.74430    0.01060    3.48690    2.62790    0.05020    0.22200   -9999.25   -9999.25
 8145.00000  104.31540    9.43740    9.98390   13.35010   20.78160    7.71700    0.02330    3.47230    2.64440    0.04010    0.23440   -9999.25   -9999.25
 8145.50000  108.88520    8.80860    9.12440   11.87060   20.77870    7.71750    0.03750    3.38260    2.63840    0.04320    0.24500   -9999.25   -9999.25
 8146.00000  112.47900    8.33600    8.51370   10.19660   20.77570    7.71800    0.05350    3.23280    2.62650    0.05050    0.25130   -9999.25   -9999.25
 8146.50000  112.24970    7.94350    8.10840    9.78260   20.77280    7.71840    0.06640    3.14310    2.62050    0.05460    0.24020   -9999.25   -9999.25
