~Version ---------------------------------------------------
VERS.   2.0 : CWLS log ASCII Standard -VERSION 2.0
WRAP.    NO : One line per depth step
DLM . SPACE : Column Data Section Delimiter
~Well ------------------------------------------------------
STRT .F                3285.0 : START DEPTH
STOP .F                8987.0 : STOP DEPTH
STEP .F                   0.5 : STEP
NULL .               -9999.25 : NULL VALUE
COMP .                        : COMPANY
WELL .                        : WELL
FLD  .                        : FIELD
LOC  .                        : LOCATION
PROV .                        : PROVINCE
CNTY .                        : COUNTY
STAT .                        : STATE
CTRY .                        : COUNTRY
SRVC .                        : SERVICE COMPANY
DATE .                        : DATE
UWI  .                        : UNIQUE WELL ID
API  .                        : API NUMBER
SLAT .WGS84 5.837222014957298 : SURFACE LATITUDE
SLON .WGS84  4.66713011398501 : SURFACE LONGITUDE
DATUM.F                2554.0 : DEPTH DATUM ELEV
~Curve Information -----------------------------------------
DEPT.F     : 
GRR .GAPI  : GAMMA RAY FROM RES.
IDPH.OHMM  : INDUCTION DEEP PHASOR RES.
IMPH.OHMM  : INDUCTION MEDIUM PHASOR RES.
SFLU.OHMM  : SPHERICALLY FOCUSED LOG UNAVERAGED RES.
SPR .MV    : SPONTANEOUS POTENTIAL FROM RES.
CALD.IN    : CALIPER FROM DENSITY LOG
DRHO.G/C3  : DENSITY CORRECTION
PEF .B/E   : PHOTOELECTRIC FACTOR
RHOB.G/C3  : BULK DENSITY
DPHI.DEC   : DENSITY POROSITY SANDSTONE
NPHI.DEC   : NEUTRON POROSITY SANDSTONE
DTCO.US/F  : COMPRESSIONAL-WAVE INTERVAL TRANSIT TIME ACOUSTIC SLOWNESS
DTSM.US/F  : SHEAR-WAVE INTERVAL TRANSIT TIME DELTA-T
~Params ----------------------------------------------------
~Other -----------------------------------------------------
~ASCII -----------------------------------------------------
# ...
 7887.00000  114.98380    9.29000    9.72210    9.88560   18.74430    8.26770    0.01730    3.31420    2.65000    0.03470    0.21030   -9999.25   -9999.25
 7887.50000  115.19770    9.35310    9.72140   10.09160   18.41720    8.20810    0.01280    3.27950    2.64750    0.03650    0.21240   -9999.25   -9999.25
 7888.00000  116.53610    9.41670    9.85630   10.59000   18.39090    8.11860    0.00980    3.24320    2.65260    0.03710    0.21700   -9999.25   -9999.25
 7888.50000  116.07550    9.48070   10.13220   10.88530   18.06390    8.08890    0.00680    3.24320    2.65800    0.03890    0.22320   -9999.25   -9999.25
 7889.00000  110.19200    9.54490   10.35640   10.80920   17.73680    8.05920    0.00530    3.24830    2.65030    0.04070    0.22530   -9999.25   -9999.25
 7889.50000  105.76620    9.67630   10.63350   11.66080   17.71050    8.02910    0.00230    3.28830    2.64130    0.04310    0.21530   -9999.25   -9999.25
 7890.00000  104.12370    9.74210   10.78090   12.15280   17.68420    8.00000    0.00080    3.30880    2.63340    0.04490    0.20880   -9999.25   -9999.25
 7890.50000  109.50730    9.80800   10.93040   12.23540   17.35640    8.00030    0.00080    3.34480    2.63190    0.04550    0.20470   -9999.25   -9999.25
 7891.00000  112.86970    9.87470   10.92970   11.88870   17.32430    8.00060    0.00080    3.38430    2.63040    0.04610    0.20630   -9999.25   -9999.25
 7891.50000  115.55750    9.87340   10.77870   11.65450   17.29800    8.00090    0.00080    3.30510    2.62610    0.04910    0.21400   -9999.25   -9999.25
 7892.00000  112.84790    9.87200   10.55660   11.97910   17.27170    8.00120    0.00080    3.16400    2.61850    0.05150    0.22580   -9999.25   -9999.25
 7892.50000  111.26280    9.80280   10.26770   11.89500   17.24540    8.00470    0.00080    3.07980    2.62180    0.05330    0.23440   -9999.25   -9999.25
 7893.00000  112.60120    9.73390   10.05610   11.09940   17.21910    8.03170    0.00230    3.02620    2.63920    0.04610    0.23710   -9999.25   -9999.25
 7893.50000  117.70820    9.66560    9.98600   10.79540   17.50010    8.00210    0.00380    3.07010    2.65280    0.03890    0.23320   -9999.25   -9999.25
 7894.00000  123.59610    9.73130   10.12440   10.64580   17.76840    7.93790    0.00530    3.17510    2.65810    0.03230    0.22980   -9999.25   -9999.25
 7894.50000  124.48750    9.58840   10.05390   10.86740   17.74130    7.88290    0.00680    3.24320    2.65050    0.03410    0.22710   -9999.25   -9999.25
 7895.00000  122.89960    9.20520    9.57780   11.17040   18.01610    7.88320    0.00680    3.26600    2.64000    0.03950    0.22520   -9999.25   -9999.25
 7895.50000  118.61580    8.95310    9.25150   10.86430   18.28400    7.85360    0.00680    3.29630    2.63330    0.04430    0.22610   -9999.25   -9999.25
 7896.00000  115.68140    9.01430    9.18720   10.62730   18.25770    7.85390    0.00680    3.31150    2.62880    0.04790    0.22670   -9999.25   -9999.25
 7896.50000  116.34510    9.20150    9.37920   10.71200   18.23140    7.84740    0.00680    3.34180    2.62730    0.05030    0.22860   -9999.25   -9999.25
 7897.00000  117.23390    9.20030    9.57520   10.85960   17.90430    7.82450    0.00680    3.36340    2.62430    0.05270    0.22970   -9999.25   -9999.25
 7897.50000  116.06920    9.13570    9.71480   11.16240   17.87800    7.79490    0.00680    3.33060    2.62220    0.05390    0.23220   -9999.25   -9999.25
 7898.00000  114.06070    9.13450    9.97970   11.47410   17.55100    7.79520    0.00680    3.22820    2.62070    0.05510    0.23560   -9999.25   -9999.25
 7898.50000  114.27470    9.26030   10.11810   11.23680   17.22390    7.79550    0.00680    3.13810    2.62670    0.05210    0.24010   -9999.25   -9999.25
 7899.00000  114.71630    9.38790    9.97830   10.63110   16.89620    7.76580    0.00680    3.06310    2.62970    0.05150    0.23350   -9999.25   -9999.25
 7899.50000  114.70270    9.45170    9.70530   10.12780   16.86400    7.76620    0.00680    3.01800    2.63270    0.05270    0.22460   -9999.25   -9999.25
 7900.00000  117.02600    9.44900    9.77810   10.33850   16.84300    7.76490    0.00830    3.03010    2.63550    0.05030    0.21930   -9999.25   -9999.25
 7900.50000  121.87630    9.43140   10.25480   11.11450   16.82710    7.75610    0.00860    3.06650    2.63920    0.04700    0.21440   -9999.25   -9999.25
 7901.00000  124.78880    9.41380   10.32400   11.78580   16.80920    7.74720    0.00890    3.10860    2.64020    0.04390    0.21430   -9999.25   -9999.25
 7901.50000  126.12720    9.39620   10.39350   11.78390   16.79450    7.73830    0.00920    3.19890    2.63710    0.04050    0.22090   -9999.25   -9999.25
 7902.00000  123.86740    9.45300   10.24030   10.92000   16.17840    7.72940    0.00950    3.27420    2.62440    0.04600    0.22810   -9999.25   -9999.25
 7902.50000  113.73650    9.58530   10.03550   10.40300   15.86300    7.72050    0.00980    3.37950    2.60900    0.05670    0.23830   -9999.25   -9999.25
 7903.00000  105.62960    9.78670   10.17330   10.18820   15.54760    7.71030    0.00980    3.39870    2.59830    0.06370    0.24780   -9999.25   -9999.25
 7903.50000  107.95580    9.78740   10.24240   11.02320   15.23220    7.74080    0.00980    3.28990    2.61540    0.06040    0.23460   -9999.25   -9999.25
 7904.00000  113.38970    9.58710   10.38300   11.93940   14.91680    7.74140    0.00830    3.18500    2.62240    0.05310    0.21670   -9999.25   -9999.25
 7904.50000  124.03470    9.39100   10.52510   12.35740   14.90210    7.77190    0.00690    3.11020    2.62240    0.05080    0.20950   -9999.25   -9999.25
 7905.00000  125.82290    9.32700   10.45040   12.44180   14.88720    7.77250    0.00690    3.09530    2.62030    0.05320    0.20890   -9999.25   -9999.25
 7905.50000  126.71140    9.32780   10.23360   11.44990   15.17360    7.77310    0.00690    3.14060    2.61640    0.05490    0.21780   -9999.25   -9999.25
 7906.00000  125.57600    9.52380    9.88170   10.53740   15.45600    7.77370    0.00700    3.20090    2.61280    0.05360    0.22560   -9999.25   -9999.25
 7906.50000  122.41670    9.59390    9.61180   10.03890   15.74210    7.77430    0.00850    3.24620    2.61110    0.05050    0.22980   -9999.25   -9999.25
 7907.00000  120.60660    9.65760    9.74330   10.46210   16.03190    7.77490    0.01150    3.23140    2.61700    0.04900    0.22380   -9999.25   -9999.25
 7907.50000  120.82080    9.52570    9.94570   10.90340   16.31800    7.77550    0.01160    3.15650    2.62900    0.04740    0.21180   -9999.25   -9999.25
 7908.00000  120.13490    9.33110   10.22280   11.37100   16.29970    7.77610    0.01300    3.08170    2.63970    0.04620    0.20160   -9999.25   -9999.25
 7908.50000  118.22110    9.26730   10.36370   11.59990   16.58940    7.77670    0.01300    2.99180    2.63840    0.04530    0.20700   -9999.25   -9999.25
 7909.00000  111.78940    9.26810   10.36100   11.51810   16.87190    7.77730    0.01300    2.94700    2.63540    0.04490    0.21890   -9999.25   -9999.25
 7909.50000  112.00330    9.26870   10.14610   11.20260   17.15800    7.77790    0.01300    3.02230    2.63010    0.04570    0.23090   -9999.25   -9999.25
 7910.00000  113.56660    9.39830    9.86710   10.74620   17.14290    7.77850    0.01310    3.09760    2.62410    0.04930    0.23810   -9999.25   -9999.25
 7910.50000  115.35470    9.52970    9.72660   10.16700   17.12500    7.77910    0.01460    3.12790    2.61810    0.05370    0.23990   -9999.25   -9999.25
 7911.00000  115.34370    9.66380    9.79510    9.88850   16.50890    7.77970    0.01460    3.09810    2.61060    0.05690    0.23810   -9999.25   -9999.25
 7911.50000  115.10790    9.79810   10.13740   10.23470   16.19350    7.78030    0.01610    3.00820    2.60620    0.05330    0.23920   -9999.25   -9999.25
 7912.00000  114.42230    9.79890   10.41980   10.81490   16.17880    7.78090    0.01760    2.93330    2.61160    0.05150    0.24160   -9999.25   -9999.25
 7912.50000  112.83710    9.79960   10.63680   11.20670   15.86340    7.78150    0.01780    2.87350    2.62070    0.05020    0.24460   -9999.25   -9999.25
