~Version ---------------------------------------------------
VERS.   2.0 : CWLS log ASCII Standard -VERSION 2.0
WRAP.    NO : One line per depth step
DLM . SPACE : Column Data Section Delimiter
~Well ------------------------------------------------------
STRT .F                3285.0 : START DEPTH
STOP .F                8987.0 : STOP DEPTH
STEP .F                   0.5 : STEP
NULL .               -9999.25 : NULL VALUE
COMP .                        : COMPANY
WELL .                        : WELL
FLD  .                        : FIELD
LOC  .                        : LOCATION
PROV .                        : PROVINCE
CNTY .                        : COUNTY
STAT .                        : STATE
CTRY .                        : COUNTRY
SRVC .                        : SERVICE COMPANY
DATE .                        : DATE
UWI  .                        : UNIQUE WELL ID
API  .                        : API NUMBER
SLAT .WGS84 5.837222014957298 : SURFACE LATITUDE
SLON .WGS84  4.66713011398501 : SURFACE LONGITUDE
DATUM.F                2554.0 : DEPTH DATUM ELEV
~Curve Information -----------------------------------------
DEPT.F     : 
GRR .GAPI  : GAMMA RAY FROM RES.
IDPH.OHMM  : INDUCTION DEEP PHASOR RES.
IMPH.OHMM  : INDUCTION MEDIUM PHASOR RES.
SFLU.OHMM  : SPHERICALLY FOCUSED LOG UNAVERAGED RES.
SPR .MV    : SPONTANEOUS POTENTIAL FROM RES.
CALD.IN    : CALIPER FROM DENSITY LOG
DRHO.G/C3  : DENSITY CORRECTION
PEF .B/E   : PHOTOELECTRIC FACTOR
RHOB.G/C3  : BULK DENSITY
DPHI.DEC   : DENSITY POROSITY SANDSTONE
NPHI.DEC   : NEUTRON POROSITY SANDSTONE
DTCO.US/F  : COMPRESSIONAL-WAVE INTERVAL TRANSIT TIME ACOUSTIC SLOWNESS
DTSM.US/F  : SHEAR-WAVE INTERVAL TRANSIT TIME DELTA-T
~Params ----------------------------------------------------
~Other -----------------------------------------------------
~ASCII -----------------------------------------------------
# ...
 8225.00000   92.54090   11.27120   11.61780   13.03120   19.54890    7.67660    0.00300    3.23950    2.54910    0.09490    0.27760   -9999.25   -9999.25
 8225.50000   90.73960   11.42880   12.19610   13.23440   19.54890    7.67660    0.00510    3.20940    2.53710    0.10110    0.27150   -9999.25   -9999.25
 8226.00000   86.23960   11.50890   12.89200   15.81980   19.54890    7.67660    0.00660    3.42700    2.56410    0.09620    0.23350   -9999.25   -9999.25
 8226.50000   82.86410   11.58940   13.44040   19.60260   19.54890    7.64670    0.01340    3.44950    2.60310    0.07180    0.20990   -9999.25   -9999.25
 8227.00000   82.18780   11.51040   13.72410   22.82540   19.84960    7.64670    0.02010    3.24440    2.64660    0.04760    0.20010   -9999.25   -9999.25
 8227.50000   85.10860   11.27380   13.62830   17.43720   19.84960    7.64670    0.02840    3.14250    2.66910    0.02530    0.18980   -9999.25   -9999.25
 8228.00000   88.92950   10.80900   12.87760   14.27390   20.15040    7.61680    0.03750    3.20490    2.68410    0.01560    0.19590   -9999.25   -9999.25
 8228.50000   95.25320   10.30800   11.62920   13.23190   20.45110    7.61680    0.04500    3.26900    2.66460    0.02590    0.20340   -9999.25   -9999.25
 8229.00000   99.61710   10.02770   10.77830   12.69710   20.75190    7.61680    0.04790    3.22390    2.63910    0.03900    0.21120   -9999.25   -9999.25
 8229.50000  103.98980    9.95910   10.12890   12.43910   20.78080    7.64670    0.03780    3.25420    2.62110    0.04900    0.22030   -9999.25   -9999.25
 8230.00000  106.23650   10.02900   10.06000   12.44170   21.05260    7.67660    0.02350    3.37670    2.61360    0.05400    0.23220   -9999.25   -9999.25
 8230.50000  108.93300   10.16930   10.34410   12.44420   21.05260    7.67660    0.01370    3.43220    2.60620    0.05840    0.24000   -9999.25   -9999.25
 8231.00000  110.50550   10.38290   10.63590   12.44730   21.05260    7.67660    0.00850    3.34790    2.59120    0.06380    0.24820   -9999.25   -9999.25
 8231.50000  103.53130   10.60110   11.01180   12.53620   21.05260    7.67660    0.00430    3.23280    2.58370    0.06920    0.25570   -9999.25   -9999.25
 8232.00000   94.53360   10.82390   11.72100   14.59720   21.35340    7.67660    0.00130    3.46360    2.60320    0.06970    0.25540   -9999.25   -9999.25
 8232.50000   70.24350   11.05140   12.57100   19.11550   21.35340    7.67660   -0.00020    3.80890    2.64520    0.04050    0.21100   -9999.25   -9999.25
 8233.00000   68.21740   11.12870   13.29340   25.20600   21.65410    7.67660    0.00130    3.94400    2.68720    0.01710    0.18880   -9999.25   -9999.25
 8233.50000   71.92850   11.05300   13.74920   29.55350   21.65410    7.67660    0.00570    4.03400    2.69920    0.00920    0.20800   -9999.25   -9999.25
 8234.00000   88.95330   11.05380   13.10080   20.63750   21.95490    7.67660    0.00720    3.98890    2.65510    0.03070    0.23320   -9999.25   -9999.25
 8234.50000  105.99130   10.90260   12.22650   13.63640   21.95490    7.67660    0.00570    3.74860    2.61610    0.05210    0.24850   -9999.25   -9999.25
 8235.00000  108.68780   10.67970   11.09910   11.96120   21.95490    7.64670    0.00420    3.49320    2.58490    0.07200    0.25940   -9999.25   -9999.25
 8235.50000  109.58570   10.24680   10.21610   11.62920   21.65410    7.64670    0.00120    3.38810    2.57130    0.08110    0.26520   -9999.25   -9999.25
 8236.00000  108.68340    9.96820    9.80190   11.55970   21.05260    7.61680   -0.00030    3.31290    2.56110    0.08500    0.27000   -9999.25   -9999.25
 8236.50000  107.78170    9.56400    9.53560   11.56260   20.75190    7.61680   -0.00030    3.24040    2.55960    0.08680    0.27480   -9999.25   -9999.25
 8237.00000  108.00430    9.11310    9.34100   11.64510   20.75190    7.61680   -0.00340    3.38780    2.55830    0.08680    0.27580   -9999.25   -9999.25
 8237.50000  109.57640    9.05090    9.47820   11.89140   20.45110    7.61680   -0.00640    3.43280    2.56320    0.08680    0.26380   -9999.25   -9999.25
 8238.00000  110.02400    9.11450    9.67270   12.14300   20.45110    7.61680   -0.00640    3.34260    2.57110    0.08580    0.25990   -9999.25   -9999.25
 8238.50000  109.32550    9.30600    9.87700   12.22960   20.75190    7.64670   -0.00040    3.25250    2.58150    0.08210    0.26170   -9999.25   -9999.25
 8239.00000  105.84920    9.43610   10.15560   12.23210   20.76870    7.64670    0.00560    3.38750    2.59060    0.07650    0.25620   -9999.25   -9999.25
 8239.50000  101.69600    9.63440   10.44200   12.66460   21.10320    7.64670    0.00560    3.47750    2.59660    0.07060    0.24810   -9999.25   -9999.25
 8240.00000  100.34450    9.76910   10.73650   13.20340   21.65410    7.67660    0.00260    3.62760    2.60780    0.06290    0.24120   -9999.25   -9999.25
 8240.50000  103.26580    9.90570   10.96320   13.58600   21.65410    7.67660   -0.00050    3.71760    2.59670    0.06110    0.23400   -9999.25   -9999.25
 8241.00000  106.41200   10.11390   11.11750   13.76850   21.95490    7.67660   -0.00060    3.64250    2.59210    0.06470    0.22920   -9999.25   -9999.25
 8241.50000  107.75970   10.18470   11.27390   13.77130   21.95490    7.70660    0.00100    3.55230    2.58950    0.06770    0.22660   -9999.25   -9999.25
 8242.00000  105.28320   10.18540   11.19770   13.49150   21.95490    7.75270    0.00550    3.44620    2.58530    0.07070    0.22800   -9999.25   -9999.25
 8242.50000  103.03210   10.11590   11.11280   13.21740   22.25560    7.79640    0.00850    3.32480    2.58830    0.07250    0.23310   -9999.25   -9999.25
 8243.00000  101.90550    9.97780   10.74560   12.94890   21.95490    7.87830    0.01300    3.20680    2.58990    0.07190    0.23820   -9999.25   -9999.25
 8243.50000  102.37090    9.84170   10.38150   12.68580   21.95490    8.07700    0.01750    3.39020    2.58990    0.06950    0.24360   -9999.25   -9999.25
 8244.00000  104.49620    9.70720   10.16960   12.51360   21.62750    8.27540    0.02650    3.44820    2.58990    0.06830    0.24870   -9999.25   -9999.25
 8244.50000  109.54460    9.64100   10.17100   12.34490   20.75190    8.51500    0.04150    3.44680    2.58890    0.06890    0.24890   -9999.25   -9999.25
 8245.00000  111.34150    9.57530   10.10190   12.26240   20.45110    8.42510    0.05510    3.41260    2.58690    0.07130    0.24800   -9999.25   -9999.25
 8245.50000  112.23880    9.57600   10.17370   12.18050   20.15040    8.03590    0.06860    3.36930    2.59100    0.07010    0.25390   -9999.25   -9999.25
 8246.00000  111.78680    9.44520   10.31690   12.18350   19.84960    7.79640    0.07770    3.32380    2.59650    0.06530    0.26170   -9999.25   -9999.25
 8246.50000  108.63620    9.44580   10.53470   12.27050   19.84960    7.67660    0.09160    3.29340    2.59950    0.06290    0.26890   -9999.25   -9999.25
 8247.00000  105.93540    9.44640   10.75720   12.35810   19.84960    7.67660    0.10890    3.31450    2.60670    0.06110    0.27370   -9999.25   -9999.25
 8247.50000  104.77140    9.51260   10.75870   12.53260   19.84960    7.67660    0.09580    3.39670    2.60880    0.05990    0.26590   -9999.25   -9999.25
 8248.00000  108.62960    9.57930   10.39450   12.62200   20.15040    7.70660    0.06990    3.46890    2.58910    0.05810    0.25930   -9999.25   -9999.25
 8248.50000  109.52700    9.64640   10.25300   12.62460   20.45110    7.70660    0.04320    3.50620    2.56470    0.07490    0.25810   -9999.25   -9999.25
 8249.00000  108.82110    9.71390   10.32560   12.80280   20.75190    7.70660    0.02400    3.42410    2.54970    0.09040    0.26050   -9999.25   -9999.25
 8249.50000  107.72300    9.71460   10.47090   12.98360   21.05260    7.70660    0.01380    3.26590    2.53530    0.09940    0.26130   -9999.25   -9999.25
 8250.00000  107.27150    9.61290   10.42160   13.16690   21.03950    7.70660    0.00650    3.43080    2.52850    0.10540    0.25810   -9999.25   -9999.25
 8250.50000  109.33220    9.38390   10.11060   13.30660   20.87950    7.70660    0.00170    3.53160    2.53530    0.10680    0.25750   -9999.25   -9999.25
