~Version ---------------------------------------------------
VERS.   2.0 : CWLS log ASCII Standard -VERSION 2.0
WRAP.    NO : One line per depth step
DLM . SPACE : Column Data Section Delimiter
~Well ------------------------------------------------------
STRT .F                3285.0 : START DEPTH
STOP .F                8987.0 : STOP DEPTH
STEP .F                   0.5 : STEP
NULL .               -9999.25 : NULL VALUE
COMP .                        : COMPANY
WELL .                        : WELL
FLD  .                        : FIELD
LOC  .                        : LOCATION
PROV .                        : PROVINCE
CNTY .                        : COUNTY
STAT .                        : STATE
CTRY .                        : COUNTRY
SRVC .                        : SERVICE COMPANY
DATE .                        : DATE
UWI  .                        : UNIQUE WELL ID
API  .                        : API NUMBER
SLAT .WGS84 5.837222014957298 : SURFACE LATITUDE
SLON .WGS84  4.66713011398501 : SURFACE LONGITUDE
DATUM.F                2554.0 : DEPTH DATUM ELEV
~Curve Information -----------------------------------------
DEPT.F     : 
GRR .GAPI  : GAMMA RAY FROM RES.
IDPH.OHMM  : INDUCTION DEEP PHASOR RES.
IMPH.OHMM  : INDUCTION MEDIUM PHASOR RES.
SFLU.OHMM  : SPHERICALLY FOCUSED LOG UNAVERAGED RES.
SPR .MV    : SPONTANEOUS POTENTIAL FROM RES.
CALD.IN    : CALIPER FROM DENSITY LOG
DRHO.G/C3  : DENSITY CORRECTION
PEF .B/E   : PHOTOELECTRIC FACTOR
RHOB.G/C3  : BULK DENSITY
DPHI.DEC   : DENSITY POROSITY SANDSTONE
NPHI.DEC   : NEUTRON POROSITY SANDSTONE
DTCO.US/F  : COMPRESSIONAL-WAVE INTERVAL TRANSIT TIME ACOUSTIC SLOWNESS
DTSM.US/F  : SHEAR-WAVE INTERVAL TRANSIT TIME DELTA-T
~Params ----------------------------------------------------
~Other -----------------------------------------------------
~ASCII -----------------------------------------------------
# ...
 7289.00000   93.15270    6.76680    7.45440    7.64460   14.23150    8.51170    0.06530    2.68440    2.57780    0.07350    0.21440   -9999.25   -9999.25
 7289.50000   92.02600    6.76540    7.29930    7.58970   13.91320    8.51180    0.07430    2.77460    2.56050    0.08060    0.22330   -9999.25   -9999.25
 7290.00000   87.07630    6.76400    7.09500    7.43030   14.24080    8.60180    0.08630    2.78980    2.55740    0.09070    0.22750   -9999.25   -9999.25
 7290.50000   87.52390    6.71610    6.90240    7.32540   14.47950    8.72170    0.10000    2.75990    2.55330    0.09200    0.23360   -9999.25   -9999.25
 7291.00000   90.67010    6.62260    6.90020    7.07380   14.76270    8.81170    0.11350    2.68500    2.52330    0.09990    0.24080   -9999.25   -9999.25
 7291.50000   94.28230    6.53040    6.99490    7.06900   15.04590    8.90170    0.12420    2.59500    2.47900    0.12410    0.24670   -9999.25   -9999.25
 7292.00000   95.86510    6.39480    6.89650    6.91920   15.32910    8.99160    0.13470    2.56520    2.45160    0.14550    0.25180   -9999.25   -9999.25
 7292.50000   96.51060    6.30580    6.70640    6.77760   15.00630    9.08160    0.14040    2.61230    2.45850    0.15220    0.25560   -9999.25   -9999.25
 7293.00000   94.70880    6.26110    6.52160    6.86920   14.98880    9.05180    0.14010    2.70140    2.49070    0.13410    0.24600   -9999.25   -9999.25
 7293.50000   92.68260    6.21670    6.43020    6.96200   14.67040    8.96210    0.12770    2.73080    2.51880    0.10620    0.24080   -9999.25   -9999.25
 7294.00000   92.45600    6.17270    6.47310    6.91120   14.35190    8.81260    0.11050    2.69950    2.54500    0.09320    0.24710   -9999.25   -9999.25
 7294.50000   96.05150    6.17140    6.56150    6.81360   14.33380    8.75280    0.09980    2.63760    2.56570    0.08580    0.25460   -9999.25   -9999.25
 7295.00000  100.77190    6.21300    6.51410    6.62520   14.31260    8.84280    0.10310    2.56610    2.57560    0.08170    0.25920   -9999.25   -9999.25
 7295.50000  101.89470    6.21170    6.33460    6.57700   14.60010    8.93280    0.10640    2.54890    2.57330    0.07870    0.26240   -9999.25   -9999.25
 7296.00000  100.09290    6.16360    6.16000    6.61990   14.57820    8.99280    0.11040    2.53630    2.56560    0.07970    0.26410   -9999.25   -9999.25
 7296.50000   99.19110    6.03970    6.11580    6.67040   14.56060    8.99300    0.10340    2.57230    2.55430    0.08820    0.26650   -9999.25   -9999.25
 7297.00000   98.51420    6.08030    6.15710    6.75240   14.54300    8.90330    0.09730    2.67270    2.55030    0.09410    0.26890   -9999.25   -9999.25
 7297.50000   99.18620    6.12120    6.28410    6.79720   14.22470    8.84360    0.08970    2.82100    2.56030    0.08890    0.26530   -9999.25   -9999.25
 7298.00000  102.33240    6.16270    6.37000    6.79380   14.20710    8.84370    0.07830    2.94260    2.56520    0.08750    0.25030   -9999.25   -9999.25
 7298.50000  105.25380    6.16120    6.41250    6.74430   13.88870    8.87380    0.06620    3.01750    2.56070    0.08920    0.24010   -9999.25   -9999.25
 7299.00000  106.82580    6.07540    6.32260    6.64910   13.87070    8.90390    0.05630    2.94890    2.56520    0.08630    0.24190   -9999.25   -9999.25
 7299.50000  106.37380    5.99080    6.14800    6.51000   13.54850    8.99390    0.05680    2.86860    2.57120    0.08370    0.24790   -9999.25   -9999.25
 7300.00000  100.07330    5.90740    6.01210    6.37390   13.51900    9.04970    0.06530    2.75790    2.57570    0.08060    0.25090   -9999.25   -9999.25
 7300.50000   97.80460    5.85110    5.93670    6.32830   13.31840    9.10180    0.07430    2.61230    2.57570    0.07900    0.25310   -9999.25   -9999.25
 7301.00000   98.23460    5.86520    5.93570    6.23940   13.20260    9.15380    0.08480    2.56740    2.56960    0.08390    0.25450   -9999.25   -9999.25
 7301.50000   99.11430    5.86420    5.97640    6.15210   13.48870    9.20590    0.09530    2.80400    2.56220    0.08740    0.25140   -9999.25   -9999.25
 7302.00000  100.44380    5.90420    6.01700    6.19350   13.77480    9.25790    0.09910    3.01690    2.56990    0.08340    0.24740   -9999.25   -9999.25
 7302.50000  100.87380    5.90320    6.10010    6.14870   14.06090    9.38170    0.08920    3.10770    2.58190    0.07230    0.24450   -9999.25   -9999.25
 7303.00000   99.04990    5.98480    6.18400    6.10480   14.34710    9.53110    0.08010    3.05700    2.59080    0.07350    0.24140   -9999.25   -9999.25
 7303.50000   95.20700    6.02550    6.26960    6.18800   14.63320    9.59070    0.06810    3.04750    2.58740    0.08020    0.23720   -9999.25   -9999.25
 7304.00000   91.58900    6.15060    6.44450    6.49290   14.61490    9.44070    0.06620    3.02420    2.57390    0.08870    0.23210   -9999.25   -9999.25
 7304.50000   92.91850    6.19250    6.62440    7.00380   14.29950    9.26070    0.08010    2.87090    2.55720    0.09350    0.22880   -9999.25   -9999.25
 7305.00000   91.99920    6.32130    6.71900    7.19810   14.28490    9.23050    0.08450    2.73800    2.55620    0.08380    0.23370   -9999.25   -9999.25
 7305.50000   90.18030    6.36430    6.76160    7.09740   14.27020    9.29010    0.08150    2.71120    2.57290    0.07730    0.24000   -9999.25   -9999.25
 7306.00000   89.26090    6.45170    6.71380    7.15250   14.25560    9.40950    0.07550    2.89890    2.58020    0.07960    0.23790   -9999.25   -9999.25
 7306.50000   89.01620    6.45090    6.75950    7.54820   14.24060    9.52900    0.06940    3.08100    2.57270    0.07780    0.22290   -9999.25   -9999.25
 7307.00000   89.67110    6.40560    6.85280    7.39130   14.52710    9.64850    0.06490    3.15850    2.58210    0.07330    0.21570   -9999.25   -9999.25
 7307.50000   91.22550    6.31680    6.80460    6.94380   14.20800    9.73800    0.06190    3.15400    2.59100    0.07040    0.21690   -9999.25   -9999.25
 7308.00000   93.95080    6.18640    6.48200    6.61420   13.89260    9.88740    0.05580    3.05700    2.59570    0.06800    0.21990   -9999.25   -9999.25
 7308.50000   99.30010    6.05870    6.30420    6.43220   13.27650    9.70740    0.05280    2.95990    2.60150    0.06640    0.22170   -9999.25   -9999.25
 7309.00000  104.42950    5.97470    6.13130    6.38610   12.96110    9.61730    0.04980    2.87610    2.60420    0.06480    0.22410   -9999.25   -9999.25
 7309.50000  101.48610    5.93280    6.08820    6.25340   12.64570    9.55710    0.04670    2.76370    2.60060    0.06820    0.22410   -9999.25   -9999.25
 7310.00000   96.74370    5.89110    6.04530    6.24890   12.63110    9.64670    0.04970    2.72920    2.58930    0.07680    0.22470   -9999.25   -9999.25
 7310.50000   96.27900    5.80930    6.04430    6.47100   12.31570    9.76610    0.05270    2.81330    2.58020    0.07740    0.22650   -9999.25   -9999.25
 7311.00000   99.17780    5.80850    6.04350    6.60350   12.27540    9.88560    0.05560    2.83620    2.58790    0.07310    0.22950   -9999.25   -9999.25
 7311.50000  100.50730    5.72800    6.04270    6.37710   11.98200    9.94520    0.05560    2.79920    2.58920    0.06990    0.23370   -9999.25   -9999.25
 7312.00000   98.91330    5.68780    5.95890    6.15890   11.66660    9.64550    0.05710    2.78310    2.58770    0.07130    0.23850   -9999.25   -9999.25
 7312.50000   97.54410    5.64790    5.87620    6.03090   11.65200    9.79490    0.05560    2.88860    2.58970    0.07120    0.24150   -9999.25   -9999.25
 7313.00000  100.22300    5.56960    5.79460    5.94650   11.63740    9.88440    0.05550    2.93360    2.59370    0.06840    0.24270   -9999.25   -9999.25
 7313.50000  103.35520    5.53060    5.79380    5.98660   11.92710    9.97390    0.05250    2.95590    2.59110    0.07080    0.23970   -9999.25   -9999.25
 7314.00000  104.23140    5.49170    5.79310    6.02640   12.21330   10.00360    0.04950    2.93300    2.57850    0.08020    0.23730   -9999.25   -9999.25
 7314.50000  105.86580    5.52910    5.83250    5.94170   12.49570   10.00330    0.04940    2.88860    2.56260    0.08890    0.23610   -9999.25   -9999.25
