~Version ---------------------------------------------------
VERS.   2.0 : CWLS log ASCII Standard -VERSION 2.0
WRAP.    NO : One line per depth step
DLM . SPACE : Column Data Section Delimiter
~Well ------------------------------------------------------
STRT .F                3285.0 : START DEPTH
STOP .F                8987.0 : STOP DEPTH
STEP .F                   0.5 : STEP
NULL .               -9999.25 : NULL VALUE
COMP .                        : COMPANY
WELL .                        : WELL
FLD  .                        : FIELD
LOC  .                        : LOCATION
PROV .                        : PROVINCE
CNTY .                        : COUNTY
STAT .                        : STATE
CTRY .                        : COUNTRY
SRVC .                        : SERVICE COMPANY
DATE .                        : DATE
UWI  .                        : UNIQUE WELL ID
API  .                        : API NUMBER
SLAT .WGS84 5.837222014957298 : SURFACE LATITUDE
SLON .WGS84  4.66713011398501 : SURFACE LONGITUDE
DATUM.F                2554.0 : DEPTH DATUM ELEV
~Curve Information -----------------------------------------
DEPT.F     : 
GRR .GAPI  : GAMMA RAY FROM RES.
IDPH.OHMM  : INDUCTION DEEP PHASOR RES.
IMPH.OHMM  : INDUCTION MEDIUM PHASOR RES.
SFLU.OHMM  : SPHERICALLY FOCUSED LOG UNAVERAGED RES.
SPR .MV    : SPONTANEOUS POTENTIAL FROM RES.
CALD.IN    : CALIPER FROM DENSITY LOG
DRHO.G/C3  : DENSITY CORRECTION
PEF .B/E   : PHOTOELECTRIC FACTOR
RHOB.G/C3  : BULK DENSITY
DPHI.DEC   : DENSITY POROSITY SANDSTONE
NPHI.DEC   : NEUTRON POROSITY SANDSTONE
DTCO.US/F  : COMPRESSIONAL-WAVE INTERVAL TRANSIT TIME ACOUSTIC SLOWNESS
DTSM.US/F  : SHEAR-WAVE INTERVAL TRANSIT TIME DELTA-T
~Params ----------------------------------------------------
~Other -----------------------------------------------------
~ASCII -----------------------------------------------------
# ...
 8485.00000  101.04190    9.23090    9.99080   12.05240   19.82120    7.66770    0.01250    3.29880    2.61100    0.05940    0.24520   -9999.25   -9999.25
 8485.50000  100.13840    9.29370   10.12730   12.13270   20.41200    7.66800    0.01400    3.28390    2.61850    0.05460    0.24390   -9999.25   -9999.25
 8486.00000   99.46330    9.35690   10.26560   12.12930   20.70380    7.66830    0.01410    3.34420    2.62760    0.04620    0.24760   -9999.25   -9999.25
 8486.50000  100.13520    9.37470   10.33410   12.21010   20.99560    7.66860    0.01410    3.41940    2.63510    0.04140    0.24590   -9999.25   -9999.25
 8487.00000  103.50640    9.41920   10.33060   12.20600   21.28760    7.66890    0.01410    3.47960    2.64110    0.03840    0.24310   -9999.25   -9999.25
 8487.50000  107.55220    9.54870   10.25660   12.20270   21.57950    7.66920    0.01410    3.53980    2.64710    0.03820    0.24360   -9999.25   -9999.25
 8488.00000  108.67490    9.61390   10.32500   12.19940   21.87140    7.66950    0.01410    3.58500    2.63960    0.04140    0.24570   -9999.25   -9999.25
 8488.50000  106.19840    9.67930   10.32220   12.19610   21.86040    7.66980    0.01260    3.55510    2.63650    0.04360    0.24420   -9999.25   -9999.25
 8489.00000  102.37320    9.67760   10.39180   12.27820   21.85160    7.67010    0.01260    3.45020    2.64270    0.03960    0.24250   -9999.25   -9999.25
 8489.50000  100.79680    9.74340   10.46110   12.36000   21.54210    7.67040    0.01260    3.42030    2.64420    0.03780    0.24200   -9999.25   -9999.25
 8490.00000  101.91900    9.87760   10.60330   12.44230   21.23250    7.67070    0.01230    3.48050    2.64270    0.03900    0.24340   -9999.25   -9999.25
 8490.50000  106.48590    9.88720   10.67410   12.61120   20.62220    7.67100    0.01110    3.60080    2.64130    0.04320    0.24460   -9999.25   -9999.25
 8491.00000  112.99880    9.94350   10.74530   12.69520   20.31260    7.67130    0.01110    3.70600    2.63230    0.04620    0.24590   -9999.25   -9999.25
 8491.50000  113.83150   10.01110   10.73640   12.77980   19.99580    7.67160    0.01070    3.73620    2.62630    0.04920    0.24760   -9999.25   -9999.25
 8492.00000  110.90520   10.00940   10.66530   12.77620   19.69320    7.67190    0.00960    3.64620    2.62780    0.04740    0.24820   -9999.25   -9999.25
 8492.50000  103.93150   10.00800   10.66180   12.59670   19.68250    7.67220    0.00810    3.55580    2.62780    0.04850    0.24860   -9999.25   -9999.25
 8493.00000  102.13020   10.00670   10.65890   12.50660   19.67370    7.67250    0.01020    3.46510    2.62790    0.05030    0.24430   -9999.25   -9999.25
 8493.50000  101.45330   10.00530   10.58250   12.50330   19.66490    7.67280    0.01270    3.37260    2.62630    0.05030    0.23620   -9999.25   -9999.25
 8494.00000  101.90090    9.93510   10.50670   12.49990   19.65600    7.67310    0.01210    3.26920    2.62480    0.05010    0.23120   -9999.25   -9999.25
 8494.50000  104.37250    9.86530   10.43150   12.49650   19.64720    7.67340    0.01060    3.24160    2.62340    0.05030    0.23140   -9999.25   -9999.25
 8495.00000  106.39430    9.79610   10.35670   12.40710   19.94140    7.67370    0.00750    3.39370    2.62200    0.05090    0.23320   -9999.25   -9999.25
 8495.50000  107.53100    9.66020   10.35390   12.23350   20.23330    7.67400    0.00670    3.37490    2.61880    0.05270    0.23670   -9999.25   -9999.25
 8496.00000  107.96410    9.59220   10.20880   12.14600   20.22230    7.67430    0.00670    3.33760    2.61750    0.05150    0.24200   -9999.25   -9999.25
 8496.50000  105.93740    9.39420   10.13570   12.14270   20.51430    7.67460    0.00900    3.23400    2.62110    0.04850    0.24850   -9999.25   -9999.25
 8497.00000  103.46140    9.32820   10.06300   12.05580   20.50530    7.67490    0.01120    3.16730    2.62570    0.04670    0.24700   -9999.25   -9999.25
 8497.50000  101.43520    9.19900   10.05970   12.05180   20.79740    7.67510    0.01270    3.25600    2.62960    0.04610    0.24040   -9999.25   -9999.25
 8498.00000  100.53410    9.19770   10.05700   12.04850   20.78640    7.67540    0.01420    3.35890    2.62960    0.04790    0.24130   -9999.25   -9999.25
 8498.50000  104.12950    9.13320   10.05420   12.12960   21.08050    7.67570    0.01420    3.43490    2.62810    0.04610    0.24810   -9999.25   -9999.25
 8499.00000  108.40020    9.13190   10.05150   12.29420   21.37250    7.67600    0.01430    3.50690    2.63200    0.04370    0.25270   -9999.25   -9999.25
 8499.50000  108.64650    9.13070   10.11930   12.37610   21.36150    7.67630    0.01280    3.55750    2.63660    0.04070    0.25710   -9999.25   -9999.25
 8500.00000  107.49620    9.16730   10.18680   12.37280   21.17290    7.67700    0.01250    3.60360    2.64170    0.03800    0.25990   -9999.25   -9999.25
 8500.50000  106.37440    9.32120   10.15010   12.33170   20.44430    7.67920    0.01180    3.57980    2.62970    0.04220    0.25720   -9999.25   -9999.25
 8501.00000  106.37650    9.50300   10.11860   12.28250   20.43850    7.68150    0.01120    3.52580    2.62370    0.04940    0.25330   -9999.25   -9999.25
 8501.50000  106.37870    9.49730   10.17640   12.19550   20.13190    7.68380    0.01050    3.44930    2.61320    0.05530    0.24850   -9999.25   -9999.25
 8502.00000  106.38090    9.55880   10.24270   12.19310   20.12610    7.68610    0.00980    3.38810    2.60120    0.06170    0.24820   -9999.25   -9999.25
 8502.50000  106.60800    9.55160   10.31040   12.10670   20.12020    7.68830    0.00810    3.36220    2.59970    0.06290    0.25030   -9999.25   -9999.25
 8503.00000  106.61020    9.54580   10.30690   12.02080   20.11430    7.69060    0.00530    3.36930    2.60570    0.05930    0.24550   -9999.25   -9999.25
 8503.50000  106.61290    9.54010   10.30260   12.10120   20.10710    7.69290    0.00480    3.43700    2.61920    0.05420    0.24250   -9999.25   -9999.25
 8504.00000  106.16530    9.53430   10.37160   12.18330   20.10130    7.69510    0.00050    3.51370    2.63420    0.04810    0.24250   -9999.25   -9999.25
 8504.50000  105.49280    9.52840   10.36720   12.35030   20.09550    7.69740   -0.00100    3.63520    2.63570    0.04450    0.24490   -9999.25   -9999.25
 8505.00000  104.14570    9.52140   10.43570   12.34720   20.39190    7.69970   -0.00400    3.71520    2.62820    0.04460    0.25080   -9999.25   -9999.25
 8505.50000   99.87500    9.58310   10.36030   12.25980   20.38460    7.70200   -0.00510    3.55600    2.61920    0.04920    0.25740   -9999.25   -9999.25
 8506.00000   98.52730    9.57540   10.35680   12.17290   20.37870    7.70420   -0.00360    3.42070    2.61170    0.05280    0.25020   -9999.25   -9999.25
 8506.50000   98.97980    9.63740   10.35330   12.00340   20.37290    7.70460   -0.00300    3.31540    2.60870    0.05620    0.24240   -9999.25   -9999.25
 8507.00000  101.25650    9.69740   10.27840   12.08420   20.36690    7.70450   -0.00050    3.28510    2.61330    0.05260    0.23760   -9999.25   -9999.25
 8507.50000  106.85580    9.69160   10.20330   12.08120   20.05900    7.70430    0.00010    3.37500    2.61940    0.04840    0.24000   -9999.25   -9999.25
 8508.00000  113.60460    9.68570   10.12960   12.16310   20.05320    7.70420    0.00160    3.53990    2.62680    0.05020    0.24550   -9999.25   -9999.25
 8508.50000  114.73070    9.67970   10.12620   12.24500   20.04740    7.70400    0.00470    3.49460    2.62490    0.05440    0.25030   -9999.25   -9999.25
 8509.00000  108.88630    9.67260   10.12280   12.32740   20.04150    7.70390    0.00620    3.38930    2.61700    0.05860    0.25510   -9999.25   -9999.25
 8509.50000  103.49120    9.66680   10.11940   12.32430   20.03570    7.70370    0.00930    3.34400    2.60850    0.05800    0.25930   -9999.25   -9999.25
 8510.00000  105.74220    9.59440   10.11600   12.15270   20.02990    7.70360    0.01090    3.32880    2.60920    0.05380    0.26100   -9999.25   -9999.25
 8510.50000  111.81640    9.58870   10.11260   12.06660   20.32480    7.70340    0.01160    3.32860    2.61650    0.05320    0.25710   -9999.25   -9999.25
