~Version ---------------------------------------------------
VERS.   2.0 : CWLS log ASCII Standard -VERSION 2.0
WRAP.    NO : One line per depth step
DLM . SPACE : Column Data Section Delimiter
~Well ------------------------------------------------------
STRT .F                3285.0 : START DEPTH
STOP .F                8987.0 : STOP DEPTH
STEP .F                   0.5 : STEP
NULL .               -9999.25 : NULL VALUE
COMP .                        : COMPANY
WELL .                        : WELL
FLD  .                        : FIELD
LOC  .                        : LOCATION
PROV .                        : PROVINCE
CNTY .                        : COUNTY
STAT .                        : STATE
CTRY .                        : COUNTRY
SRVC .                        : SERVICE COMPANY
DATE .                        : DATE
UWI  .                        : UNIQUE WELL ID
API  .                        : API NUMBER
SLAT .WGS84 5.837222014957298 : SURFACE LATITUDE
SLON .WGS84  4.66713011398501 : SURFACE LONGITUDE
DATUM.F                2554.0 : DEPTH DATUM ELEV
~Curve Information -----------------------------------------
DEPT.F     : 
GRR .GAPI  : GAMMA RAY FROM RES.
IDPH.OHMM  : INDUCTION DEEP PHASOR RES.
IMPH.OHMM  : INDUCTION MEDIUM PHASOR RES.
SFLU.OHMM  : SPHERICALLY FOCUSED LOG UNAVERAGED RES.
SPR .MV    : SPONTANEOUS POTENTIAL FROM RES.
CALD.IN    : CALIPER FROM DENSITY LOG
DRHO.G/C3  : DENSITY CORRECTION
PEF .B/E   : PHOTOELECTRIC FACTOR
RHOB.G/C3  : BULK DENSITY
DPHI.DEC   : DENSITY POROSITY SANDSTONE
NPHI.DEC   : NEUTRON POROSITY SANDSTONE
DTCO.US/F  : COMPRESSIONAL-WAVE INTERVAL TRANSIT TIME ACOUSTIC SLOWNESS
DTSM.US/F  : SHEAR-WAVE INTERVAL TRANSIT TIME DELTA-T
~Params ----------------------------------------------------
~Other -----------------------------------------------------
~ASCII -----------------------------------------------------
# ...
 8823.00000   40.96680   41.34910   42.72210   31.58180  -34.21390    7.79640   -0.00120    2.09220    2.56590    0.10240    0.10880   65.11080  110.02610
 8823.50000   40.05630   37.01410   36.02950   29.06300  -34.23160    7.79640   -0.00270    1.95740    2.52240    0.11330    0.11360   65.81730  113.10020
 8824.00000   40.72220   34.22420   32.02960   29.28120  -34.24960    7.79640    0.00050    1.89910    2.49250    0.12080    0.11580   65.99700  112.85450
 8824.50000   42.28760   32.22220   31.14890   30.27940  -33.96590    7.79640    0.00500    1.89920    2.48500    0.13090    0.11720   64.90090  110.68180
 8825.00000   43.17840   31.33750   30.71460   30.90900  -33.68270    7.79640    0.01100    1.89940    2.48050    0.13620    0.11660   63.63370  108.12780
 8825.50000   41.52500   31.76710   30.92160   31.11700  -33.09880    7.79640    0.01570    1.91900    2.48350    0.12840    0.11060   62.08240  106.52540
 8826.00000   37.31160   33.10510   31.56390   29.43620  -32.21850    7.79640    0.02350    2.04680    2.49550    0.11220    0.10210   60.33270  103.24440
 8826.50000   36.40550   35.95970   33.35380   28.23520  -31.03310    7.79640    0.03110    2.28490    2.51500    0.08230    0.08760   58.66650   99.81270
 8827.00000   37.97090   38.79160   38.29680   29.02060  -29.54690    7.79640    0.03850    2.74060    2.53300    0.06390    0.07190   56.98390   97.75360
 8827.50000   38.41200   43.31730   51.03130   35.45190  -28.36090    7.79640    0.04820    3.14290    2.56150    0.05180    0.05910   55.51820   95.46510
 8828.00000   40.20010   47.06050   68.72840   48.39300  -27.17590    7.79640    0.05610    3.37240    2.59450    0.04560    0.04500   54.47560   93.96170
 8828.50000   44.68910   49.41780  107.31510   68.06120  -26.56840    7.79640    0.04680    3.47990    2.62600    0.04280    0.04240   54.76080   92.79780
 8829.00000   47.82880   50.05120  122.36950   86.38780  -25.70750    7.79640    0.03360    3.39250    2.63510    0.05280    0.04870   57.97720   93.20140
 8829.50000   50.51870   49.35190  121.50110   84.01590  -25.42430    7.79640    0.02180    3.08760    2.62440    0.06780    0.05710   60.31670   99.98790
 8830.00000   53.49750   40.10460   79.64740   63.71540  -25.44620    7.79640    0.01580    2.78190    2.60170    0.08390    0.06840   63.16260  104.69540
 8830.50000   58.11250   33.73550   49.05870   39.54620  -25.15870    7.79640    0.01070    2.44140    2.57610    0.10060    0.09000   64.98140  108.26000
 8831.00000   61.50970   28.77280   33.52270   26.30110  -25.18060    7.79640    0.00810    2.12560    2.55170    0.11360    0.12070   67.82430  109.48430
 8831.50000   63.07510   24.88170   25.58860   20.64710  -25.19820    7.79640    0.00870    2.02390    2.52220    0.12320    0.13610   68.06500  108.25700
 8832.00000   62.39170   22.73960   22.71920   17.73190  -25.21580    7.79640    0.01180    1.95710    2.50420    0.12990    0.14090   67.45920  106.47250
 8832.50000   60.13410   21.50280   20.47690   17.60620  -25.53410    7.79640    0.01120    1.90160    2.49220    0.13250    0.13920   67.16850  104.68790
 8833.00000   58.55110   20.47190   19.93290   18.81240  -25.55190    7.79640    0.00850    1.92650    2.48670    0.12880    0.13200   66.88330  106.46950
 8833.50000   59.89170   19.92890   19.92890   20.92480  -25.56990    7.79640    0.00460    1.96710    2.49140    0.12450    0.12790   67.17870  105.87360
 8834.00000   64.83040   19.51610   19.92490   22.10110  -25.59130    7.79640    0.00160    2.01250    2.49610    0.12210    0.12730   67.17870  104.68340
 8834.50000   67.74520   19.37780   20.48000   22.09670  -25.30370    7.79640    0.00010    2.02790    2.49880    0.12170    0.12730   67.47420  105.27630
 8835.00000   66.94540   19.37390   21.05050   21.78900  -25.32570    7.79640   -0.00070    2.03750    2.49880    0.12200    0.12910   68.36040  106.76070
 8835.50000   61.65350   19.50530   21.33950   20.74920  -25.34320    7.79640   -0.00150    2.01070    2.49880    0.12260    0.12970   68.95130  108.54220
 8836.00000   58.49630   20.18590   21.33520   20.02500  -25.36080    7.79640   -0.00210    1.96280    2.49830    0.12460    0.12970   69.54210  109.43240
 8836.50000   56.23870   20.74740   21.33090   19.49580  -25.67910    7.79640   -0.00300    1.96290    2.49410    0.12780    0.12550   69.24670  109.72810
 8837.00000   52.63170   21.03180   21.79450   19.49190  -25.69670    7.79640   -0.00360    1.97810    2.49110    0.13230    0.12010   68.36040  108.83490
 8837.50000   46.77590   21.64200   22.84890   19.89610  -26.01500    7.79640   -0.00210    1.97820    2.48660    0.13560    0.11710   68.06500  107.94190
 8838.00000   39.79560   22.68230   24.31220   21.16840  -26.33380    7.79640   -0.00050    1.99340    2.47990    0.13950    0.11590   67.47420  107.64320
 8838.50000   35.96380   23.47490   26.59530   22.67820  -26.95680    7.79640   -0.00050    1.97850    2.47120    0.14040    0.11770   66.88330  108.23600
 8839.00000   35.94960   24.80410   28.10340   23.96220  -27.57590    7.79640    0.00100    1.97870    2.46890    0.13360    0.11950   66.29250  108.23460
 8839.50000   39.24520   27.89000   29.90330   25.67120  -28.19500    7.79640    0.00400    2.00160    2.47570    0.12660    0.12190   65.70160  107.34150
 8840.00000   44.93080   30.50490   31.16470   27.90970  -28.81410    7.79640    0.00710    2.03200    2.48330    0.12230    0.12370   64.81540  106.15130
 8840.50000   46.72110   32.45560   32.25530   29.46210  -29.43320    7.79640    0.01160    2.04740    2.48970    0.11900    0.12490   65.70160  104.66390
 8841.00000   47.16210   33.58960   32.92530   30.28170  -30.05230    7.79640    0.01610    2.05440    2.49690    0.11720    0.12500   65.70160  104.95960
 8841.50000   47.15340   34.05020   32.69140   30.06710  -30.06980    7.79640    0.02060    2.05450    2.50050    0.11690    0.12250   65.11080  108.22710
 8842.00000   48.94370   34.04160   31.79110   28.24860  -29.78670    7.79640    0.02070    2.07860    2.49760    0.11720    0.12010   65.11080  109.23720
 8842.50000   51.40870   33.56770   31.13160   26.17590  -29.50350    7.79640    0.01770    2.11490    2.49800    0.11930    0.12010   65.11080  110.60180
 8843.00000   52.74930   33.10030   30.69760   24.76320  -29.17010    7.79640    0.01170    2.14510    2.50160    0.12320    0.12370   65.11080  110.89750
 8843.50000   53.19040   32.41470   31.33520   24.39560  -28.64080    7.79640   -0.00030    2.19030    2.50360    0.12890    0.12850   65.87730  110.73240
 8844.00000   52.24410   31.52470   31.54800   24.92490  -28.35760    7.79640    0.00120    2.23550    2.49800    0.13580    0.13150   66.46190  109.54750
 8844.50000   49.16940   30.87180   31.32250   25.64970  -27.77370    7.73650    0.01630    2.25560    2.49090    0.14060    0.12970   66.88330  109.26370
 8845.00000   43.04190   30.02420   30.88570   26.69590  -27.18970    7.67660    0.03130    2.16070    2.48150    0.14220    0.12550   66.88330  110.29490
 8845.50000   40.78420   28.99880   30.24170   26.69050  -26.30510    7.64670    0.04330    2.04070    2.47340    0.13030    0.12250   67.32990  112.35530
 8846.00000   39.65100   27.58750   28.73790   26.13760  -25.42040    7.60980    0.05390    1.93580    2.47980    0.11740    0.12010   67.32810  114.99010
 8846.50000   41.21650   25.59580   26.50680   25.24500  -24.53570    7.70660    0.05840    1.99600    2.50610    0.10880    0.11770   66.44760  117.66220
 8847.00000   41.43480   24.04780   25.07420   24.04820  -23.65100    7.79640    0.05370    2.04120    2.51820    0.11020    0.11770   65.72910  119.33550
 8847.50000   42.77320   22.12990   23.55550   22.28370  -22.76630    7.79640    0.03700    2.02630    2.52330    0.11380    0.12310   64.98300  116.40790
 8848.00000   47.26220   21.52230   21.52470   20.50640  -21.88610    7.76650    0.02030    1.99640    2.51300    0.11740    0.12910   64.39790  111.18090
 8848.50000   54.01440   20.93140   20.08150   18.74100  -21.30210    7.70660    0.00860    1.96650    2.50240    0.12160    0.13200   63.81300  107.59140
