~Version ---------------------------------------------------
VERS.   2.0 : CWLS log ASCII Standard -VERSION 2.0
WRAP.    NO : One line per depth step
DLM . SPACE : Column Data Section Delimiter
~Well ------------------------------------------------------
STRT .F                3285.0 : START DEPTH
STOP .F                8987.0 : STOP DEPTH
STEP .F                   0.5 : STEP
NULL .               -9999.25 : NULL VALUE
COMP .                        : COMPANY
WELL .                        : WELL
FLD  .                        : FIELD
LOC  .                        : LOCATION
PROV .                        : PROVINCE
CNTY .                        : COUNTY
STAT .                        : STATE
CTRY .                        : COUNTRY
SRVC .                        : SERVICE COMPANY
DATE .                        : DATE
UWI  .                        : UNIQUE WELL ID
API  .                        : API NUMBER
SLAT .WGS84 5.837222014957298 : SURFACE LATITUDE
SLON .WGS84  4.66713011398501 : SURFACE LONGITUDE
DATUM.F                2554.0 : DEPTH DATUM ELEV
~Curve Information -----------------------------------------
DEPT.F     : 
GRR .GAPI  : GAMMA RAY FROM RES.
IDPH.OHMM  : INDUCTION DEEP PHASOR RES.
IMPH.OHMM  : INDUCTION MEDIUM PHASOR RES.
SFLU.OHMM  : SPHERICALLY FOCUSED LOG UNAVERAGED RES.
SPR .MV    : SPONTANEOUS POTENTIAL FROM RES.
CALD.IN    : CALIPER FROM DENSITY LOG
DRHO.G/C3  : DENSITY CORRECTION
PEF .B/E   : PHOTOELECTRIC FACTOR
RHOB.G/C3  : BULK DENSITY
DPHI.DEC   : DENSITY POROSITY SANDSTONE
NPHI.DEC   : NEUTRON POROSITY SANDSTONE
DTCO.US/F  : COMPRESSIONAL-WAVE INTERVAL TRANSIT TIME ACOUSTIC SLOWNESS
DTSM.US/F  : SHEAR-WAVE INTERVAL TRANSIT TIME DELTA-T
~Params ----------------------------------------------------
~Other -----------------------------------------------------
~ASCII -----------------------------------------------------
# ...
 7159.00000   89.75180    6.76130    7.10790    8.61700   18.97470   -9999.25   -9999.25   -9999.25   -9999.25   -9999.25   -9999.25   -9999.25   -9999.25
 7159.50000   87.04210    6.52910    7.05890    8.67550   18.65930   -9999.25   -9999.25   -9999.25   -9999.25   -9999.25   -9999.25   -9999.25   -9999.25
 7160.00000   84.78220    6.31280    6.86620    8.49640   18.64470   -9999.25   -9999.25   -9999.25   -9999.25   -9999.25   -9999.25   -9999.25   -9999.25
 7160.50000   82.97220    6.09970    6.58700    7.86640   18.63000   -9999.25   -9999.25   -9999.25   -9999.25   -9999.25   -9999.25   -9999.25   -9999.25
 7161.00000   83.23610    5.89370    6.31910    7.07450   18.61540   -9999.25   -9999.25   -9999.25   -9999.25   -9999.25   -9999.25   -9999.25   -9999.25
 7161.50000   87.19670    5.77400    6.06210    6.09550   18.30000   -9999.25   -9999.25   -9999.25   -9999.25   -9999.25   -9999.25   -9999.25   -9999.25
 7162.00000   92.83150    5.69560    5.73560    5.41930   17.98460   -9999.25   -9999.25   -9999.25   -9999.25   -9999.25   -9999.25   -9999.25   -9999.25
 7162.50000   97.31830    5.65750    5.73560    5.16270   17.96990   -9999.25   -9999.25   -9999.25   -9999.25   -9999.25   -9999.25   -9999.25   -9999.25
 7163.00000  100.00590    5.69820    5.81990    5.23380   17.65410   -9999.25   -9999.25   -9999.25   -9999.25   -9999.25   -9999.25   -9999.25   -9999.25
 7163.50000  102.01890    5.77860    6.06210    5.96730   17.94060   -9999.25   -9999.25   -9999.25   -9999.25   -9999.25   -9999.25   -9999.25   -9999.25
 7164.00000  102.23560    5.90420    6.72510    6.80350   17.92230   -9999.25   -9999.25   -9999.25   -9999.25   -9999.25   -9999.25   -9999.25   -9999.25
 7164.50000  101.09740    6.10980    7.46070    8.19770   18.21210   -9999.25   -9999.25   -9999.25   -9999.25   -9999.25   -9999.25   -9999.25   -9999.25
 7165.00000   99.96200    6.23910    7.88540    9.15880   18.19380   -9999.25   -9999.25   -9999.25   -9999.25   -9999.25   -9999.25   -9999.25   -9999.25
 7165.50000   98.37680    6.37100    7.77700    9.28090   18.17910   -9999.25   -9999.25   -9999.25   -9999.25   -9999.25   -9999.25   -9999.25   -9999.25
 7166.00000   90.71960    6.46100    7.46070    9.87470   18.16450   -9999.25   -9999.25   -9999.25   -9999.25   -9999.25   -9999.25   -9999.25   -9999.25
 7166.50000   79.59890    6.37360    7.05890   11.10390   17.84910   -9999.25   -9999.25   -9999.25   -9999.25   -9999.25   -9999.25   -9999.25   -9999.25
 7167.00000   72.40390    5.94930    6.63270   10.50540   17.83440   -9999.25   -9999.25   -9999.25   -9999.25   -9999.25   -9999.25   -9999.25   -9999.25
 7167.50000   74.71690    5.25460    5.95960    7.48720   17.81960   -9999.25   -9999.25   -9999.25   -9999.25   -9999.25   -9999.25   -9999.25   -9999.25
 7168.00000   82.80180    4.51450    5.02830    4.81070   17.75260   -9999.25   -9999.25   -9999.25   -9999.25   -9999.25   -9999.25   -9999.25   -9999.25
 7168.50000   94.70990    3.98140    4.34880    4.13180   17.48610   -9999.25   -9999.25   -9999.25   -9999.25   -9999.25   -9999.25   -9999.25   -9999.25
 7169.00000  104.81880    3.59570    3.81300    3.93620   17.77590   -9999.25   -9999.25   -9999.25   -9999.25   -9999.25   -9999.25   -9999.25   -9999.25
 7169.50000  104.13320    3.45040    3.46100    3.88160   18.06200   -9999.25   -9999.25   -9999.25   -9999.25   -9999.25   -9999.25   -9999.25   -9999.25
 7170.00000  102.54800    3.38030    3.38990    3.96240   18.04360   -9999.25   -9999.25   -9999.25   -9999.25   -9999.25   -9999.25   -9999.25   -9999.25
 7170.50000  101.86230    3.33440    3.34330    3.82720   18.02900   -9999.25   -9999.25   -9999.25   -9999.25   -9999.25   -9999.25   -9999.25   -9999.25
 7171.00000  102.97580    3.28930    3.36650    3.62090   17.71360   -9999.25   -9999.25   -9999.25   -9999.25   -9999.25   -9999.25   -9999.25   -9999.25
 7171.50000  105.44120    3.33590    3.46100    3.67080   17.69900   -9999.25   -9999.25   -9999.25   -9999.25   -9999.25   -9999.25   -9999.25   -9999.25
 7172.00000  106.12620    3.40640    3.58400    3.82570   17.68420   -9999.25   -9999.25   -9999.25   -9999.25   -9999.25   -9999.25   -9999.25   -9999.25
 7172.50000  106.54100    3.50260    3.69020    4.15580   17.97040   -9999.25   -9999.25   -9999.25   -9999.25   -9999.25   -9999.25   -9999.25   -9999.25
 7173.00000  104.50330    3.57820    3.83950    4.64100   17.65140   -9999.25   -9999.25   -9999.25   -9999.25   -9999.25   -9999.25   -9999.25   -9999.25
 7173.50000   99.76970    3.68210    3.97470    4.87030   17.63670   -9999.25   -9999.25   -9999.25   -9999.25   -9999.25   -9999.25   -9999.25   -9999.25
 7174.00000   95.93560    3.80790    4.05810    4.83610   17.32130   -9999.25   -9999.25   -9999.25   -9999.25   -9999.25   -9999.25   -9999.25   -9999.25
 7174.50000   92.55130    3.91540    4.11460    4.93660   17.00590   -9999.25   -9999.25   -9999.25   -9999.25   -9999.25   -9999.25   -9999.25   -9999.25
 7175.00000   88.49230    3.97070    4.20090    5.18050   16.69050   -9999.25   -9999.25   -9999.25   -9999.25   -9999.25   -9999.25   -9999.25   -9999.25
 7175.50000   83.08410    3.97150    4.28900    5.47420   16.37510   -9999.25   -9999.25   -9999.25   -9999.25   -9999.25   -9999.25   -9999.25   -9999.25
 7176.00000   81.91570    3.89060    4.28900    5.47350   15.75900   -9999.25   -9999.25   -9999.25   -9999.25   -9999.25   -9999.25   -9999.25   -9999.25
 7176.50000   83.73670    3.78550    4.20090    5.10740   15.44360    8.14740    0.19930    2.95790    2.44300    0.17170    0.26890   -9999.25   -9999.25
 7177.00000   85.53370    3.76020    3.94230    4.06550   15.12780    8.61730    0.18690    2.63580    2.39380    0.22330    0.34590   -9999.25   -9999.25
 7177.50000   86.41340    3.73510    3.78670    3.56480   15.41430    8.88020    0.17190    2.33560    2.30290    0.28150    0.36270   -9999.25   -9999.25
 7178.00000   84.82550    3.76590    3.78670    3.37270   15.70040    9.13930    0.15840    2.09550    2.13880    0.29980    0.33210   -9999.25   -9999.25
 7178.50000   82.56560    3.92190    4.05810    3.62640   15.98280    9.52650    0.14190    1.90050    2.05630    0.29980    0.31360   -9999.25   -9999.25
 7179.00000   81.20530    4.11710    4.66040    4.82930   16.27260    9.03530    0.12840    1.85300    2.06230    0.29980    0.27190   -9999.25   -9999.25
 7179.50000   79.62010    4.35200    5.31520    6.63530   17.15650    8.55350    0.10890    2.32120    2.24830    0.28450    0.23520   -9999.25   -9999.25
 7180.00000   76.91040    4.86170    5.89660    7.30820   18.04410    8.14960    0.08930    2.89190    2.47920    0.07300    0.21290   -9999.25   -9999.25
 7180.50000   71.27730    5.24660    6.23220    7.83000   18.63160    7.90400    0.06970    3.13230    2.60210    0.05560    0.19720   -9999.25   -9999.25
 7181.00000   65.86900    5.58440    6.45160    8.44720   19.21780    7.85060    0.04990    3.26760    2.61410    0.04980    0.19070   -9999.25   -9999.25
 7181.50000   61.36020    5.86230    6.49640    8.74320   19.80470    7.85070    0.03030    3.35780    2.62610    0.04510    0.18640   -9999.25   -9999.25
 7182.00000   62.02390    5.98630    6.39310    8.08410   20.09080    7.84350    0.01710    3.41800    2.63810    0.03970    0.18710   -9999.25   -9999.25
 7182.50000   64.30730    5.98140    6.18930    6.81560   20.07250    7.82110    0.01100    3.43320    2.63970    0.04510    0.19210   -9999.25   -9999.25
 7183.00000   66.83170    5.90650    6.06210    6.62890   20.36230    7.81320    0.00650    3.46340    2.61870    0.05380    0.19570   -9999.25   -9999.25
 7183.50000   68.73480    5.78680    6.02030    6.67400   20.34400    7.79140    0.00230    3.47860    2.60820    0.06060    0.19980   -9999.25   -9999.25
 7184.00000   68.95150    5.63020    6.02030    6.76590   20.32930    7.82160    0.00080    3.49490    2.59770    0.06580    0.20760   -9999.25   -9999.25
 7184.50000   66.46400    5.51580    6.02030    6.81220   20.31470    7.82170   -0.00100    3.58610    2.59020    0.06900    0.20730   -9999.25   -9999.25
