~Version ---------------------------------------------------
VERS.   2.0 : CWLS log ASCII Standard -VERSION 2.0
WRAP.    NO : One line per depth step
DLM . SPACE : Column Data Section Delimiter
~Well ------------------------------------------------------
STRT .F                3285.0 : START DEPTH
STOP .F                8987.0 : STOP DEPTH
STEP .F                   0.5 : STEP
NULL .               -9999.25 : NULL VALUE
COMP .                        : COMPANY
WELL .                        : WELL
FLD  .                        : FIELD
LOC  .                        : LOCATION
PROV .                        : PROVINCE
CNTY .                        : COUNTY
STAT .                        : STATE
CTRY .                        : COUNTRY
SRVC .                        : SERVICE COMPANY
DATE .                        : DATE
UWI  .                        : UNIQUE WELL ID
API  .                        : API NUMBER
SLAT .WGS84 5.837222014957298 : SURFACE LATITUDE
SLON .WGS84  4.66713011398501 : SURFACE LONGITUDE
DATUM.F                2554.0 : DEPTH DATUM ELEV
~Curve Information -----------------------------------------
DEPT.F     : 
GRR .GAPI  : GAMMA RAY FROM RES.
IDPH.OHMM  : INDUCTION DEEP PHASOR RES.
IMPH.OHMM  : INDUCTION MEDIUM PHASOR RES.
SFLU.OHMM  : SPHERICALLY FOCUSED LOG UNAVERAGED RES.
SPR .MV    : SPONTANEOUS POTENTIAL FROM RES.
CALD.IN    : CALIPER FROM DENSITY LOG
DRHO.G/C3  : DENSITY CORRECTION
PEF .B/E   : PHOTOELECTRIC FACTOR
RHOB.G/C3  : BULK DENSITY
DPHI.DEC   : DENSITY POROSITY SANDSTONE
NPHI.DEC   : NEUTRON POROSITY SANDSTONE
DTCO.US/F  : COMPRESSIONAL-WAVE INTERVAL TRANSIT TIME ACOUSTIC SLOWNESS
DTSM.US/F  : SHEAR-WAVE INTERVAL TRANSIT TIME DELTA-T
~Params ----------------------------------------------------
~Other -----------------------------------------------------
~ASCII -----------------------------------------------------
# ...
 8719.00000  187.23770   30.59410   32.45810   36.67020   10.85900    7.64100    0.00440    3.31820    2.40180    0.17560    0.31840   86.03860  150.54980
 8719.50000  157.55110   26.51950   27.86700   32.82790   11.44590    7.64080    0.00290    3.19380    2.44980    0.14060    0.30420   85.30030  150.54980
 8720.00000  129.98340   23.36250   25.28720   33.77350   12.02910    7.64070    0.00290    3.15320    2.49180    0.11590    0.29780   84.56890  147.87520
 8720.50000  113.10590   21.94660   23.75400   32.14470   12.91670    7.64050    0.00130    3.17510    2.51720    0.10430    0.26470   83.81800  147.28080
 8721.00000  110.39640   20.75950   22.62470   28.57850   13.50360    7.64040    0.00130    3.23610    2.53370    0.10100    0.25300   82.92980  145.20060
 8721.50000  108.36150   19.63650   21.53220   27.79570   14.10950    7.64020    0.00130    3.28870    2.54120    0.09980    0.25270   82.04090  143.71470
 8722.00000  106.32660   18.83280   20.38180   27.79200   14.72760    7.64010    0.00130    3.31050    2.54270    0.09640    0.25780   81.74230  142.64460
 8722.50000  104.50200   18.31330   19.68340   27.98190   15.26050    7.64000    0.00120    3.31640    2.54720    0.08780    0.25680   81.33960  142.69880
 8723.00000  103.38080   18.05490   18.74760   26.47270   15.24590    7.63980    0.00120    3.31600    2.56970    0.07640    0.24230   80.65580  143.75390
 8723.50000  104.94180   17.54200   18.10520   24.87330   15.53570    7.63970    0.00270    3.31560    2.58770    0.06630    0.23600   80.35160  144.47260
 8724.00000  108.52910   16.95450   17.60620   23.17110   15.51740    7.63950    0.00420    3.28520    2.60120    0.05970    0.23580   81.48900  145.83400
 8724.50000  113.69070   16.48680   17.12100   21.21220   15.80720    7.63940    0.00570    3.26980    2.60720    0.05790    0.23700   82.69840  147.58830
 8725.00000  116.60330   16.03200   16.19460   19.38730   15.78890    7.66920    0.00710    3.20940    2.60870    0.05910    0.24050   82.98490  147.57800
 8725.50000  117.49470   15.69780   15.74810   18.09050   15.77420    7.66900    0.00710    3.16400    2.60720    0.05990    0.24810   83.40490  147.42430
 8726.00000  118.15570   15.80140   15.96240   17.71760   15.75940    7.66890    0.00860    3.10360    2.61020    0.05800    0.25640   84.14860  149.46090
 8726.50000  118.83020   16.46470   16.51990   18.21110   15.74440    7.66870    0.00860    3.02810    2.61170    0.05740    0.26660   85.07990  151.67860
 8727.00000  121.05470   17.39460   17.82170   20.05800   15.72670    7.66860    0.00850    2.90760    2.60860    0.06040    0.27260   85.95040  153.90710
 8727.50000  126.89090   18.54800   19.76560   24.33610   15.71200    7.66840    0.00850    3.22260    2.59610    0.06640    0.27440   86.56890  155.97500
 8728.00000  132.72710   20.23500   22.07380   30.88740   15.69740    7.66830    0.00700    3.37240    2.57330    0.07890    0.27560   87.76380  157.08770
 8728.50000  136.98900   21.23070   26.05480   40.28790   15.68280    7.66810    0.00550    3.40200    2.54560    0.09510    0.27620   88.83060  156.79050
 8729.00000  140.80120   21.66990   29.10390   43.46350   15.66810    7.69790    0.00350    3.43170    2.50810    0.11130    0.28040   88.50410  155.97870
 8729.50000  142.59220   22.11630   30.11380   41.40580   15.65350    7.69780    0.00190    3.44640    2.48490    0.11670    0.29240   87.63070  154.59280
 8730.00000  137.18120   22.26220   27.70490   35.31720   15.63880    7.69760    0.00090    3.47600    2.47380    0.13470    0.30060   87.62200  154.11590
 8730.50000  127.12280   22.27560   25.14010   30.75480   15.62410    7.72740    0.00090    3.39580    2.48840    0.12930    0.30250   87.90850  155.89900
 8731.00000  121.63950   21.49000   22.18990   27.34270   15.91030    7.72720    0.00090    3.25960    2.49840    0.12390    0.29610   87.60410  153.49510
 8731.50000  119.82950   20.00530   19.72190   27.52860   15.89200    7.72710    0.00230    3.20460    2.50070    0.12210    0.28390   86.41350  149.36680
 8732.00000  119.36880   18.31860   18.27150   26.11360   15.87740    7.72690    0.00450    3.28590    2.50530    0.11910    0.27360   83.74570  146.82640
 8732.50000  118.00860   17.69060   17.64540   20.02710   15.86280    7.72680    0.00760    3.34700    2.51990    0.11020    0.27260   82.85050  145.57120
 8733.00000  112.60040   17.56440   17.51900   18.81720   15.84810    7.72660    0.01060    3.41970    2.53660    0.09640    0.27950   82.54610  141.30170
 8733.50000  106.74240   18.17420   17.63600   20.86930   15.83350    7.72650    0.01280    3.51740    2.55580    0.08560    0.27650   81.65090  137.68130
 8734.00000  104.25770   18.93710   18.76290   24.12490   15.81890    7.72630    0.01420    3.57810    2.57340    0.08080    0.25710   78.98310  133.43060
 8734.50000  108.61740   20.28500   21.84240   27.12810   15.80420    7.72620    0.01270    3.42960    2.58170    0.07600    0.25230   75.13370  128.82260
 8735.00000  113.90340   22.18400   25.42720   30.29520   15.78950    7.72600    0.01120    3.31810    2.57110    0.07700    0.26020   70.98880  124.15060
 8735.50000  104.22230   23.64310   30.64250   37.78670   15.43040    7.72590    0.00670    3.37300    2.55670    0.08720    0.26790   69.50280  120.53490
 8736.00000   89.36880   25.80650   37.70210   48.41770   15.15520    7.72570    0.00660    3.67180    2.58330    0.06450    0.22810   68.90300  123.32010
 8736.50000   70.24250   27.45300   42.10500   83.61700   14.83980    7.72560    0.00660    3.90390    2.65270    0.02470    0.17420   70.66650  131.29550
 8737.00000   67.08590   28.60550   44.18280   71.81580   14.52440    7.72540    0.00660    3.95120    2.70570    0.00360    0.15200   73.31640  138.27800
 8737.50000   77.86690   28.99620   37.97810   43.96510   14.50970    7.72530    0.00660    3.60480    2.65080   -0.00290    0.15710   75.67080  140.47000
 8738.00000   96.07180   28.58630   30.59940   30.26980   14.19440    7.72510    0.00650    3.29150    2.58930    0.02900    0.20400   80.38850  140.76250
 8738.50000  107.89340   26.85380   27.38490   27.85750   14.17970    7.72500    0.00650    3.13100    2.56770    0.07050    0.23470   81.56130  141.05510
 8739.00000  111.56460   24.53860   24.50820   30.47150   14.16510    7.72490    0.00650    3.09380    2.54720    0.09200    0.24320   80.96150  142.55380
 8739.50000  113.57770   22.23200   21.78240   28.43340   14.45120    7.72470    0.00500    3.14070    2.56670    0.09350    0.24600   80.54700  143.41750
 8740.00000  115.36590   20.48820   20.60380   25.78380   14.43610    7.72460    0.00500    3.27320    2.56770    0.08690    0.24570   82.18660  143.12040
 8740.50000  116.47940   19.92300   19.89780   25.27460   14.41830    7.71390    0.00490    3.36290    2.54870    0.09140    0.24810   82.41360  142.52600
 8741.00000  116.69610   19.24000   19.34180   24.75280   14.70440    7.69430    0.00490    3.39260    2.53970    0.09830    0.25320   81.48540  142.22880
 8741.50000  116.00780   18.58050   19.07700   22.78020   14.68980    7.66420    0.00490    3.39700    2.53070    0.10290    0.24960   80.91880  143.71470
 8742.00000  113.74810   18.31930   18.94040   21.70170   14.67510    7.65210    0.00490    3.37680    2.54570    0.10430    0.24230   81.35700  144.90340
 8742.50000  110.81360   18.31320   19.19920   21.69880   14.96490    7.63400    0.00480    3.31640    2.55920    0.09360    0.23790   82.37810  144.90340
 8743.00000  113.27380   18.30700   20.14660   22.77100   14.94660    7.63380    0.00630    3.25600    2.57420    0.08730    0.23810   82.80270  146.09210
 8743.50000  117.08590   18.68420   20.85030   23.90160   15.23310    7.63370    0.00630    3.24060    2.57720    0.08160    0.24340   83.51130  149.95540
 8744.00000  120.22350   19.06920   21.42970   25.47720   15.51880    7.63350    0.00630    3.31530    2.56970    0.07870    0.25120   85.13630  150.58910
 8744.50000  120.89000   19.46040   21.87340   27.61940   15.50380    7.63340    0.00630    3.39000    2.56070    0.08480    0.25660   84.88170  149.95540
