~Version ---------------------------------------------------
VERS.   2.0 : CWLS log ASCII Standard -VERSION 2.0
WRAP.    NO : One line per depth step
DLM . SPACE : Column Data Section Delimiter
~Well ------------------------------------------------------
STRT .F                3285.0 : START DEPTH
STOP .F                8987.0 : STOP DEPTH
STEP .F                   0.5 : STEP
NULL .               -9999.25 : NULL VALUE
COMP .                        : COMPANY
WELL .                        : WELL
FLD  .                        : FIELD
LOC  .                        : LOCATION
PROV .                        : PROVINCE
CNTY .                        : COUNTY
STAT .                        : STATE
CTRY .                        : COUNTRY
SRVC .                        : SERVICE COMPANY
DATE .                        : DATE
UWI  .                        : UNIQUE WELL ID
API  .                        : API NUMBER
SLAT .WGS84 5.837222014957298 : SURFACE LATITUDE
SLON .WGS84  4.66713011398501 : SURFACE LONGITUDE
DATUM.F                2554.0 : DEPTH DATUM ELEV
~Curve Information -----------------------------------------
DEPT.F     : 
GRR .GAPI  : GAMMA RAY FROM RES.
IDPH.OHMM  : INDUCTION DEEP PHASOR RES.
IMPH.OHMM  : INDUCTION MEDIUM PHASOR RES.
SFLU.OHMM  : SPHERICALLY FOCUSED LOG UNAVERAGED RES.
SPR .MV    : SPONTANEOUS POTENTIAL FROM RES.
CALD.IN    : CALIPER FROM DENSITY LOG
DRHO.G/C3  : DENSITY CORRECTION
PEF .B/E   : PHOTOELECTRIC FACTOR
RHOB.G/C3  : BULK DENSITY
DPHI.DEC   : DENSITY POROSITY SANDSTONE
NPHI.DEC   : NEUTRON POROSITY SANDSTONE
DTCO.US/F  : COMPRESSIONAL-WAVE INTERVAL TRANSIT TIME ACOUSTIC SLOWNESS
DTSM.US/F  : SHEAR-WAVE INTERVAL TRANSIT TIME DELTA-T
~Params ----------------------------------------------------
~Other -----------------------------------------------------
~ASCII -----------------------------------------------------
# ...
 7393.00000  105.85470    3.96450    4.02860    4.52500   13.95970    9.05170    0.19330    2.48690    2.20490    0.29350    0.34260   -9999.25   -9999.25
 7393.50000  101.34550    3.88260    3.89990    4.31040   13.34940    9.14750    0.18050    2.48960    2.17980   -9999.25    0.35130   -9999.25   -9999.25
 7394.00000   98.41060    3.82880    3.81930    4.16320   12.73900    9.26700    0.16610    2.57110    2.15760   -9999.25    0.36090   -9999.25   -9999.25
 7394.50000   96.82500    3.74980    3.74030    4.02100   12.12870    9.53620    0.15170    2.58340    2.10630   -9999.25    0.37330   -9999.25   -9999.25
 7395.00000   99.06250    3.67230    3.66300    3.93770   11.51840    9.95500    0.13740    2.53830    2.04500   -9999.25    0.38450   -9999.25   -9999.25
 7395.50000   98.82620    3.62150    3.61210    3.82960   11.20880   10.31400    0.12060    2.49320    2.00750   -9999.25    0.39480   -9999.25   -9999.25
 7396.00000   97.69040    3.59600    3.56200    3.77630   10.59840   10.55320    0.11210    2.47810    1.98950   -9999.25    0.40020   -9999.25   -9999.25
 7396.50000   96.10480    3.57080    3.53700    3.88170   10.58950   10.67270    0.11860    2.44800    2.03300   -9999.25    0.38960   -9999.25   -9999.25
 7397.00000   95.64360    3.57030    3.51210    3.98930   10.58040   10.76220    0.13150    2.43290    2.05700   -9999.25    0.37850   -9999.25   -9999.25
 7397.50000   96.30690    3.56970    3.43950    4.04400   10.56970   10.91160    0.14500    2.37270    2.05900   -9999.25    0.38520   -9999.25   -9999.25
 7398.00000   97.42000    3.54460    3.29910    3.98750   10.56090   11.15080    0.15850    2.22250    1.97150   -9999.25    0.40990   -9999.25   -9999.25
 7398.50000   98.53300    3.54420    3.23090    3.74630   10.55210   10.94100    0.16450    2.01220    1.83960   -9999.25    0.42450   -9999.25   -9999.25
 7399.00000   96.04790    3.54370    3.23420    3.58630   10.54320   10.46160    0.15850    1.96710    1.70760   -9999.25    0.43050   -9999.25   -9999.25
 7399.50000   92.43830    3.59250    3.34360    3.69330   10.53440    9.86250    0.14940    2.19230    1.64020   -9999.25    0.42810   -9999.25   -9999.25
 7400.00000   90.63060    3.73110    3.49620    3.85330   10.60800    9.45970    0.14790    2.31460    1.59520   -9999.25    0.41920   -9999.25   -9999.25
 7400.50000   93.49090    3.99440    3.93060    4.35740   11.09950    8.99400    0.15090    2.45340    1.59070   -9999.25    0.41720   -9999.25   -9999.25
 7401.00000   98.24750    4.29510    4.43820    5.28610   11.39520    8.90420    0.14790    2.29920    1.66590   -9999.25    0.41820   -9999.25   -9999.25
 7401.50000   99.13720    4.50610    4.89330    5.82140   11.07260    8.81440    0.15240    2.19180    1.70510   -9999.25    0.40480   -9999.25   -9999.25
 7402.00000   97.54660    4.69500    5.16560    5.94180   11.05520    8.87430    0.16290    2.38400    1.75210   -9999.25    0.38740   -9999.25   -9999.25
 7402.50000   99.10770    4.79190    5.23680    6.19160   10.73680    9.20360    0.16890    2.43810    1.83470   -9999.25    0.37490   -9999.25   -9999.25
 7403.00000  105.89910    4.88980    5.23550    6.05730   10.41440    9.38320    0.16740    2.43990    1.90850   -9999.25    0.37070   -9999.25   -9999.25
 7403.50000  110.20110    4.92170    5.09160    5.81480   10.09630    9.56290    0.15840    2.37250    1.97220   -9999.25    0.37050   -9999.25   -9999.25
 7404.00000  109.63480    4.77760    4.81640    5.38780    9.77810   10.01200    0.14630    2.25220    1.99570   -9999.25    0.37370   -9999.25   -9999.25
 7404.50000  104.44930    4.49490    4.55610    5.13200    9.15910   10.28140    0.12680    2.24330    2.00150   -9999.25    0.37730   -9999.25   -9999.25
 7405.00000   97.68950    4.22220    4.30990    5.02540    8.84100   10.34130    0.11180    2.30360    1.98600   -9999.25    0.38150   -9999.25   -9999.25
 7405.50000   94.07820    3.96600    4.00990    4.78680    8.22200   10.34130    0.10580    2.29560    1.97260   -9999.25    0.38450   -9999.25   -9999.25
 7406.00000   96.31400    3.69980    3.59860    4.28470    8.20450   10.31140    0.09980    2.27220    1.96100   -9999.25    0.38630   -9999.25   -9999.25
 7406.50000  101.47330    3.40400    3.26560    3.77730    8.53330   10.10180    0.09220    2.25030    1.97300   -9999.25    0.38810   -9999.25   -9999.25
 7407.00000  103.93390    3.15360    3.02570    3.22570    9.66910    9.89220    0.08020    2.25630    1.93420   -9999.25    0.39050   -9999.25   -9999.25
 7407.50000  103.61980    2.95820    2.82280    3.07260   10.25750   10.55090    0.06820    2.23500    1.86900   -9999.25    0.39530   -9999.25   -9999.25
 7408.00000   96.70800    2.82100    2.67030    3.00880   11.43730   11.05990    0.05610    2.18980    1.78970   -9999.25    0.40850   -9999.25   -9999.25
 7408.50000   92.87180    2.89890    2.61490    2.96690   12.02280   11.41920    0.04100    2.14460    1.73490   -9999.25    0.42230   -9999.25   -9999.25
 7409.00000   91.73430    3.02040    2.69030    3.04900   12.90760   11.59880    0.03210    2.12940    1.68840   -9999.25    0.42830   -9999.25   -9999.25
 7409.50000   91.27470    3.14700    2.89960    3.15530   13.79250   11.68860    0.03780    2.18930    1.66810   -9999.25    0.42890   -9999.25   -9999.25
 7410.00000   92.60760    3.23390    3.12830    3.35690   15.01760   11.29940    0.08140    2.38440    1.68670   -9999.25    0.40940   -9999.25   -9999.25
 7410.50000   91.91980    3.32320    3.42210    3.59140   16.16360   10.79040    0.13620    2.56440    1.77000   -9999.25    0.37800   -9999.25   -9999.25
 7411.00000   91.68180    3.44050    3.69200    4.27270   17.04840   10.31140    0.16700    2.68440    1.90140   -9999.25    0.35640   -9999.25   -9999.25
 7411.50000   93.47500    3.65740    3.92840    4.54590   17.62810    9.95210    0.18680    2.65420    2.10170   -9999.25    0.34530   -9999.25   -9999.25
 7412.00000   95.31300    3.81070    4.06590    4.54440   17.91140    9.91900    0.19880    2.60900    2.15330   -9999.25    0.33990   -9999.25   -9999.25
 7412.50000   96.81160    3.97040    4.09330    4.51190   18.19550   10.10180    0.17440    2.53380    2.13970   -9999.25    0.33420   -9999.25   -9999.25
 7413.00000   96.12390    4.08000    4.12090    4.63710   18.17730    9.98200    0.15610    2.48570    2.12050   -9999.25    0.32310   -9999.25   -9999.25
 7413.50000   93.41210    4.16420    4.26490    5.10670   18.46060    9.05390    0.13870    2.72870    2.16680   -9999.25    0.28940   -9999.25   -9999.25
 7414.00000   90.92520    4.22000    4.47570    5.59580   18.13810    8.21560    0.14930    2.90870    2.35360    0.26670    0.26490   -9999.25   -9999.25
 7414.50000   89.78770    4.24760    4.53740    5.98310   17.81990    7.91620    0.17710    3.07370    2.40910    0.18780    0.25910   -9999.25   -9999.25
 7415.00000   89.99950    4.21620    4.47390    5.39220   17.50170    8.21840    0.18560    3.25370    2.41260    0.17580    0.28140   -9999.25   -9999.25
 7415.50000   91.56060    4.18550    4.35090    5.06580   17.18350    8.51590    0.20380    3.20860    2.40160    0.18240    0.29110   -9999.25   -9999.25
 7416.00000   93.13600    4.15510    4.14430    4.89240   16.86540    8.47890    0.22760    2.99820    2.40910    0.17980    0.29410   -9999.25   -9999.25
 7416.50000   93.33340    4.06820    4.00080    4.99390   16.54720    8.24400    0.22390    3.07310    2.38960    0.18120    0.29700   -9999.25   -9999.25
 7417.00000   91.06820    3.95570    3.86550    4.88980   15.89980    8.25120    0.19020    3.16310    2.33560    0.20200    0.30020   -9999.25   -9999.25
 7417.50000   89.70570    3.74150    3.73330    4.46860   14.40270    8.57400    0.16080    3.02780    2.20060    0.27180    0.31370   -9999.25   -9999.25
 7418.00000   88.11840    3.41490    3.48300    3.71590   13.18220    9.31010    0.14280    2.74230    2.10020   -9999.25    0.33700   -9999.25   -9999.25
 7418.50000   86.75600    3.05940    3.03220    3.18320   12.56330   10.19110    0.13490    2.53060    2.01620   -9999.25    0.37650   -9999.25   -9999.25
