~Version ---------------------------------------------------
VERS.   2.0 : CWLS log ASCII Standard -VERSION 2.0
WRAP.    NO : One line per depth step
DLM . SPACE : Column Data Section Delimiter
~Well ------------------------------------------------------
STRT .F                3285.0 : START DEPTH
STOP .F                8987.0 : STOP DEPTH
STEP .F                   0.5 : STEP
NULL .               -9999.25 : NULL VALUE
COMP .                        : COMPANY
WELL .                        : WELL
FLD  .                        : FIELD
LOC  .                        : LOCATION
PROV .                        : PROVINCE
CNTY .                        : COUNTY
STAT .                        : STATE
CTRY .                        : COUNTRY
SRVC .                        : SERVICE COMPANY
DATE .                        : DATE
UWI  .                        : UNIQUE WELL ID
API  .                        : API NUMBER
SLAT .WGS84 5.837222014957298 : SURFACE LATITUDE
SLON .WGS84  4.66713011398501 : SURFACE LONGITUDE
DATUM.F                2554.0 : DEPTH DATUM ELEV
~Curve Information -----------------------------------------
DEPT.F     : 
GRR .GAPI  : GAMMA RAY FROM RES.
IDPH.OHMM  : INDUCTION DEEP PHASOR RES.
IMPH.OHMM  : INDUCTION MEDIUM PHASOR RES.
SFLU.OHMM  : SPHERICALLY FOCUSED LOG UNAVERAGED RES.
SPR .MV    : SPONTANEOUS POTENTIAL FROM RES.
CALD.IN    : CALIPER FROM DENSITY LOG
DRHO.G/C3  : DENSITY CORRECTION
PEF .B/E   : PHOTOELECTRIC FACTOR
RHOB.G/C3  : BULK DENSITY
DPHI.DEC   : DENSITY POROSITY SANDSTONE
NPHI.DEC   : NEUTRON POROSITY SANDSTONE
DTCO.US/F  : COMPRESSIONAL-WAVE INTERVAL TRANSIT TIME ACOUSTIC SLOWNESS
DTSM.US/F  : SHEAR-WAVE INTERVAL TRANSIT TIME DELTA-T
~Params ----------------------------------------------------
~Other -----------------------------------------------------
~ASCII -----------------------------------------------------
# ...
 8953.00000   -9999.25   12.26240   12.96390   14.68100   17.61460    7.67660    0.00300    3.43050    2.67080    0.02470    0.20490   -9999.25   -9999.25
 8953.50000   -9999.25   12.17380   12.87350   14.27700   17.29330    7.67660    0.00300    3.41540    2.67380    0.02290    0.20190   -9999.25   -9999.25
 8954.00000   -9999.25   12.16880   12.87270   14.47180   17.27290    7.67660    0.00330    3.40030    2.67670    0.02100    0.19770   -9999.25   -9999.25
 8954.50000   -9999.25   12.16470   12.87180   14.87330   17.25240    7.67660    0.00440    3.38520    2.67220    0.01830    0.19530   -9999.25   -9999.25
 8955.00000   -9999.25   12.16060   12.96020   14.86930   17.23190    7.67660    0.00440    3.41520    2.66920    0.02300    0.19770   -9999.25   -9999.25
 8955.50000   -9999.25   12.24190   13.04970   14.86530   17.21140    7.67660    0.00440    3.46010    2.66620    0.02560    0.20190   -9999.25   -9999.25
 8956.00000   -9999.25   12.32160   13.13950   14.75900   17.19090    7.67660    0.00490    3.52010    2.66610    0.02820    0.20550   -9999.25   -9999.25
 8956.50000   -9999.25   12.23260   13.32200   14.98020   17.47120    7.67660    0.00590    3.58010    2.66760    0.02970    0.19960   -9999.25   -9999.25
 8957.00000   -9999.25   12.22850   13.04680   15.58830   17.44560    7.67660    0.00740    3.65510    2.66910    0.02690    0.19360   -9999.25   -9999.25
 8957.50000   -9999.25   12.14020   12.68920   15.69320   17.42510    7.67660    0.00800    3.67000    2.66910    0.02530    0.19300   -9999.25   -9999.25
 8958.00000   -9999.25   12.13600   12.42730   14.64060   17.40460    7.67440    0.00890    3.59310    2.66910    0.02570    0.19360   -9999.25   -9999.25
 8958.50000   -9999.25   12.13110   12.25540   14.13970   17.38410    7.64670    0.00890    3.51780    2.66450    0.02690    0.19600   -9999.25   -9999.25
 8959.00000   -9999.25   12.12700   12.25060   13.94190   17.66950    7.64670    0.00890    3.45570    2.66000    0.02730    0.19840   -9999.25   -9999.25
 8959.50000   -9999.25   12.20800   12.42890   14.03470   17.64390    7.64670    0.00890    3.39780    2.66460    0.02650    0.20080   -9999.25   -9999.25
 8960.00000   -9999.25   12.20290   12.61960   14.42420   17.32260    7.64670    0.00740    3.41850    2.67060    0.02530    0.20260   -9999.25   -9999.25
 8960.50000   -9999.25   12.19880   12.77210   14.82440   17.30210    7.64670    0.00730    3.47670    2.67190    0.02380    0.20380   -9999.25   -9999.25
 8961.00000   -9999.25   12.19470   12.94970   14.92320   17.28120    7.64670    0.00730    3.53440    2.67170    0.02230    0.20080   -9999.25   -9999.25
 8961.50000   -9999.25   12.27520   13.22060   14.81540   17.25600    7.64670    0.00730    3.54930    2.67020    0.02220    0.19720   -9999.25   -9999.25
 8962.00000   -9999.25   12.35600   13.49740   14.70950   17.23560    7.64670    0.00730    3.54920    2.66560    0.02450    0.19370   -9999.25   -9999.25
 8962.50000   -9999.25   12.35170   13.59060   15.22240   17.52090    7.64670    0.00730    3.54540    2.66370    0.02840    0.19060   -9999.25   -9999.25
 8963.00000   -9999.25   12.43340   13.77940   15.97250   17.80120    7.67660    0.00880    3.45330    2.65950    0.03260    0.18830   -9999.25   -9999.25
 8963.50000   -9999.25   12.51540   13.97050   16.52950   17.77560    7.67660    0.00880    3.28650    2.65830    0.03570    0.18600   -9999.25   -9999.25
 8964.00000   -9999.25   12.68530   14.06670   16.75610   18.06100    7.67660    0.00880    3.17420    2.66370    0.03180    0.18920   -9999.25   -9999.25
 8964.50000   -9999.25   12.85640   14.16360   16.63510   18.03540    7.67660    0.01180    3.09810    2.67220    0.02520    0.19520   -9999.25   -9999.25
 8965.00000   -9999.25   13.03090   14.06170   16.51610   18.01490    7.67660    0.01330    3.02730    2.68330    0.01890    0.20060   -9999.25   -9999.25
 8965.50000   -9999.25   13.11700   13.87030   15.72410   17.99400    7.67660    0.01480    2.99320    2.69140    0.01410    0.20520   -9999.25   -9999.25
 8966.00000   -9999.25   13.11240   14.06260   15.40520   17.96880    7.67660    0.01630    3.19190    2.69930    0.00960    0.20260   -9999.25   -9999.25
 8966.50000   -9999.25   13.19890   14.15970   15.83160   17.94830    7.67660    0.01630    3.30440    2.69220    0.01110    0.19840   -9999.25   -9999.25
 8967.00000   -9999.25   13.19340   14.15850   16.15990   17.92780    7.67660    0.01330    3.37410    2.68020    0.01800    0.19680   -9999.25   -9999.25
 8967.50000   -9999.25   13.18890   14.15760   16.49280   17.60650    7.67660    0.00870    3.42060    2.66720    0.02430    0.20320   -9999.25   -9999.25
 8968.00000   -9999.25   13.18450   14.25530   16.60380   17.58610    7.67660    0.00570    3.45080    2.66030    0.03150    0.20800   -9999.25   -9999.25
 8968.50000   -9999.25   13.08930   14.25410   16.25770   17.56550    7.67660    0.00570    3.45020    2.64880    0.03930    0.21480   -9999.25   -9999.25
 8969.00000   -9999.25   12.99480   14.15470   15.91990   17.54510    7.67660    0.00720    3.41980    2.64220    0.04170    0.20870   -9999.25   -9999.25
 8969.50000   -9999.25   12.81220   13.98710   15.80600   17.22380    7.67660    0.00870    3.35930    2.65050    0.04230    0.20010   -9999.25   -9999.25
 8970.00000   -9999.25   12.71970   13.83340   15.91140   17.20300    7.67660    0.01020    3.39790    2.65950    0.03630    0.19550   -9999.25   -9999.25
 8970.50000   -9999.25   12.62780   13.67980   15.90690   16.87700    7.67660    0.01030    3.51790    2.66400    0.03040   -9999.25   -9999.25   -9999.25
 8971.00000   -9999.25   12.45030   13.52610   16.01310   16.85650    7.67660    0.01190    3.53290    2.66850    0.02620   -9999.25   -9999.25   -9999.25
 8971.50000   -9999.25   12.27430   13.47980   15.89740   16.83600    7.67660    0.01320    3.47270    2.67140    0.02260   -9999.25   -9999.25   -9999.25
 8972.00000   -9999.25   12.10180   13.20150   15.45990   16.51480    7.67660    0.01320    3.51770    2.67740    0.02080   -9999.25   -9999.25   -9999.25
 8972.50000   -9999.25   11.93170   13.01460   14.72600   16.49430    7.67660    0.01470    3.56270    2.68190    0.01900   -9999.25   -9999.25   -9999.25
 8973.00000   -9999.25   11.68300   12.75010   14.32080   16.47380    7.67660    0.01470    3.59260    2.68190    0.01840   -9999.25   -9999.25   -9999.25
 8973.50000   -9999.25   11.59870   12.66100   14.02320   16.45330    7.67660    0.01470    3.57750    2.67290    0.02080   -9999.25   -9999.25   -9999.25
 8974.00000   -9999.25   11.43570   12.48590   14.21450   16.73380    7.67660    0.01470    3.53240    2.66380    0.02380   -9999.25   -9999.25   -9999.25
 8974.50000   -9999.25   11.27490   12.39880   14.20510   17.01380    7.67660    0.01460    3.54740    2.65780    0.02740   -9999.25   -9999.25   -9999.25
 8975.00000   -9999.25   11.19350   12.31240   14.01170   17.04100    7.67660    0.01460    3.59230    2.66530    0.03040   -9999.25   -9999.25   -9999.25
 8975.50000   -9999.25   11.11260   12.31150   13.91070   17.27360    7.67660    0.01460    3.65230    2.66980    0.02740   -9999.25   -9999.25   -9999.25
 8976.00000   -9999.25   11.03160   12.31070   13.90700   17.84950    7.67660    0.01460    3.65400    2.66970    0.02500   -9999.25   -9999.25   -9999.25
 8976.50000   -9999.25   11.02790   12.30990   14.00060   17.82900    7.67660    0.01460    3.54710    2.66520    0.02440   -9999.25   -9999.25   -9999.25
 8977.00000   -9999.25   11.02420   12.39470   14.07420   18.10930    7.67660    0.01460    3.53200    2.66370    0.02680   -9999.25   -9999.25   -9999.25
 8977.50000   -9999.25   11.02050   12.39380   14.15930   18.08880    7.67660    0.01460    3.53190    2.66530    0.02620   -9999.25   -9999.25   -9999.25
 8978.00000   -9999.25   11.09410   12.39290   14.08530   18.06830    7.67660    0.01460    3.48680    2.66830    0.02080   -9999.25   -9999.25   -9999.25
 8978.50000   -9999.25   11.08960   12.39210   13.98460   18.10850    7.67660    0.01310    3.41160    2.66960    0.02200   -9999.25   -9999.25   -9999.25
