~Version ---------------------------------------------------
VERS.   2.0 : CWLS log ASCII Standard -VERSION 2.0
WRAP.    NO : One line per depth step
DLM . SPACE : Column Data Section Delimiter
~Well ------------------------------------------------------
STRT .F                3285.0 : START DEPTH
STOP .F                8987.0 : STOP DEPTH
STEP .F                   0.5 : STEP
NULL .               -9999.25 : NULL VALUE
COMP .                        : COMPANY
WELL .                        : WELL
FLD  .                        : FIELD
LOC  .                        : LOCATION
PROV .                        : PROVINCE
CNTY .                        : COUNTY
STAT .                        : STATE
CTRY .                        : COUNTRY
SRVC .                        : SERVICE COMPANY
DATE .                        : DATE
UWI  .                        : UNIQUE WELL ID
API  .                        : API NUMBER
SLAT .WGS84 5.837222014957298 : SURFACE LATITUDE
SLON .WGS84  4.66713011398501 : SURFACE LONGITUDE
DATUM.F                2554.0 : DEPTH DATUM ELEV
~Curve Information -----------------------------------------
DEPT.F     : 
GRR .GAPI  : GAMMA RAY FROM RES.
IDPH.OHMM  : INDUCTION DEEP PHASOR RES.
IMPH.OHMM  : INDUCTION MEDIUM PHASOR RES.
SFLU.OHMM  : SPHERICALLY FOCUSED LOG UNAVERAGED RES.
SPR .MV    : SPONTANEOUS POTENTIAL FROM RES.
CALD.IN    : CALIPER FROM DENSITY LOG
DRHO.G/C3  : DENSITY CORRECTION
PEF .B/E   : PHOTOELECTRIC FACTOR
RHOB.G/C3  : BULK DENSITY
DPHI.DEC   : DENSITY POROSITY SANDSTONE
NPHI.DEC   : NEUTRON POROSITY SANDSTONE
DTCO.US/F  : COMPRESSIONAL-WAVE INTERVAL TRANSIT TIME ACOUSTIC SLOWNESS
DTSM.US/F  : SHEAR-WAVE INTERVAL TRANSIT TIME DELTA-T
~Params ----------------------------------------------------
~Other -----------------------------------------------------
~ASCII -----------------------------------------------------
# ...
 7991.00000  110.68520   11.87060   12.19420   12.28790   13.53380    8.11500    0.06950    3.14910    2.62290    0.05290    0.21880   -9999.25   -9999.25
 7991.50000  110.90790   11.46750   11.86130   11.78890   13.83460    8.32520    0.07260    3.05930    2.60360    0.05970    0.22420   -9999.25   -9999.25
 7992.00000  110.68080   11.31010   11.61760   11.54700   14.13530    8.41560    0.07110    2.98440    2.58580    0.06430    0.22650   -9999.25   -9999.25
 7992.50000  113.60160   11.15490   11.45790   11.70770   14.43610    8.32640    0.06810    2.96960    2.57840    0.07150    0.21930   -9999.25   -9999.25
 7993.00000  115.39850   11.07810   11.53750   11.72020   14.73680    8.29700    0.05910    3.09000    2.59830    0.07190    0.21930   -9999.25   -9999.25
 7993.50000  115.84670   10.92460   11.69830   11.62710   14.73680    8.20780    0.05160    3.21030    2.61640    0.06190    0.22350   -9999.25   -9999.25
 7994.00000  115.84390   10.70190   11.86130   11.88790   15.03760    8.14850    0.03960    3.31560    2.62680    0.04990    0.22770   -9999.25   -9999.25
 7994.50000  115.39200   10.70190   12.03070   12.80800   15.03760    8.08920    0.03360    3.42100    2.62790    0.04980    0.22650   -9999.25   -9999.25
 7995.00000  114.92550   10.77610   12.19420   13.44270   15.03760    8.05990    0.01860    3.46620    2.62650    0.05040    0.22050   -9999.25   -9999.25
 7995.50000  113.51560   10.85080   12.27890   13.53590   15.03760    8.03050    0.01110    3.33130    2.62650    0.04800    0.21450   -9999.25   -9999.25
 7996.00000  111.56180   10.92610   12.11010   13.35010   15.03760    7.97130    0.00360    3.21140    2.62650    0.04860    0.21090   -9999.25   -9999.25
 7996.50000  116.95700   11.00180   11.94370   12.89680   15.00360    7.94190    0.00970    3.09150    2.62800    0.04860    0.21570   -9999.25   -9999.25
 7997.00000  118.75390   11.00180   11.69830   12.54530   14.73680    7.91260    0.02920    3.03170    2.62960    0.04800    0.21980   -9999.25   -9999.25
 7997.50000  116.76550   10.99910   11.37890   12.28650   14.13530    7.88320    0.05170    2.98690    2.63110    0.04740    0.22160   -9999.25   -9999.25
 7998.00000  111.55290   10.76440   11.14510   12.19110   13.83460    7.88380    0.07730    2.97210    2.62370    0.04740    0.22640   -9999.25   -9999.25
 7998.50000  110.87660   10.55510   10.91620   11.87060   13.53380    7.91440    0.09230    2.97230    2.61080    0.05210    0.23660   -9999.25   -9999.25
 7999.00000  113.57260   10.48240   10.75860   11.23230   13.23310    8.03470    0.09530    2.97250    2.59780    0.06350    0.24430   -9999.25   -9999.25
 7999.50000  116.26900   10.41020   10.47220   10.70190   12.93230    8.21500    0.09380    2.97270    2.58770    0.07010    0.24670   -9999.25   -9999.25
 8000.00000  116.71660   10.33850   10.48250   10.55510   12.93230    8.45510    0.07880    2.92790    2.61170    0.05630    0.23590   -9999.25   -9999.25
 8000.50000  115.01650   10.36790   10.63340   10.62740   12.91730    8.75770    0.06230    2.91730    2.62080    0.04970    0.22090   -9999.25   -9999.25
 8001.00000  108.60100   10.39310   11.06660   11.00020   13.50100    9.03340    0.03370    2.90660    2.63120    0.04490    0.21670   -9999.25   -9999.25
 8001.50000  105.89350   10.34530   11.22010   11.22990   13.78710    9.45440    0.01720    2.89220    2.62300    0.05090    0.21440   -9999.25   -9999.25
 8002.00000  107.68390   10.27620   11.21930   11.38560   13.77250    9.50480    0.00360    2.84690    2.61090    0.05630    0.21760   -9999.25   -9999.25
 8002.50000  112.39770   10.20750   11.06440   11.38460   14.06230    9.01260    0.01860    2.81060    2.61510    0.05450    0.22590   -9999.25   -9999.25
 8003.00000  116.66180   10.13920   10.91160   11.22760   14.64920    8.71070    0.03060    2.76510    2.62650    0.04730    0.23310   -9999.25   -9999.25
 8003.50000  115.75350   10.14130   10.76090   11.06480   14.93530    8.41290    0.03810    2.71770    2.62170    0.05510    0.24090   -9999.25   -9999.25
 8004.00000  112.82120   10.21360   10.68590   11.07200   15.51860    8.17170    0.03800    2.67410    2.59590    0.07010    0.24570   -9999.25   -9999.25
 8004.50000  111.46310   10.28650   10.75940   11.46030   15.82020    8.03990    0.03500    2.59860    2.57700    0.08210    0.24970   -9999.25   -9999.25
 8005.00000  112.13700   10.28860   10.98950   11.86230   16.09080    8.04590    0.03050    2.57430    2.56100    0.08810    0.24090   -9999.25   -9999.25
 8005.50000  113.59210   10.21980   11.13670   12.19390   16.37700    8.07080    0.02890    2.77000    2.57210    0.07490    0.23260   -9999.25   -9999.25
 8006.00000  119.30570   10.15150   11.21330   12.10910   16.66310    8.07130    0.03790    3.00420    2.59470    0.06590    0.22870   -9999.25   -9999.25
 8006.50000  121.32090   10.22450   11.13500   11.61660   16.64490    8.07890    0.04990    3.23420    2.59230    0.07430    0.22750   -9999.25   -9999.25
 8007.00000  120.41260   10.29750   11.05750   11.45640   16.63020    8.07210    0.06340    3.28570    2.58400    0.07970    0.22680   -9999.25   -9999.25
 8007.50000  117.93000   10.37090   11.05670   11.53510   16.61560    8.08080    0.07540    3.16470    2.57410    0.07730    0.22490   -9999.25   -9999.25
 8008.00000  113.42350   10.37300   11.21010   11.94770   16.30030    8.07300    0.08290    3.04360    2.57230    0.06470    0.22250   -9999.25   -9999.25
 8008.50000  110.94100   10.37510   11.44440   12.27330   16.28570    8.07350    0.08730    2.99330    2.59050    0.05510    0.22060   -9999.25   -9999.25
 8009.00000  111.15710   10.30580   11.60310   12.27250   15.96990    8.10390    0.08730    3.18320    2.62100    0.04620    0.21860   -9999.25   -9999.25
 8009.50000  112.04790   10.30790   11.52230   12.44240   15.65130    8.13430    0.08580    3.25830    2.63750    0.03960    0.22360   -9999.25   -9999.25
 8010.00000  113.16360   10.31000   11.43160   12.44160   15.03520    8.13470    0.08120    3.27330    2.64950    0.03660    0.23230   -9999.25   -9999.25
 8010.50000  113.82950   10.24100   11.05210   12.27000   14.71980    8.09370    0.07520    3.21320    2.62250    0.05160    0.24030   -9999.25   -9999.25
 8011.00000  114.71800   10.31460   10.82430   11.77090   14.70520    8.03370    0.06920    3.15320    2.60600    0.06230    0.24370   -9999.25   -9999.25
 8011.50000  115.15900   10.38830   10.74890   11.37050   14.38980    7.97380    0.05860    3.09310    2.59810    0.06300    0.24040   -9999.25   -9999.25
 8012.00000  115.60230   10.39040   10.60040   11.29140   14.37520    7.94370    0.05110    3.03300    2.61810    0.05340    0.23780   -9999.25   -9999.25
 8012.50000  116.94060   10.32090   10.52660   11.53380   14.05980    7.91370    0.04200    2.98800    2.61360    0.05760    0.23580   -9999.25   -9999.25
 8013.00000  118.50610   10.32300   10.45330   11.84920   14.34600    7.89790    0.03000    3.01800    2.60010    0.06420    0.23390   -9999.25   -9999.25
 8013.50000  120.29640   10.32510   10.45260   12.01340   14.33080    7.89840    0.01500    3.07810    2.58660    0.06840    0.23270   -9999.25   -9999.25
 8014.00000  120.98680   10.32720   10.52450   12.01240   14.61750    7.88340    0.02840    3.12310    2.59260    0.06390    0.23110   -9999.25   -9999.25
 8014.50000  118.70460   10.32920   10.61050   11.76520   14.90370    7.86930    0.04490    3.16820    2.61060    0.05490    0.23050   -9999.25   -9999.25
 8015.00000  111.85910   10.26020   10.96900   11.76440   15.18980    7.85330    0.05540    3.18320    2.61960    0.04720    0.23070   -9999.25   -9999.25
 8015.50000  110.59110   10.26280   11.19840   12.01000   15.47590    7.84030    0.06290    3.09310    2.63020    0.04190    0.23180   -9999.25   -9999.25
 8016.00000  113.27880   10.33600   11.35360   12.17630   15.76210    7.82310    0.06740    3.03300    2.63920    0.04020    0.23480   -9999.25   -9999.25
 8016.50000  117.31800   10.40980   11.35290   12.25990   16.04510    7.78140    0.06880    2.95800    2.63770    0.04670    0.23820   -9999.25   -9999.25
