~Version ---------------------------------------------------
VERS.   2.0 : CWLS log ASCII Standard -VERSION 2.0
WRAP.    NO : One line per depth step
DLM . SPACE : Column Data Section Delimiter
~Well ------------------------------------------------------
STRT .F                3285.0 : START DEPTH
STOP .F                8987.0 : STOP DEPTH
STEP .F                   0.5 : STEP
NULL .               -9999.25 : NULL VALUE
COMP .                        : COMPANY
WELL .                        : WELL
FLD  .                        : FIELD
LOC  .                        : LOCATION
PROV .                        : PROVINCE
CNTY .                        : COUNTY
STAT .                        : STATE
CTRY .                        : COUNTRY
SRVC .                        : SERVICE COMPANY
DATE .                        : DATE
UWI  .                        : UNIQUE WELL ID
API  .                        : API NUMBER
SLAT .WGS84 5.837222014957298 : SURFACE LATITUDE
SLON .WGS84  4.66713011398501 : SURFACE LONGITUDE
DATUM.F                2554.0 : DEPTH DATUM ELEV
~Curve Information -----------------------------------------
DEPT.F     : 
GRR .GAPI  : GAMMA RAY FROM RES.
IDPH.OHMM  : INDUCTION DEEP PHASOR RES.
IMPH.OHMM  : INDUCTION MEDIUM PHASOR RES.
SFLU.OHMM  : SPHERICALLY FOCUSED LOG UNAVERAGED RES.
SPR .MV    : SPONTANEOUS POTENTIAL FROM RES.
CALD.IN    : CALIPER FROM DENSITY LOG
DRHO.G/C3  : DENSITY CORRECTION
PEF .B/E   : PHOTOELECTRIC FACTOR
RHOB.G/C3  : BULK DENSITY
DPHI.DEC   : DENSITY POROSITY SANDSTONE
NPHI.DEC   : NEUTRON POROSITY SANDSTONE
DTCO.US/F  : COMPRESSIONAL-WAVE INTERVAL TRANSIT TIME ACOUSTIC SLOWNESS
DTSM.US/F  : SHEAR-WAVE INTERVAL TRANSIT TIME DELTA-T
~Params ----------------------------------------------------
~Other -----------------------------------------------------
~ASCII -----------------------------------------------------
# ...
 7627.00000  127.00740    5.96380    6.27200    6.91720   13.02240    9.09190    0.09060    3.25950    2.60990    0.05550    0.27440   -9999.25   -9999.25
 7627.50000  121.50190    5.92160    6.22790    6.86770   13.00750    9.03220    0.08760    3.25240    2.62490    0.04830    0.27380   -9999.25   -9999.25
 7628.00000  116.63310    5.87960    6.18410    6.85820   12.98960    9.00240    0.09360    3.19980    2.61450    0.05610    0.27740   -9999.25   -9999.25
 7628.50000  113.24660    5.91920    6.18330    6.81680   12.67420    9.00260    0.09960    3.17030    2.59950    0.06510    0.28340   -9999.25   -9999.25
 7629.00000  111.88420    5.91800    6.22540    6.90980   12.65960    9.09250    0.10120    3.20060    2.60100    0.05850    0.28680   -9999.25   -9999.25
 7629.50000  114.79460    5.91680    6.26780    6.95580   12.94940    9.18250    0.09670    3.18430    2.62650    0.04470    0.29180   -9999.25   -9999.25
 7630.00000  117.03040    5.95660    6.31040    7.05070   12.93110    9.24250    0.09220    3.14760    2.64300    0.03810    0.28510   -9999.25   -9999.25
 7630.50000  118.59150    5.95530    6.35340    7.19600   12.91650    9.33250    0.08620    3.13270    2.63710    0.04530    0.27720   -9999.25   -9999.25
 7631.00000  118.82620    5.95390    6.39640    7.34470   13.20300    9.36260    0.07270    3.10270    2.62360    0.05310    0.27830   -9999.25   -9999.25
 7631.50000  117.89060    5.99430    6.39560    7.44500   13.18800    9.27290    0.07260    3.06700    2.60860    0.05850    0.29180   -9999.25   -9999.25
 7632.00000  118.83620    6.03430    6.43920    7.38960   13.47420    8.97370    0.08030    3.08230    2.59360    0.06690    0.29800   -9999.25   -9999.25
 7632.50000  120.55980    6.07520    6.52800    7.33870   13.45590    8.82410    0.10280    3.33790    2.60420    0.06390    0.30280   -9999.25   -9999.25
 7633.00000  119.64710    6.07370    6.52890    7.49000   13.14050    8.70450    0.12240    3.32310    2.62820    0.05430    0.29340   -9999.25   -9999.25
 7633.50000  118.73440    6.11490    6.57150    7.69780   13.12590    8.67470    0.14500    3.24840    2.64170    0.04410    0.27960   -9999.25   -9999.25
 7634.00000  119.62090    6.11340    6.57040    7.85750   13.11130    8.85450    0.16910    3.26370    2.65090    0.03630    0.27970   -9999.25   -9999.25
 7634.50000  120.28240    6.07000    6.52420    7.74700   13.09670    9.06420    0.18730    3.33910    2.65670    0.03530    0.29240   -9999.25   -9999.25
 7635.00000  120.04440    5.98550    6.43370    7.43040   13.08210    9.21410    0.20410    3.33940    2.62470    0.08120    0.29860   -9999.25   -9999.25
 7635.50000  119.35670    5.90190    6.34440    7.12680   13.06750    9.42380    0.21260    3.21960    2.56450    0.12910    0.30210   -9999.25   -9999.25
 7636.00000  118.15750    5.81970    6.25640    6.97870   13.05260    9.45390    0.20640    3.08470    2.44750    0.17220    0.28980   -9999.25   -9999.25
 7636.50000  111.23120    5.81850    6.25550    6.92880   13.03460    9.45410    0.20170    2.99490    2.40420    0.17100    0.28700   -9999.25   -9999.25
 7637.00000  110.09690    5.81740    6.25470    6.93360   13.02000    9.36440    0.19570    3.10030    2.42460    0.14170    0.29350   -9999.25   -9999.25
 7637.50000  109.85570    5.81620    6.21070    6.98640   13.00540    9.33460    0.18940    3.14570    2.46640    0.12730    0.29820   -9999.25   -9999.25
 7638.00000  105.79460    5.89620    6.16700    7.02880   12.99080    9.27490    0.18000    3.13100    2.49600    0.12970    0.30500   -9999.25   -9999.25
 7638.50000  103.75750    5.93560    6.08130    7.06630   12.97620    9.24510    0.16790    3.02620    2.45790    0.16320    0.29380   -9999.25   -9999.25
 7639.00000  103.29790    5.97560    6.03850    6.91900   12.96160    9.30510    0.15270    2.96640    2.39580    0.20340    0.29350   -9999.25   -9999.25
 7639.50000  106.42990    6.01580    6.03770    6.77520   12.94690    9.36510    0.16430    2.90660    2.35230    0.23150    0.30010   -9999.25   -9999.25
 7640.00000  111.58920    6.05630    5.99530    6.63440   12.63160    9.57490    0.16620    2.80180    2.31160    0.23990    0.30740   -9999.25   -9999.25
 7640.50000  115.55660    5.97160    5.91210    6.54160   12.61650    9.63650    0.15740    2.74210    2.30320    0.21290    0.30750   -9999.25   -9999.25
 7641.00000  119.43080    5.88850    5.87050    6.67780   12.59870    9.45540    0.14840    2.77240    2.34790    0.18180    0.30540   -9999.25   -9999.25
 7641.50000  119.19280    5.84680    5.82920    6.62320   12.28330    9.42560    0.14230    2.84780    2.44580    0.12490    0.30300   -9999.25   -9999.25
 7642.00000  117.38060    5.76540    5.78820    6.58170   12.26870    9.93470    0.17350    2.92310    2.52360    0.08540    0.30610   -9999.25   -9999.25
 7642.50000  116.46790    5.72450    5.74750    6.62550   12.25410   10.08460    0.19560    2.95350    2.55960    0.08350    0.31480   -9999.25   -9999.25
 7643.00000  116.68300    5.64480    5.74670    6.44270   12.23950   10.05460    0.20660    2.96880    2.56840    0.09790    0.32120   -9999.25   -9999.25
 7643.50000  114.64260    5.60480    5.74580    6.35260   12.22490    9.84250    0.20930    3.01410    2.55070    0.10750    0.32370   -9999.25   -9999.25
 7644.00000  109.90680    5.56510    5.82530    6.43970   12.21030    9.57600    0.20270    3.05950    2.53870    0.11410    0.31240   -9999.25   -9999.25
 7644.50000  107.63300    5.56390    5.90550    6.52710   12.19550    9.60840    0.19080    3.08980    2.52070    0.12250    0.30260   -9999.25   -9999.25
 7645.00000  107.40680    5.56260    5.90470    6.48040   12.18050    9.69610    0.17650    3.01420    2.50280    0.14460    0.31460   -9999.25   -9999.25
 7645.50000  112.11310    5.60000    5.90390    6.61440   12.16280    9.72800    0.16130    2.93930    2.46830    0.16080    0.32330   -9999.25   -9999.25
 7646.00000  114.79860    5.59890    5.90310    6.61260   12.14820    9.75630    0.14090    2.89550    2.43540    0.16860    0.32580   -9999.25   -9999.25
 7646.50000  116.13480    5.59770    5.86160    6.56530   12.13360    9.56640    0.12960    2.95960    2.41290    0.17220    0.31470   -9999.25   -9999.25
 7647.00000  115.67200    5.59660    5.86080    6.60910   12.42340    9.39730    0.11970    3.04740    2.45940    0.15540    0.30360   -9999.25   -9999.25
 7647.50000  116.78330    5.55700    5.81960    6.47170   12.40510    9.62000    0.12360    3.06150    2.49540    0.13150    0.29310   -9999.25   -9999.25
 7648.00000  119.24390    5.51760    5.73870    6.51490   12.69170    9.82040    0.13140    3.03180    2.52540    0.10210    0.29250   -9999.25   -9999.25
 7648.50000  120.13040    5.47850    5.69830    6.37910   12.97750    9.80120    0.13060    3.01530    2.55540    0.09250    0.29430   -9999.25   -9999.25
 7649.00000  118.47500    5.51980    5.69750    6.33340   13.26350    9.56900    0.12460    2.95120    2.55090    0.11350    0.29010   -9999.25   -9999.25
 7649.50000  114.25380    5.55250    5.65750    6.28810   13.24530    9.54770    0.11860    2.91260    2.51350    0.13020    0.28710   -9999.25   -9999.25
 7650.00000  111.54240    5.58980    5.69620    6.28640   13.20810    9.85240    0.12160    3.07310    2.48350    0.11890    0.28530   -9999.25   -9999.25
 7650.50000  109.28260    5.51270    5.69610    6.41740   12.90770   10.20360    0.13370    3.19170    2.52000    0.09310    0.28650   -9999.25   -9999.25
 7651.00000  110.17110    5.60390    5.85590    6.50560   12.80040   10.49900    0.14270    3.29480    2.55590    0.07870    0.29490   -9999.25   -9999.25
 7651.50000  110.61270    5.70560    5.97880    6.41540   12.69310   10.68040    0.15020    3.28510    2.57800    0.08830    0.29790   -9999.25   -9999.25
 7652.00000  109.02480    5.74490    6.06210    6.55130   12.56910   10.89580    0.15780    3.09430    2.56100    0.08340    0.30570   -9999.25   -9999.25
 7652.50000  108.56400    5.78430    6.10420    6.50290   12.25360   10.59610    0.16380    3.17690    2.56460    0.07210    0.31290   -9999.25   -9999.25
