~Version ---------------------------------------------------
VERS.   2.0 : CWLS log ASCII Standard -VERSION 2.0
WRAP.    NO : One line per depth step
DLM . SPACE : Column Data Section Delimiter
~Well ------------------------------------------------------
STRT .F                  100.0 : START DEPTH
STOP .F                10254.0 : STOP DEPTH
STEP .F                    0.5 : STEP
NULL .                -9999.25 : NULL VALUE
COMP .                         : COMPANY
WELL .                         : WELL
FLD  .                         : FIELD
LOC  .                         : LOCATION
PROV .                         : PROVINCE
CNTY .                         : COUNTY
STAT .                         : STATE
CTRY .                         : COUNTRY
SRVC .                         : SERVICE COMPANY
DATE .                         : DATE
UWI  .                         : UNIQUE WELL ID
API  .                         : API NUMBER
SLAT .WGS84  2.730585624137504 : SURFACE LATITUDE
SLON .WGS84 6.9206742762050055 : SURFACE LONGITUDE
DATUM.F                    nan : DEPTH DATUM ELEV
~Curve Information -----------------------------------------
DEPT   .F     : 1 MEASURED DEPTH
SGRDD  .GAPI  : SPECTROSCOPY GAMMA RAY FROM DENSITY LOG
TNPH_LS.DEC   : THERMAL NEUTRON POROSITY [LIMESTONE]
CALD   .IN    : CALIPER FROM DENSITY LOG
DPHZ_LS.DEC   : HGRD STANDARD RESOLUTION DENSITY POROSITY
HDRA   .G/C3  : HRDD SPINE AND RIBS DENSITY CORRECTION
PEFZ   .B/E   : HRDD STANDARD RESOLUTION FORMATION PHOTOELECTRIC FACTOR
RHOZ   .G/C3  : HRDD STANDARD RESOLUTION FORMATION DENSITY
RXOZ   .OHMM  : INVADED FORMATION RESISTIVITY FILTERED AT 18 INCHES
RLA3   .OHMM  : APPARENT RESISTIVITY FROM COMPUTED FOCUSING MODE 3
RLA5   .OHMM  : APPARENT RESISTIVITY FROM COMPUTED FOCUSING MODE 5
DTCO   .US/F  : DELTA-T COMPRESSIONAL
DTSM   .US/F  : DELTA-T SHEAR
~Params ----------------------------------------------------
~Other -----------------------------------------------------
~ASCII -----------------------------------------------------
# ...
 9676.00000  111.29360    0.20680   12.26470    0.11520    0.04050    2.90350    2.51390  125.90120   79.74440   75.96770   75.22180  123.70860
 9676.50000  111.16480    0.21360   12.26660    0.11370    0.04110    2.92880    2.51610   61.65680   66.25970   60.44120   75.34230  123.52590
 9677.00000  108.97330    0.21360   12.27080    0.11060    0.04170    2.95410    2.52140   85.34180   63.08660   60.67940   75.24970  122.26370
 9677.50000  106.76100    0.20950   12.27490    0.10310    0.04260    2.96090    2.53760  121.62480   59.84060   60.09880   75.32990  123.22550
 9678.00000  102.81290    0.19410   12.27580    0.09170    0.04390    2.94460    2.55370   54.45050   56.76160   59.05880   75.29210  122.67060
 9678.50000   99.85740    0.18160   12.27910    0.08700    0.04380    2.93270    2.55820   52.78800   58.46440   64.01740   75.28260  122.18170
 9679.00000  100.16320    0.18430   12.27830    0.09570    0.04380    2.95260    2.53100  118.70030   96.35080   88.30960   75.51640  122.97230
 9679.50000  106.73500    0.20160   12.27640    0.11230    0.03340    2.96170    2.51390  134.52430  107.05790  102.16660   75.75550  122.91390
 9680.00000  107.24470    0.21470   12.27870    0.11370    0.03660    2.91740    2.51930   81.16890   71.08230   62.53100   75.93100  122.97210
 9680.50000  104.86750    0.20970   12.29340    0.10920    0.03980    2.88810    2.52460   72.98470   66.95130   60.01960   76.10650  123.25600
 9681.00000  101.86720    0.21160   12.28960    0.10570    0.04410    2.91060    2.52820  126.39960   97.94270   73.94530   76.04980  123.56720
 9681.50000  104.37280    0.20820   12.27710    0.11200    0.04280    2.94540    2.52270  102.58540  100.19370   73.51290   75.72860  123.67760
 9682.00000  106.35580    0.21760   12.27530    0.12290    0.04120    2.97430    2.50190   81.02330   82.80120   69.69390   75.19330  123.00680
 9682.50000  106.46770    0.21830   12.27520    0.12970    0.04000    3.00810    2.49030  151.62560  104.25730   82.87680   74.77600  122.10960
 9683.00000  103.52820    0.21560   12.27510    0.12770    0.04000    3.04190    2.49520  159.33720  123.72860  143.50730   74.33510  120.64540
 9683.50000  101.03600    0.20530   12.27380    0.11530    0.04150    2.98590    2.51130  139.25030   89.57000  105.28690   73.56880  119.26090
 9684.00000   96.04980    0.19050   12.27090    0.10300    0.04300    2.92740    2.53300   89.12640   73.14490   78.62070   72.58100  119.13300
 9684.50000   91.25210    0.18200   12.26800    0.09780    0.04450    2.95940    2.54330  104.38030   75.56240   84.59010   71.80720  118.94440
 9685.00000   89.29750    0.17580   12.26960    0.09460    0.04550    3.00590    2.54760  151.38540  111.91820  124.65270   71.43940  116.43370
 9685.50000   90.96230    0.18170   12.27370    0.09010    0.04640    2.96100    2.55320  101.46690   82.80850   99.98680   71.68000  116.49920
 9686.00000   91.13420    0.17660   12.27700    0.07930    0.04740    2.86600    2.57310   55.84080   53.78080   66.22750   72.12370  117.44040
 9686.50000   88.46310    0.16520   12.28450    0.07100    0.04800    2.84930    2.58860   39.25320   47.16510   55.53760   72.56720  118.40220
 9687.00000   89.61890    0.15050   12.27520    0.06920    0.04790    2.86960    2.59160   44.01830   45.56080   53.06080   72.99050  118.68770
 9687.50000   97.76620    0.15090   12.26590    0.07660    0.04790    3.00590    2.57530   75.03700   57.23090   66.66550   73.18080  118.80230
 9688.00000  106.40700    0.16830   12.26380    0.09070    0.04540    3.11110    2.55810  105.84760   73.44580   99.86720   72.96470  119.09460
 9688.50000  114.79900    0.19320   12.26950    0.10860    0.04230    3.12280    2.52170   89.79540   70.85900   83.47610   72.94040  119.54220
 9689.00000  115.23150    0.21770   12.27520    0.11690    0.03940    3.06290    2.51220   80.67670   56.65520   64.17620   73.06330  119.26600
 9689.50000  111.62470    0.20890   12.27820    0.11250    0.03990    3.01300    2.51190   61.60220   56.44470   48.32350   73.56730  119.18740
 9690.00000  104.20750    0.19750   12.28120    0.09780    0.04140    2.94260    2.54650   63.54770   59.24670   49.64660   73.41050  119.23540
 9690.50000   97.27170    0.18560   12.28430    0.09160    0.04160    2.87440    2.55260   63.93860   59.67090   50.73560   73.01920  119.29520
 9691.00000   91.36930    0.17290   12.28730    0.09180    0.04190    2.81370    2.55160   54.27400   51.53990   45.56410   72.55430  118.44900
 9691.50000   91.14640    0.16490   12.29040    0.09380    0.04020    2.78810    2.55070   45.53740   44.71940   35.29620   71.87000  115.91410
 9692.00000   94.97350    0.18350   12.29340    0.09120    0.04360    2.78860    2.55300   35.78630   41.29350   27.50340   71.25090  115.01750
 9692.50000  100.07510    0.20380   12.29650    0.08830    0.04750    2.79630    2.55840   34.34630   40.04310   27.61150   69.89120  114.23110
 9693.00000   98.05720    0.20780   12.29950    0.09060    0.04780    2.80400    2.55530   44.80540   43.83270   32.98230   69.46900  112.67170
 9693.50000   93.14630    0.18680   12.30260    0.09160    0.04840    2.79020    2.55370   51.00900   48.58090   42.99170   68.57390  111.07100
 9694.00000   84.34820    0.16490   12.30570    0.08890    0.04910    2.79730    2.55720   50.17120   46.19470   40.88290   67.79370  109.98920
 9694.50000   77.22860    0.14940   12.30580    0.08130    0.04970    2.89820    2.56890   50.40840   46.11430   43.47000   66.93050  108.79100
 9695.00000   69.47500    0.12970   12.32430    0.07580    0.05030    3.04780    2.58040   89.45450   74.87470   61.91940   66.13860  108.15230
 9695.50000   63.53160    0.11200   12.24970    0.08180    0.04730    3.23820    2.56850  285.02540  188.91700  172.99500   65.42570  107.46140
 9696.00000   61.53030    0.11100   12.24940    0.09490    0.04240    3.28350    2.54850  487.20360  273.83540  464.27390   64.91170  106.60700
 9696.50000   62.11640    0.11650   12.24930    0.10210    0.03840    3.27330    2.53010  370.40960  278.38530  485.42260   64.51790  105.58480
 9697.00000   61.04820    0.12330   12.24930    0.10270    0.03470    3.29370    2.53270  353.60480  297.79150  559.65730   64.01080  105.09620
 9697.50000   58.90200    0.12040   12.24650    0.09500    0.03430    3.40640    2.54630  507.94060  367.06220  841.48140   63.37770  105.34550
 9698.00000   57.16410    0.11280   12.24480    0.08840    0.03430    3.57670    2.55830  644.44730  480.36380 1488.64290   62.80090  104.67580
 9698.50000   56.03970    0.10630   12.24570    0.08430    0.03410    3.75520    2.56530  930.52200  494.06740 1589.53420   61.91190  104.38920
 9699.00000   55.48160    0.10130   12.24510    0.08140    0.03400    3.90690    2.57070  991.80570  542.63110 2149.14920   61.41140  105.00750
 9699.50000   53.16480    0.09570   12.24350    0.07410    0.03330    4.03890    2.58710 1283.75280  576.05980 2569.41280   60.54990  104.58670
 9700.00000   50.52090    0.09030   12.23890    0.05800    0.04130    4.06340    2.60770  841.10690  507.24310 1857.90560   60.22550  103.82780
 9700.50000   47.86250    0.08500   12.23430    0.04700    0.04980    4.01120    2.63280  878.77260  430.49710 1094.55710   59.88210  103.69160
 9701.00000   49.33750    0.08360   12.24290    0.04660    0.05320    3.88620    2.63280  636.02390  433.44080 1452.19750   59.53050  104.22910
 9701.50000   54.62670    0.09320   12.24560    0.06480    0.05280    3.66570    2.60530  349.01610  291.58170  708.28340   59.86420  103.76770
 9702.00000   58.98080    0.10620   12.24600    0.07600    0.05250    3.39350    2.58100  243.66650  204.82310  393.95760   61.42060  104.46040
 9702.50000   57.46110    0.11620   12.24560    0.07980    0.05210    3.18810    2.57580  239.60140  178.37540  358.38510   62.31200  105.27720
 9703.00000   51.77620    0.10940   12.24470    0.07790    0.05030    3.14190    2.57600  284.42250  216.70350  464.56020   63.54840  106.36360
 9703.50000   49.15990    0.10050   12.24490    0.07880    0.04770    3.18640    2.57450  267.76870  202.00340  407.54410   64.98190  109.29580
