~Version ---------------------------------------------------
VERS.   2.0 : CWLS log ASCII Standard -VERSION 2.0
WRAP.    NO : One line per depth step
DLM . SPACE : Column Data Section Delimiter
~Well ------------------------------------------------------
STRT .F                  100.0 : START DEPTH
STOP .F                10254.0 : STOP DEPTH
STEP .F                    0.5 : STEP
NULL .                -9999.25 : NULL VALUE
COMP .                         : COMPANY
WELL .                         : WELL
FLD  .                         : FIELD
LOC  .                         : LOCATION
PROV .                         : PROVINCE
CNTY .                         : COUNTY
STAT .                         : STATE
CTRY .                         : COUNTRY
SRVC .                         : SERVICE COMPANY
DATE .                         : DATE
UWI  .                         : UNIQUE WELL ID
API  .                         : API NUMBER
SLAT .WGS84  2.730585624137504 : SURFACE LATITUDE
SLON .WGS84 6.9206742762050055 : SURFACE LONGITUDE
DATUM.F                    nan : DEPTH DATUM ELEV
~Curve Information -----------------------------------------
DEPT   .F     : 1 MEASURED DEPTH
SGRDD  .GAPI  : SPECTROSCOPY GAMMA RAY FROM DENSITY LOG
TNPH_LS.DEC   : THERMAL NEUTRON POROSITY [LIMESTONE]
CALD   .IN    : CALIPER FROM DENSITY LOG
DPHZ_LS.DEC   : HGRD STANDARD RESOLUTION DENSITY POROSITY
HDRA   .G/C3  : HRDD SPINE AND RIBS DENSITY CORRECTION
PEFZ   .B/E   : HRDD STANDARD RESOLUTION FORMATION PHOTOELECTRIC FACTOR
RHOZ   .G/C3  : HRDD STANDARD RESOLUTION FORMATION DENSITY
RXOZ   .OHMM  : INVADED FORMATION RESISTIVITY FILTERED AT 18 INCHES
RLA3   .OHMM  : APPARENT RESISTIVITY FROM COMPUTED FOCUSING MODE 3
RLA5   .OHMM  : APPARENT RESISTIVITY FROM COMPUTED FOCUSING MODE 5
DTCO   .US/F  : DELTA-T COMPRESSIONAL
DTSM   .US/F  : DELTA-T SHEAR
~Params ----------------------------------------------------
~Other -----------------------------------------------------
~ASCII -----------------------------------------------------
# ...
 2088.00000   57.79950    0.27410   -9999.25   -9999.25   -9999.25   -9999.25   -9999.25   -9999.25   -9999.25   -9999.25   -9999.25   -9999.25
 2088.50000   59.95640    0.24600   -9999.25   -9999.25   -9999.25   -9999.25   -9999.25   -9999.25   -9999.25   -9999.25   -9999.25   -9999.25
 2089.00000   60.25520    0.25500   -9999.25   -9999.25   -9999.25   -9999.25   -9999.25   -9999.25   -9999.25   -9999.25   -9999.25   -9999.25
 2089.50000   60.02760    0.27910   -9999.25   -9999.25   -9999.25   -9999.25   -9999.25   -9999.25   -9999.25   -9999.25   -9999.25   -9999.25
 2090.00000   58.51470    0.30180   -9999.25   -9999.25   -9999.25   -9999.25   -9999.25   -9999.25   -9999.25   -9999.25   -9999.25   -9999.25
 2090.50000   57.07810    0.33880   -9999.25   -9999.25   -9999.25   -9999.25   -9999.25   -9999.25   -9999.25   -9999.25   -9999.25   -9999.25
 2091.00000   60.70810    0.36540   -9999.25   -9999.25   -9999.25   -9999.25   -9999.25   -9999.25   -9999.25   -9999.25   -9999.25   -9999.25
 2091.50000   65.84060    0.37530   -9999.25   -9999.25   -9999.25   -9999.25   -9999.25   -9999.25   -9999.25   -9999.25   -9999.25   -9999.25
 2092.00000   72.07310    0.36760   17.01360    0.08680    0.28710    3.75470    2.62150    2.61710    4.84070    3.39740   89.02620   -9999.25
 2092.50000   70.74190    0.36120   17.27000    0.05300    0.22430    3.66840    2.62220    4.90100    4.77040    3.50400   89.61430  178.32300
 2093.00000   68.61870    0.35500   17.36010    0.06720    0.15410    3.58270    2.57570    4.93490    4.78760    3.57380   90.35770  178.21320
 2093.50000   67.11220    0.34680   17.35060    0.09020    0.13530    3.50100    2.54470    4.56690    5.14920    3.87520   90.95940  176.97780
 2094.00000   69.43140    0.34770   17.31320    0.10350    0.13780    3.40860    2.52750    4.19710    4.98270    3.85900   91.49630  171.91900
 2094.50000   72.81480    0.37000   17.28860    0.10690    0.14020    3.30560    2.52900    3.57470    4.61860    3.88050   91.66980  171.71440
 2095.00000   74.43430    0.41430   17.28090    0.10500    0.12470    3.20150    2.53070    3.80630    4.74900    4.01390   91.49220  172.30090
 2095.50000   77.74750    0.37130   17.27330    0.10330    0.09410    3.10220    2.52910    3.88530    4.75450    4.18830   91.81730  172.55140
 2096.00000   77.81300    0.37600   17.26620    0.10860    0.06420    3.08390    2.51730    4.17030    4.70820    4.37450   91.81290  172.76070
 2096.50000   77.24910    0.37080   17.26070    0.11700    0.04250    3.11030    2.50470    4.39130    5.06220    4.63420   91.50500  172.79110
 2097.00000   77.79300    0.37920   17.26230    0.12330    0.03970    3.16370    2.49470    4.84100    5.47110    4.99280   91.24040  171.46760
 2097.50000   77.17780    0.34920   17.26350    0.12820    0.03960    3.17750    2.48120    5.15430    5.46920    5.26930   90.87150  168.34520
 2098.00000   76.56260    0.34460   17.26290    0.13640    0.04300    3.12280    2.47010    5.04040    5.27110    5.22370   90.31860  167.65390
 2098.50000   75.94730    0.34100   17.28340    0.13920    0.05310    3.06110    2.47680    4.51820    5.08020    4.98350   89.36770  163.31360
 2099.00000   75.88270    0.36730   17.33110    0.13420    0.06770    3.00910    2.48350    2.86670    4.75300    4.77700   88.18950  159.50530
 2099.50000   78.00330    0.40430   17.45460    0.12040    0.07000    2.95710    2.49780    2.78630    4.54750    4.80580   86.66740  155.69710
 2100.00000   72.55060    0.36510   17.34220    0.11390    0.04350    2.92300    2.51220    4.05370    4.70240    5.07770   84.65060  153.24390
 2100.50000   69.27530    0.32410   17.32730    0.11080    0.03990    2.91310    2.52530    4.41880    4.91350    5.35110   83.21670  150.82600
 2101.00000   72.50730    0.27280   17.31330    0.10770    0.04750    2.91310    2.52580    4.68580    5.19220    5.54010   88.43560  143.00150
 2101.50000   78.14640    0.25430   17.32890    0.10740    0.05430    2.91310    2.52610    5.07960    5.69290    6.08510   91.73890  140.20970
 2102.00000   79.69630    0.22350   17.36340    0.10770    0.05680    2.91310    2.52740    6.78050    7.11260    7.32100   84.25300  139.89700
 2102.50000   76.07530    0.20900   17.33360    0.10410    0.05600    2.91930    2.53980    7.70200    8.00420    8.19630   84.25120  139.81530
 2103.00000   71.81390    0.20990   17.35030    0.09390    0.05450    2.92730    2.55650    8.30620    8.35990    8.54000   84.71200  139.87300
 2103.50000   70.36920    0.22520   17.28500    0.08580    0.05050    2.96800    2.56550    9.47940    8.71100    8.87950   85.04310  140.00250
 2104.00000   75.72520    0.21390   17.26040    0.09480    0.05090    3.03640    2.51780   11.24110    9.66470    9.53380   85.07660  140.46420
 2104.50000   79.32620    0.20690   17.25110    0.12680    0.06350    3.20110    2.45840    9.00300    8.31290    6.85220   82.32300  144.75180
 2105.00000   86.95720    0.22660   17.18820    0.14540    0.11430    3.36950    2.46510    5.01870    5.86360    5.67060   82.70350  145.62230
 2105.50000   80.83420    0.25390   16.64730    0.13810    0.14800    3.48100    2.50840    3.80240    6.09810    6.27210   74.39530  142.86560
 2106.00000   78.08500    0.26560   14.90710    0.10760    0.14540    3.37480    2.53920    4.19950    6.92330    7.26990   73.52690  139.75840
 2106.50000   73.81340    0.22590   13.08010    0.09720    0.12850    3.22010    2.54440    5.45410    7.56370    7.50550   72.89500  137.79080
 2107.00000   80.03690    0.17700   12.98490    0.09660    0.07430    3.09920    2.54410    6.54770    7.95140    8.05910   71.81070  131.85580
 2107.50000   83.23960    0.14370   12.91230    0.09800    0.05120    3.03390    2.54620    7.46470    8.03870    9.61140   71.77000  125.72410
 2108.00000   83.48370    0.13860   12.87070    0.09520    0.04980    3.02120    2.55300    9.31230    8.41310    9.32530   70.07180  123.51750
 2108.50000   82.05700    0.14800   12.86750    0.09170    0.05050    3.03820    2.55450   11.45970   10.07130    8.71700   70.39840  123.23700
 2109.00000   85.97600    0.15630   12.86430    0.09330    0.05050    3.11290    2.54620   10.69160   10.13470    9.58020   70.10570  122.41000
 2109.50000   86.68820    0.15290   12.86100    0.09480    0.04620    3.14200    2.54910   14.52330   12.14950   10.75320   69.95300  121.39830
 2110.00000   83.78150    0.14930   12.85780    0.09290    0.04290    3.12070    2.55460   16.61520   14.64740   13.52670   69.79400  121.38560
 2110.50000   78.42450    0.14410   12.84470    0.09090    0.04220    3.09840    2.56000   18.68830   16.08820   16.76910   69.61900  121.35210
 2111.00000   72.91680    0.13870   12.82110    0.08750    0.04250    3.08910    2.55970   16.91220   12.38260   14.93720   69.66300  121.65640
 2111.50000   75.07510    0.13710   12.79740    0.08910    0.04300    3.11920    2.55460   13.37410   11.37700   14.20260   70.18800  122.24280
 2112.00000   76.06450    0.13800   12.77380    0.09020    0.04410    3.15860    2.55690   17.47100   14.44850   14.72680   70.71230  122.78850
 2112.50000   77.53120    0.13500   12.77190    0.08930    0.04550    3.14030    2.56540   14.05800   12.16940   14.16200   71.37830  123.48600
 2113.00000   77.85480    0.13730   12.77720    0.08270    0.04700    3.07600    2.57390   11.43980   10.40380   13.36300   72.10810  127.13600
 2113.50000   79.39200    0.13910   12.79210    0.07790    0.04840    3.12930    2.58110    9.01400   10.47870   11.43160   73.67820  128.45740
 2114.00000   83.49290    0.14000   12.80670    0.07060    0.04980    3.23180    2.59670   11.37140   10.47230   10.74810   74.58440  130.24940
 2114.50000   90.75020    0.14970   12.81700    0.06140    0.05180    3.33800    2.60950   14.75790   10.27860   10.70550   75.40020  131.58290
 2115.00000  101.69090    0.15120   12.82730    0.05600    0.05430    3.37820    2.61550   12.25430    9.18160   10.18490   76.03610  133.12790
 2115.50000  103.82520    0.16630   12.83760    0.05310    0.05470    3.32710    2.61910    7.72950    8.04060    8.82200   76.77850  135.43500
