~Version ---------------------------------------------------
VERS.   2.0 : CWLS log ASCII Standard -VERSION 2.0
WRAP.    NO : One line per depth step
DLM . SPACE : Column Data Section Delimiter
~Well ------------------------------------------------------
STRT .F                  100.0 : START DEPTH
STOP .F                10254.0 : STOP DEPTH
STEP .F                    0.5 : STEP
NULL .                -9999.25 : NULL VALUE
COMP .                         : COMPANY
WELL .                         : WELL
FLD  .                         : FIELD
LOC  .                         : LOCATION
PROV .                         : PROVINCE
CNTY .                         : COUNTY
STAT .                         : STATE
CTRY .                         : COUNTRY
SRVC .                         : SERVICE COMPANY
DATE .                         : DATE
UWI  .                         : UNIQUE WELL ID
API  .                         : API NUMBER
SLAT .WGS84  2.730585624137504 : SURFACE LATITUDE
SLON .WGS84 6.9206742762050055 : SURFACE LONGITUDE
DATUM.F                    nan : DEPTH DATUM ELEV
~Curve Information -----------------------------------------
DEPT   .F     : 1 MEASURED DEPTH
SGRDD  .GAPI  : SPECTROSCOPY GAMMA RAY FROM DENSITY LOG
TNPH_LS.DEC   : THERMAL NEUTRON POROSITY [LIMESTONE]
CALD   .IN    : CALIPER FROM DENSITY LOG
DPHZ_LS.DEC   : HGRD STANDARD RESOLUTION DENSITY POROSITY
HDRA   .G/C3  : HRDD SPINE AND RIBS DENSITY CORRECTION
PEFZ   .B/E   : HRDD STANDARD RESOLUTION FORMATION PHOTOELECTRIC FACTOR
RHOZ   .G/C3  : HRDD STANDARD RESOLUTION FORMATION DENSITY
RXOZ   .OHMM  : INVADED FORMATION RESISTIVITY FILTERED AT 18 INCHES
RLA3   .OHMM  : APPARENT RESISTIVITY FROM COMPUTED FOCUSING MODE 3
RLA5   .OHMM  : APPARENT RESISTIVITY FROM COMPUTED FOCUSING MODE 5
DTCO   .US/F  : DELTA-T COMPRESSIONAL
DTSM   .US/F  : DELTA-T SHEAR
~Params ----------------------------------------------------
~Other -----------------------------------------------------
~ASCII -----------------------------------------------------
# ...
 4804.00000   12.94160   -0.02100   12.35880   -0.10020    0.05480    5.26650    2.97100 1732.82420 1002.53070 65696.83590   52.85330   92.57970
 4804.50000   12.79950   -0.02160   12.36020   -0.10020    0.05570    5.20850    2.97280 1329.54270  944.30480 24288.34380   53.86130   94.03240
 4805.00000   13.39090   -0.02140   12.36170   -0.10020    0.05850    5.15040    2.96930 1374.29630  971.64700 11540.73440   54.91720   95.23050
 4805.50000   14.27120   -0.01850   12.36230   -0.10030    0.06530    5.09360    2.96520 1432.04280  829.70800 2437.80740   55.86660   96.61870
 4806.00000   18.70300   -0.01520   12.36210   -0.10030    0.07250    4.97330    2.95570 1963.30630  542.62340 1333.08740   56.49920   97.77320
 4806.50000   26.02660   -0.00750   12.36200   -0.10020    0.09230    4.76100    2.89900  808.16460  306.67360  369.83170   57.02540   99.53540
 4807.00000   37.97630    0.00330   12.36680   -0.05510    0.11550    4.34910    2.82730   18.31950  155.80760  113.58620   57.26910  100.53750
 4807.50000   48.75650    0.02590   12.41590    0.00670    0.11830    3.86740    2.73670   12.40360   81.83630   63.58270   57.29800  100.93120
 4808.00000   51.67400    0.04750   12.36480    0.03940    0.09280    3.73460    2.67030   11.50900   73.74970   55.43100   56.90260  100.73420
 4808.50000   52.08080    0.06140   12.29430    0.02950    0.06780    3.72970    2.69180   19.89840   61.28850   50.21360   56.09650  100.40700
 4809.00000   42.75620    0.04560   12.28450   -0.01040    0.04530    3.86050    2.72720   29.09880   71.23360   53.17300   55.43520  100.68640
 4809.50000   35.67460    0.02680   12.28410   -0.05260    0.04510    4.01080    2.76610   45.11600  107.90340  113.27700   54.07860   99.72030
 4810.00000   34.31960    0.01580   12.29980   -0.07130    0.05320    4.11980    2.83940   86.29390  155.33690  217.28290   53.33120   97.53490
 4810.50000   33.48020    0.01280   12.30610   -0.07890    0.05680    4.23020    2.84420   86.22750  112.36630  130.33380   53.17020   95.41260
 4811.00000   31.63120    0.00920   12.31560   -0.07670    0.04760    4.38670    2.84420   69.79310  100.25090  117.94270   54.01920   95.23230
 4811.50000   25.35970    0.00220   12.36110   -0.08590    0.03900    4.60100    2.85970  102.78240  203.04700  323.05090   54.55370   95.09970
 4812.00000   21.91790   -0.00460   12.37840   -0.09330    0.03690    4.82710    2.87290  435.81720  282.23560  545.94750   55.09400   94.73920
 4812.50000   22.47150   -0.00900   12.39120   -0.08500    0.05800    4.77860    2.83310  437.86410  336.48970  884.75960   55.60990   95.50820
 4813.00000   28.29550   -0.00990   12.38540   -0.04680    0.13640    4.41570    2.77300   69.34830  323.40840  903.03470   55.97920   92.93200
 4813.50000   33.86570   -0.00280   12.38100    0.01680    0.21330    4.05120    2.70140    4.21120  198.99760  314.55190   55.64300   95.41040
 4814.00000   36.43220    0.00390   12.63670    0.03820    0.27300    3.76530    2.63320    3.01720  189.66960  279.33660   56.00730   96.81600
 4814.50000   37.00340    0.00980   12.40020    0.04580    0.26150    3.58560    2.63290    2.89720  205.71280  282.74100   56.00170   95.71550
 4815.00000   37.50540    0.01350   12.30060    0.03340    0.23040    3.54810    2.65960    4.73700  198.99990  314.31220   55.65240   95.55470
 4815.50000   41.44210    0.01350   12.27470    0.03330    0.19560    3.54700    2.64820    4.23050  159.04720  278.18230   55.26610   96.82410
 4816.00000   43.52990    0.01490   12.58910    0.03760    0.13590    3.54600    2.64400    4.24610  131.25110  211.42540   55.18850   96.92630
 4816.50000   44.04570    0.01830   12.28890    0.02430    0.08610    3.57580    2.67090    8.85390  157.78400  329.16410   55.24200   96.77640
 4817.00000   41.76290    0.02070   12.26840    0.02610    0.06310    3.64660    2.66550   85.68660  191.78140  601.84840   55.38740   96.75760
 4817.50000   42.45760    0.01710   12.26510    0.04090    0.13160    3.65910    2.64130   10.70170  160.54380  540.26240   55.58210   99.56030
 4818.00000   43.76260    0.01930   12.26730    0.09220    0.18140    3.56430    2.59000    7.24660  132.45390  372.93330   56.13490   97.76200
 4818.50000   44.95750    0.01970   12.85080    0.12520    0.24680    3.44890    2.51390    4.69890  144.87350  463.15120   57.52960   96.34540
 4819.00000   46.27060    0.01660   12.57270    0.17230    0.28580    3.34270    2.41480    2.91230  153.71390  531.08370   58.36800   97.30580
 4819.50000   48.20510    0.01460   13.27350    0.17510    0.29060    3.27850    2.40570    2.37880  182.58700  572.46890   59.40850   99.18890
 4820.00000   51.10980    0.02110   13.56110    0.18300    0.26090    3.21130    2.40970    2.87870  178.48650  467.94200   59.70660   99.30040
 4820.50000   53.43760    0.02830   13.37300    0.17190    0.21890    3.21060    2.42080    5.32600  162.66240  386.44520   60.67830   99.15140
 4821.00000   54.04310    0.03330   13.34950    0.16640    0.20110    3.24790    2.42690    8.38730  141.43470  336.71520   61.11880  100.03710
 4821.50000   56.14360    0.03650   13.22490    0.15960    0.18630    3.26610    2.43200   10.16030  119.39840  317.47960   61.10380  101.02240
 4822.00000   57.81290    0.03860   13.30310    0.15890    0.17080    3.26800    2.43880   11.72310  117.66140  339.57300   61.09130  101.51420
 4822.50000   58.76380    0.03850   13.42140    0.15970    0.15680    3.26480    2.43950   17.71890  116.59560  348.88780   61.18720  101.26750
 4823.00000   55.86550    0.03720   13.34860    0.16320    0.14530    3.25720    2.42980   18.28540  107.14100  304.58910   61.37160  102.67530
 4823.50000   55.86800    0.03650   13.36010    0.16770    0.13920    3.22360    2.42290   15.70430  101.83560  261.97760   61.88730  103.13560
 4824.00000   58.93110    0.03720   13.35050    0.16850    0.13650    3.18730    2.42150   12.28120   97.56400  234.82340   62.36180  102.66380
 4824.50000   61.53410    0.03890   13.43070    0.16840    0.13270    3.16940    2.42480   12.53060   97.34870  225.46890   62.49830  102.34580
 4825.00000   60.16360    0.04070   13.35390    0.16570    0.12850    3.17590    2.42560   16.41240  110.91880  252.57130   63.07620  103.22490
 4825.50000   56.59220    0.04470   13.42120    0.17520    0.11330    3.18370    2.41340   26.66900  137.39210  295.01710   63.18860  104.87910
 4826.00000   56.64120    0.04650   13.52750    0.17640    0.11290    3.20470    2.40500   28.28310  136.04970  294.11440   62.77900  105.03870
 4826.50000   56.96120    0.04610   13.62430    0.17140    0.14370    3.27370    2.41240   23.27560  125.48080  253.24930   62.40810  105.17390
 4827.00000   59.08000    0.04430   13.50010    0.16870    0.19570    3.35990    2.42330   18.60520  132.24240  245.48080   62.24330  105.30910
 4827.50000   58.22810    0.04160   13.27370    0.16250    0.22210    3.36680    2.43190    8.54290  142.16220  276.19570   62.09110  106.99640
 4828.00000   58.82990    0.04020   13.03170    0.16160    0.20690    3.35850    2.44220    6.60990  121.36820  245.89530   62.29050  107.94890
 4828.50000   60.80500    0.04500   12.65930    0.14700    0.18930    3.34250    2.46450    6.17820   86.16570  174.87860   62.92860  108.92730
 4829.00000   62.50660    0.05300   12.45210    0.14500    0.17070    3.42030    2.45760    9.81620   55.96010  114.02920   64.02200  109.85830
 4829.50000   59.20060    0.05630   12.47980    0.19160    0.18130    3.54660    2.41080    7.77730   49.25160  104.79000   65.64110  109.43820
 4830.00000   48.66780    0.04800   12.40440    0.29920    0.23560    3.59700    2.28510    1.76660   60.68110  140.83690   66.69440  109.51120
 4830.50000   35.97410    0.02370   12.74220    0.29970    0.27290    3.84110    2.10500    0.92920   92.54000  254.39680   67.36630  110.21290
 4831.00000   25.66210    0.00080   14.31480    0.29960    0.27690    4.04710    2.08230    0.79850  178.57420  572.90810   67.97250  114.72030
 4831.50000   19.87140   -0.01320   13.88080    0.29950    0.29580    4.26270    2.07550    1.02350  307.29840 1011.83470   69.24540  120.37930
