~Version ---------------------------------------------------
VERS.   2.0 : CWLS log ASCII Standard -VERSION 2.0
WRAP.    NO : One line per depth step
DLM . SPACE : Column Data Section Delimiter
~Well ------------------------------------------------------
STRT .F                  100.0 : START DEPTH
STOP .F                10254.0 : STOP DEPTH
STEP .F                    0.5 : STEP
NULL .                -9999.25 : NULL VALUE
COMP .                         : COMPANY
WELL .                         : WELL
FLD  .                         : FIELD
LOC  .                         : LOCATION
PROV .                         : PROVINCE
CNTY .                         : COUNTY
STAT .                         : STATE
CTRY .                         : COUNTRY
SRVC .                         : SERVICE COMPANY
DATE .                         : DATE
UWI  .                         : UNIQUE WELL ID
API  .                         : API NUMBER
SLAT .WGS84  2.730585624137504 : SURFACE LATITUDE
SLON .WGS84 6.9206742762050055 : SURFACE LONGITUDE
DATUM.F                    nan : DEPTH DATUM ELEV
~Curve Information -----------------------------------------
DEPT   .F     : 1 MEASURED DEPTH
SGRDD  .GAPI  : SPECTROSCOPY GAMMA RAY FROM DENSITY LOG
TNPH_LS.DEC   : THERMAL NEUTRON POROSITY [LIMESTONE]
CALD   .IN    : CALIPER FROM DENSITY LOG
DPHZ_LS.DEC   : HGRD STANDARD RESOLUTION DENSITY POROSITY
HDRA   .G/C3  : HRDD SPINE AND RIBS DENSITY CORRECTION
PEFZ   .B/E   : HRDD STANDARD RESOLUTION FORMATION PHOTOELECTRIC FACTOR
RHOZ   .G/C3  : HRDD STANDARD RESOLUTION FORMATION DENSITY
RXOZ   .OHMM  : INVADED FORMATION RESISTIVITY FILTERED AT 18 INCHES
RLA3   .OHMM  : APPARENT RESISTIVITY FROM COMPUTED FOCUSING MODE 3
RLA5   .OHMM  : APPARENT RESISTIVITY FROM COMPUTED FOCUSING MODE 5
DTCO   .US/F  : DELTA-T COMPRESSIONAL
DTSM   .US/F  : DELTA-T SHEAR
~Params ----------------------------------------------------
~Other -----------------------------------------------------
~ASCII -----------------------------------------------------
# ...
 9116.00000  103.50330    0.15970   12.24290    0.12060    0.03620    2.89180    2.50550  128.97890  108.19990  103.86670   71.97230  115.18770
 9116.50000  101.40460    0.16630   12.23040    0.12050    0.03550    2.86730    2.50640  120.22330   96.42290   93.68440   72.12280  115.86230
 9117.00000  102.22050    0.16640   12.23370    0.11490    0.03830    2.84280    2.51330  112.36770   92.31510   85.51280   72.17710  116.39370
 9117.50000  106.86900    0.16580   12.22760    0.11220    0.04090    2.81830    2.51770  101.72030   90.42080   79.30050   72.21150  116.73020
 9118.00000  104.72000    0.16340   12.22470    0.11200    0.04220    2.80890    2.51970   86.88020   87.33130   67.93780   72.07140  116.81620
 9118.50000  100.01280    0.16340   12.22440    0.11340    0.04030    2.80000    2.51520   75.16410   71.93510   63.77590   72.12530  117.13810
 9119.00000   95.52000    0.15510   12.22420    0.11490    0.03840    2.79110    2.51370   56.37140   54.00120   51.14950   72.14020  116.68040
 9119.50000   97.47210    0.14730   12.22520    0.11350    0.03660    2.78210    2.51630   46.77990   43.91160   42.01210   72.02750  116.56710
 9120.00000  101.65420    0.14560   12.23030    0.11020    0.03720    2.77320    2.52140   43.94140   38.05430   38.62740   71.74140  116.47620
 9120.50000  105.75570    0.15010   12.23550    0.10710    0.04120    2.76420    2.52590   42.22430   35.63070   36.68460   71.35940  116.50160
 9121.00000  108.61540    0.15440   12.24850    0.10570    0.04520    2.75680    2.52960   40.89590   33.78650   34.58080   70.89240  116.15200
 9121.50000  109.19300    0.15570   12.25570    0.10240    0.04780    2.72920    2.53320   38.42490   30.94700   32.50390   70.02750  114.90520
 9122.00000  110.10590    0.15530   12.28110    0.10080    0.04710    2.74430    2.53760   34.47640   28.05090   29.58260   69.29130  113.57020
 9122.50000  108.62030    0.15170   12.27650    0.09890    0.04630    2.76780    2.54230   26.87640   23.25380   25.09320   68.20940  112.94130
 9123.00000   99.74140    0.13780   12.26790    0.08940    0.04560    2.77290    2.55580   20.51800   17.95430   19.39730   67.22900  111.22170
 9123.50000   90.40430    0.12360   12.25940    0.07880    0.04490    2.78480    2.57720   19.80170   15.60060   16.20090   65.85420  109.86020
 9124.00000   83.05440    0.11200   12.25080    0.06640    0.04440    2.81380    2.59190   19.15990   14.70480   15.52430   64.56800  108.87210
 9124.50000   79.01600    0.10920   12.24770    0.06370    0.04390    2.88520    2.60080   18.17630   13.70590   15.43010   63.40230  107.91680
 9125.00000   76.69420    0.10710   12.25780    0.05890    0.04500    2.96590    2.61050   15.34960   12.52450   14.19500   62.55430  106.03580
 9125.50000   71.64600    0.10290   12.25410    0.04730    0.04530    3.04770    2.62650   14.76470   11.32970   12.67310   61.90080  105.09040
 9126.00000   66.50140    0.09260   12.25140    0.03560    0.04340    3.25430    2.64900   17.30090   12.81060   14.68900   61.68020  104.60880
 9126.50000   64.05670    0.08080   12.24710    0.02630    0.04140    3.43180    2.66190   21.62930   17.26320   19.65220   61.66440  104.33470
 9127.00000   65.51350    0.07320   12.24550    0.02910    0.04100    3.56140    2.65870   26.46690   17.20960   19.87060   61.95400  104.76700
 9127.50000   66.76880    0.07080   12.24550    0.03220    0.04180    3.58550    2.65350   27.15150   19.68820   23.00720   62.31360  105.01470
 9128.00000   67.17840    0.07250   12.24560    0.03960    0.04270    3.53410    2.64100   21.93580   14.79580   18.57490   62.74940  105.48320
 9128.50000   70.40120    0.08110   12.24570    0.04780    0.04360    3.40400    2.63090   12.60410   10.01180   11.37150   63.33040  106.56560
 9129.00000   73.95870    0.09260   12.24570    0.05390    0.04470    3.25890    2.61770    9.45320    7.93850    9.07360   64.07670  107.20950
 9129.50000   76.30290    0.10680   12.26090    0.05390    0.04580    3.14940    2.61850    9.11140    7.91430    8.95880   65.02420  108.38480
 9130.00000   76.41540    0.10740   12.25800    0.04900    0.04680    3.07510    2.62610    9.44460    8.37420    9.19860   65.69810  109.49830
 9130.50000   76.64750    0.10990   12.24850    0.04770    0.04740    3.01240    2.62660    9.39170    8.24070    9.06240   66.32590  110.44050
 9131.00000   79.44010    0.11330   12.24820    0.05240    0.04750    2.95830    2.62090    8.78140    8.00000    8.59570   66.95570  111.63390
 9131.50000   82.72280    0.11950   12.25330    0.06250    0.04750    2.90600    2.60290    8.03140    6.84160    7.68840   67.34330  112.63450
 9132.00000   85.48070    0.12480   12.27050    0.07400    0.04890    2.85910    2.58760    7.25350    6.17840    6.87680   67.63810  113.15020
 9132.50000   88.33890    0.13070   12.27420    0.08190    0.05100    2.78570    2.57120    6.58560    5.81470    6.39500   67.94090  113.41080
 9133.00000   90.58470    0.13250   12.28070    0.08280    0.05300    2.70260    2.56820    6.20170    5.40770    6.00060   67.99100  113.61030
 9133.50000   93.71860    0.13100   12.28640    0.07920    0.05460    2.67430    2.57550    6.30070    5.54750    6.07320   67.83780  113.97670
 9134.00000   94.55540    0.12880   12.28730    0.07440    0.05380    2.64600    2.58220    6.90380    6.00110    6.69640   67.55280  113.60250
 9134.50000   94.76260    0.12740   12.30930    0.07070    0.05300    2.62840    2.58880    7.35190    6.51290    7.38350   67.05750  113.08600
 9135.00000   94.76460    0.12400   12.31270    0.06900    0.05220    2.62910    2.59230    7.82790    6.74310    8.13410   66.45990  112.19420
 9135.50000   94.05510    0.11810   12.29840    0.06460    0.05220    2.63260    2.60090    8.70810    7.35420    9.33970   66.21600  111.71360
 9136.00000   92.32220    0.11190   12.28740    0.05650    0.05450    2.69690    2.61520   10.44710    8.02440   11.28550   65.82990  111.45490
 9136.50000   86.72970    0.10730   12.27670    0.04840    0.05770    2.75910    2.62640   12.53340    9.92180   13.06290   65.40820  110.44050
 9137.00000   84.96080    0.10930   12.26600    0.04530    0.05760    2.80560    2.63060   13.43670    9.34240   12.12570   65.01390  109.45020
 9137.50000   85.67350    0.11700   12.26940    0.05390    0.05310    2.80660    2.62010   11.94110    9.16190   11.46280   64.73160  108.90530
 9138.00000   87.54370    0.12340   12.27600    0.06000    0.04880    2.81370    2.60930   11.78740    9.28210   11.25850   64.75960  108.68570
 9138.50000   88.78240    0.12160   12.27730    0.06540    0.04450    2.83860    2.60380   11.76560    8.83500   11.05800   64.91220  108.30680
 9139.00000   87.42370    0.11130   12.27030    0.06260    0.04410    2.86040    2.60310   12.22690    9.29470   10.89220   65.19700  108.46860
 9139.50000   81.86900    0.10100   12.25590    0.06000    0.04720    2.88220    2.60740   14.03330    9.50160   12.44580   65.33270  108.39460
 9140.00000   76.14880    0.09070   12.24330    0.05650    0.05010    2.87590    2.61270   19.18580   11.13730   14.79100   65.52090  108.56140
 9140.50000   77.71130    0.08890   12.26150    0.05580    0.05170    2.78580    2.61170   14.28920    8.82790   12.12440   65.77270  109.10530
 9141.00000   82.25450    0.10310   12.27470    0.06370    0.05030    2.68030    2.60050    9.88010    7.70430    9.09690   66.08590  109.74670
 9141.50000   90.04160    0.11670   12.26820    0.07590    0.04810    2.63040    2.58470    8.55900    6.55330    7.91930   66.52920  111.14700
 9142.00000   89.75070    0.11530   12.27510    0.08700    0.04580    2.63960    2.56200    7.90900    6.13150    7.32140   66.81220  112.05350
 9142.50000   88.67000    0.11710   12.27520    0.08990    0.04560    2.64710    2.55750    7.68880    6.00860    7.07330   67.00990  112.93720
 9143.00000   87.88250    0.11880   12.27560    0.08920    0.04830    2.64620    2.55780    7.32590    5.89400    6.91040   66.91000  113.36430
 9143.50000   87.51020    0.11930   12.29340    0.08630    0.05110    2.62820    2.56180    7.00590    5.77580    6.66230   66.86100  113.26370
