~Version ---------------------------------------------------
VERS.   2.0 : CWLS log ASCII Standard -VERSION 2.0
WRAP.    NO : One line per depth step
DLM . SPACE : Column Data Section Delimiter
~Well ------------------------------------------------------
STRT .F                  100.0 : START DEPTH
STOP .F                10254.0 : STOP DEPTH
STEP .F                    0.5 : STEP
NULL .                -9999.25 : NULL VALUE
COMP .                         : COMPANY
WELL .                         : WELL
FLD  .                         : FIELD
LOC  .                         : LOCATION
PROV .                         : PROVINCE
CNTY .                         : COUNTY
STAT .                         : STATE
CTRY .                         : COUNTRY
SRVC .                         : SERVICE COMPANY
DATE .                         : DATE
UWI  .                         : UNIQUE WELL ID
API  .                         : API NUMBER
SLAT .WGS84  2.730585624137504 : SURFACE LATITUDE
SLON .WGS84 6.9206742762050055 : SURFACE LONGITUDE
DATUM.F                    nan : DEPTH DATUM ELEV
~Curve Information -----------------------------------------
DEPT   .F     : 1 MEASURED DEPTH
SGRDD  .GAPI  : SPECTROSCOPY GAMMA RAY FROM DENSITY LOG
TNPH_LS.DEC   : THERMAL NEUTRON POROSITY [LIMESTONE]
CALD   .IN    : CALIPER FROM DENSITY LOG
DPHZ_LS.DEC   : HGRD STANDARD RESOLUTION DENSITY POROSITY
HDRA   .G/C3  : HRDD SPINE AND RIBS DENSITY CORRECTION
PEFZ   .B/E   : HRDD STANDARD RESOLUTION FORMATION PHOTOELECTRIC FACTOR
RHOZ   .G/C3  : HRDD STANDARD RESOLUTION FORMATION DENSITY
RXOZ   .OHMM  : INVADED FORMATION RESISTIVITY FILTERED AT 18 INCHES
RLA3   .OHMM  : APPARENT RESISTIVITY FROM COMPUTED FOCUSING MODE 3
RLA5   .OHMM  : APPARENT RESISTIVITY FROM COMPUTED FOCUSING MODE 5
DTCO   .US/F  : DELTA-T COMPRESSIONAL
DTSM   .US/F  : DELTA-T SHEAR
~Params ----------------------------------------------------
~Other -----------------------------------------------------
~ASCII -----------------------------------------------------
# ...
 6960.00000   51.71540    0.05000   12.39570    0.04770    0.04270    4.87010    2.63230   98.09290   65.98270   79.98520   61.77030  105.54560
 6960.50000   59.38800    0.06340   12.39870    0.05340    0.04470    4.72320    2.62180   67.23790   57.34120   59.13080   62.17830  105.87130
 6961.00000   65.72580    0.07940   12.40170    0.05470    0.04520    4.60400    2.61680   47.17350   45.68310   43.11940   62.15170  105.97340
 6961.50000   66.74370    0.08690   12.40480    0.05890    0.04490    4.56760    2.61230   41.91200   40.79140   34.23360   61.58130  105.99690
 6962.00000   66.66080    0.09440   12.40630    0.06250    0.04470    4.57080    2.60650   40.75500   40.39270   32.23020   60.85350  105.99290
 6962.50000   65.78010    0.09510   12.39290    0.06580    0.04380    4.60650    2.60080   41.20870   40.63750   32.88350   60.08220  106.05570
 6963.00000   60.50400    0.08260   12.38140    0.06500    0.04210    4.68770    2.59930   42.39100   41.52870   33.99600   59.29190  105.36780
 6963.50000   54.67140    0.06980   12.37620    0.06000    0.04050    4.74090    2.60000   42.82400   42.05990   35.06970   58.75150  104.42840
 6964.00000   47.88590    0.05880   12.39090    0.05200    0.04220    4.77570    2.62770   46.02610   44.11120   37.48070   58.05460  102.00220
 6964.50000   40.70830    0.05150   12.40470    0.03930    0.04650    4.80390    2.65020   56.35140   53.63060   49.93050   57.48850  101.13010
 6965.00000   36.43070    0.04560   12.38340    0.02890    0.05070    4.80330    2.66480   74.08590   68.90980   65.66530   56.76550  100.36520
 6965.50000   35.83350    0.04350   12.39110    0.02570    0.05460    4.78990    2.66530   64.42110   57.19700   54.12760   55.69170   99.45100
 6966.00000   38.64400    0.04860   12.38550    0.03180    0.05120    4.82530    2.65920   50.61780   46.48970   44.45590   55.39000   99.03110
 6966.50000   42.47600    0.05390   12.37730    0.03940    0.04780    4.84710    2.64680   45.60840   42.25610   38.47460   55.30250   98.96590
 6967.00000   47.55500    0.05770   12.37900    0.04420    0.04430    4.87300    2.63660   49.83160   40.93530   44.39090   55.49370   98.70750
 6967.50000   46.43050    0.05000   12.38060    0.04140    0.04050    4.95350    2.63670   77.28870   46.17230   65.28910   55.76090   98.75140
 6968.00000   40.43640    0.04090   12.39190    0.03400    0.04160    5.00310    2.64310  150.91390   90.79930  124.20280   56.08830   99.56090
 6968.50000   31.89830    0.03170   12.40570    0.02970    0.04260    5.16180    2.65410  218.96860  113.36900  159.05610   56.47360  100.35080
 6969.00000   30.59800    0.02540   12.40560    0.02740    0.04200    5.17650    2.66000  163.95710  115.51480  173.48370   56.79820  100.77430
 6969.50000   32.34640    0.03150   12.39680    0.03130    0.04230    5.13260    2.66120  123.07650   72.86200  105.38020   57.17940  100.72440
 6970.00000   37.85910    0.04020   12.38320    0.03620    0.04290    5.02760    2.65450   73.69340   54.73830   64.16830   57.48960  101.17940
 6970.50000   43.09520    0.04990   12.37670    0.04120    0.04340    4.90820    2.64410   52.78310   42.18270   47.08080   57.65730  101.65580
 6971.00000   48.10980    0.06320   12.39630    0.04400    0.04730    4.73280    2.63540   44.02730   37.68510   35.91640   58.14310  102.73290
 6971.50000   47.74130    0.07570   12.40560    0.04340    0.05070    4.63460    2.63570   43.23490   39.16100   38.39320   59.50980  103.78380
 6972.00000   45.20720    0.07020   12.40440    0.03770    0.05410    4.64180    2.64590   44.52310   40.63290   40.67180   61.53170  104.91440
 6972.50000   41.09810    0.06080   12.39870    0.03000    0.05850    4.72360    2.65890   50.40060   43.58820   46.03790   63.06130  106.26420
 6973.00000   38.14680    0.05000   12.39280    0.02410    0.05810    4.82690    2.66710   54.63590   50.72610   53.36070   64.35680  108.17190
 6973.50000   37.12940    0.04530   12.38260    0.02620    0.05590    4.82410    2.66730   55.37990   50.27350   54.72940   65.17770  109.52300
 6974.00000   44.88180    0.05370   12.39780    0.03190    0.05380    4.77060    2.65790   54.59540   46.09340   42.16900   65.37550  110.00930
 6974.50000   63.30140    0.07190   12.39130    0.04230    0.04920    4.64740    2.63200   41.12890   30.99170   27.98550   64.50570  110.49560
 6975.00000   93.83200    0.12620   12.38450    0.07310    0.04100    4.47130    2.59090   23.74910   20.57790   18.51890   63.34090  110.03720
 6975.50000  111.33090    0.19420   12.40150    0.10120    0.03340    4.35190    2.53180   19.97730   17.11820   15.90200   62.19380  109.28950
 6976.00000  104.39960    0.24740   12.39780    0.10600    0.03480    4.30010    2.53110   28.45320   25.55790   22.46030   61.12360  108.51810
 6976.50000   82.17380    0.16740   12.38030    0.08390    0.03890    4.31840    2.56490   36.77940   35.11270   33.01480   60.39800  107.80270
 6977.00000   56.65850    0.10240   12.38440    0.05250    0.04320    4.48840    2.62520   45.04380   40.24060   37.47150   59.44690  106.60250
 6977.50000   40.80140    0.05460   12.40770    0.02910    0.04600    4.81950    2.64550   77.80290   66.29110   55.60800   58.82240  104.79770
 6978.00000   32.77960    0.03000   12.41400    0.02030    0.04850    4.94270    2.66450  141.57600  125.10460  113.00390   58.79440  104.11050
 6978.50000   31.37220    0.03010   12.42820    0.01550    0.05100    4.98880    2.68330  170.47210  123.49930  102.11570   58.91400  103.15050
 6979.00000   35.38080    0.04020   12.44050    0.01850    0.05300    4.84590    2.68280   78.66690   59.19230   48.45590   59.02710  102.97030
 6979.50000   39.57420    0.05730   12.44530    0.02550    0.05280    4.65930    2.66400   37.00880   29.68610   28.35040   59.10820  102.39730
 6980.00000   46.13350    0.07810   12.44600    0.03740    0.05250    4.55180    2.64070   24.66360   22.55040   21.28470   59.35590  104.05810
 6980.50000   52.25410    0.09890   12.44560    0.04770    0.05230    4.51940    2.62460   18.92360   18.05170   17.07260   59.69730  104.88890
 6981.00000   54.64860    0.11070   12.44870    0.05240    0.05210    4.56320    2.62120   17.68890   17.08090   15.67460   59.99500  105.08940
 6981.50000   50.45880    0.09460   12.45270    0.04570    0.05190    4.61710    2.63390   20.16880   18.95210   18.00770   60.19430  104.96020
 6982.00000   42.74910    0.07650   12.45360    0.03330    0.05180    4.73660    2.65210   31.75750   28.97530   25.40820   60.12180  105.48150
 6982.50000   36.27920    0.05840   12.44680    0.02010    0.05130    4.84070    2.67300   52.30310   50.17990   43.47090   60.00120  105.54050
 6983.00000   35.06730    0.04890   12.44630    0.01930    0.05000    4.87520    2.67990   72.42560   65.76940   56.90120   60.01760  105.27130
 6983.50000   41.54940    0.06250   12.44580    0.03010    0.04860    4.76050    2.66080   35.90970   31.71070   28.27640   60.37170  105.66450
 6984.00000   50.79470    0.08480   12.45790    0.04440    0.04730    4.54990    2.63050   21.27270   20.06730   19.44140   60.86000  105.52620
 6984.50000   58.93300    0.10830   12.47440    0.04890    0.04600    4.47070    2.62600   18.91470   19.13760   17.83600   61.27190  105.70180
 6985.00000   54.73800    0.12460   12.48490    0.05150    0.04760    4.44570    2.62420   19.30670   20.24120   18.35420   61.31940  106.05690
 6985.50000   46.57470    0.10300   12.47540    0.04240    0.04900    4.51600    2.62840   23.42880   24.50120   21.84330   61.01780  106.28810
 6986.00000   39.87820    0.08280   12.46350    0.03820    0.04900    4.63800    2.64250   28.32680   25.92640   26.22100   60.42790  106.41460
 6986.50000   39.18510    0.07040   12.46840    0.03620    0.04890    4.68310    2.64950   30.63390   26.88380   29.64050   60.14360  107.13160
 6987.00000   47.43970    0.07720   12.48300    0.04130    0.04850    4.64110    2.64440   30.28980   25.56310   28.52050   59.93100  106.39470
 6987.50000   55.49420    0.08760   12.48480    0.04600    0.04810    4.55760    2.63070   31.44030   27.12140   30.14250   59.96860  104.73840
