~Version ---------------------------------------------------
VERS.   2.0 : CWLS log ASCII Standard -VERSION 2.0
WRAP.    NO : One line per depth step
DLM . SPACE : Column Data Section Delimiter
~Well ------------------------------------------------------
STRT .F                  100.0 : START DEPTH
STOP .F                10254.0 : STOP DEPTH
STEP .F                    0.5 : STEP
NULL .                -9999.25 : NULL VALUE
COMP .                         : COMPANY
WELL .                         : WELL
FLD  .                         : FIELD
LOC  .                         : LOCATION
PROV .                         : PROVINCE
CNTY .                         : COUNTY
STAT .                         : STATE
CTRY .                         : COUNTRY
SRVC .                         : SERVICE COMPANY
DATE .                         : DATE
UWI  .                         : UNIQUE WELL ID
API  .                         : API NUMBER
SLAT .WGS84  2.730585624137504 : SURFACE LATITUDE
SLON .WGS84 6.9206742762050055 : SURFACE LONGITUDE
DATUM.F                    nan : DEPTH DATUM ELEV
~Curve Information -----------------------------------------
DEPT   .F     : 1 MEASURED DEPTH
SGRDD  .GAPI  : SPECTROSCOPY GAMMA RAY FROM DENSITY LOG
TNPH_LS.DEC   : THERMAL NEUTRON POROSITY [LIMESTONE]
CALD   .IN    : CALIPER FROM DENSITY LOG
DPHZ_LS.DEC   : HGRD STANDARD RESOLUTION DENSITY POROSITY
HDRA   .G/C3  : HRDD SPINE AND RIBS DENSITY CORRECTION
PEFZ   .B/E   : HRDD STANDARD RESOLUTION FORMATION PHOTOELECTRIC FACTOR
RHOZ   .G/C3  : HRDD STANDARD RESOLUTION FORMATION DENSITY
RXOZ   .OHMM  : INVADED FORMATION RESISTIVITY FILTERED AT 18 INCHES
RLA3   .OHMM  : APPARENT RESISTIVITY FROM COMPUTED FOCUSING MODE 3
RLA5   .OHMM  : APPARENT RESISTIVITY FROM COMPUTED FOCUSING MODE 5
DTCO   .US/F  : DELTA-T COMPRESSIONAL
DTSM   .US/F  : DELTA-T SHEAR
~Params ----------------------------------------------------
~Other -----------------------------------------------------
~ASCII -----------------------------------------------------
# ...
 4244.00000   25.46770    0.03390   12.51360   -0.04110    0.11120    4.03870    2.75760   12.66450   24.66470   47.36890   62.73940  110.07690
 4244.50000   38.16300    0.07040   12.47010    0.01350    0.17090    3.78710    2.67220    4.59610   14.86730   20.56290   63.88440  110.97760
 4245.00000   57.08850    0.09130   12.47240    0.08410    0.21980    3.56990    2.58660    3.40130   14.16530   15.91230   64.51050  111.23950
 4245.50000   68.82970    0.08880   12.76590    0.12940    0.23140    3.37830    2.46120    2.90670   14.67790   25.38470   64.87070  111.49530
 4246.00000   69.27380    0.08220   13.02870    0.16410    0.18210    3.26170    2.42700    4.69430   25.01020   45.06790   64.37450  111.42780
 4246.50000   64.97370    0.07440   13.18280    0.17420    0.13350    3.19890    2.41450    9.33050   39.01090   64.85030   63.47390  110.83890
 4247.00000   59.78700    0.06210   13.15440    0.17880    0.09620    3.13610    2.41000   15.32510   46.04710   78.79870   62.91010  109.29740
 4247.50000   58.25150    0.05370   13.33830    0.18970    0.07890    3.07330    2.39270   20.21220   56.78610  107.09860   62.74340  108.92460
 4248.00000   54.85920    0.04240   13.50800    0.19500    0.07020    3.03280    2.37530   23.47930   73.49390  161.01000   61.99460  107.12720
 4248.50000   52.22190    0.03120   13.74180    0.19960    0.06630    2.99300    2.37090   28.38710   84.07740  236.25140   61.34110  104.61160
 4249.00000   49.49680    0.02140   13.64170    0.18340    0.08810    2.95450    2.38160   32.65740   76.59940  262.04680   61.19640  104.97250
 4249.50000   49.85220    0.02180   13.64080    0.17580    0.10740    2.94670    2.40670   31.40210   72.49440  294.88890   62.58750  105.44680
 4250.00000   51.20640    0.02550   13.65270    0.17390    0.11280    2.94030    2.41160   28.69790   67.22580  271.03900   63.69750  106.10150
 4250.50000   51.75550    0.02940   13.60710    0.17680    0.11380    2.95010    2.40800   24.11430   63.08310  249.30020   62.72710  106.56990
 4251.00000   50.80010    0.03200   13.48630    0.18050    0.12680    2.95990    2.40480   15.17980   60.93620  242.73570   66.17370  110.74770
 4251.50000   48.04720    0.03440   13.38150    0.17870    0.15560    2.97160    2.40340    8.36400   58.78850  237.01740   67.71630  114.61510
 4252.00000   49.42110    0.03940   13.35560    0.18020    0.17040    2.98140    2.40270    5.77280   54.66080  210.05840   68.42800  117.09280
 4252.50000   51.76150    0.04500   13.31810    0.18410    0.15780    2.97600    2.39880    4.72870   47.47610  153.48100   70.06370  118.05250
 4253.00000   58.85490    0.05870   13.19190    0.18850    0.15230    2.97220    2.38720    3.16700   33.53210  107.63930   73.38200  126.94900
 4253.50000   63.08800    0.08800   13.03840    0.20340    0.17010    3.06750    2.37550    2.04030   16.55320   44.26580   73.66090  127.30070
 4254.00000   65.77530    0.13320   12.62630    0.22950    0.23140    3.19020    2.31090    1.36000   12.41600   30.15320   73.11620  129.56950
 4254.50000   60.38290    0.14900   12.63500    0.25520    0.29940    3.33430    2.26190    0.75990   14.08930   35.92660   72.04350  128.92560
 4255.00000   53.29030    0.11650   12.67080    0.28110    0.33900    3.43190    2.23100    0.54720   23.48250   69.43030   70.93600  134.45140
 4255.50000   51.61600    0.08820   13.79570    0.25630    0.33260    3.42960    2.24990    0.62970   21.40320   54.44130   69.62500  130.45940
 4256.00000   57.08560    0.08900   13.39660    0.21610    0.28810    3.37150    2.31850    1.22050   18.23370   43.72990   67.04140  126.13950
 4256.50000   60.74490    0.08720   14.55800    0.17900    0.22960    3.31330    2.41020    4.20100   22.37490   48.01980   63.30040  119.37870
 4257.00000   64.29540    0.08000   12.87370    0.16870    0.16540    3.23810    2.42200    8.71870   29.14080   57.50000   63.97340  114.62080
 4257.50000   61.61000    0.07230   12.84700    0.16730    0.13590    3.11690    2.42290   10.18130   36.49470   69.28470   64.46200  119.24950
 4258.00000   63.95200    0.06360   13.09420    0.16900    0.11730    3.05460    2.42140    9.47720   37.13420   76.32570   66.24410  123.42660
 4258.50000   64.95050    0.06750   13.44070    0.16390    0.12750    2.99890    2.42830    7.36660   33.23930   77.37830   66.40740  127.56180
 4259.00000   71.51630    0.08100   13.21670    0.16860    0.14540    2.96960    2.42890    5.47540   29.13920   66.21620   71.90860  131.57280
 4259.50000   72.89880    0.10270   12.88460    0.18930    0.17620    2.97480    2.39410    4.80240   26.83090   56.24220   75.46770  133.41330
 4260.00000   71.97490    0.14800   12.98580    0.20760    0.22510    3.02680    2.34080    3.35820   20.41310   39.54670   79.96440  135.39990
 4260.50000   66.21330    0.19330   13.28430    0.24680    0.27390    3.09000    2.28630    1.08980   13.39360   23.36930   82.25300  137.43240
 4261.00000   57.49920    0.20940   14.26620    0.29950    0.29700    3.17910    2.23190    0.41620   12.94500   22.88870   83.61340  144.03550
 4261.50000   49.93200    0.16300   14.28000    0.30020    0.28080    3.27140    2.04500    0.27410   18.23230   35.92530   80.81770  143.40170
 4262.00000   45.06980    0.10550   15.42770    0.30000    0.28190    3.39620    1.96760    0.28080   28.20850   53.16260   79.83570  143.10100
 4262.50000   39.32260    0.06340   14.89600    0.29980    0.30710    3.55440    1.97810    0.32970   40.09330   72.46900   78.56570  141.29500
 4263.00000   40.37890    0.04370   14.67530    0.29960    0.33210    3.60000    2.05340    0.31380   42.60050   78.99270   83.39170  129.62250
 4263.50000   45.58370    0.07370   13.86510    0.29940    0.32420    3.57150    2.08590    0.33900   29.84630   59.99690   83.21370  123.38020
 4264.00000   50.55180    0.10150   12.89980    0.28300    0.29770    3.44890    2.23480    0.43060   20.14440   38.79340   80.81040  118.20130
 4264.50000   53.78820    0.11620   12.57790    0.21970    0.27120    3.32200    2.30580    1.17950   25.47590   48.64630   60.35260  120.57830
 4265.00000   52.30750    0.07040   12.82260    0.18370    0.24470    3.19510    2.38380    4.11900   42.64320   97.06800   62.55930  122.24550
 4265.50000   51.55100    0.04280   13.06070    0.17990    0.21210    3.06820    2.40160    7.09800   53.24030  165.53400   64.14380  118.77180
 4266.00000   49.32270    0.03440   13.30970    0.18250    0.18290    3.01240    2.39890    6.84030   53.66990  183.37100   64.25270  115.97170
 4266.50000   51.33430    0.03410   13.50480    0.18150    0.18100    2.96700    2.39630    6.84540   49.46160  165.19400   64.76960  114.95910
 4267.00000   53.48610    0.04940   13.17310    0.20000    0.19410    2.95680    2.38730    6.90100   42.55720  142.68140   65.96450  120.10760
 4267.50000   55.27120    0.08580   13.00840    0.24200    0.25950    2.97420    2.31600    2.68870   28.63550   88.47380   66.82450  122.20320
 4268.00000   51.34720    0.15040   13.14110    0.29930    0.32000    3.04010    2.21420    0.79200   14.40530   30.00070   67.30600  124.19130
 4268.50000   45.05690    0.21040   14.36090    0.30030    0.33720    3.20360    2.11440    0.38050   14.93730   38.95070   67.64330  123.96800
 4269.00000   33.71650    0.14460   15.93240    0.30030    0.30170    3.49300    2.02450    0.36820   21.16940   71.14910   68.23550  123.60760
 4269.50000   28.68380    0.08140   16.48570    0.30020    0.25120    3.89830    2.03040    0.62180   31.05350  134.59020   70.27190  123.67310
 4270.00000   24.65320    0.04980   16.07740    0.30020    0.21170    4.27620    2.05170    1.58270   49.89030  226.25130   71.74290  120.95360
 4270.50000   23.51810    0.03130   16.96870    0.30020    0.18150    4.49320    2.05930    2.91300   67.83050  424.52540   70.72610  119.18900
 4271.00000   23.91700    0.01930   17.24180    0.30010    0.16030    4.57070    2.05520    4.24140   78.25670  727.33610   73.52540  114.48610
 4271.50000   24.98000    0.01970   17.60550    0.30010    0.14450    4.58870    2.04770    5.72950   85.23930  936.39510   74.98580  114.42320
