~Version ---------------------------------------------------
VERS.   2.0 : CWLS log ASCII Standard -VERSION 2.0
WRAP.    NO : One line per depth step
DLM . SPACE : Column Data Section Delimiter
~Well ------------------------------------------------------
STRT .F                  100.0 : START DEPTH
STOP .F                10254.0 : STOP DEPTH
STEP .F                    0.5 : STEP
NULL .                -9999.25 : NULL VALUE
COMP .                         : COMPANY
WELL .                         : WELL
FLD  .                         : FIELD
LOC  .                         : LOCATION
PROV .                         : PROVINCE
CNTY .                         : COUNTY
STAT .                         : STATE
CTRY .                         : COUNTRY
SRVC .                         : SERVICE COMPANY
DATE .                         : DATE
UWI  .                         : UNIQUE WELL ID
API  .                         : API NUMBER
SLAT .WGS84  2.730585624137504 : SURFACE LATITUDE
SLON .WGS84 6.9206742762050055 : SURFACE LONGITUDE
DATUM.F                    nan : DEPTH DATUM ELEV
~Curve Information -----------------------------------------
DEPT   .F     : 1 MEASURED DEPTH
SGRDD  .GAPI  : SPECTROSCOPY GAMMA RAY FROM DENSITY LOG
TNPH_LS.DEC   : THERMAL NEUTRON POROSITY [LIMESTONE]
CALD   .IN    : CALIPER FROM DENSITY LOG
DPHZ_LS.DEC   : HGRD STANDARD RESOLUTION DENSITY POROSITY
HDRA   .G/C3  : HRDD SPINE AND RIBS DENSITY CORRECTION
PEFZ   .B/E   : HRDD STANDARD RESOLUTION FORMATION PHOTOELECTRIC FACTOR
RHOZ   .G/C3  : HRDD STANDARD RESOLUTION FORMATION DENSITY
RXOZ   .OHMM  : INVADED FORMATION RESISTIVITY FILTERED AT 18 INCHES
RLA3   .OHMM  : APPARENT RESISTIVITY FROM COMPUTED FOCUSING MODE 3
RLA5   .OHMM  : APPARENT RESISTIVITY FROM COMPUTED FOCUSING MODE 5
DTCO   .US/F  : DELTA-T COMPRESSIONAL
DTSM   .US/F  : DELTA-T SHEAR
~Params ----------------------------------------------------
~Other -----------------------------------------------------
~ASCII -----------------------------------------------------
# ...
 5868.00000   39.10670    0.13900   12.27670    0.05510    0.06430    3.01500    2.61620   15.08350   13.67260   15.60420   59.87930  103.25390
 5868.50000   38.63310    0.14320   12.28140    0.05740    0.05810    2.95620    2.61250   15.16760   13.70720   16.76250   59.91180  103.49340
 5869.00000   38.58400    0.14240   12.27940    0.05800    0.05140    2.92920    2.61150   15.67510   14.02280   16.35560   60.29890  103.56430
 5869.50000   39.58360    0.14470   12.27200    0.05370    0.05140    2.90910    2.61930   15.27730   13.87840   17.46560   60.49090  103.10910
 5870.00000   40.34270    0.14020   12.26460    0.06010    0.05190    2.91710    2.61110   15.46220   14.13090   17.04500   60.56820  103.83970
 5870.50000   40.50110    0.13860   12.25720    0.06930    0.05190    2.92750    2.59030   15.08070   13.73030   16.62460   60.94430  104.43180
 5871.00000   40.62550    0.12800   12.26170    0.07940    0.05110    2.93650    2.57760   14.82970   13.81690   16.41930   61.27340  104.63040
 5871.50000   40.11140    0.13230   12.28060    0.08560    0.04510    2.94930    2.56410   14.41360   13.40480   15.57220   61.49210  104.76700
 5872.00000   38.98140    0.13810   12.28340    0.08650    0.03910    2.96210    2.56340   14.08700   13.25060   15.99320   61.64900  104.90350
 5872.50000   38.24710    0.14270   12.28410    0.09100    0.03600    2.96500    2.55300   13.56480   12.61580   14.39550   61.72210  105.04010
 5873.00000   41.41370    0.14420   12.28960    0.09790    0.03720    2.96460    2.54510   11.99280   11.23170   12.53880   61.70390  105.14730
 5873.50000   42.74560    0.14370   12.29510    0.10260    0.04030    2.96420    2.53400   11.35190   11.17070   12.15950   61.58740  105.24350
 5874.00000   43.02170    0.14710   12.30060    0.09760    0.04350    2.95820    2.54280   11.21130   10.92110   11.89640   61.40630  105.17220
 5874.50000   41.00930    0.14950   12.30610    0.08680    0.04510    2.95770    2.56330   11.26320   10.62170   11.21910   61.08470  105.01610
 5875.00000   38.87730    0.14780   12.31160    0.07920    0.04590    2.99150    2.57110   11.84020   10.60700   11.73540   60.67850  104.86000
 5875.50000   37.48900    0.14360   12.31360    0.07310    0.04680    3.01080    2.58510   12.27430   11.81510   13.67970   60.37280  104.70400
 5876.00000   36.09280    0.13180   12.31360    0.06980    0.04460    3.02420    2.58910   12.46070   11.85940   15.25000   60.17990  104.41450
 5876.50000   35.59060    0.12170   12.31350    0.06470    0.04150    3.02530    2.59980   14.17410   12.81390   15.27170   59.99670  103.79240
 5877.00000   36.63190    0.11970   12.31350    0.05920    0.03830    3.01270    2.60520   16.28730   14.77890   16.69700   59.92510  103.42710
 5877.50000   37.99320    0.11720   12.31350    0.04920    0.03950    2.97530    2.62590   18.27880   17.15060   18.96580   59.99900  103.23860
 5878.00000   39.36530    0.11470   12.31250    0.03790    0.04290    2.93780    2.64420   19.72560   18.00070   20.82970   60.17770  103.14590
 5878.50000   40.89470    0.11250   12.31140    0.03350    0.04590    2.92910    2.65180   20.22970   18.47590   21.97200   60.37450  103.05320
 5879.00000   42.32360    0.11190   12.31020    0.03900    0.04750    2.94170    2.64710   21.56770   19.37930   22.65020   60.77000  103.19020
 5879.50000   45.16230    0.11130   12.30910    0.04240    0.04920    2.94780    2.63860   23.24160   20.71250   24.90620   61.08640  103.15690
 5880.00000   48.19450    0.11090   12.30800    0.04670    0.05080    2.93360    2.63090   22.07050   19.80410   25.47110   61.37560  103.93100
 5880.50000   51.71650    0.11280   12.30680    0.05040    0.05240    2.88340    2.62170   20.81480   18.96730   23.44170   61.63680  104.46190
 5881.00000   51.59960    0.11470   12.30710    0.06260    0.05410    2.85410    2.60610   20.50030   18.83420   21.56510   61.99240  104.93640
 5881.50000   51.80520    0.11660   12.30830    0.06600    0.05570    2.80950    2.59950   20.21560   18.70490   21.73440   62.29270  105.41840
 5882.00000   52.22610    0.11310   12.30960    0.06510    0.05740    2.78720    2.59800   20.00130   18.39700   21.43100   62.49330  105.79700
 5882.50000   56.12160    0.10830   12.31080    0.06520    0.05800    2.78830    2.59770   19.80010   18.26300   20.52380   62.61650  106.35060
 5883.00000   56.29780    0.10470   12.31200    0.07020    0.05860    2.78220    2.59190   20.33370   18.97010   21.00230   62.79920  106.91520
 5883.50000   56.32890    0.10280   12.31320    0.07190    0.05980    2.77610    2.58920   20.90900   19.25600   21.54940   63.10490  107.33680
 5884.00000   56.66170    0.10370   12.31360    0.06820    0.06080    2.76990    2.59500   20.90900   19.41860   22.38990   63.45790  107.80520
 5884.50000   60.71870    0.10760   12.31270    0.06200    0.05900    2.76790    2.60140   21.61320   19.84280   23.24230   63.91490  108.42130
 5885.00000   64.37330    0.11140   12.31190    0.05910    0.05380    2.76810    2.61080   22.73490   21.00420   24.56950   64.43780  108.90590
 5885.50000   63.93590    0.11010   12.31110    0.06360    0.04850    2.76830    2.60370   23.20190   21.67940   25.02290   64.49080  109.19060
 5886.00000   61.94710    0.10780   12.31020    0.06660    0.04900    2.76840    2.59630   22.85940   21.27260   24.78510   64.65300  110.01870
 5886.50000   61.93190    0.10640   12.30940    0.07060    0.05020    2.75770    2.59270   22.60580   20.63030   23.74890   64.78390  110.84190
 5887.00000   65.08300    0.11070   12.30860    0.06980    0.05140    2.70700    2.58990   21.32960   19.54960   22.72320   65.17250  111.56180
 5887.50000   66.87250    0.11510   12.30770    0.07340    0.05270    2.69960    2.58410   19.83350   18.63560   21.64790   65.33170  111.82630
 5888.00000   68.75720    0.11960   12.30690    0.08450    0.05380    2.69900    2.56710   17.73630   16.15420   19.34420   65.43810  112.10910
 5888.50000   71.86950    0.12620   12.30830    0.09460    0.05490    2.70910    2.54540   14.44750   12.88780   16.12920   65.57900  112.45610
 5889.00000   71.22500    0.13430   12.31370    0.09680    0.05640    2.70910    2.54850   13.67780   12.75740   14.74380   65.79390  113.01730
 5889.50000   69.13630    0.13310   12.31920    0.08840    0.05900    2.70910    2.56160   16.28390   14.98110   17.25300   66.19110  113.24710
 5890.00000   64.16420    0.12390   12.32460    0.08870    0.06160    2.70910    2.56020   16.44830   15.45780   17.63770   66.22870  113.30320
 5890.50000   60.48090    0.11980   12.33010    0.09520    0.06410    2.70300    2.55300   15.31290   14.62060   16.71470   66.24870  113.72950
 5891.00000   57.67250    0.12660   12.33550    0.09980    0.06590    2.66840    2.54440   14.79160   13.95480   15.67740   66.42770  113.94930
 5891.50000   56.97720    0.12890   12.37810    0.10060    0.06210    2.63140    2.53800   14.44320   13.90680   14.98320   66.78010  114.08860
 5892.00000   60.78900    0.13060   12.41520    0.10200    0.05780    2.61450    2.53590   13.75380   13.15750   14.45390   67.12830  114.22800
 5892.50000   63.01690    0.12170   12.42800    0.10860    0.05250    2.60540    2.52470   13.35370   12.79090   14.12320   67.17640  114.35780
 5893.00000   63.80420    0.12510   12.39450    0.11210    0.05180    2.57780    2.51810   13.16970   12.48180   13.89570   67.08510  114.90310
 5893.50000   63.39520    0.13350   12.34390    0.10720    0.05200    2.56660    2.52770   12.98820   12.37570   13.60370   66.76790  115.27180
 5894.00000   62.33760    0.14130   12.32590    0.10220    0.05210    2.55970    2.53510   12.95350   12.28270   13.60700   66.37320  114.61940
 5894.50000   61.84290    0.12940   12.33220    0.10320    0.05080    2.56690    2.53320   13.13510   12.36940   13.67060   65.84050  114.35020
 5895.00000   63.44220    0.13290   12.34640    0.10710    0.04770    2.61670    2.52550   13.36290   12.51780   13.67060   65.24740  113.41230
 5895.50000   63.32030    0.13750   12.36170    0.11220    0.04470    2.66650    2.51930   13.38920   12.68090   13.81350   64.88110  112.76060
