~Version ---------------------------------------------------
VERS.   2.0 : CWLS log ASCII Standard -VERSION 2.0
WRAP.    NO : One line per depth step
DLM . SPACE : Column Data Section Delimiter
~Well ------------------------------------------------------
STRT .F                  100.0 : START DEPTH
STOP .F                10254.0 : STOP DEPTH
STEP .F                    0.5 : STEP
NULL .                -9999.25 : NULL VALUE
COMP .                         : COMPANY
WELL .                         : WELL
FLD  .                         : FIELD
LOC  .                         : LOCATION
PROV .                         : PROVINCE
CNTY .                         : COUNTY
STAT .                         : STATE
CTRY .                         : COUNTRY
SRVC .                         : SERVICE COMPANY
DATE .                         : DATE
UWI  .                         : UNIQUE WELL ID
API  .                         : API NUMBER
SLAT .WGS84  2.730585624137504 : SURFACE LATITUDE
SLON .WGS84 6.9206742762050055 : SURFACE LONGITUDE
DATUM.F                    nan : DEPTH DATUM ELEV
~Curve Information -----------------------------------------
DEPT   .F     : 1 MEASURED DEPTH
SGRDD  .GAPI  : SPECTROSCOPY GAMMA RAY FROM DENSITY LOG
TNPH_LS.DEC   : THERMAL NEUTRON POROSITY [LIMESTONE]
CALD   .IN    : CALIPER FROM DENSITY LOG
DPHZ_LS.DEC   : HGRD STANDARD RESOLUTION DENSITY POROSITY
HDRA   .G/C3  : HRDD SPINE AND RIBS DENSITY CORRECTION
PEFZ   .B/E   : HRDD STANDARD RESOLUTION FORMATION PHOTOELECTRIC FACTOR
RHOZ   .G/C3  : HRDD STANDARD RESOLUTION FORMATION DENSITY
RXOZ   .OHMM  : INVADED FORMATION RESISTIVITY FILTERED AT 18 INCHES
RLA3   .OHMM  : APPARENT RESISTIVITY FROM COMPUTED FOCUSING MODE 3
RLA5   .OHMM  : APPARENT RESISTIVITY FROM COMPUTED FOCUSING MODE 5
DTCO   .US/F  : DELTA-T COMPRESSIONAL
DTSM   .US/F  : DELTA-T SHEAR
~Params ----------------------------------------------------
~Other -----------------------------------------------------
~ASCII -----------------------------------------------------
# ...
 3180.00000   30.70060    0.07360   20.89730   -9999.25    0.12240    3.74910    1.84880    0.25690   19.67380  134.10300   70.12070  135.12560
 3180.50000   30.10230    0.10060   20.10490   -9999.25    0.18070    3.70320    1.88710    0.26140   15.49970   67.23830   70.10790  133.24050
 3181.00000   30.10230    0.11480   16.53000   -9999.25    0.20930    3.79080    1.92740    0.33220   11.91100   76.80540   70.67660  132.95230
 3181.50000   29.89240    0.08880   19.14230   -9999.25    0.22640    3.91840    1.91750    0.34760   12.21560  128.21410   70.46840  132.99780
 3182.00000   29.85210    0.08110   21.55020   -9999.25    0.24710    4.02870    1.93300    0.36050   11.60510  139.27390   71.47040  132.27150
 3182.50000   31.55540    0.08010   21.78010   -9999.25    0.25600    4.11400    1.95090    0.40510   12.14030  149.91840   73.29360  130.92580
 3183.00000   35.00870    0.08520   21.23050   -9999.25    0.24760    4.15500    1.96230    0.48230   15.80680  148.38980   77.17510  130.62510
 3183.50000   36.26580    0.10760   21.77340   -9999.25    0.22340    4.20840    1.96960    0.65440   23.60480  124.64650   79.21640  132.26330
 3184.00000   33.84230    0.12480   21.68500   -9999.25    0.17590    4.28150    1.98270    0.87830   26.08900  151.85400   80.60870  133.69560
 3184.50000   30.44760    0.14560   21.81100   -9999.25    0.14720    4.36830    2.00900    1.25270   26.84650  168.63600   82.09680  127.48450
 3185.00000   29.38830    0.13490   22.09210   -9999.25    0.13070    4.52840    2.03520    1.83100   26.18480  203.55780   80.92750  127.85010
 3185.50000   29.91840    0.09650   21.45380   -9999.25    0.14780    4.66900    2.00020    1.52790   25.09080  417.48280   66.19430  123.65180
 3186.00000   28.17020    0.06240   22.31650   -9999.25    0.19980    4.72810    1.99680    0.87680   22.52520  683.76120   66.35790  121.67560
 3186.50000   24.14150    0.04790   21.30720    0.29970    0.21460    4.78310    2.00270    0.45520   20.40630 1216.88200   67.11740  119.64160
 3187.00000   18.53400    0.04080   20.95970    0.29970    0.22190    4.74170    2.22120    0.41120   17.51740 1608.60010   68.05970  104.24320
 3187.50000   18.25870    0.03610   20.27220    0.25460    0.27940    4.63630    2.34680    0.57140   21.01100  662.71090   68.96200  104.60710
 3188.00000   20.55470    0.03980   17.19630    0.21120    0.28800    4.45470    2.34740    1.04660   26.15650  224.07210   70.94560  125.80040
 3188.50000   24.26210    0.04500   14.12030    0.27190    0.28820    4.22940    2.27420    0.55620   14.99490   50.68470   78.05490  126.05260
 3189.00000   25.87350    0.04770   16.43660    0.30030    0.30400    3.85270    2.08240    0.26100   11.75440   43.10240   76.72080  126.54780
 3189.50000   26.89350    0.04390   18.86750    0.30050    0.27140    3.71550    1.89060    0.21540   11.42850   53.21620   74.17510  127.00840
 3190.00000   27.30270    0.05210   21.28970    0.30060    0.22570    3.76200    1.84260    0.22360   14.76990   87.55640   72.18510  130.46430
 3190.50000   29.37030    0.06950   20.93090    0.30080    0.17880    3.87590    1.85150    0.24750   22.18510   95.41840   71.01430  133.44630
 3191.00000   30.88170    0.10380   20.52070   -9999.25    0.16990    3.99520    1.89430    0.29050   24.26870   71.84640   71.09910  134.29520
 3191.50000   32.95560    0.12080   21.12600   -9999.25    0.18620    4.10710    1.93720    0.33130   22.45790   60.21580   76.31200  132.89420
 3192.00000   31.59540    0.13690   20.97380   -9999.25    0.19810    4.21580    2.00550    0.46960   21.60890   57.11480   78.65950  132.11200
 3192.50000   30.81050    0.15420   19.70450   -9999.25    0.20230    4.35650    2.01780    0.71460   24.32750   84.24600   80.04580  131.44360
 3193.00000   27.74760    0.16930   22.12710   -9999.25    0.20000    4.50940    2.03380    1.28030   27.71840  155.10470   77.37310  133.08630
 3193.50000   28.19380    0.16550   22.99480   -9999.25    0.16130    4.58520    2.05060    1.71320   27.01510  196.12910   80.24190  135.32550
 3194.00000   28.46390    0.16590   22.84670   -9999.25    0.13900    4.66110    2.05130    4.34240   27.54710  260.25380   79.88120  132.76250
 3194.50000   31.14080    0.15850   22.64950   -9999.25    0.14790    4.73720    2.01190    2.54160   27.82030  416.67640   79.40060  132.40950
 3195.00000   29.37650    0.15070   22.44800   -9999.25    0.20410    4.81250    1.98100    0.64670   25.83930 1178.89970   80.75930  134.13160
 3195.50000   28.52300    0.09590   21.62380   -9999.25    0.26070    4.87820    1.94570    0.37900   23.43650 1941.12290   79.65650  137.36840
 3196.00000   25.14300    0.05370   21.25860    0.30080    0.32970    4.98160    2.05540    0.30160   19.15720 8619.47070   78.13020  131.43290
 3196.50000   22.51030    0.02470   20.48860    0.29830    0.39820    5.10050    2.27890    0.39300   16.15180 1523.58040   76.74890  121.89850
 3197.00000   20.72340    0.02100   15.97640    0.09040    0.43880    5.22170    2.65920    0.85980   23.06120  222.69470   74.90170  120.76440
 3197.50000   22.81080    0.02760   13.80060   -0.01300    0.42200    5.20720    2.74220    8.62450   31.38060   82.36890   66.78070  112.91600
 3198.00000   26.44200    0.05860   13.98990    0.01380    0.36760    5.11680    2.59900    6.50710   12.93360   12.29720   64.26830  111.64500
 3198.50000   26.82930    0.08400   14.07300    0.08450    0.34450    5.03750    2.54400    1.17990   15.39230   12.08640   63.07610  108.22450
 3199.00000   22.88380    0.03890   14.61460    0.06340    0.36870    5.11350    2.60190    1.20720   27.48180   30.95830   53.71570  102.49880
 3199.50000   18.56840    0.01410   13.66230   -0.00690    0.39160    5.35670    2.67790    2.57840   61.76630  123.26320   50.53980   99.03850
 3200.00000   15.78630   -0.00490   13.54850   -0.10020    0.35330    5.51510    3.03050  110.29010  231.76450  366.71880   50.56090   96.78470
 3200.50000   15.02760   -0.01690   13.56680   -0.10030    0.30090    5.56760    3.05310  158.23340  678.44870 1105.33280   50.47140   92.47840
 3201.00000   14.66790   -0.02730   13.50020   -0.10030    0.24370    5.53270    3.03040  154.31290  833.44510 1345.67920   50.12710   84.55450
 3201.50000   14.19530   -0.03150   13.48630   -0.10030    0.18530    5.50220    2.99780  186.00080 1261.39140 1674.47200   49.24320   80.13380
 3202.00000   12.85170   -0.03080   13.48200   -0.10040    0.15750    5.47090    2.96520  226.56280 1830.88160 2712.64230   48.16480   98.22670
 3202.50000   11.73380   -0.03030   13.47770   -0.10060    0.13340    5.41460    2.89750  199.21680  861.86660 1464.41910   48.73490  119.01640
 3203.00000   13.36470   -0.02910   13.48130   -0.09120    0.11490    5.26950    2.83990  171.71600  390.33910  750.60680   46.36980  123.28530
 3203.50000   15.24520   -0.02500   13.51200   -0.05650    0.12020    5.10340    2.79080  123.85390  240.05710  384.13790   45.45290  126.36060
 3204.00000   16.28470   -0.01220   13.50470   -0.04490    0.13760    4.98150    2.78940   90.29180  149.26580  216.02420   52.89120  124.71430
 3204.50000   17.30380    0.00490   13.48920   -0.05550    0.16490    4.86350    2.81050   60.61580   79.88870  105.65810   55.87870  127.33820
 3205.00000   18.71440    0.04160   13.48920   -0.05310    0.19240    4.77540    2.81370   21.25090   28.11150   42.84310   58.85670  128.79520
 3205.50000   24.81370    0.09540   13.46510    0.02260    0.22260    4.66340    2.73170    8.99090   24.71190   27.47420   61.54650  120.26400
 3206.00000   29.80320    0.15720   13.43960    0.13350    0.24220    4.52270    2.37460    0.67640   11.69970   21.31430   67.75920  120.95170
 3206.50000   36.73260    0.23080   13.86410    0.23100    0.23800    4.37710    2.32580    0.40040    7.87780    6.97420   67.45610  121.95350
 3207.00000   36.73570    0.25840   14.82400    0.20190    0.23740    4.29350    2.39120    0.38990   11.31460   13.95850   68.90180  120.46030
 3207.50000   35.93130    0.13480   15.02610    0.18060    0.44090    4.26490    2.40870    0.78680   19.00330   49.94940   69.45840  122.82650
