~Version ---------------------------------------------------
VERS.   2.0 : CWLS log ASCII Standard -VERSION 2.0
WRAP.    NO : One line per depth step
DLM . SPACE : Column Data Section Delimiter
~Well ------------------------------------------------------
STRT .F                  100.0 : START DEPTH
STOP .F                10254.0 : STOP DEPTH
STEP .F                    0.5 : STEP
NULL .                -9999.25 : NULL VALUE
COMP .                         : COMPANY
WELL .                         : WELL
FLD  .                         : FIELD
LOC  .                         : LOCATION
PROV .                         : PROVINCE
CNTY .                         : COUNTY
STAT .                         : STATE
CTRY .                         : COUNTRY
SRVC .                         : SERVICE COMPANY
DATE .                         : DATE
UWI  .                         : UNIQUE WELL ID
API  .                         : API NUMBER
SLAT .WGS84  2.730585624137504 : SURFACE LATITUDE
SLON .WGS84 6.9206742762050055 : SURFACE LONGITUDE
DATUM.F                    nan : DEPTH DATUM ELEV
~Curve Information -----------------------------------------
DEPT   .F     : 1 MEASURED DEPTH
SGRDD  .GAPI  : SPECTROSCOPY GAMMA RAY FROM DENSITY LOG
TNPH_LS.DEC   : THERMAL NEUTRON POROSITY [LIMESTONE]
CALD   .IN    : CALIPER FROM DENSITY LOG
DPHZ_LS.DEC   : HGRD STANDARD RESOLUTION DENSITY POROSITY
HDRA   .G/C3  : HRDD SPINE AND RIBS DENSITY CORRECTION
PEFZ   .B/E   : HRDD STANDARD RESOLUTION FORMATION PHOTOELECTRIC FACTOR
RHOZ   .G/C3  : HRDD STANDARD RESOLUTION FORMATION DENSITY
RXOZ   .OHMM  : INVADED FORMATION RESISTIVITY FILTERED AT 18 INCHES
RLA3   .OHMM  : APPARENT RESISTIVITY FROM COMPUTED FOCUSING MODE 3
RLA5   .OHMM  : APPARENT RESISTIVITY FROM COMPUTED FOCUSING MODE 5
DTCO   .US/F  : DELTA-T COMPRESSIONAL
DTSM   .US/F  : DELTA-T SHEAR
~Params ----------------------------------------------------
~Other -----------------------------------------------------
~ASCII -----------------------------------------------------
# ...
 6428.00000   77.25670    0.14860   12.27830    0.17040    0.05630    2.42970    2.41960    7.09080    5.85690    5.52080   73.97730  129.65610
 6428.50000   77.39340    0.15440   12.28440    0.17200    0.06030    2.45420    2.41670    6.77900    5.57670    5.22710   73.93410  129.81490
 6429.00000   78.68350    0.16040   12.29050    0.17120    0.06370    2.46870    2.41680    6.58810    5.49970    5.12190   73.85660  129.59670
 6429.50000   77.50070    0.16480   12.29670    0.16810    0.06100    2.43700    2.42130    6.54470    5.52150    5.12190   73.81120  128.91900
 6430.00000   78.13830    0.15990   12.31840    0.16080    0.05830    2.41760    2.43120    7.00640    5.55050    5.40260   73.90120  128.61630
 6430.50000   79.39720    0.14860   12.34490    0.14720    0.05660    2.42640    2.46230    7.87950    6.62340    6.07770   73.98640  128.29890
 6431.00000   85.14120    0.14390   12.36610    0.13120    0.05400    2.49840    2.48300    9.60480    6.67150    6.58520   73.98310  128.03310
 6431.50000   87.19960    0.14400   12.33370    0.12960    0.05120    2.56280    2.49060    9.66610    7.23080    7.10580   73.86410  127.86710
 6432.00000   90.09730    0.14900   12.30180    0.13910    0.04840    2.57050    2.47340    8.92300    6.32110    5.98610   73.87160  127.70120
 6432.50000   91.51850    0.15400   12.28100    0.14960    0.04930    2.55570    2.45400    7.77870    5.22210    5.41820   73.97710  127.68040
 6433.00000   90.23610    0.15880   12.27640    0.15250    0.05150    2.50720    2.44950    7.14980    5.06190    5.26710   73.94770  128.25040
 6433.50000   88.72790    0.15940   12.27640    0.15310    0.05140    2.50460    2.44820    6.75270    4.74910    5.00630   73.99620  129.36590
 6434.00000   85.01260    0.15840   12.27640    0.15260    0.05140    2.53130    2.44900    6.87430    4.72000    4.82310   74.29450  129.59030
 6434.50000   82.35670    0.15740   12.27920    0.15010    0.05040    2.52800    2.45350    7.16660    4.77960    4.91640   74.72550  130.24950
 6435.00000   77.96740    0.15570   12.28230    0.14880    0.04670    2.56100    2.45730    7.91260    4.91920    5.15230   75.11440  130.97290
 6435.50000   77.56580    0.15400   12.26820    0.15350    0.04340    2.56770    2.44940    7.39450    5.04320    5.47220   75.36810  131.20580
 6436.00000   80.62250    0.15270   12.23860    0.16110    0.04490    2.55590    2.43680    6.78040    4.64420    4.81790   75.57050  131.45300
 6436.50000   83.75440    0.16040   12.23810    0.16660    0.04820    2.52760    2.42510    6.14050    4.33000    4.48040   75.68210  131.71370
 6437.00000   89.05200    0.16500   12.22530    0.16440    0.05150    2.49040    2.42740    6.11220    4.28880    4.47340   75.80900  132.17290
 6437.50000   90.68950    0.16430   12.21020    0.16510    0.05270    2.53360    2.42810    6.08030    4.27430    4.68610   76.02400  133.56870
 6438.00000   87.29860    0.16680   12.14800    0.16700    0.05140    2.55560    2.42590    5.73650    4.25140    4.28380   76.05270  133.74620
 6438.50000   82.51360    0.16860   12.03080    0.17160    0.05040    2.56650    2.41540    5.38670    4.12640    3.98130   76.08190  133.82550
 6439.00000   77.85780    0.16870   12.00320    0.17650    0.04940    2.56600    2.40900    5.22450    4.02520    4.03760   75.97330  133.87600
 6439.50000   77.11580    0.16590   11.99300    0.18120    0.04830    2.55910    2.40290    5.19760    3.93440    4.03230   75.93240  134.09560
 6440.00000   78.19270    0.16320   11.97890    0.18290    0.04740    2.55230    2.39910    5.13930    3.86530    3.94370   75.93430  134.37210
 6440.50000   78.62830    0.16500   11.96200    0.18400    0.04730    2.53850    2.39640    5.00860    3.80820    3.91970   75.93720  134.64910
 6441.00000   81.31760    0.16670   11.94510    0.18250    0.04720    2.49360    2.39800    4.96710    3.75840    3.84280   75.97910  135.24740
 6441.50000   83.73760    0.16710   11.92840    0.17980    0.04720    2.46590    2.40100    4.96990    3.74890    3.88100   76.02170  136.89010
 6442.00000   85.52190    0.16080   11.92840    0.17630    0.04720    2.42710    2.40650    5.06410    3.74890    3.93930   76.09100  137.05170
 6442.50000   82.34880    0.15910   11.92840    0.17530    0.04740    2.40830    2.41050    5.08930    3.74890    3.84280   76.17060  137.09380
 6443.00000   77.08670    0.16300   11.92840    0.17580    0.04790    2.41350    2.40860    5.01800    3.71350    3.84280   76.19530  137.11140
 6443.50000   75.46350    0.16840   11.92840    0.17920    0.04940    2.42250    2.40580    4.87440    3.65240    3.74730   75.73030  137.33370
 6444.00000   76.10400    0.17380   11.92840    0.18210    0.05090    2.42770    2.40000    4.74600    3.58100    3.70770   75.83880  137.55240
 6444.50000   77.06840    0.17640   11.92830    0.18440    0.05230    2.42850    2.39550    4.61860    3.51220    3.63750   76.43440  137.57880
 6445.00000   78.05520    0.17600   11.92830    0.18390    0.05390    2.42800    2.39500    4.57220    3.58050    3.70480   76.17700  137.60320
 6445.50000   79.50250    0.16570   11.92830    0.18470    0.05540    2.42750    2.39470    4.65280    3.65630    3.74730   76.15710  137.62220
 6446.00000   81.45180    0.16350   11.93300    0.18510    0.05700    2.42700    2.39430    4.67680    3.62770    3.72360   76.21300  137.75850
 6446.50000   83.40100    0.16210   11.94270    0.18450    0.05800    2.45410    2.39400    4.59990    3.54040    3.67540   76.24280  137.95560
 6447.00000   84.78240    0.17150   11.95250    0.18450    0.05770    2.42960    2.39380    4.52160    3.45900    3.52830   76.36720  138.12170
 6447.50000   81.91710    0.17640   11.96220    0.18860    0.05750    2.42810    2.39170    4.59790    3.45640    3.54840   76.46250  138.40960
 6448.00000   79.19020    0.17640   11.97770    0.19350    0.05620    2.42900    2.38120    4.56680    3.44530    3.51400   76.55600  138.81930
 6448.50000   77.78320    0.17510   11.99800    0.19560    0.05470    2.45800    2.37600    4.58010    3.39320    3.46470   77.19490  139.28190
 6449.00000   78.85300    0.17060   12.01840    0.19560    0.05320    2.43810    2.37630    4.39870    3.34200    3.42960   77.36330  139.33020
 6449.50000   80.51680    0.16810   12.04530    0.19380    0.05260    2.40920    2.37850    4.25580    3.21460    3.41720   77.50580  139.40050
 6450.00000   79.87450    0.17310   12.07720    0.19150    0.05330    2.39540    2.38230    4.18330    3.17520    3.40640   77.59940  139.69970
 6450.50000   80.02920    0.17430   12.10910    0.18950    0.05480    2.38900    2.38450    4.07830    3.22830    3.39560   77.68150  139.89870
 6451.00000   80.88600    0.17170   12.12760    0.19040    0.05370    2.40090    2.38450    4.04100    3.25320    3.38480   77.74000  140.07030
 6451.50000   84.18520    0.16980   12.10360    0.19410    0.05220    2.41280    2.37920    4.16550    3.34120    3.45720   77.76600  140.21150
 6452.00000   85.70480    0.17070   12.09330    0.19640    0.05070    2.42470    2.37580    4.37950    3.47940    3.62120   77.76550  140.32470
 6452.50000   84.79270    0.17290   12.08980    0.19640    0.05370    2.42480    2.37670    4.38690    3.28220    3.44590   77.76570  140.40760
 6453.00000   82.00950    0.17560   12.08640    0.19320    0.05780    2.41580    2.37870    4.20880    3.24260    3.34300   77.77060  140.60210
 6453.50000   80.73060    0.18100   12.08290    0.19250    0.05980    2.40760    2.38010    4.05200    3.19370    3.33750   77.78370  140.66980
 6454.00000   80.44730    0.18640   12.08220    0.18960    0.05980    2.40110    2.38380    4.04910    3.22540    3.32890   77.81910  140.77560
 6454.50000   80.85090    0.18910   12.08800    0.18870    0.05900    2.38640    2.38740    4.07670    3.32630    3.32030   77.82650  140.91810
 6455.00000   81.76100    0.18810   12.09380    0.18760    0.05560    2.37730    2.39020    4.14310    3.43040    3.31170   77.82570  140.92850
 6455.50000   82.18600    0.17540   12.09730    0.18780    0.05370    2.35740    2.38930    4.16000    3.52110    3.31740   77.82470  140.89240
