~Version ---------------------------------------------------
VERS.   2.0 : CWLS log ASCII Standard -VERSION 2.0
WRAP.    NO : One line per depth step
DLM . SPACE : Column Data Section Delimiter
~Well ------------------------------------------------------
STRT .F                  100.0 : START DEPTH
STOP .F                10254.0 : STOP DEPTH
STEP .F                    0.5 : STEP
NULL .                -9999.25 : NULL VALUE
COMP .                         : COMPANY
WELL .                         : WELL
FLD  .                         : FIELD
LOC  .                         : LOCATION
PROV .                         : PROVINCE
CNTY .                         : COUNTY
STAT .                         : STATE
CTRY .                         : COUNTRY
SRVC .                         : SERVICE COMPANY
DATE .                         : DATE
UWI  .                         : UNIQUE WELL ID
API  .                         : API NUMBER
SLAT .WGS84  2.730585624137504 : SURFACE LATITUDE
SLON .WGS84 6.9206742762050055 : SURFACE LONGITUDE
DATUM.F                    nan : DEPTH DATUM ELEV
~Curve Information -----------------------------------------
DEPT   .F     : 1 MEASURED DEPTH
SGRDD  .GAPI  : SPECTROSCOPY GAMMA RAY FROM DENSITY LOG
TNPH_LS.DEC   : THERMAL NEUTRON POROSITY [LIMESTONE]
CALD   .IN    : CALIPER FROM DENSITY LOG
DPHZ_LS.DEC   : HGRD STANDARD RESOLUTION DENSITY POROSITY
HDRA   .G/C3  : HRDD SPINE AND RIBS DENSITY CORRECTION
PEFZ   .B/E   : HRDD STANDARD RESOLUTION FORMATION PHOTOELECTRIC FACTOR
RHOZ   .G/C3  : HRDD STANDARD RESOLUTION FORMATION DENSITY
RXOZ   .OHMM  : INVADED FORMATION RESISTIVITY FILTERED AT 18 INCHES
RLA3   .OHMM  : APPARENT RESISTIVITY FROM COMPUTED FOCUSING MODE 3
RLA5   .OHMM  : APPARENT RESISTIVITY FROM COMPUTED FOCUSING MODE 5
DTCO   .US/F  : DELTA-T COMPRESSIONAL
DTSM   .US/F  : DELTA-T SHEAR
~Params ----------------------------------------------------
~Other -----------------------------------------------------
~ASCII -----------------------------------------------------
# ...
 3712.00000   42.65920    0.20520   16.90210   -9999.25    0.20230    3.86420    1.97620    0.41100   11.65340   23.58370   76.51980  146.11670
 3712.50000   41.79710    0.19130   16.20750   -9999.25    0.20000    3.82580    1.98910    0.42030   11.42420   18.06750   74.33590  141.48770
 3713.00000   36.65750    0.14970   17.45280   -9999.25    0.19110    3.86750    1.99260    0.45900   16.28860   33.87200   72.87670  139.94070
 3713.50000   32.02330    0.09600   17.41920   -9999.25    0.15470    4.02410    1.99080    0.78480   25.51170   78.34540   70.76020  135.53240
 3714.00000   29.77170    0.06510   18.25380   -9999.25    0.11970    4.28570    1.99600    1.36650   29.86300  111.65370   68.79820  128.52150
 3714.50000   27.68930    0.05150   19.20290   -9999.25    0.09360    4.49450    2.01610    6.82630   31.65090  153.60540   67.94780  123.42170
 3715.00000   26.56160    0.04750   18.73010   -9999.25    0.09200    4.65760    2.02490   12.84170   32.69080  243.27240   67.54590  122.68190
 3715.50000   22.89200    0.04700   19.03620   -9999.25    0.10840    4.72330    2.01680    8.46710   32.21150  567.87150   67.73300  123.71740
 3716.00000   22.76160    0.04380   18.77340   -9999.25    0.13790    4.71730    2.00860    6.38350   31.65360  922.68320   68.18860  124.67150
 3716.50000   22.50960    0.04430   18.58260   -9999.25    0.17090    4.67640    2.01200    2.62750   31.42040 1203.49450   67.66100  123.47450
 3717.00000   24.59360    0.04550   18.95440   -9999.25    0.18190    4.56470    2.01570    1.33340   31.45500 1316.07910   67.45320  122.85100
 3717.50000   25.52610    0.04900   19.46500   -9999.25    0.17390    4.50680    2.01310    1.22710   30.12370 1198.64620   67.51660  121.90310
 3718.00000   25.27490    0.05670   18.83460   -9999.25    0.14680    4.48200    2.00750    1.73710   29.50990  941.70910   67.95760  121.84960
 3718.50000   25.87850    0.06090   18.92190   -9999.25    0.13100    4.51200    2.00780    2.53960   31.21640  895.83260   68.82560  123.80240
 3719.00000   25.49200    0.07320   19.45550   -9999.25    0.12540    4.56680    2.02020    3.49330   32.80090 1087.99180   71.30550  124.78380
 3719.50000   27.43670    0.08290   19.64340   -9999.25    0.13480    4.58990    2.02320    6.31600   33.29540 1315.68120   72.75050  126.58370
 3720.00000   25.67340    0.10140   20.19140   -9999.25    0.15290    4.60640    2.01550    5.51460   34.76420 1497.84630   74.35170  129.66830
 3720.50000   24.88590    0.11500   19.52990   -9999.25    0.17540    4.59320    2.01710    4.00190   35.08750 1270.47180   74.41530  131.75210
 3721.00000   23.67180    0.10030   19.57580   -9999.25    0.19230    4.55520    2.02880    2.69380   34.82180  643.31090   73.76220  132.38060
 3721.50000   26.42750    0.10200   19.06180   -9999.25    0.19400    4.48970    2.03230    2.52830   34.28920  262.25990   73.62010  132.82120
 3722.00000   30.76650    0.08300   19.72860   -9999.25    0.19130    4.36960    2.00510    1.40880   33.87560  190.44420   72.72990  131.24900
 3722.50000   35.99790    0.10570   18.35320   -9999.25    0.18920    4.15780    1.97780    0.65040   33.23670  147.93620   71.94540  127.74010
 3723.00000   45.13310    0.13230   18.73630   -9999.25    0.19050    3.84470    1.97930    0.47640   29.86970   73.22280   70.12660  129.03450
 3723.50000   46.96720    0.15820   16.92950   -9999.25    0.20480    3.64060    2.01120    0.42840   27.07400   35.56500   68.57940  129.65930
 3724.00000   45.17960    0.15110   15.24960   -9999.25    0.22350    3.63470    1.98150    0.48490   32.10250   78.68680   68.69040  129.78760
 3724.50000   36.78240    0.12480   15.89660   -9999.25    0.26280    3.75300    1.95170    0.35760   36.93710  151.90480   69.01350  130.24260
 3725.00000   31.98240    0.08850   16.16600   -9999.25    0.28660    3.98590    1.93250    0.34470   35.16590  191.13190   69.69270  134.03090
 3725.50000   28.96720    0.06330   18.40070   -9999.25    0.28880    4.13640    1.96640    0.42350   28.93920  211.83730   73.35740  140.05310
 3726.00000   25.95190    0.06060   17.72720   -9999.25    0.23720    4.24560    2.00620    0.84990   30.28660  238.94770   76.00110  142.15620
 3726.50000   24.62600    0.05890   19.12310   -9999.25    0.18660    4.33310    2.01650    1.66350   37.63700  248.45770   76.84790  144.03670
 3727.00000   28.57410    0.06760   19.37300   -9999.25    0.15130    4.38310    1.99210    1.36940   36.61210  179.14910   77.87940  147.55860
 3727.50000   31.48650    0.10200   19.33740   -9999.25    0.15430    4.28830    1.97220    0.62080   32.09820   91.33350   78.46440  151.54340
 3728.00000   33.95260    0.15990   18.50200   -9999.25    0.18410    4.11690    1.97380    0.40170   26.81760   44.55040   78.32700  150.11650
 3728.50000   31.86750    0.20260   16.65390   -9999.25    0.19410    3.98330    2.01680    0.39910   25.61640   36.53640   78.44480  142.51860
 3729.00000   33.11010    0.22890   18.30430   -9999.25    0.19960    4.01780    2.03950    0.66480   28.31450   54.10900   75.17490  139.82150
 3729.50000   32.46390    0.18950   18.77710   -9999.25    0.17210    4.09590    2.03970    1.57020   31.37670  114.43560   75.41220  137.42850
 3730.00000   31.41360    0.14600   19.52760   -9999.25    0.15290    4.17410    2.02000    2.09620   36.25340  245.62440   76.53610  133.47490
 3730.50000   29.39220    0.11060   20.23570   -9999.25    0.15070    4.24860    1.98620    1.34640   37.72270  348.14290   76.34550  131.51510
 3731.00000   29.39220    0.10270   19.29660   -9999.25    0.17070    4.26380    1.95230    0.47020   39.16970  446.36670   78.12140  130.23680
 3731.50000   29.23990    0.07540   18.10740   -9999.25    0.21870    4.23540    1.92080    0.30900   40.82380  599.34690   76.59540  129.14810
 3732.00000   26.59530    0.05020   15.93410   -9999.25    0.27660    4.18550    1.91760    0.24950   48.61050  597.49860   77.45320  128.89320
 3732.50000   27.23880    0.03710   16.71960   -9999.25    0.29790    4.14050    1.89790    0.23730   49.02220  419.33740   77.44020  130.06110
 3733.00000   34.63700    0.02770   17.66470   -9999.25    0.29140    4.09300    1.85070    0.20900   47.99690  378.10270   75.79920  134.07700
 3733.50000   43.39090    0.03670   18.37290   -9999.25    0.28650    4.03320    2.05540    0.20520   38.38330  158.78530   73.25870  138.41600
 3734.00000   54.74940    0.04670   17.14770    0.30010    0.30090    3.96350    2.18730    0.27650   34.31300  127.85080   73.90380  136.91480
 3734.50000   62.78670    0.08550   16.24190    0.23810    0.31580    3.88910    2.32900    0.44610   12.05080   47.13400   67.84900  133.70310
 3735.00000   68.68230    0.12510   12.95290    0.16850    0.29190    3.80530    2.40970    1.51440    6.30010   11.27260   68.27150  130.49140
 3735.50000   66.58980    0.10000   14.13600    0.17180    0.23480    3.64770    2.40680    2.05900    8.27490   20.98550   70.12070  127.66040
 3736.00000   68.00670    0.05750   13.53790    0.18950    0.19660    3.50460    2.40380    6.01950   15.60260   53.87840   69.23700  124.63090
 3736.50000   68.27450    0.03470   13.94850    0.17830    0.18720    3.39290    2.40510   24.33280   25.54630   64.30810   69.24310  118.57330
 3737.00000   73.03830    0.03520   13.86970    0.17390    0.16690    3.33720    2.41550   21.71860   32.10990   69.16050   71.83280  118.05760
 3737.50000   73.98080    0.04650   13.83500    0.17120    0.13500    3.25150    2.41740   15.63770   35.70730   49.04410   74.77270  126.35340
 3738.00000   72.10310    0.06300   13.62590    0.17120    0.11790    3.19730    2.41530   12.75630   31.70980   39.91040   75.66160  133.69670
 3738.50000   69.11540    0.07430   13.89420    0.17410    0.10800    3.13290    2.40850   10.06120   20.07310   24.78230   77.07440  134.84330
 3739.00000   70.97780    0.08480   13.78880    0.17720    0.12270    3.06850    2.39850    6.66370   13.34570   17.11700   78.57700  135.32990
 3739.50000   78.35780    0.10840   13.77630    0.18760    0.16850    3.11930    2.38850    4.26670    9.04070    9.76200   80.16360  134.48210
