~Version ---------------------------------------------------
VERS.   2.0 : CWLS log ASCII Standard -VERSION 2.0
WRAP.    NO : One line per depth step
DLM . SPACE : Column Data Section Delimiter
~Well ------------------------------------------------------
STRT .F                  100.0 : START DEPTH
STOP .F                10254.0 : STOP DEPTH
STEP .F                    0.5 : STEP
NULL .                -9999.25 : NULL VALUE
COMP .                         : COMPANY
WELL .                         : WELL
FLD  .                         : FIELD
LOC  .                         : LOCATION
PROV .                         : PROVINCE
CNTY .                         : COUNTY
STAT .                         : STATE
CTRY .                         : COUNTRY
SRVC .                         : SERVICE COMPANY
DATE .                         : DATE
UWI  .                         : UNIQUE WELL ID
API  .                         : API NUMBER
SLAT .WGS84  2.730585624137504 : SURFACE LATITUDE
SLON .WGS84 6.9206742762050055 : SURFACE LONGITUDE
DATUM.F                    nan : DEPTH DATUM ELEV
~Curve Information -----------------------------------------
DEPT   .F     : 1 MEASURED DEPTH
SGRDD  .GAPI  : SPECTROSCOPY GAMMA RAY FROM DENSITY LOG
TNPH_LS.DEC   : THERMAL NEUTRON POROSITY [LIMESTONE]
CALD   .IN    : CALIPER FROM DENSITY LOG
DPHZ_LS.DEC   : HGRD STANDARD RESOLUTION DENSITY POROSITY
HDRA   .G/C3  : HRDD SPINE AND RIBS DENSITY CORRECTION
PEFZ   .B/E   : HRDD STANDARD RESOLUTION FORMATION PHOTOELECTRIC FACTOR
RHOZ   .G/C3  : HRDD STANDARD RESOLUTION FORMATION DENSITY
RXOZ   .OHMM  : INVADED FORMATION RESISTIVITY FILTERED AT 18 INCHES
RLA3   .OHMM  : APPARENT RESISTIVITY FROM COMPUTED FOCUSING MODE 3
RLA5   .OHMM  : APPARENT RESISTIVITY FROM COMPUTED FOCUSING MODE 5
DTCO   .US/F  : DELTA-T COMPRESSIONAL
DTSM   .US/F  : DELTA-T SHEAR
~Params ----------------------------------------------------
~Other -----------------------------------------------------
~ASCII -----------------------------------------------------
# ...
 2620.00000   40.03420    0.24290   17.96460   -9999.25    0.22670    3.19290    1.75530    0.20080   13.19300   43.66010   88.12420  139.66250
 2620.50000   45.04810    0.20000   17.46310   -9999.25    0.25250    3.31740    1.89090    0.20420   15.05680   40.16650   86.36960  133.16750
 2621.00000   50.22760    0.15240   17.12260    0.30100    0.26480    3.33090    2.00880    0.29530   16.74760   49.67970   72.54210  130.00220
 2621.50000   50.87280    0.12360   18.54320    0.30060    0.23920    3.30250    2.12670    0.46130   15.88630   57.43610   71.75740  127.19650
 2622.00000   55.61660    0.11560   15.87710    0.27130    0.18120    3.22950    2.24380    1.77680   19.27270   58.23370   69.83740  124.85590
 2622.50000   58.50260    0.11130   14.45050    0.25430    0.17190    3.15510    2.27460    2.79130   20.01570   52.23440   69.15810  125.44490
 2623.00000   63.69240    0.12410   14.30960    0.29690    0.15790    3.07380    2.22410    2.77050   16.81810   39.99910   70.79590  125.65950
 2623.50000   64.27940    0.16670   14.15100    0.30040    0.15120    3.00150    2.11830    0.71380   14.48300   33.30270   72.37500  125.57650
 2624.00000   60.19090    0.22780   14.10300    0.30040    0.14900    2.94180    1.85830    0.27060   11.94080   23.39880   73.67900  126.28110
 2624.50000   53.90970    0.24910   16.49660    0.30040    0.14350    2.88210    1.69470    0.20140   16.55150   36.62700   73.32950  131.02540
 2625.00000   47.59560    0.18550   16.85730    0.30040    0.14520    2.88040    1.69550    0.20250   22.93760   66.28790   74.95170  131.61170
 2625.50000   42.78360    0.15130   17.01220    0.30040    0.15450    3.02660    1.83230    0.26460   30.82760   81.75760   76.23970  133.89180
 2626.00000   40.39350    0.12860   15.52970    0.30040    0.17100    3.18780    1.90170    0.30980   39.97950   96.20580   76.85230  140.53840
 2626.50000   40.93890    0.11330   14.80420    0.30040    0.19010    3.31340    1.95150    0.28870   40.51480   97.76870   77.34410  144.61080
 2627.00000   51.62560    0.11800   15.37740    0.30040    0.20150    3.27860    2.07120    0.39830   28.19130   71.06510   77.91790  165.89160
 2627.50000   59.50280    0.12380   15.95060    0.29910    0.20440    3.18440    2.17770    0.58870   13.84440   25.50380   79.92540  178.07420
 2628.00000   64.17830    0.13870   14.61850    0.27800    0.21440    3.09020    2.23540    1.12520   11.01790   19.11540   75.60950  146.61990
 2628.50000   65.21290    0.15560   14.86370    0.28840    0.22290    2.99600    2.22640    0.85470   10.10140   17.24150   74.27130  142.99500
 2629.00000   67.61810    0.20110   14.86660    0.30040    0.20660    2.90180    2.17320    0.74430    8.58130   13.72620   73.93270  142.87540
 2629.50000   67.59360    0.25320   14.49510    0.30050    0.17940    2.80760    2.11990    0.68090    7.41430   11.70170   74.74480  146.10910
 2630.00000   65.65660    0.30680   14.11360    0.30040    0.15210    2.71340    2.05960    0.47750    5.59500    8.61130   74.68210  149.45950
 2630.50000   61.58120    0.36490   14.52300   -9999.25    0.13030    2.65690    1.90850    0.28360    5.22940    8.47490   74.45490  136.32440
 2631.00000   56.04890    0.36650   15.14500   -9999.25    0.13110    2.67940    1.85070    0.20990    6.63700   13.23790   73.08960  139.64210
 2631.50000   49.22850    0.35840   16.55520   -9999.25    0.14830    2.74290    1.79830    0.19880    7.68440   25.04170   71.84770  135.78320
 2632.00000   44.56110    0.32530   18.69930   -9999.25    0.17880    2.84170    1.74860    0.20540    8.29300   35.57990   70.85000  133.43640
 2632.50000   40.33910    0.34590   20.56360   -9999.25    0.19030    2.93780    1.67320    0.20780    9.55310   43.74770   69.90480  139.44090
 2633.00000   40.54710    0.36120   22.76000   -9999.25    0.18210    3.02000    1.62380    0.22440   11.00480   52.82030   70.21180  141.14310
 2633.50000   41.02930    0.34740   22.31630   -9999.25    0.15960    3.08290    1.62370    0.21350   10.09270   71.06170   72.35030  140.62360
 2634.00000   42.10960    0.32910   23.31990   -9999.25    0.15130    3.07000    1.70690    0.20360    8.52640   83.09550   70.59320  142.08650
 2634.50000   39.88390    0.32730   20.97540   -9999.25    0.15540    3.07150    1.72960    0.20140    8.79220  119.87630   70.38070  140.70890
 2635.00000   37.21590    0.30160   22.42510   -9999.25    0.14010    3.09320    1.69090    0.22210    9.01980  151.17600   70.39800  140.31870
 2635.50000   36.37730    0.36200   23.05550   -9999.25    0.12820    3.03870    1.64520    0.21590    8.85670  203.86550   68.80110  142.66730
 2636.00000   36.30560    0.39750   22.98840   -9999.25    0.14530    2.96870    1.64480    0.20620    8.53450  261.64850   70.60100  144.12700
 2636.50000   36.46460    0.48960   23.07470   -9999.25    0.16940    2.89620    1.66090    0.20280    8.24830  307.27120   70.27130  140.19800
 2637.00000   37.85980    0.43370   19.99610   -9999.25    0.17070    2.84390    1.65520    0.20190    8.00170  361.43430   71.09440  140.67220
 2637.50000   39.84690    0.36020   21.45420   -9999.25    0.16580    2.81310    1.62930    0.20140    7.77860  432.52180   70.83830  142.35010
 2638.00000   40.54780    0.32110   20.62720   -9999.25    0.14900    2.78220    1.60300    0.20240    7.59210  508.14610   71.15700  144.02790
 2638.50000   40.34980    0.27710   17.92450   -9999.25    0.12960    2.75140    1.55720    0.21220    7.41020  610.71470   70.75910  143.93680
 2639.00000   41.54240    0.28840   19.34640   -9999.25    0.13520    2.78290    1.55120    0.21320    7.23930  539.88700   70.85410  142.85050
 2639.50000   39.67080    0.31150   21.17610   -9999.25    0.15110    2.85390    1.62300    0.21130    7.06390  438.28490   69.39870  141.70570
 2640.00000   37.18770    0.34900   21.91620   -9999.25    0.16710    2.97820    1.70260    0.21380    6.83080  533.12820   69.67590  140.52760
 2640.50000   33.79770    0.37530   20.45300   -9999.25    0.17640    3.11300    1.68480    0.21970    6.60720  630.60550   69.24910  139.66910
 2641.00000   34.78630    0.35600   22.05870   -9999.25    0.16520    3.17970    1.67910    0.21260    6.41670  601.61190   68.50640  138.24150
 2641.50000   35.78780    0.38520   23.32790   -9999.25    0.15560    3.18490    1.69830    0.20520    6.21420  355.85210   68.61020  136.54760
 2642.00000   37.05940    0.41330   22.75250   -9999.25    0.15300    3.16560    1.72790    0.20430    6.01810  261.26650   68.88400  132.84910
 2642.50000   36.95500    0.49820   21.13460   -9999.25    0.15160    3.11520    1.75580   -9999.25    5.93180  254.37110   69.89470  130.67070
 2643.00000   36.56910    0.65530   22.13070   -9999.25    0.14630    3.03920    1.75470   -9999.25    6.55310  338.03610   70.14250  129.79670
 2643.50000   36.10010    0.69920   23.31250   -9999.25    0.13840    2.92520    1.67370   -9999.25    8.92150  655.37980   67.77660  130.73330
 2644.00000   35.16470    0.69930   23.41260   -9999.25    0.14150    2.78640    1.56010   -9999.25   10.76570 1161.31300   78.70630  132.90970
 2644.50000   33.57740    0.69940   23.41260   -9999.25    0.20680    2.63640    1.52540   -9999.25   11.85780 2151.28220   85.38610  128.50470
 2645.00000   36.05730    0.69920   23.41260   -9999.25    0.26620    2.54540    1.58570   -9999.25   11.94630 3141.25170   88.13070  127.84040
 2645.50000   39.30840    0.50430   23.41260   -9999.25    0.32220    2.61610    1.61320   -9999.25   11.93020 102955.83590   88.54290  120.88700
 2646.00000   41.16880    0.38430   23.41610   -9999.25    0.32770    2.78080    1.59130   -9999.25   11.06540 102955.83590   90.62720  123.15020
 2646.50000   40.66730    0.39100   23.42020   -9999.25    0.23920    3.04210    1.56240   -9999.25    9.28330 102955.83590   92.38620  122.79940
 2647.00000   46.98550    0.29440   21.60060   -9999.25    0.13230    3.30350    1.57520   -9999.25    7.84030 102955.83590   91.17560  114.46880
 2647.50000   52.75760    0.20870   20.98950   -9999.25    0.09640    3.56480    1.72410    0.19750    7.08230 102955.83590   88.68000  103.25680
