~Version ---------------------------------------------------
VERS.   2.0 : CWLS log ASCII Standard -VERSION 2.0
WRAP.    NO : One line per depth step
DLM . SPACE : Column Data Section Delimiter
~Well ------------------------------------------------------
STRT .F                  100.0 : START DEPTH
STOP .F                10254.0 : STOP DEPTH
STEP .F                    0.5 : STEP
NULL .                -9999.25 : NULL VALUE
COMP .                         : COMPANY
WELL .                         : WELL
FLD  .                         : FIELD
LOC  .                         : LOCATION
PROV .                         : PROVINCE
CNTY .                         : COUNTY
STAT .                         : STATE
CTRY .                         : COUNTRY
SRVC .                         : SERVICE COMPANY
DATE .                         : DATE
UWI  .                         : UNIQUE WELL ID
API  .                         : API NUMBER
SLAT .WGS84  2.730585624137504 : SURFACE LATITUDE
SLON .WGS84 6.9206742762050055 : SURFACE LONGITUDE
DATUM.F                    nan : DEPTH DATUM ELEV
~Curve Information -----------------------------------------
DEPT   .F     : 1 MEASURED DEPTH
SGRDD  .GAPI  : SPECTROSCOPY GAMMA RAY FROM DENSITY LOG
TNPH_LS.DEC   : THERMAL NEUTRON POROSITY [LIMESTONE]
CALD   .IN    : CALIPER FROM DENSITY LOG
DPHZ_LS.DEC   : HGRD STANDARD RESOLUTION DENSITY POROSITY
HDRA   .G/C3  : HRDD SPINE AND RIBS DENSITY CORRECTION
PEFZ   .B/E   : HRDD STANDARD RESOLUTION FORMATION PHOTOELECTRIC FACTOR
RHOZ   .G/C3  : HRDD STANDARD RESOLUTION FORMATION DENSITY
RXOZ   .OHMM  : INVADED FORMATION RESISTIVITY FILTERED AT 18 INCHES
RLA3   .OHMM  : APPARENT RESISTIVITY FROM COMPUTED FOCUSING MODE 3
RLA5   .OHMM  : APPARENT RESISTIVITY FROM COMPUTED FOCUSING MODE 5
DTCO   .US/F  : DELTA-T COMPRESSIONAL
DTSM   .US/F  : DELTA-T SHEAR
~Params ----------------------------------------------------
~Other -----------------------------------------------------
~ASCII -----------------------------------------------------
# ...
 8584.00000  139.78220    0.23290   12.30200    0.15300    0.03480    2.95380    2.44600  444.20920  365.65180  590.35290   78.97490  126.11470
 8584.50000  135.83040    0.24490   12.30710    0.14450    0.03560    3.00770    2.46200  518.17460  358.57280  585.65650   78.38360  125.04690
 8585.00000  135.18200    0.22290   12.31090    0.13540    0.03520    3.01000    2.47800  408.55800  299.98360  445.15760   77.40890  123.67880
 8585.50000  137.96670    0.21520   12.31470    0.14210    0.03450    3.00900    2.47040  322.13020  247.76360  308.90420   75.73180  120.97750
 8586.00000  140.83090    0.20380   12.32360    0.14700    0.03570    2.99340    2.46120  342.27970  281.22570  380.62680   73.44550  118.70670
 8586.50000  137.33330    0.20470   12.33020    0.14600    0.03740    2.94460    2.46720  390.48400  320.67080  502.77960   70.73310  114.42220
 8587.00000  126.05040    0.19320   12.33260    0.12860    0.03910    2.89450    2.48460  383.32940  291.13210  412.98350   68.64260  112.26860
 8587.50000  112.15920    0.19050   12.34540    0.10600    0.04080    3.01100    2.51670  377.16750  280.46840  406.61140   66.20980  110.41250
 8588.00000   95.89750    0.14370   12.32000    0.08110    0.04280    3.34680    2.56170  483.38380  346.25270  587.20860   65.70040  109.20730
 8588.50000   75.32620    0.10900   12.33230    0.04940    0.04550    3.64560    2.62010  630.91880  423.27830  811.26060   65.65880  108.05390
 8589.00000   57.96820    0.08550   12.35870    0.02110    0.04870    3.70770    2.68590  730.45720  408.33330  766.73320   65.86560  107.73750
 8589.50000   57.97480    0.07260   12.35910    0.01830    0.05550    3.41080    2.68700  406.75800  297.56680  533.30590   66.94300  106.52360
 8590.00000   72.94040    0.08900   12.36170    0.04310    0.05340    3.06790    2.63320  195.75250  165.52100  234.89690   68.00350  107.60770
 8590.50000   93.60700    0.12800   12.37500    0.07430    0.05120    2.77210    2.58200  139.70120  126.61290  141.26060   69.11090  109.29840
 8591.00000  109.13660    0.16320   12.38830    0.09800    0.04910    2.66910    2.54550  121.50720  114.58140  118.08890   70.43570  111.08550
 8591.50000  115.80820    0.18590   12.31420    0.10570    0.04890    2.68960    2.53020  132.32920  121.12540  127.32900   71.17110  111.38130
 8592.00000  116.70250    0.17830   12.30570    0.10810    0.04830    2.72800    2.52570  146.61650  136.46870  142.43080   71.50630  111.51610
 8592.50000  119.76010    0.16980   12.30550    0.10460    0.04630    2.77060    2.53120  143.96190  128.74570  132.62640   71.09730  112.99390
 8593.00000  122.59780    0.16410   12.31170    0.10470    0.04060    2.80530    2.53270  120.72500  111.31990  117.41760   70.30910  112.84400
 8593.50000  122.76240    0.16810   12.32070    0.10680    0.03590    2.83990    2.52620  135.25630  121.84690  129.45750   68.74880  111.78560
 8594.00000  119.75170    0.16420   12.32620    0.11070    0.04170    2.83160    2.51990  152.83120  140.30170  145.74250   68.48010  110.65770
 8594.50000  112.63070    0.15190   12.33340    0.10330    0.05180    2.83970    2.53650  145.37740  137.77430  142.66840   68.28720  110.71640
 8595.00000  100.75380    0.14130   12.34900    0.08200    0.06120    3.00010    2.56500  144.38960  133.49290  137.98180   68.30260  110.34990
 8595.50000   89.92760    0.14380   12.34630    0.05840    0.05790    3.17950    2.59910  180.00700  150.53110  165.11060   68.54950  109.88550
 8596.00000   83.77190    0.14360   12.34040    0.04380    0.05470    3.35120    2.63850  259.37110  193.91640  222.72930   69.55130  110.30590
 8596.50000   89.67790    0.14330   12.33460    0.04800    0.05220    3.30560    2.63660  285.54470  215.16330  236.86150   70.74470  111.39770
 8597.00000  105.20170    0.14660   12.32880    0.06550    0.05290    3.11180    2.59770  177.18500  135.95750  160.51490   71.79620  112.86390
 8597.50000  120.41650    0.15080   12.32300    0.09500    0.05500    2.87530    2.55740  140.64710  124.69650  132.03700   72.77100  113.71240
 8598.00000  126.75100    0.14970   12.31710    0.10620    0.05430    2.73420    2.52830  162.07450  131.64220  144.38430   72.81300  114.52810
 8598.50000  133.24650    0.15640   12.31130    0.10870    0.05340    2.70630    2.52290  198.00460  167.62270  182.24130   72.52820  115.38480
 8599.00000  147.58350    0.17180   12.30550    0.11560    0.05260    2.74190    2.51330  216.25690  169.90060  204.19830   71.83040  114.96150
 8599.50000  153.97280    0.20450   12.30380    0.12030    0.05130    2.83870    2.50750  230.41640  184.29470  217.24950   69.93310  114.37610
 8600.00000  154.74120    0.22830   12.30290    0.11840    0.04800    2.93780    2.52420  261.21120  191.74790  241.28960   68.60540  113.78280
 8600.50000  133.25970    0.22050   12.30310    0.09940    0.04470    3.03420    2.56180  273.34010  191.82720  241.69350   67.75800  112.19270
 8601.00000  110.47480    0.17710   12.30580    0.08140    0.03760    3.12770    2.57100  244.92150  163.47100  157.88620   67.16180  111.39700
 8601.50000   89.37420    0.13970   12.31770    0.07330    0.03190    3.38540    2.58070  135.26210  122.06620  109.39470   67.03500  110.16030
 8602.00000   73.65780    0.11140   12.32740    0.06490    0.02880    3.60750    2.60050  201.16330  164.35790  127.48220   67.10450  109.74140
 8602.50000   67.78860    0.09230   12.33040    0.06190    0.03140    3.71620    2.60490  354.12180  217.04630  236.77350   67.19680  109.33250
 8603.00000   83.81440    0.08630   12.34410    0.06820    0.03690    3.57860    2.59510  230.47940  163.37370  170.86290   67.37500  108.74280
 8603.50000  104.12180    0.11320   12.36110    0.08830    0.04010    3.21150    2.56940  120.79680   91.15630   98.03870   67.19170  108.24640
 8604.00000  122.89790    0.14130   12.37820    0.10290    0.04180    2.94360    2.53560   98.80870   92.13290   97.18330   66.87770  107.98550
 8604.50000  129.91880    0.16740   12.39520    0.10700    0.04310    2.77730    2.52810  111.43020   99.65640  102.73540   66.45700  107.88430
 8605.00000  128.30370    0.17670   12.35690    0.10280    0.05040    2.78750    2.53630  122.52030  100.40600  102.52360   66.00850  107.77260
 8605.50000  114.97920    0.16730   12.35930    0.08570    0.05900    2.80990    2.55240   94.32170   90.86750   86.37310   64.03780  106.48580
 8606.00000   96.57540    0.13250   12.36500    0.06730    0.06710    2.85020    2.59440   77.60740   87.51110   62.49040   62.82570  104.93130
 8606.50000   75.82480    0.09730   12.36740    0.05280    0.06930    2.94620    2.62030   89.98580   73.11700   79.06710   62.06660  103.69360
 8607.00000   59.92540    0.07060   12.37350    0.04940    0.05250    3.02210    2.62590   73.08680   55.17820   64.71650   61.80880  103.03660
 8607.50000   54.76440    0.07150   12.39250    0.05080    0.04280    3.03490    2.62500   47.85510   42.59360   43.49030   61.84980  102.39360
 8608.00000   58.74790    0.07640   12.39350    0.05080    0.04560    2.98750    2.62410   48.33200   41.14940   42.99540   62.39980  102.44810
 8608.50000   63.79210    0.08140   12.37640    0.05730    0.04780    2.91970    2.61020   67.10820   34.76840   53.98690   63.23510  102.63830
 8609.00000   69.83790    0.09310   12.38820    0.07190    0.04860    2.77590    2.57990   39.21560   24.48310   34.60600   64.14090  103.61030
 8609.50000   77.38310    0.10480   12.45350    0.09670    0.04710    2.61450    2.54080   23.48650   20.22160   20.48210   65.08570  104.79760
 8610.00000   82.99860    0.11150   12.50270    0.10090    0.04390    2.56810    2.54210   22.33680   20.20690   21.03810   65.82520  105.87030
 8610.50000   89.20850    0.10970   12.52330    0.09520    0.04090    2.56620    2.55100   20.34950   18.40610   18.95380   66.84310  106.82800
 8611.00000   97.89130    0.11610   12.52470    0.08740    0.04620    2.60910    2.55910   18.77610   18.31300   17.36530   67.33200  107.60650
 8611.50000  103.38960    0.12830   12.51570    0.08390    0.04890    2.62390    2.56410   22.38800   20.05530   20.40330   67.44800  107.64040
