~Version ---------------------------------------------------
VERS.   2.0 : CWLS log ASCII Standard -VERSION 2.0
WRAP.    NO : One line per depth step
DLM . SPACE : Column Data Section Delimiter
~Well ------------------------------------------------------
STRT .F                  100.0 : START DEPTH
STOP .F                10254.0 : STOP DEPTH
STEP .F                    0.5 : STEP
NULL .                -9999.25 : NULL VALUE
COMP .                         : COMPANY
WELL .                         : WELL
FLD  .                         : FIELD
LOC  .                         : LOCATION
PROV .                         : PROVINCE
CNTY .                         : COUNTY
STAT .                         : STATE
CTRY .                         : COUNTRY
SRVC .                         : SERVICE COMPANY
DATE .                         : DATE
UWI  .                         : UNIQUE WELL ID
API  .                         : API NUMBER
SLAT .WGS84  2.730585624137504 : SURFACE LATITUDE
SLON .WGS84 6.9206742762050055 : SURFACE LONGITUDE
DATUM.F                    nan : DEPTH DATUM ELEV
~Curve Information -----------------------------------------
DEPT   .F     : 1 MEASURED DEPTH
SGRDD  .GAPI  : SPECTROSCOPY GAMMA RAY FROM DENSITY LOG
TNPH_LS.DEC   : THERMAL NEUTRON POROSITY [LIMESTONE]
CALD   .IN    : CALIPER FROM DENSITY LOG
DPHZ_LS.DEC   : HGRD STANDARD RESOLUTION DENSITY POROSITY
HDRA   .G/C3  : HRDD SPINE AND RIBS DENSITY CORRECTION
PEFZ   .B/E   : HRDD STANDARD RESOLUTION FORMATION PHOTOELECTRIC FACTOR
RHOZ   .G/C3  : HRDD STANDARD RESOLUTION FORMATION DENSITY
RXOZ   .OHMM  : INVADED FORMATION RESISTIVITY FILTERED AT 18 INCHES
RLA3   .OHMM  : APPARENT RESISTIVITY FROM COMPUTED FOCUSING MODE 3
RLA5   .OHMM  : APPARENT RESISTIVITY FROM COMPUTED FOCUSING MODE 5
DTCO   .US/F  : DELTA-T COMPRESSIONAL
DTSM   .US/F  : DELTA-T SHEAR
~Params ----------------------------------------------------
~Other -----------------------------------------------------
~ASCII -----------------------------------------------------
# ...
 7492.00000   76.83250    0.18540   12.25180    0.15830    0.04140    3.58660    2.45160  134.34040   94.08890  105.60040   83.79480  134.22640
 7492.50000   91.67660    0.22480   12.25190    0.17600    0.04170    3.38770    2.41400   76.17820   59.12740   55.62210   84.71580  135.57810
 7493.00000  104.32170    0.27030   12.25560    0.18300    0.04490    3.18880    2.39860   39.45570   37.15690   33.56340   85.45160  137.61670
 7493.50000  104.59410    0.28470   12.25920    0.18200    0.04980    3.17190    2.40250   42.23050   38.64730   37.29760   85.67160  138.34500
 7494.00000  103.36360    0.27120   12.26280    0.17490    0.05390    3.21820    2.41780   57.47540   48.31220   40.15340   85.68540  138.10000
 7494.50000   99.81880    0.25960   12.26640    0.16220    0.05580    3.28960    2.43310   38.98590   33.78970   28.55640   85.82170  137.90370
 7495.00000  101.71870    0.25230   12.27000    0.14560    0.06140    3.26950    2.44910   29.77570   27.19630   25.21060   85.87880  138.07240
 7495.50000  103.48780    0.25690   12.26290    0.13680    0.06530    3.19490    2.47520   23.42550   21.72700   19.18800   85.91790  137.85820
 7496.00000  102.21650    0.26200   12.27230    0.14400    0.05860    3.17130    2.46220   21.88420   20.39520   16.96620   85.61360  137.82400
 7496.50000   96.84300    0.26180   12.26130    0.15410    0.05190    3.17080    2.44110   42.98100   32.40160   26.70170   85.26040  137.89800
 7497.00000   91.35800    0.25350   12.25040    0.17060    0.04690    3.20040    2.42000   97.82080   64.63300   55.98170   85.17110  137.39970
 7497.50000   91.71710    0.25080   12.24370    0.18380    0.04410    3.26970    2.39630  133.07370  100.63610   91.24340   85.11810  137.06660
 7498.00000   95.83180    0.26420   12.24040    0.19440    0.04530    3.24460    2.37420  104.16580   92.77560   81.25030   85.19400  137.66470
 7498.50000  100.46440    0.27730   12.23950    0.19570    0.04750    3.22600    2.37640   64.18820   52.01630   44.69380   85.25870  137.90880
 7499.00000  101.13170    0.28180   12.25940    0.18280    0.04960    3.13690    2.40360   41.57900   40.50270   39.39110   85.40400  138.07970
 7499.50000   99.83950    0.25560   12.27940    0.15820    0.05180    3.02990    2.43150   35.72580   34.53330   30.30200   85.46820  138.41370
 7500.00000   99.33180    0.24020   12.29930    0.14690    0.05480    2.92290    2.44880   24.97080   28.36610   27.20490   85.52900  138.38910
 7500.50000  101.73030    0.24970   12.31030    0.14890    0.05600    2.92990    2.43900   22.37970   25.09380   27.10990   85.60490  138.17230
 7501.00000  107.73410    0.27480   12.29750    0.16630    0.05560    2.98350    2.42250   28.85510   30.35960   33.08220   85.76660  137.58020
 7501.50000  109.56560    0.28170   12.27680    0.17560    0.05380    3.03240    2.41030   33.68940   34.57990   34.76320   85.39740  137.15230
 7502.00000  109.88110    0.27270   12.27510    0.17270    0.05200    3.04280    2.41670   27.51730   28.99590   24.03000   83.54820  135.50370
 7502.50000  110.22940    0.25850   12.26520    0.17080    0.05020    3.06800    2.41650   24.14530   26.82850   24.03000   81.94360  133.07540
 7503.00000  111.19750    0.27420   12.25540    0.17300    0.04840    3.10150    2.41490   29.08800   32.46750   28.31640   80.49740  129.77460
 7503.50000  110.61970    0.28170   12.24860    0.17040    0.04670    3.19240    2.41720   41.96720   41.52340   45.75520   68.48230  125.20250
 7504.00000  106.21410    0.26960   12.25720    0.15970    0.04490    3.32590    2.43800   36.19270   38.28410   35.50240   55.81630  120.36740
 7504.50000   99.76620    0.24860   12.26820    0.14930    0.04400    3.42580    2.46360   35.45920   36.97000   30.57550   53.23360  115.67350
 7505.00000   83.32420    0.20770   12.27970    0.12550    0.04340    3.63630    2.50030   67.14470   59.38240   46.34380   61.81690  111.54760
 7505.50000   66.44770    0.15020   12.29120    0.08800    0.04420    3.79970    2.53710  115.07400   94.26540   90.11420   60.48050  107.10880
 7506.00000   48.88950    0.09530   12.30280    0.03820    0.04660    3.89340    2.64220  201.43350  133.73970  165.75030   59.70770  104.31210
 7506.50000   35.01020    0.06160   12.28800   -0.00650    0.04900    3.89440    2.71680  355.56330  226.03470  298.49230   59.04130  102.44090
 7507.00000   28.80170    0.04720   12.28100   -0.02770    0.05160    3.89120    2.76280  677.01810  313.48740  530.28460   59.08290  101.36900
 7507.50000   28.90660    0.03860   12.27540   -0.02480    0.05030    3.86520    2.74660  558.91460  248.77150  422.59820   60.59850  101.78570
 7508.00000   39.31010    0.04440   12.27670    0.00450    0.04500    3.80430    2.69810  314.25900  164.02220  223.58070   62.22780  102.54820
 7508.50000   54.37040    0.07210   12.28290    0.04820    0.04000    3.77840    2.55600  120.71280   70.91250   91.96400   64.01190  103.33820
 7509.00000   69.38000    0.10520   12.24600    0.08240    0.03930    3.78110    2.53180   63.01740   55.01060   59.86510   65.46960  106.98310
 7509.50000   73.32740    0.12790   12.24520    0.10440    0.04070    3.83750    2.53120   57.84650   53.88180   56.80010   66.06960  107.09490
 7510.00000   66.53760    0.12260   12.24550    0.09830    0.04300    3.90460    2.54380   57.85490   52.79720   55.48850   66.31890  107.58100
 7510.50000   59.74770    0.11370   12.24560    0.09120    0.04620    3.98350    2.55620   60.16180   54.54220   57.74250   66.31000  108.14180
 7511.00000   55.52370    0.10710   12.24480    0.08970    0.04750    4.05540    2.55730   62.29100   59.44740   60.69470   65.91230  108.71610
 7511.50000   60.00730    0.11300   12.24540    0.09490    0.04630    4.11570    2.54640   60.56340   58.54330   59.49860   65.59880  108.72630
 7512.00000   61.87920    0.11940   12.24610    0.09950    0.04510    4.12540    2.54130   57.62940   54.46340   56.71010   65.43920  108.03530
 7512.50000   61.42380    0.11450   12.24520    0.09430    0.04480    4.06910    2.55340   55.68700   52.68040   55.17150   65.16260  107.38440
 7513.00000   56.08820    0.10730   12.24720    0.08550    0.04600    3.91760    2.56760   56.41890   52.17090   57.42100   64.92530  106.99480
 7513.50000   53.87350    0.10020   12.25110    0.08030    0.04720    3.91250    2.57170   58.25730   53.56190   59.76230   64.92840  107.30750
 7514.00000   55.49550    0.09490   12.24530    0.08420    0.04590    3.94970    2.56580   60.15560   56.49520   58.88810   65.00590  107.21970
 7514.50000   57.92800    0.09820   12.24600    0.08910    0.04100    3.99110    2.55410   62.11570   59.58930   57.71040   65.35400  107.54100
 7515.00000   59.36420    0.10150   12.24550    0.09510    0.03600    4.00230    2.54940   62.66080   59.82460   56.67360   65.68860  107.52880
 7515.50000   59.73440    0.10400   12.24510    0.09110    0.03920    3.98660    2.55590   64.82970   61.07320   58.56380   66.06360  107.92670
 7516.00000   61.42590    0.09830   12.24310    0.08730    0.04200    3.99530    2.56220   66.93560   64.23510   62.06980   66.35660  108.24290
 7516.50000   66.72110    0.10600   12.22620    0.08800    0.04470    4.03760    2.55630   60.02050   56.35020   63.32710   66.59730  108.65110
 7517.00000   68.34000    0.11730   12.24230    0.09410    0.04510    4.09410    2.54510   59.03450   52.61330   63.09950   66.79700  109.08620
 7517.50000   63.82870    0.11840   12.24390    0.10150    0.04410    4.11090    2.53540   68.32770   60.13430   67.27570   67.00490  109.52060
 7518.00000   57.55230    0.11010   12.23730    0.10310    0.04310    4.06740    2.53420   76.41480   64.94990   70.86770   67.11860  109.62280
 7518.50000   57.04780    0.11360   12.22900    0.10240    0.04130    4.02380    2.53480   76.11840   64.29030   70.94270   66.97270  109.79760
 7519.00000   58.88150    0.11930   12.25620    0.10090    0.04240    3.99010    2.53810   75.28840   63.63750   70.74650   66.82330  110.13690
 7519.50000   58.93750    0.12260   12.25200    0.09660    0.04360    3.98600    2.54620   74.76730   62.99130   70.55080   66.71150  110.36270
