~Version ---------------------------------------------------
VERS.   2.0 : CWLS log ASCII Standard -VERSION 2.0
WRAP.    NO : One line per depth step
DLM . SPACE : Column Data Section Delimiter
~Well ------------------------------------------------------
STRT .F                  100.0 : START DEPTH
STOP .F                10254.0 : STOP DEPTH
STEP .F                    0.5 : STEP
NULL .                -9999.25 : NULL VALUE
COMP .                         : COMPANY
WELL .                         : WELL
FLD  .                         : FIELD
LOC  .                         : LOCATION
PROV .                         : PROVINCE
CNTY .                         : COUNTY
STAT .                         : STATE
CTRY .                         : COUNTRY
SRVC .                         : SERVICE COMPANY
DATE .                         : DATE
UWI  .                         : UNIQUE WELL ID
API  .                         : API NUMBER
SLAT .WGS84  2.730585624137504 : SURFACE LATITUDE
SLON .WGS84 6.9206742762050055 : SURFACE LONGITUDE
DATUM.F                    nan : DEPTH DATUM ELEV
~Curve Information -----------------------------------------
DEPT   .F     : 1 MEASURED DEPTH
SGRDD  .GAPI  : SPECTROSCOPY GAMMA RAY FROM DENSITY LOG
TNPH_LS.DEC   : THERMAL NEUTRON POROSITY [LIMESTONE]
CALD   .IN    : CALIPER FROM DENSITY LOG
DPHZ_LS.DEC   : HGRD STANDARD RESOLUTION DENSITY POROSITY
HDRA   .G/C3  : HRDD SPINE AND RIBS DENSITY CORRECTION
PEFZ   .B/E   : HRDD STANDARD RESOLUTION FORMATION PHOTOELECTRIC FACTOR
RHOZ   .G/C3  : HRDD STANDARD RESOLUTION FORMATION DENSITY
RXOZ   .OHMM  : INVADED FORMATION RESISTIVITY FILTERED AT 18 INCHES
RLA3   .OHMM  : APPARENT RESISTIVITY FROM COMPUTED FOCUSING MODE 3
RLA5   .OHMM  : APPARENT RESISTIVITY FROM COMPUTED FOCUSING MODE 5
DTCO   .US/F  : DELTA-T COMPRESSIONAL
DTSM   .US/F  : DELTA-T SHEAR
~Params ----------------------------------------------------
~Other -----------------------------------------------------
~ASCII -----------------------------------------------------
# ...
 5336.00000   29.57090    0.07040   12.25790   -0.03490    0.04980    3.30290    2.76600   50.35010   50.97560   98.31030   51.49990   87.79400
 5336.50000   31.65970    0.07150   12.26210   -0.02870    0.05420    3.28400    2.76180   48.95310   50.23290   81.44880   51.83760   88.39360
 5337.00000   31.57170    0.06650   12.25260   -0.02670    0.05860    3.26860    2.75540   46.88540   47.90450   72.04570   52.27070   89.03850
 5337.50000   33.96650    0.05440   12.26370   -0.01730    0.05410    3.27190    2.73840   57.87590   54.16110   75.57020   52.72640   89.20570
 5338.00000   37.20110    0.04440   12.25370   -0.00370    0.04640    3.27950    2.71810   48.80400   51.23860   69.17520   52.88820   89.69320
 5338.50000   39.30400    0.03950   12.26980    0.01060    0.04000    3.27330    2.69240   48.68390   47.20360   66.10080   53.27500   90.02470
 5339.00000   39.91600    0.04090   12.28430    0.00630    0.03990    3.28080    2.69170   43.88260   45.98100   72.97800   53.51430   90.37470
 5339.50000   40.55670    0.04350   12.27470   -0.00560    0.04300    3.24450    2.72190   71.48460   61.85750  104.04940   53.74630   90.72700
 5340.00000   42.06130    0.04630   12.27670   -0.00790    0.04600    3.20810    2.71320   63.46420   59.24860  125.94420   53.98560   91.06220
 5340.50000   42.90230    0.05080   12.28030    0.00730    0.04730    3.15760    2.69070   32.70310   34.51540   51.01190   54.14980   91.90240
 5341.00000   38.86460    0.05530   12.27600    0.01980    0.04580    3.06570    2.67810   21.47510   25.68940   32.81590   55.24400   92.82330
 5341.50000   37.40530    0.05660   12.27610    0.00610    0.04440    3.07010    2.70330   33.91560   37.57850   42.35550   56.09520   93.09900
 5342.00000   36.33840    0.05500   12.27660   -0.00800    0.04640    3.15800    2.72710   49.14060   50.18570   64.94400   56.17060   93.38560
 5342.50000   38.50220    0.05070   12.27720   -0.00460    0.04960    3.28290    2.71580   47.88000   48.71500   92.87880   56.53580   94.79190
 5343.00000   42.93810    0.04670   12.27620    0.02320    0.05280    3.33070    2.67840   42.37030   43.75210   64.99720   56.94090   96.33370
 5343.50000   45.93260    0.04850   12.27560    0.04220    0.05000    3.23660    2.63190   27.72780   33.05760   40.67050   57.19360   97.20730
 5344.00000   48.91010    0.05560   12.27540    0.05780    0.04150    3.12860    2.61250   17.38370   19.45570   27.37780   57.69110   97.82600
 5344.50000   48.98910    0.06270   12.27490    0.05730    0.04230    2.99040    2.61180   14.18250   15.14820   21.88740   59.57500   98.47530
 5345.00000   50.75640    0.07080   12.27850    0.04740    0.04410    2.95020    2.63010   16.05240   16.45300   18.23550   59.94530   98.03620
 5345.50000   47.47650    0.08070   12.27720    0.03130    0.04550    2.92830    2.65680   15.83820   17.03150   18.96660   56.75130   97.99960
 5346.00000   44.27770    0.09050   12.27530    0.02220    0.04700    2.93610    2.67270   16.56830   18.09750   18.36530   56.20190   98.12970
 5346.50000   38.15430    0.09860   12.27210    0.01670    0.04760    3.00850    2.68150   17.12000   18.73330   18.75630   55.73470   98.18780
 5347.00000   37.36670    0.10440   12.26640    0.01160    0.04760    3.05890    2.68760   15.98840   17.22780   18.37080   55.31770   97.54920
 5347.50000   38.74040    0.10730   12.27250    0.00990    0.04760    3.08120    2.69250   15.20730   15.84320   16.34190   54.27050   96.97350
 5348.00000   42.01290    0.10670   12.27030    0.01040    0.04760    3.09340    2.69330   15.19230   15.50200   15.88160   53.68820   96.38140
 5348.50000   43.09470    0.10420   12.26650    0.00540    0.04750    3.09210    2.70400   15.48200   15.80120   16.08090   54.28650   95.95920
 5349.00000   44.75810    0.10040   12.26720   -0.01020    0.04750    3.10360    2.72580   16.75320   16.28100   18.60620   53.47730   95.61750
 5349.50000   44.39760    0.09490   12.27240   -0.02360    0.04620    3.15090    2.74650   19.52720   18.75550   22.15850   53.11870   95.17510
 5350.00000   42.66340    0.08460   12.27200   -0.03240    0.04400    3.19810    2.76660   23.73420   22.42540   26.52990   53.33970   95.16800
 5350.50000   39.43550    0.07890   12.26920   -0.04020    0.04390    3.24580    2.78540   28.84760   26.02670   31.93690   53.61770   95.41920
 5351.00000   37.22920    0.07510   12.27140   -0.04600    0.04380    3.26660    2.78700   34.89350   30.46590   38.52210   53.84640   95.74260
 5351.50000   38.99000    0.07770   12.27360   -0.03390    0.03330    3.24930    2.77300   36.89830   30.71990   41.08310   54.34140   96.69980
 5352.00000   41.10120    0.08190   12.27580   -0.01960    0.03390    3.19940    2.74330   28.84960   22.45510   32.50410   55.80640   97.58600
 5352.50000   44.48480    0.08480   12.27580   -0.00810    0.03440    3.15980    2.72080   26.20810   21.41180   27.69620   56.86270   98.53640
 5353.00000   47.19770    0.08090   12.27520   -0.00480    0.04140    3.11890    2.71950   26.78950   24.72490   30.37440   57.62350   99.74750
 5353.50000   50.65780    0.07700   12.27810   -0.00690    0.05120    3.08180    2.71950   26.91210   22.70290   28.76100   59.29790  102.04520
 5354.00000   50.75430    0.07740   12.27890   -0.00460    0.06080    3.04210    2.71810   25.00100   21.17290   26.40600   60.33310  104.24780
 5354.50000   49.84650    0.08010   12.27820    0.00030    0.06350    2.93830    2.70690   23.24650   19.80990   24.64160   61.16340  106.31500
 5355.00000   48.98230    0.08450   12.27740    0.01450    0.06140    2.83460    2.68780   22.05970   19.13490   23.07460   61.85940  109.02650
 5355.50000   49.60540    0.08720   12.27660    0.03820    0.05910    2.77030    2.64710   15.74300   11.74650   17.60820   64.42130  111.39810
 5356.00000   49.54560    0.09180   12.30130    0.05510    0.05970    2.72620    2.60870   11.23510    9.20190   12.11340   65.74440  113.34610
 5356.50000   50.30650    0.09480   12.34080    0.06100    0.06310    2.68980    2.60810    8.84170    8.76830    9.73510   66.39570  115.05310
 5357.00000   52.86480    0.08600   12.36430    0.05120    0.06650    2.69710    2.62390    8.88900    9.23380   10.27050   68.47430  116.51210
 5357.50000   53.58110    0.07700   12.37490    0.04610    0.05990    2.74130    2.63150    9.96450    9.75750   10.70880   69.66480  119.29840
 5358.00000   54.39700    0.08200   12.35930    0.05280    0.05740    2.76500    2.61320   11.17020   10.31090   12.19960   69.51830  123.96830
 5358.50000   55.67340    0.09230   12.34540    0.06560    0.05620    2.72760    2.59430   10.97800    9.31530   11.55740   69.67790  124.76490
 5359.00000   60.03020    0.10770   12.35150    0.07790    0.05500    2.63690    2.57650    8.42670    7.45870    9.30960   69.96040  125.04490
 5359.50000   63.40780    0.12560   12.35720    0.09540    0.05460    2.59310    2.54530    6.41190    6.23350    7.11400   70.17410  125.46100
 5360.00000   65.65350    0.13410   12.36270    0.10040    0.05330    2.64290    2.53670    5.56960    5.97590    6.18140   69.84060  125.93710
 5360.50000   65.30530    0.13900   12.37210    0.09580    0.05210    2.67630    2.54360    5.64380    6.24380    6.65300   70.03980  126.29660
 5361.00000   58.12270    0.14110   12.39790    0.08620    0.05240    2.68680    2.56170    6.95350    6.90030    7.83750   69.73390  126.05720
 5361.50000   51.80590    0.13660   12.42370    0.07520    0.05270    2.65670    2.58210    8.56700    8.27550    9.23290   69.16270  123.94920
 5362.00000   51.61670    0.13120   12.42860    0.06980    0.05290    2.62570    2.59030    9.64090    9.39760   10.41840   68.04180  122.69040
 5362.50000   53.52090    0.13020   12.42860    0.06790    0.05250    2.61020    2.59430   10.03500    9.67270   10.38460   67.91130  121.15970
 5363.00000   56.42900    0.13380   12.42500    0.06930    0.04870    2.62510    2.58830   11.21880   10.29800   10.16170   66.80440  118.96040
 5363.50000   55.50060    0.13350   12.41200    0.07700    0.04420    2.66270    2.57620   10.27240    8.85490    9.78550   66.02320  116.80920
