~Version ---------------------------------------------------
VERS.   2.0 : CWLS log ASCII Standard -VERSION 2.0
WRAP.    NO : One line per depth step
DLM . SPACE : Column Data Section Delimiter
~Well ------------------------------------------------------
STRT .F                  100.0 : START DEPTH
STOP .F                10254.0 : STOP DEPTH
STEP .F                    0.5 : STEP
NULL .                -9999.25 : NULL VALUE
COMP .                         : COMPANY
WELL .                         : WELL
FLD  .                         : FIELD
LOC  .                         : LOCATION
PROV .                         : PROVINCE
CNTY .                         : COUNTY
STAT .                         : STATE
CTRY .                         : COUNTRY
SRVC .                         : SERVICE COMPANY
DATE .                         : DATE
UWI  .                         : UNIQUE WELL ID
API  .                         : API NUMBER
SLAT .WGS84  2.730585624137504 : SURFACE LATITUDE
SLON .WGS84 6.9206742762050055 : SURFACE LONGITUDE
DATUM.F                    nan : DEPTH DATUM ELEV
~Curve Information -----------------------------------------
DEPT   .F     : 1 MEASURED DEPTH
SGRDD  .GAPI  : SPECTROSCOPY GAMMA RAY FROM DENSITY LOG
TNPH_LS.DEC   : THERMAL NEUTRON POROSITY [LIMESTONE]
CALD   .IN    : CALIPER FROM DENSITY LOG
DPHZ_LS.DEC   : HGRD STANDARD RESOLUTION DENSITY POROSITY
HDRA   .G/C3  : HRDD SPINE AND RIBS DENSITY CORRECTION
PEFZ   .B/E   : HRDD STANDARD RESOLUTION FORMATION PHOTOELECTRIC FACTOR
RHOZ   .G/C3  : HRDD STANDARD RESOLUTION FORMATION DENSITY
RXOZ   .OHMM  : INVADED FORMATION RESISTIVITY FILTERED AT 18 INCHES
RLA3   .OHMM  : APPARENT RESISTIVITY FROM COMPUTED FOCUSING MODE 3
RLA5   .OHMM  : APPARENT RESISTIVITY FROM COMPUTED FOCUSING MODE 5
DTCO   .US/F  : DELTA-T COMPRESSIONAL
DTSM   .US/F  : DELTA-T SHEAR
~Params ----------------------------------------------------
~Other -----------------------------------------------------
~ASCII -----------------------------------------------------
# ...
 8052.00000   75.20410    0.18710   12.43590    0.13110    0.05060    2.81770    2.48360   60.77850   55.06480   58.70930   76.57480  122.80540
 8052.50000   72.44370    0.19040   12.40880    0.12690    0.04980    2.87720    2.49210   59.56580   54.26240   57.94340   76.35400  122.70470
 8053.00000   70.55580    0.19450   12.41440    0.12750    0.04900    2.89070    2.49280   64.50640   58.34160   62.32120   76.27410  122.42100
 8053.50000   69.05310    0.19550   12.43240    0.13290    0.04600    2.90640    2.48180   72.33690   64.40100   68.64690   76.31920  122.34590
 8054.00000   67.67760    0.18850   12.44480    0.14190    0.04170    2.97630    2.46900   82.22350   71.33590   75.61470   76.34470  122.22880
 8054.50000   65.19950    0.18250   12.44890    0.14510    0.03950    3.04610    2.46180   79.73150   75.71980   78.16210   76.40220  121.92960
 8055.00000   63.33210    0.17810   12.46160    0.13800    0.04120    3.11590    2.47160   70.96720   67.33100   67.59120   76.41110  122.04360
 8055.50000   63.26930    0.17910   12.44870    0.12690    0.04720    3.16320    2.49020   62.80030   60.03550   57.65900   76.12850  122.33010
 8056.00000   63.28040    0.18470   12.49670    0.12600    0.05170    3.12420    2.49390   63.19090   60.52450   57.64440   76.38370  122.65950
 8056.50000   63.47460    0.18600   12.48110    0.13450    0.05480    3.03330    2.47450   68.02480   66.88570   61.62930   76.66760  122.82260
 8057.00000   62.22760    0.18210   12.40200    0.14870    0.05270    2.92090    2.45740   90.43680   81.47470   78.35820   76.63650  122.91500
 8057.50000   61.16980    0.17800   12.41350    0.15110    0.05090    2.86560    2.45380  109.73800   83.78110   92.13010   76.59280  123.02970
 8058.00000   59.69100    0.17410   12.43940    0.15020    0.04920    2.81310    2.45260  122.41970   87.83780   96.04300   77.22980  123.12940
 8058.50000   59.46660    0.17220   12.44510    0.15030    0.04850    2.76130    2.45140  136.52170   96.40210  106.25920   77.20880  123.34010
 8059.00000   59.57310    0.17450   12.43570    0.15240    0.05000    2.70330    2.44900  144.16990   99.23290  114.14240   74.82120  123.31980
 8059.50000   59.94990    0.17680   12.44310    0.15540    0.05140    2.64180    2.44460  148.84030   92.13770  105.80760   72.40130  122.56220
 8060.00000   60.41200    0.18460   12.43550    0.15790    0.05040    2.59790    2.43830  157.68390   97.46500  111.50350   70.81150  121.85970
 8060.50000   61.02760    0.18110   12.43360    0.16070    0.04770    2.58180    2.43340  163.90170   92.35720  110.84610   69.63540  121.16090
 8061.00000   68.39720    0.19110   12.46360    0.16080    0.04500    2.63330    2.44120  114.82800   68.48240   85.76520   69.04410  120.71180
 8061.50000   72.62030    0.20510   12.39210    0.13420    0.04230    2.74690    2.48280   75.87530   54.05150   62.33000   69.04190  120.47200
 8062.00000   67.77590    0.21550   12.35080    0.08770    0.04290    2.95610    2.56870   89.73190   48.49670   56.43960   69.54760  120.54370
 8062.50000   55.04860    0.15740   12.32470    0.02590    0.04660    3.17950    2.68120  141.37770   73.42590   90.02340   70.04640  120.47590
 8063.00000   42.67110    0.12140   12.32370   -0.00920    0.05030    3.33600    2.72260  740.27950   95.74820  111.45450   71.23800  121.03450
 8063.50000   45.87340    0.09660   12.32290   -0.00410    0.05210    3.36010    2.72660  193.29700   65.39390   79.89800   72.69570  121.02450
 8064.00000   58.28740    0.12390   12.34820    0.02710    0.05200    3.29780    2.67590   96.93350   48.81920   54.36960   74.19770  121.45850
 8064.50000   72.97250    0.16000   12.37100    0.06440    0.05180    3.15510    2.58470   63.27250   45.63280   47.42590   75.64390  121.99060
 8065.00000   82.72660    0.19150   12.38330    0.10410    0.05150    2.99410    2.53840   53.70230   44.39710   45.38320   76.17430  122.46560
 8065.50000   87.45990    0.19810   12.39370    0.12490    0.05060    2.90050    2.49730   50.61690   43.19490   44.50610   76.46300  122.68690
 8066.00000   88.68790    0.20370   12.40790    0.13110    0.04980    2.80690    2.48670   48.77550   42.02520   43.64600   76.43650  122.43320
 8066.50000   88.70920    0.20910   12.42550    0.13260    0.04900    2.74000    2.48290   47.05330   40.88720   42.80260   76.15200  123.06590
 8067.00000   85.78050    0.20900   12.43990    0.13450    0.04780    2.73620    2.48070   45.84230   40.63100   42.05950   75.68660  122.69370
 8067.50000   82.75420    0.19380   12.42840    0.13270    0.04630    2.77480    2.48320   46.87420   44.59030   48.04720   75.21540  122.06150
 8068.00000   80.68210    0.18330   12.41730    0.12760    0.04480    2.84560    2.49260   52.84370   49.55150   56.53320   75.16260  121.47460
 8068.50000   76.08550    0.17420   12.41750    0.12290    0.04300    2.91950    2.50250   62.01010   56.75070   64.99820   75.25030  121.86840
 8069.00000   69.97520    0.16840   12.38880    0.11670    0.04050    3.02470    2.51110   70.81530   63.48690   69.07580   75.39730  121.83420
 8069.50000   66.42420    0.16440   12.39210    0.11400    0.04110    3.07930    2.51530   73.70030   60.14430   65.12310   75.76800  122.08530
 8070.00000   66.39910    0.16650   12.40550    0.11440    0.04160    3.09800    2.51310   72.38930   57.95530   62.77780   76.24320  122.45190
 8070.50000   67.35040    0.16360   12.40540    0.12380    0.04220    3.07500    2.49800   72.10600   56.55490   62.03180   76.76750  122.57210
 8071.00000   74.22810    0.17090   12.40680    0.13710    0.04270    3.01950    2.47840   68.62030   53.19420   58.48560   77.33360  122.96930
 8071.50000   79.34760    0.18140   12.41210    0.13960    0.04330    2.96410    2.47230   59.69130   48.56820   53.42800   78.08720  126.00280
 8072.00000   83.20620    0.19840   12.41710    0.13850    0.04420    2.96000    2.47470   55.51980   47.58870   51.72790   78.57300  126.13490
 8072.50000   82.83920    0.20710   12.45360    0.13590    0.04470    2.97480    2.47770   59.52560   52.61210   56.81320   78.76230  125.88090
 8073.00000   84.07870    0.21140   12.49540    0.14060    0.04210    2.98630    2.46870   65.56400   60.10020   59.21300   78.63590  125.55980
 8073.50000   83.23740    0.21410   12.47060    0.14660    0.04030    2.91780    2.46180   60.00820   54.23070   54.81880   78.33540  125.15660
 8074.00000   86.14210    0.21720   12.43920    0.14460    0.04100    2.83820    2.46420   51.90820   44.70370   47.85500   77.95120  124.92650
 8074.50000   88.36810    0.21640   12.42070    0.13730    0.04210    2.75260    2.47340   41.09230   36.85040   40.23190   77.57520  124.63430
 8075.00000   90.21100    0.20140   12.41620    0.13220    0.04310    2.71370    2.48220   37.80020   35.64400   36.90570   77.14550  124.41440
 8075.50000   88.35660    0.18640   12.42630    0.13430    0.04380    2.77220    2.48160   42.98370   37.75930   39.79970   76.55850  123.35740
 8076.00000   83.14040    0.18070   12.43860    0.13300    0.04380    2.85520    2.48230   51.53030   43.21230   46.63050   76.24460  122.66410
 8076.50000   77.60370    0.17680   12.46300    0.12750    0.04500    3.00330    2.49230   61.67840   49.84660   54.63370   76.05380  122.08670
 8077.00000   68.63300    0.16570   12.44180    0.12150    0.04600    3.17500    2.50130   67.91280   56.16870   61.65720   75.99120  121.90530
 8077.50000   67.92760    0.15920   12.44260    0.12120    0.04320    3.35790    2.50300   68.28530   54.85640   60.76130   76.01590  122.12470
 8078.00000   70.33790    0.16100   12.44900    0.12400    0.04100    3.38130    2.49820   63.64050   54.53390   59.87290   76.21650  122.64780
 8078.50000   76.22160    0.17200   12.45350    0.12800    0.03890    3.25730    2.49060   61.11040   55.33970   59.79220   76.40120  123.06160
 8079.00000   79.02380    0.18300   12.43750    0.13470    0.03990    3.11090    2.48110   63.34310   56.39960   62.78120   76.91670  123.66090
 8079.50000   80.84390    0.18970   12.44010    0.13750    0.04300    3.04660    2.47780   73.25720   64.05070   76.82990   77.43740  124.14510
