~Version ---------------------------------------------------
VERS.   2.0 : CWLS log ASCII Standard -VERSION 2.0
WRAP.    NO : One line per depth step
DLM . SPACE : Column Data Section Delimiter
~Well ------------------------------------------------------
STRT .F                  100.0 : START DEPTH
STOP .F                10254.0 : STOP DEPTH
STEP .F                    0.5 : STEP
NULL .                -9999.25 : NULL VALUE
COMP .                         : COMPANY
WELL .                         : WELL
FLD  .                         : FIELD
LOC  .                         : LOCATION
PROV .                         : PROVINCE
CNTY .                         : COUNTY
STAT .                         : STATE
CTRY .                         : COUNTRY
SRVC .                         : SERVICE COMPANY
DATE .                         : DATE
UWI  .                         : UNIQUE WELL ID
API  .                         : API NUMBER
SLAT .WGS84  2.730585624137504 : SURFACE LATITUDE
SLON .WGS84 6.9206742762050055 : SURFACE LONGITUDE
DATUM.F                    nan : DEPTH DATUM ELEV
~Curve Information -----------------------------------------
DEPT   .F     : 1 MEASURED DEPTH
SGRDD  .GAPI  : SPECTROSCOPY GAMMA RAY FROM DENSITY LOG
TNPH_LS.DEC   : THERMAL NEUTRON POROSITY [LIMESTONE]
CALD   .IN    : CALIPER FROM DENSITY LOG
DPHZ_LS.DEC   : HGRD STANDARD RESOLUTION DENSITY POROSITY
HDRA   .G/C3  : HRDD SPINE AND RIBS DENSITY CORRECTION
PEFZ   .B/E   : HRDD STANDARD RESOLUTION FORMATION PHOTOELECTRIC FACTOR
RHOZ   .G/C3  : HRDD STANDARD RESOLUTION FORMATION DENSITY
RXOZ   .OHMM  : INVADED FORMATION RESISTIVITY FILTERED AT 18 INCHES
RLA3   .OHMM  : APPARENT RESISTIVITY FROM COMPUTED FOCUSING MODE 3
RLA5   .OHMM  : APPARENT RESISTIVITY FROM COMPUTED FOCUSING MODE 5
DTCO   .US/F  : DELTA-T COMPRESSIONAL
DTSM   .US/F  : DELTA-T SHEAR
~Params ----------------------------------------------------
~Other -----------------------------------------------------
~ASCII -----------------------------------------------------
# ...
 10208.00000   -9999.25    0.21160   12.40330    0.15700    0.06900    2.56150    2.44100   95.33950   90.59930   86.51050   82.47090  134.74950
 10208.50000   -9999.25    0.22040   12.38670    0.16590    0.06010    2.60450    2.42360   97.69470   87.86540   79.73510   82.55370  135.51780
 10209.00000   -9999.25    0.22930   12.36750    0.17810    0.05130    2.65450    2.40350  126.06090   88.54800   79.61470   83.22560  135.73150
 10209.50000   -9999.25    0.23560   12.35870    0.18090    0.05150    2.69810    2.39880  101.57880   80.31760   66.06850   83.87660  135.28180
 10210.00000   -9999.25    0.23000   12.36670    0.16730    0.05170    2.76830    2.42790   57.01280   43.52450   38.35570   83.23480  134.45870
 10210.50000   -9999.25    0.22500   12.39200    0.15310    0.05210    2.85630    2.44960   47.12160   35.70960   34.08580   84.74270  132.40470
 10211.00000   -9999.25    0.21950   12.40020    0.13890    0.05490    2.87340    2.47490   47.56790   38.42500   36.58670   83.01400  130.08040
 10211.50000   -9999.25    0.21170   12.37660    0.13590    0.05770    2.88360    2.47870   52.55870   39.96800   38.43060   79.58020  126.89100
 10212.00000   -9999.25    0.20860   12.38250    0.13180    0.05510    2.91570    2.48700   45.57260   42.78060   41.74260   72.42610  124.03400
 10212.50000   -9999.25    0.22710   12.37920    0.11530    0.04920    3.16820    2.51950   55.47100   54.02150   50.26090   70.04900  121.83280
 10213.00000   -9999.25    0.26780   12.41890    0.09090    0.04460    3.75490    2.55270  100.43630   74.85480   80.13490   69.16780  118.84460
 10213.50000   -9999.25   -9999.25   12.37610    0.05640    0.03970    4.40810    2.60330  339.37270  107.31780  166.72400   67.84290  117.29630
 10214.00000   -9999.25   -9999.25   12.35630    0.03820    0.04160    4.60070    2.64490  398.94720  158.25330  217.56610   67.57420  118.09050
 10214.50000   -9999.25   -9999.25   12.35850    0.04890    0.04880    4.25050    2.61970  308.56080   66.90050  167.84760   67.95600  117.31760
 10215.00000   -9999.25   -9999.25   12.38140    0.06920    0.07080    3.62980    2.58690   66.92020   35.03840   65.64950   69.91440  117.52680
 10215.50000   -9999.25   -9999.25   12.46610    0.09690    0.10790    3.04900    2.54820   39.87450   27.61270   42.21000   74.12860  119.29450
 10216.00000   -9999.25   -9999.25   12.44510    0.10580    0.12670    2.80370    2.52800   45.22920   33.42960   43.90860   77.32910  121.43320
 10216.50000   -9999.25   -9999.25   12.42160    0.11980    0.10550    2.66580    2.49350   45.76570   42.08410   44.20300   77.04760  123.63980
 10217.00000   -9999.25   -9999.25   12.38700    0.14210    0.06300    2.58310    2.47040   38.38500   40.39600   41.96750   78.20300  126.43820
 10217.50000   -9999.25   -9999.25   12.38600    0.14850    0.06040    2.52480    2.45780   42.17030   41.44780   42.04680   79.26130  128.16420
 10218.00000   -9999.25   -9999.25   12.39940    0.14650    0.07980    2.50530    2.45910   51.61710   43.42830   44.28770   80.20970  129.17740
 10218.50000   -9999.25   -9999.25   12.55460    0.14010    0.12040    2.54340    2.47040   50.98670   45.50350   46.35050   77.86470  129.32830
 10219.00000   -9999.25   -9999.25   12.54930    0.13160    0.17670    2.59790    2.48640   49.99380   47.23220   48.07380   80.00290  129.47930
 10219.50000   -9999.25   -9999.25   12.54410    0.11970    0.23740    2.62380    2.50080   38.19620   43.26030   44.94840   81.71820  129.28490
 10220.00000   -9999.25   -9999.25   12.53960    0.11430    0.29810    2.63390    2.51660   25.57660   38.42740   40.41750   78.97810  129.42450
 10220.50000   -9999.25   -9999.25   12.53330    0.11000    0.31710    2.63690    2.52320   23.87810   41.31300   44.41370   80.45690  129.51780
 10221.00000   -9999.25   -9999.25   12.44360    0.10800    0.30360    2.63980    2.52480   24.69070   46.84470   44.08380   81.93580  129.61120
 10221.50000   -9999.25   -9999.25   12.40550    0.11120    0.29000    2.64160    2.52360   31.86780   39.72720   37.77750   78.69910  129.48790
 10222.00000   -9999.25   -9999.25   12.37350    0.11560    0.27640    2.62620    2.51250   35.66280   39.75770   37.43110   82.76690  129.43100
 10222.50000   -9999.25   -9999.25   12.36800    0.12560    0.26480    2.60070    2.50080   47.41950   40.20970   37.70170   81.40160  129.32840
 10223.00000   -9999.25   -9999.25   12.36730    0.12510    0.26600    2.58170    2.49520   35.66250   34.48410   39.94410   80.27920  129.10870
 10223.50000   -9999.25   -9999.25   12.33500    0.12610    0.26950    2.64480    2.49340   31.52990   30.62430   40.34000   80.18390  128.69390
 10224.00000   -9999.25   -9999.25   12.23030    0.12810    0.26810    2.72370    2.48930   32.96510   31.94880   45.15030   81.01360  127.44160
 10224.50000   -9999.25   -9999.25   12.15980    0.13310    0.26560    2.80930    2.47920   34.56360   32.96340   48.48980   79.79610  124.95280
 10225.00000   -9999.25   -9999.25   12.12940    0.13870    0.26790    2.89720    2.47340   48.26850   43.59050   48.39250   80.06800  123.40610
 10225.50000   -9999.25   -9999.25   12.12100    0.13700    0.27180    2.90280    2.47630   -9999.25   42.25110   48.29470   72.36850  121.81290
 10226.00000   -9999.25   -9999.25   12.11950    0.13270   -9999.25    2.88170    2.48010   -9999.25   37.26260   48.32020   69.41220  117.88010
 10226.50000   -9999.25   -9999.25   -9999.25   -9999.25   -9999.25   -9999.25   -9999.25   -9999.25   36.85000   48.35910   69.74120  116.41260
 10227.00000   -9999.25   -9999.25   -9999.25   -9999.25   -9999.25   -9999.25   -9999.25   -9999.25   61.96220   48.39970   70.28000  116.44220
 10227.50000   -9999.25   -9999.25   -9999.25   -9999.25   -9999.25   -9999.25   -9999.25   -9999.25  122.14670   48.43990   69.45700  116.34050
 10228.00000   -9999.25   -9999.25   -9999.25   -9999.25   -9999.25   -9999.25   -9999.25   -9999.25  120.96560   48.48010   71.25590  116.72100
 10228.50000   -9999.25   -9999.25   -9999.25   -9999.25   -9999.25   -9999.25   -9999.25   -9999.25   74.32810   48.52030   70.77280  116.96900
 10229.00000   -9999.25   -9999.25   -9999.25   -9999.25   -9999.25   -9999.25   -9999.25   -9999.25   22.99710   48.56060   72.77680  117.33480
 10229.50000   -9999.25   -9999.25   -9999.25   -9999.25   -9999.25   -9999.25   -9999.25   -9999.25   26.24990   48.60090   75.89420  121.55780
 10230.00000   -9999.25   -9999.25   -9999.25   -9999.25   -9999.25   -9999.25   -9999.25   -9999.25   27.87190   48.64130   76.86380  123.99330
 10230.50000   -9999.25   -9999.25   -9999.25   -9999.25   -9999.25   -9999.25   -9999.25   -9999.25   28.92790   48.68170   78.61320  124.75350
 10231.00000   -9999.25   -9999.25   -9999.25   -9999.25   -9999.25   -9999.25   -9999.25   -9999.25   30.39140   48.64320   78.66230  124.86200
 10231.50000   -9999.25   -9999.25   -9999.25   -9999.25   -9999.25   -9999.25   -9999.25   -9999.25   28.40240   48.52540   79.52620  125.39020
 10232.00000   -9999.25   -9999.25   -9999.25   -9999.25   -9999.25   -9999.25   -9999.25   -9999.25   27.65040   47.58330   78.46590  126.10950
 10232.50000   -9999.25   -9999.25   -9999.25   -9999.25   -9999.25   -9999.25   -9999.25   -9999.25   27.30600   45.59160   80.91250  126.82590
 10233.00000   -9999.25   -9999.25   -9999.25   -9999.25   -9999.25   -9999.25   -9999.25   -9999.25   22.99100   45.79240   77.96280  124.96260
 10233.50000   -9999.25   -9999.25   -9999.25   -9999.25   -9999.25   -9999.25   -9999.25   -9999.25   20.53040   45.97230   82.19650  125.86370
 10234.00000   -9999.25   -9999.25   -9999.25   -9999.25   -9999.25   -9999.25   -9999.25   -9999.25   28.66590   46.60030   80.21530  126.16660
 10234.50000   -9999.25   -9999.25   -9999.25   -9999.25   -9999.25   -9999.25   -9999.25   -9999.25   29.15110   48.16010   78.34070  126.10440
 10235.00000   -9999.25   -9999.25   -9999.25   -9999.25   -9999.25   -9999.25   -9999.25   -9999.25   29.64450   48.44150   80.31340  126.44390
 10235.50000   -9999.25   -9999.25   -9999.25   -9999.25   -9999.25   -9999.25   -9999.25   -9999.25   31.29920   48.29920   79.27350  126.82680
