~Version ---------------------------------------------------
VERS.   2.0 : CWLS log ASCII Standard -VERSION 2.0
WRAP.    NO : One line per depth step
DLM . SPACE : Column Data Section Delimiter
~Well ------------------------------------------------------
STRT .F                   13.0 : START DEPTH
STOP .F                 9040.0 : STOP DEPTH
STEP .F                    0.5 : STEP
NULL .                -9999.25 : NULL VALUE
COMP .                         : COMPANY
WELL .                         : WELL
FLD  .                         : FIELD
LOC  .                         : LOCATION
PROV .                         : PROVINCE
CNTY .                         : COUNTY
STAT .                         : STATE
CTRY .                         : COUNTRY
SRVC .                         : SERVICE COMPANY
DATE .                         : DATE
UWI  .                         : UNIQUE WELL ID
API  .                         : API NUMBER
SLAT .WGS84 1.0851799897875019 : SURFACE LATITUDE
SLON .WGS84  7.322864505002002 : SURFACE LONGITUDE
DATUM.F                    nan : DEPTH DATUM ELEV
~Curve Information -----------------------------------------
DEPT    .F     : 1 MEASURED DEPTH
GRD     .GAPI  : GAMMA RAY FROM DENSITY LOG
CNPOR_LS.DEC   : COMPENSATED ENHANCED THERMAL NEUTRON POROSITY IN SELECTED LITHOLOGY LIMESTONE
GRS     .GAPI  : GAMMA RAY FROM SONIC LOG
DTCO    .US/F  : DELTA-T COMPRESSIONAL
DTSM    .US/F  : DELTA-T SHEAR
~Params ----------------------------------------------------
~Other -----------------------------------------------------
~ASCII -----------------------------------------------------
# ...
 6133.00000   -9999.25    0.03800   25.50840   93.86630   51.09210
 6133.50000   -9999.25    0.03560   21.99190   92.31440   50.68350
 6134.00000   -9999.25    0.04000   17.73450   91.96730   50.99150
 6134.50000   -9999.25    0.04530   16.63310   93.09880   52.40630
 6135.00000   -9999.25    0.04930   18.53310   95.16400   54.30300
 6135.50000   -9999.25    0.04800   19.72840   97.13090   55.87510
 6136.00000   -9999.25    0.04170   16.83380   97.05490   55.97930
 6136.50000   -9999.25    0.03960   13.81590   96.35420   55.25700
 6137.00000   -9999.25    0.04560   11.54690   95.24520   54.34960
 6137.50000   -9999.25    0.04750   12.20460   94.99080   53.71510
 6138.00000   -9999.25    0.04540   13.21840   94.88420   53.25510
 6138.50000   -9999.25    0.04660   15.55480   95.09650   52.68760
 6139.00000   -9999.25    0.04920   18.57770   95.81760   53.07570
 6139.50000   -9999.25    0.04860   22.04700   97.83530   53.62860
 6140.00000   -9999.25    0.04690   24.32840   99.66870   53.80990
 6140.50000   -9999.25    0.04380   23.11060   99.93120   53.29650
 6141.00000   -9999.25    0.03790   19.33870   98.91680   52.44230
 6141.50000   -9999.25    0.03330   16.27340   98.11530   51.91910
 6142.00000   -9999.25    0.03400   18.74980   98.70120   52.56690
 6142.50000   -9999.25    0.04070   21.14300   99.97030   53.81110
 6143.00000   -9999.25    0.04600   22.87420  100.90560   54.38790
 6143.50000   -9999.25    0.04590   19.09640  100.90200   54.08870
 6144.00000   -9999.25    0.04600   16.47400  100.03620   53.48950
 6144.50000   -9999.25    0.04870   16.00000   99.06100   52.62270
 6145.00000   -9999.25    0.05240   15.86880   99.48840   51.95440
 6145.50000   -9999.25    0.05130   14.88740  100.17740   51.99520
 6146.00000   -9999.25    0.04430   11.57120  101.24030   52.59810
 6146.50000   -9999.25    0.03860   11.03180  103.11350   53.80420
 6147.00000   -9999.25    0.03740   10.54660  104.20260   55.24080
 6147.50000   -9999.25    0.04180   11.11690  103.67150   55.45340
 6148.00000   -9999.25    0.04910   11.85230  101.74080   54.73830
 6148.50000   -9999.25    0.05120   14.40890   99.38000   54.04150
 6149.00000   -9999.25    0.04890   16.55130   96.92270   53.27650
 6149.50000   -9999.25    0.04350   17.70390   95.13570   52.70780
 6150.00000   -9999.25    0.03860   19.10660   94.09200   51.91510
 6150.50000   -9999.25    0.03860   21.41910   93.32910   51.39060
 6151.00000   -9999.25    0.04190   21.21400   92.99600   51.39060
 6151.50000   -9999.25    0.04090   19.83840   92.92060   52.04880
 6152.00000   -9999.25    0.04120   18.84450   92.94990   53.10530
 6152.50000   -9999.25    0.04530   21.34420   91.85920   53.91140
 6153.00000   -9999.25    0.04730   22.85270   90.73620   53.41900
 6153.50000   -9999.25    0.04800   21.58330   91.00460   53.22180
 6154.00000   -9999.25    0.05310   17.94420   93.40690   53.74800
 6154.50000   -9999.25    0.06520   16.00530   96.87810   54.11610
 6155.00000   -9999.25    0.06850   16.32290   99.13200   54.32160
 6155.50000   -9999.25    0.06020   15.60740  100.08180   54.47520
 6156.00000   -9999.25    0.05440   16.21340  100.78990   55.02570
 6156.50000   -9999.25    0.05200   17.82290  102.13340   55.61890
 6157.00000   -9999.25    0.04950   20.64770  101.52420   55.44870
 6157.50000   -9999.25    0.04940   21.52090   99.14660   54.01290
 6158.00000   -9999.25    0.05050   20.08340   96.79370   52.39160
 6158.50000   -9999.25    0.04940   17.21840   95.82000   51.77690
 6159.00000   -9999.25    0.04650   15.73400   95.08700   51.58210
 6159.50000   -9999.25    0.04210   17.28080   94.77370   51.22250
 6160.00000   -9999.25    0.03890   17.69940   94.65030   50.52760
 6160.50000   -9999.25    0.03920   16.97180   95.20190   50.53430
 6161.00000   -9999.25    0.04000   13.32190   97.20110   51.41800
 6161.50000   -9999.25    0.03920   13.09350   98.85620   52.86910
 6162.00000   -9999.25    0.03820   13.00720   98.02940   53.63530
 6162.50000   -9999.25    0.03820   13.68350   97.05110   54.06760
 6163.00000   -9999.25    0.04250   16.69190   96.03710   54.74110
 6163.50000   -9999.25    0.04870   23.03380   97.55420   56.15630
 6164.00000   -9999.25    0.05700   28.82040   99.92900   56.51630
 6164.50000   -9999.25    0.06800   30.96730  101.91380   55.13400
 6165.00000   -9999.25    0.06980   28.26110  102.18390   52.46260
 6165.50000   -9999.25    0.06200   23.60060  100.46010   50.30080
 6166.00000   -9999.25    0.05810   17.14080   96.83470   48.93170
 6166.50000   -9999.25    0.05670   14.08510   94.59840   49.03150
 6167.00000   -9999.25    0.05020   12.11150   94.86560   51.40190
 6167.50000   -9999.25    0.04360   12.49580   94.46390   52.55360
 6168.00000   -9999.25    0.03810   13.41890   93.46510   52.21370
 6168.50000   -9999.25    0.03610   14.44490   92.48300   51.36560
 6169.00000   -9999.25    0.04160   13.44180   91.34690   50.21480
 6169.50000   -9999.25    0.04700   13.02740   89.88180   48.76110
 6170.00000   -9999.25    0.04570   12.50200   88.99020   48.50620
 6170.50000   -9999.25    0.04300   13.15670   87.78140   48.66510
 6171.00000   -9999.25    0.04250   14.49160   87.68300   49.23820
 6171.50000   -9999.25    0.04280   15.87580   88.18760   49.41360
 6172.00000   -9999.25    0.04280   17.07920   91.11270   49.44080
 6172.50000   -9999.25    0.04190   18.61510   94.37630   49.80820
 6173.00000   -9999.25    0.04110   24.43820   97.51210   50.81850
 6173.50000   -9999.25    0.04500   31.31570  100.05760   52.76180
 6174.00000   -9999.25    0.05340   41.77250  102.83260   55.28860
 6174.50000   -9999.25    0.06030   49.94050  107.53330   59.00840
 6175.00000   -9999.25    0.06620   57.30990  111.98560   62.85170
 6175.50000   -9999.25    0.07640   53.48580  115.87340   66.08450
 6176.00000   -9999.25    0.08240   44.21920  116.49380   66.52320
 6176.50000   -9999.25    0.08200   34.26400  113.64410   63.45830
 6177.00000   -9999.25    0.08720   28.88500  109.36790   58.13460
 6177.50000   -9999.25    0.09210   25.26130  105.49800   53.09130
 6178.00000   -9999.25    0.08280   22.15690  103.94330   49.99040
 6178.50000   -9999.25    0.07590   20.58330  103.41380   48.67710
 6179.00000   -9999.25    0.07800   20.78580  103.11860   47.47260
 6179.50000   -9999.25    0.08050   22.43710  102.56000   45.96250
 6180.00000   -9999.25    0.07060   22.95130  101.83040   44.31650
 6180.50000   -9999.25    0.06030   22.85620  101.85250   43.40950
 6181.00000   -9999.25    0.06240   23.61040  103.66290   44.63810
 6181.50000   -9999.25    0.06290   27.64110  108.02430   49.00250
 6182.00000   -9999.25    0.05830   30.55010  109.15730   54.01060
 6182.50000   -9999.25    0.06090   33.44000  109.94110   57.97890
 6183.00000   -9999.25    0.07200   32.78170  110.34070   62.50920
 6183.50000   -9999.25    0.10380   32.84710  116.90550   67.07850
 6184.00000   -9999.25    0.14880   29.81980  115.87540   66.92360
 6184.50000   -9999.25    0.14140   25.44230  110.12960   62.56300
 6185.00000   -9999.25    0.12230   20.69670  102.61370   56.84170
 6185.50000   -9999.25    0.12220   18.35710  100.66680   55.61660
 6186.00000   -9999.25    0.10980   15.38310  100.25180   56.14070
 6186.50000   -9999.25    0.08830   14.08280  100.14850   57.56440
 6187.00000   -9999.25    0.07010   11.54910   99.18950   57.67940
 6187.50000   -9999.25    0.05850   12.97800   98.30730   57.00670
 6188.00000   -9999.25    0.05640   12.80970   97.71230   55.43070
 6188.50000   -9999.25    0.05920   12.69860   97.82040   54.49580
 6189.00000   -9999.25    0.06800   12.67870   98.35790   54.44150
 6189.50000   -9999.25    0.07210   14.77740  100.05210   55.66570
 6190.00000   -9999.25    0.06660   18.81450  102.41450   56.65150
 6190.50000   -9999.25    0.06510   22.02780  104.52750   57.55890
 6191.00000   -9999.25    0.06880   22.95410  105.69690   57.18770
 6191.50000   -9999.25    0.06690   21.01530  105.90850   56.54840
 6192.00000   -9999.25    0.06280   20.54320  106.45790   55.77990
 6192.50000   -9999.25    0.06160   19.84130  107.25140   55.90390
