~Version ---------------------------------------------------
VERS.   2.0 : CWLS log ASCII Standard -VERSION 2.0
WRAP.    NO : One line per depth step
DLM . SPACE : Column Data Section Delimiter
~Well ------------------------------------------------------
STRT .F                   13.0 : START DEPTH
STOP .F                 9040.0 : STOP DEPTH
STEP .F                    0.5 : STEP
NULL .                -9999.25 : NULL VALUE
COMP .                         : COMPANY
WELL .                         : WELL
FLD  .                         : FIELD
LOC  .                         : LOCATION
PROV .                         : PROVINCE
CNTY .                         : COUNTY
STAT .                         : STATE
CTRY .                         : COUNTRY
SRVC .                         : SERVICE COMPANY
DATE .                         : DATE
UWI  .                         : UNIQUE WELL ID
API  .                         : API NUMBER
SLAT .WGS84 1.0851799897875019 : SURFACE LATITUDE
SLON .WGS84  7.322864505002002 : SURFACE LONGITUDE
DATUM.F                    nan : DEPTH DATUM ELEV
~Curve Information -----------------------------------------
DEPT    .F     : 1 MEASURED DEPTH
GRD     .GAPI  : GAMMA RAY FROM DENSITY LOG
CNPOR_LS.DEC   : COMPENSATED ENHANCED THERMAL NEUTRON POROSITY IN SELECTED LITHOLOGY LIMESTONE
GRS     .GAPI  : GAMMA RAY FROM SONIC LOG
DTCO    .US/F  : DELTA-T COMPRESSIONAL
DTSM    .US/F  : DELTA-T SHEAR
~Params ----------------------------------------------------
~Other -----------------------------------------------------
~ASCII -----------------------------------------------------
# ...
 8473.00000   -9999.25    0.25290   82.83230  152.49500   87.82170
 8473.50000   -9999.25    0.25220   79.06640  150.84300   86.62530
 8474.00000   -9999.25    0.23490   79.20220  149.05840   85.17640
 8474.50000   -9999.25    0.19670   78.15080  147.73380   84.47370
 8475.00000   -9999.25    0.18660   76.47060  147.35220   84.09270
 8475.50000   -9999.25    0.19990   73.93580  147.94260   84.40030
 8476.00000   -9999.25    0.20060   75.51640  148.47760   84.79860
 8476.50000   -9999.25    0.18310   80.39040  149.30740   84.65400
 8477.00000   -9999.25    0.16800   88.00990  150.15230   84.62210
 8477.50000   -9999.25    0.17660   89.51100  151.12420   85.23210
 8478.00000   -9999.25    0.19260   83.88450  151.87820   85.10110
 8478.50000   -9999.25    0.17490   75.64470  149.35130   82.00650
 8479.00000   -9999.25    0.14500   67.27660  137.58390   74.84410
 8479.50000   -9999.25    0.14070   58.75450  123.51890   68.12820
 8480.00000   -9999.25    0.14010   57.51150  119.40100   67.13550
 8480.50000   -9999.25    0.12510   61.49630  128.75070   73.07270
 8481.00000   -9999.25    0.11980   73.25880  140.64430   80.10540
 8481.50000   -9999.25    0.13680   77.29140  147.50000   84.20740
 8482.00000   -9999.25    0.15550   79.48340  149.72710   84.89430
 8482.50000   -9999.25    0.17440   81.62170  150.45770   85.10820
 8483.00000   -9999.25    0.19980   84.22220  151.57720   85.32210
 8483.50000   -9999.25    0.23300   83.15230  152.51640   85.60830
 8484.00000   -9999.25    0.27050   82.34620  153.01870   86.03390
 8484.50000   -9999.25    0.29000   84.40570  152.97850   86.03390
 8485.00000   -9999.25    0.28050   89.08510  151.95860   86.03390
 8485.50000   -9999.25    0.25620   91.37090  150.74450   85.54820
 8486.00000   -9999.25    0.21960   88.00180  149.18850   84.96450
 8486.50000   -9999.25    0.20530   84.12380  148.11840   84.38080
 8487.00000   -9999.25    0.22350   78.79910  147.07380   83.71630
 8487.50000   -9999.25    0.23950   80.49500  146.05220   83.06400
 8488.00000   -9999.25    0.25240   83.80350  146.05960   83.02060
 8488.50000   -9999.25    0.27610   85.98120  146.09730   83.35340
 8489.00000   -9999.25    0.29770   86.12290  146.90230   83.97570
 8489.50000   -9999.25    0.29370   82.12820  148.04440   84.26920
 8490.00000   -9999.25    0.28050   80.72720  148.13450   83.81920
 8490.50000   -9999.25    0.27610   79.97300  147.99760   83.24820
 8491.00000   -9999.25    0.24600   79.77360  147.33000   82.57320
 8491.50000   -9999.25    0.21490   80.31600  146.75100   82.52300
 8492.00000   -9999.25    0.20160   79.64560  146.62260   82.74480
 8492.50000   -9999.25    0.20590   78.03730  145.90190   82.78310
 8493.00000   -9999.25    0.21300   77.89570  145.17470   82.58430
 8493.50000   -9999.25    0.22510   79.04370  144.54560   82.65370
 8494.00000   -9999.25    0.23160   77.00120  144.31550   83.05980
 8494.50000   -9999.25    0.23800   76.68640  145.17170   83.94890
 8495.00000   -9999.25    0.23960   80.23890  147.29290   85.52880
 8495.50000   -9999.25    0.23390   85.90570  150.33860   86.76180
 8496.00000   -9999.25    0.23750   90.44120  152.72610   87.17640
 8496.50000   -9999.25    0.25080   89.28820  154.35850   87.56820
 8497.00000   -9999.25    0.24300   87.66540  153.87010   87.88430
 8497.50000   -9999.25    0.22530   76.86460  152.01380   88.25690
 8498.00000   -9999.25    0.21110   65.30080  150.01980   88.96140
 8498.50000   -9999.25    0.18280   53.92980  135.78180   81.89150
 8499.00000   -9999.25    0.14120   44.81830  107.40690   65.93510
 8499.50000   -9999.25    0.11750   44.58980   99.12240   57.89030
 8500.00000   -9999.25    0.09870   49.63530  110.22230   66.31890
 8500.50000   -9999.25    0.08170   59.17850  129.29690   77.33980
 8501.00000   -9999.25    0.08330   67.49320  142.51190   84.45980
 8501.50000   -9999.25    0.10700   77.18690  146.52280   85.90000
 8502.00000   -9999.25    0.12610   83.94440  149.97360   87.03920
 8502.50000   -9999.25    0.13840   85.60310  150.74350   87.57950
 8503.00000   -9999.25    0.19090   84.33570  149.74740   87.19400
 8503.50000   -9999.25    0.23130   79.85480  147.81110   86.33330
 8504.00000   -9999.25    0.27350   73.83880  145.82670   85.29100
 8504.50000   -9999.25    0.28280   69.76150  144.07040   84.29370
 8505.00000   -9999.25    0.24920   68.10850  142.37960   82.94180
 8505.50000   -9999.25    0.21760   67.28210  141.15550   82.01980
 8506.00000   -9999.25    0.20050   65.53220  141.46830   81.65440
 8506.50000   -9999.25    0.18230   69.35050  142.43050   81.79780
 8507.00000   -9999.25    0.17990   72.64630  143.14850   81.94720
 8507.50000   -9999.25    0.18630   75.09430  143.67530   82.16760
 8508.00000   -9999.25    0.18450   72.74040  143.38060   81.01820
 8508.50000   -9999.25    0.18230   68.63050  138.99570   78.28730
 8509.00000   -9999.25    0.18850   61.64230  132.99570   74.08740
 8509.50000   -9999.25    0.19370   57.77920  132.05000   72.53350
 8510.00000   -9999.25    0.17880   58.17310  135.51900   74.80970
 8510.50000   -9999.25    0.17310   65.86520  145.18520   80.70370
 8511.00000   -9999.25    0.19860   73.67710  152.42190   85.49300
 8511.50000   -9999.25    0.23780   83.21130  154.13060   87.28210
 8512.00000   -9999.25    0.27120   85.43580  153.41320   86.96310
 8512.50000   -9999.25    0.25720   80.07960  151.11390   86.04250
 8513.00000   -9999.25    0.23190   76.94980  149.19530   85.03690
 8513.50000   -9999.25    0.22010   75.83700  147.50130   84.40180
 8514.00000   -9999.25    0.20250   79.91510  146.88380   84.23590
 8514.50000   -9999.25    0.19450   76.65310  146.29400   83.77710
 8515.00000   -9999.25    0.19960   73.09790  144.96220   82.91230
 8515.50000   -9999.25    0.19070   71.21850  143.42160   82.04080
 8516.00000   -9999.25    0.16850   72.50900  142.12450   81.28130
 8516.50000   -9999.25    0.15470   74.25230  140.09790   80.74940
 8517.00000   -9999.25    0.15080   72.63540  137.37500   79.47290
 8517.50000   -9999.25    0.15600   69.31790  136.80830   78.83980
 8518.00000   -9999.25    0.16650   68.64980  138.77210   80.06820
 8518.50000   -9999.25    0.16390   73.48510  142.16670   82.52050
 8519.00000   -9999.25    0.15790   80.48110  147.83160   85.29650
 8519.50000   -9999.25    0.16660   84.16350  151.56420   87.82180
 8520.00000   -9999.25    0.17570   82.16760  151.26000   88.37790
 8520.50000   -9999.25    0.17290   68.91550  143.44050   83.90790
 8521.00000   -9999.25    0.17110   52.04340  125.44340   73.39880
 8521.50000   -9999.25    0.17280   35.50200  118.15910   67.74750
 8522.00000   -9999.25    0.17870   40.25800  120.15800   70.63000
 8522.50000   -9999.25    0.16520   55.89970  128.47680   77.70850
 8523.00000   -9999.25    0.14140   69.57510  137.06160   82.47530
 8523.50000   -9999.25    0.14290   80.44250  141.36950   82.78200
 8524.00000   -9999.25    0.16160   76.21700  141.24870   81.58610
 8524.50000   -9999.25    0.16100   67.44380  135.44170   78.10890
 8525.00000   -9999.25    0.15320   51.05550  127.10930   71.12860
 8525.50000   -9999.25    0.14130   39.73510  115.44760   61.97790
 8526.00000   -9999.25    0.11750   33.75340  113.10080   58.26550
 8526.50000   -9999.25    0.09860   34.86740  115.95580   59.34740
 8527.00000   -9999.25    0.09620   38.55010  121.94440   64.83980
 8527.50000   -9999.25    0.10170   46.87070  128.88240   71.13550
 8528.00000   -9999.25    0.12510   55.33340  134.79940   76.16150
 8528.50000   -9999.25    0.15470   64.78630  138.62860   79.21500
 8529.00000   -9999.25    0.17990   72.96610  142.17620   81.26700
 8529.50000   -9999.25    0.18370   75.34660  145.56920   82.77490
 8530.00000   -9999.25    0.20020   78.55820  147.19630   84.82270
 8530.50000   -9999.25    0.20740   75.98930  148.82350   85.26190
 8531.00000   -9999.25    0.18630   80.80160  149.47110   85.32800
 8531.50000   -9999.25    0.16920   77.30830  149.46390   85.08910
 8532.00000   -9999.25    0.16860   77.46740  149.01730   84.54790
 8532.50000   -9999.25    0.18320   75.56780  149.01730   84.39120
