~Version ---------------------------------------------------
VERS.   2.0 : CWLS log ASCII Standard -VERSION 2.0
WRAP.    NO : One line per depth step
DLM . SPACE : Column Data Section Delimiter
~Well ------------------------------------------------------
STRT .F                   13.0 : START DEPTH
STOP .F                 9040.0 : STOP DEPTH
STEP .F                    0.5 : STEP
NULL .                -9999.25 : NULL VALUE
COMP .                         : COMPANY
WELL .                         : WELL
FLD  .                         : FIELD
LOC  .                         : LOCATION
PROV .                         : PROVINCE
CNTY .                         : COUNTY
STAT .                         : STATE
CTRY .                         : COUNTRY
SRVC .                         : SERVICE COMPANY
DATE .                         : DATE
UWI  .                         : UNIQUE WELL ID
API  .                         : API NUMBER
SLAT .WGS84 1.0851799897875019 : SURFACE LATITUDE
SLON .WGS84  7.322864505002002 : SURFACE LONGITUDE
DATUM.F                    nan : DEPTH DATUM ELEV
~Curve Information -----------------------------------------
DEPT    .F     : 1 MEASURED DEPTH
GRD     .GAPI  : GAMMA RAY FROM DENSITY LOG
CNPOR_LS.DEC   : COMPENSATED ENHANCED THERMAL NEUTRON POROSITY IN SELECTED LITHOLOGY LIMESTONE
GRS     .GAPI  : GAMMA RAY FROM SONIC LOG
DTCO    .US/F  : DELTA-T COMPRESSIONAL
DTSM    .US/F  : DELTA-T SHEAR
~Params ----------------------------------------------------
~Other -----------------------------------------------------
~ASCII -----------------------------------------------------
# ...
 8233.00000   -9999.25    0.10930   39.96250  116.49090   68.79200
 8233.50000   -9999.25    0.12390   47.48650  121.88200   72.37530
 8234.00000   -9999.25    0.13540   60.74300  128.08980   77.75090
 8234.50000   -9999.25    0.13190   74.58490  133.79650   80.87890
 8235.00000   -9999.25    0.13240   80.99430  135.87650   81.96740
 8235.50000   -9999.25    0.16290   84.54270  136.65630   82.42280
 8236.00000   -9999.25    0.20290   79.84390  135.73840   82.58980
 8236.50000   -9999.25    0.18650   73.06580  133.07630   81.86980
 8237.00000   -9999.25    0.14000   66.86360  127.55190   78.58630
 8237.50000   -9999.25    0.12620   65.08300  121.77050   75.37240
 8238.00000   -9999.25    0.14660   68.56860  121.45830   75.31740
 8238.50000   -9999.25    0.16850   73.76510  125.72040   78.17630
 8239.00000   -9999.25    0.17560   77.96830  130.50450   79.61380
 8239.50000   -9999.25    0.14270   77.23590  131.31480   78.50650
 8240.00000   -9999.25    0.11370   66.49040  127.19570   74.97330
 8240.50000   -9999.25    0.12240   57.18720  122.25660   71.17740
 8241.00000   -9999.25    0.16080   46.14950  117.76200   68.82740
 8241.50000   -9999.25    0.18080   41.50000  117.37700   68.22620
 8242.00000   -9999.25    0.14650   46.46600  119.12450   70.19700
 8242.50000   -9999.25    0.12960   56.81410  122.63670   72.97730
 8243.00000   -9999.25    0.13160   65.92600  127.00090   76.89730
 8243.50000   -9999.25    0.12810   70.47500  132.09060   80.09390
 8244.00000   -9999.25    0.14400   77.87670  135.95730   81.64010
 8244.50000   -9999.25    0.18270   81.36150  137.44570   81.74780
 8245.00000   -9999.25    0.22390   79.43570  137.07750   81.50050
 8245.50000   -9999.25    0.23460   71.82230  137.30260   81.36670
 8246.00000   -9999.25    0.24050   70.61010  137.36860   81.22630
 8246.50000   -9999.25    0.24080   69.94790  136.78000   80.94090
 8247.00000   -9999.25    0.21770   70.63720  136.01970   80.44960
 8247.50000   -9999.25    0.19160   72.94380  136.53780   80.66450
 8248.00000   -9999.25    0.19170   77.19490  138.70750   81.77090
 8248.50000   -9999.25    0.19600   81.54460  140.43120   82.83100
 8249.00000   -9999.25    0.17660   81.80070  140.80440   82.92530
 8249.50000   -9999.25    0.16790   80.85090  140.11530   82.48670
 8250.00000   -9999.25    0.19630   77.41590  138.29800   81.24950
 8250.50000   -9999.25    0.21830   74.16480  136.19890   80.14220
 8251.00000   -9999.25    0.23220   71.00270  135.03080   79.39950
 8251.50000   -9999.25    0.24980   69.51850  135.26560   79.27000
 8252.00000   -9999.25    0.24790   69.07410  135.39970   79.25640
 8252.50000   -9999.25    0.20680   69.72590  134.35010   79.15800
 8253.00000   -9999.25    0.18870   67.97470  130.86000   77.42360
 8253.50000   -9999.25    0.18900   58.40150  123.69310   72.50650
 8254.00000   -9999.25    0.18670   45.33560  116.08010   65.80270
 8254.50000   -9999.25    0.16920   37.88750  114.09520   63.28520
 8255.00000   -9999.25    0.13580   46.76780  118.33230   65.88330
 8255.50000   -9999.25    0.12480   60.13170  125.28030   71.38650
 8256.00000   -9999.25    0.12300   71.39040  128.35820   74.37920
 8256.50000   -9999.25    0.11610   68.43170  126.43130   74.37630
 8257.00000   -9999.25    0.11250   62.29380  122.91800   72.88790
 8257.50000   -9999.25    0.11860   57.42400  121.31010   72.15570
 8258.00000   -9999.25    0.11520   56.17060  120.63940   72.24600
 8258.50000   -9999.25    0.11950   58.41540  119.96880   72.26540
 8259.00000   -9999.25    0.14950   56.11780  118.31200   71.24860
 8259.50000   -9999.25    0.16500   55.79050  116.05000   69.92370
 8260.00000   -9999.25    0.16230   53.69990  115.70130   69.73840
 8260.50000   -9999.25    0.16030   56.33600  115.98610   70.43740
 8261.00000   -9999.25    0.13670   57.75420  117.08620   71.15400
 8261.50000   -9999.25    0.11160   58.24250  118.17770   71.81850
 8262.00000   -9999.25    0.11180   55.21050  119.01290   72.06500
 8262.50000   -9999.25    0.12540   53.45260  119.34790   72.00310
 8263.00000   -9999.25    0.13630   52.95500  119.65520   72.28450
 8263.50000   -9999.25    0.14670   55.85550  121.18680   72.88100
 8264.00000   -9999.25    0.14530   55.01150  122.98040   73.88320
 8264.50000   -9999.25    0.13980   57.66110  124.75850   74.76840
 8265.00000   -9999.25    0.15270   59.30440  126.32720   75.19210
 8265.50000   -9999.25    0.15820   64.16860  127.55070   75.79330
 8266.00000   -9999.25    0.14350   66.01340  129.37550   77.46580
 8266.50000   -9999.25    0.14070   65.79510  131.55170   79.15720
 8267.00000   -9999.25    0.14440   61.54520  131.82110   79.17530
 8267.50000   -9999.25    0.15190   50.47960  126.90610   75.01530
 8268.00000   -9999.25    0.15380   39.52810  117.22180   66.26500
 8268.50000   -9999.25    0.13260   29.01490  105.65870   57.25250
 8269.00000   -9999.25    0.12070   23.26220  100.69280   52.59850
 8269.50000   -9999.25    0.10550   18.27980   99.88250   52.03090
 8270.00000   -9999.25    0.07940   18.39750  102.64860   54.95750
 8270.50000   -9999.25    0.06330   22.86890  108.86310   59.49030
 8271.00000   -9999.25    0.06080   35.73870  117.91030   66.73230
 8271.50000   -9999.25    0.06370   52.63430  130.08840   74.18720
 8272.00000   -9999.25    0.07220   65.99830  134.75750   79.24830
 8272.50000   -9999.25    0.08430   72.76910  134.45320   80.39840
 8273.00000   -9999.25    0.09530   65.01380  129.55170   78.38560
 8273.50000   -9999.25    0.11690   58.34840  121.76960   73.85810
 8274.00000   -9999.25    0.16120   51.30050  115.39130   69.30140
 8274.50000   -9999.25    0.18300   50.44170  113.79950   67.92860
 8275.00000   -9999.25    0.15360   51.68700  116.74890   69.43190
 8275.50000   -9999.25    0.12130   54.11490  121.04850   72.77800
 8276.00000   -9999.25    0.11200   58.45450  122.90800   74.26970
 8276.50000   -9999.25    0.12240   58.54380  120.56240   73.89700
 8277.00000   -9999.25    0.14000   51.50500  116.21880   70.57210
 8277.50000   -9999.25    0.15970   46.89720  112.10430   67.24020
 8278.00000   -9999.25    0.17410   44.63080  111.70920   65.75030
 8278.50000   -9999.25    0.15410   46.22820  113.38070   67.20190
 8279.00000   -9999.25    0.11830   48.16820  115.26890   68.74750
 8279.50000   -9999.25    0.10650   50.23680  117.06310   69.65260
 8280.00000   -9999.25    0.10620   54.20670  118.82880   70.37070
 8280.50000   -9999.25    0.10230   54.97830  121.04150   71.81920
 8281.00000   -9999.25    0.10280   61.97100  124.46430   73.64890
 8281.50000   -9999.25    0.11420   68.58540  126.46980   75.64930
 8282.00000   -9999.25    0.13150   77.29770  127.11840   76.36290
 8282.50000   -9999.25    0.15140   77.01860  127.62830   76.80590
 8283.00000   -9999.25    0.17580   80.52670  127.93990   77.35610
 8283.50000   -9999.25    0.18550   78.67470  128.61250   78.95650
 8284.00000   -9999.25    0.17760   75.45280  127.04840   78.72260
 8284.50000   -9999.25    0.16740   69.02960  122.24520   74.62710
 8285.00000   -9999.25    0.15650   59.02010  112.53050   66.22090
 8285.50000   -9999.25    0.13450   50.39290  107.13560   59.64020
 8286.00000   -9999.25    0.10910   49.23860  109.15850   59.35110
 8286.50000   -9999.25    0.09270   54.28120  116.26210   65.02800
 8287.00000   -9999.25    0.08220   64.24260  124.68450   72.46140
 8287.50000   -9999.25    0.07650   67.11300  128.56690   76.33330
 8288.00000   -9999.25    0.08510   71.74790  128.50200   76.69020
 8288.50000   -9999.25    0.12750   71.97260  127.79750   76.00170
 8289.00000   -9999.25    0.17380   74.16430  128.72980   76.52740
 8289.50000   -9999.25    0.16940   73.23620  129.37320   77.06130
 8290.00000   -9999.25    0.16590   65.92350  126.99270   75.34400
 8290.50000   -9999.25    0.16150   53.38070  120.24290   70.29200
 8291.00000   -9999.25    0.14450   43.24630  115.76750   66.66850
 8291.50000   -9999.25    0.13930   46.09490  115.23870   66.06210
 8292.00000   -9999.25    0.12740   53.85740  117.54540   68.54220
 8292.50000   -9999.25    0.10940   62.71490  121.43650   71.58670
