~Version ---------------------------------------------------
VERS.   2.0 : CWLS log ASCII Standard -VERSION 2.0
WRAP.    NO : One line per depth step
DLM . SPACE : Column Data Section Delimiter
~Well ------------------------------------------------------
STRT .F                   13.0 : START DEPTH
STOP .F                 9040.0 : STOP DEPTH
STEP .F                    0.5 : STEP
NULL .                -9999.25 : NULL VALUE
COMP .                         : COMPANY
WELL .                         : WELL
FLD  .                         : FIELD
LOC  .                         : LOCATION
PROV .                         : PROVINCE
CNTY .                         : COUNTY
STAT .                         : STATE
CTRY .                         : COUNTRY
SRVC .                         : SERVICE COMPANY
DATE .                         : DATE
UWI  .                         : UNIQUE WELL ID
API  .                         : API NUMBER
SLAT .WGS84 1.0851799897875019 : SURFACE LATITUDE
SLON .WGS84  7.322864505002002 : SURFACE LONGITUDE
DATUM.F                    nan : DEPTH DATUM ELEV
~Curve Information -----------------------------------------
DEPT    .F     : 1 MEASURED DEPTH
GRD     .GAPI  : GAMMA RAY FROM DENSITY LOG
CNPOR_LS.DEC   : COMPENSATED ENHANCED THERMAL NEUTRON POROSITY IN SELECTED LITHOLOGY LIMESTONE
GRS     .GAPI  : GAMMA RAY FROM SONIC LOG
DTCO    .US/F  : DELTA-T COMPRESSIONAL
DTSM    .US/F  : DELTA-T SHEAR
~Params ----------------------------------------------------
~Other -----------------------------------------------------
~ASCII -----------------------------------------------------
# ...
 6853.00000   -9999.25    0.09830   22.63250  102.07420   53.93680
 6853.50000   -9999.25    0.07700   17.46110  103.02520   53.85390
 6854.00000   -9999.25    0.05970   16.57750  102.71590   53.33300
 6854.50000   -9999.25    0.05250   18.38680  101.14010   52.70910
 6855.00000   -9999.25    0.05300   24.47990  100.36920   53.39170
 6855.50000   -9999.25    0.05380   42.50250  101.87890   56.49380
 6856.00000   -9999.25    0.05440   60.76600  107.61160   61.79720
 6856.50000   -9999.25    0.05750   78.12870  113.89490   67.14370
 6857.00000   -9999.25    0.06250   75.79210  120.08650   70.70230
 6857.50000   -9999.25    0.07030   73.58730  119.87640   71.60940
 6858.00000   -9999.25    0.08540   70.20030  117.44310   71.22340
 6858.50000   -9999.25    0.11320   66.78810  116.50570   71.12790
 6859.00000   -9999.25    0.14830   65.95850  116.73840   71.40610
 6859.50000   -9999.25    0.17370   62.11920  118.04460   71.83660
 6860.00000   -9999.25    0.23220   63.10060  118.22290   71.99130
 6860.50000   -9999.25    0.27720   63.04420  118.08550   71.66430
 6861.00000   -9999.25    0.23680   63.64510  117.42990   71.07930
 6861.50000   -9999.25    0.17390   63.59920  117.57250   69.91000
 6862.00000   -9999.25    0.14360   60.78420  117.93380   69.07310
 6862.50000   -9999.25    0.14810   59.80730  117.84470   68.42810
 6863.00000   -9999.25    0.15230   60.21200  115.92660   67.97990
 6863.50000   -9999.25    0.14150   59.00030  113.65600   67.27930
 6864.00000   -9999.25    0.13260   58.57350  112.08660   66.45110
 6864.50000   -9999.25    0.11450   56.44220  112.03030   66.05970
 6865.00000   -9999.25    0.10120   58.12420  112.68770   66.06920
 6865.50000   -9999.25    0.10080   61.06700  113.47720   66.79660
 6866.00000   -9999.25    0.10190   64.11510  113.96790   67.67600
 6866.50000   -9999.25    0.10800   66.27810  113.42830   68.11360
 6867.00000   -9999.25    0.11530   66.52010  113.16600   68.28940
 6867.50000   -9999.25    0.12130   63.99310  113.12300   68.56090
 6868.00000   -9999.25    0.12950   66.71830  112.92610   68.07900
 6868.50000   -9999.25    0.13640   66.89300  111.99600   66.73710
 6869.00000   -9999.25    0.14020   62.85880  110.85860   65.33190
 6869.50000   -9999.25    0.14650   55.11880  110.99960   65.14860
 6870.00000   -9999.25    0.15350   56.96310  114.52490   68.21220
 6870.50000   -9999.25    0.15110   64.45490  119.69820   71.25280
 6871.00000   -9999.25    0.15170   75.09130  124.78680   74.06520
 6871.50000   -9999.25    0.15850   72.53900  126.50190   74.85040
 6872.00000   -9999.25    0.16410   72.51460  126.73740   74.49900
 6872.50000   -9999.25    0.15500   66.40570  125.00040   73.37660
 6873.00000   -9999.25    0.13510   67.55990  123.44110   72.23930
 6873.50000   -9999.25    0.12770   65.85710  122.37460   71.74790
 6874.00000   -9999.25    0.12870   66.84000  121.46200   71.47220
 6874.50000   -9999.25    0.14010   67.95600  120.54930   71.00820
 6875.00000   -9999.25    0.16080   66.90810  120.12830   69.93100
 6875.50000   -9999.25    0.14890   67.84180  119.68000   68.81760
 6876.00000   -9999.25    0.11600   62.43990  119.07730   67.93730
 6876.50000   -9999.25    0.09640   61.24540  118.39730   67.63160
 6877.00000   -9999.25    0.11000   60.76120  116.86210   68.31910
 6877.50000   -9999.25    0.15370   63.49540  115.27000   69.41940
 6878.00000   -9999.25    0.17770   67.71890  113.61510   70.34330
 6878.50000   -9999.25    0.15500   69.85670  112.00520   69.64950
 6879.00000   -9999.25    0.14440   73.32350  110.74740   67.65330
 6879.50000   -9999.25    0.16060   69.93820  110.98940   65.51260
 6880.00000   -9999.25    0.15530   68.05860  112.65510   64.17760
 6880.50000   -9999.25    0.13130   63.32710  113.12900   62.20420
 6881.00000   -9999.25    0.11370   58.18890  109.08290   58.49090
 6881.50000   -9999.25    0.11000   49.37220  104.88740   55.51650
 6882.00000   -9999.25    0.11410   44.63190  103.62670   56.64060
 6882.50000   -9999.25    0.11900   52.39960  107.01320   62.02230
 6883.00000   -9999.25    0.11330   61.99580  110.62790   67.49270
 6883.50000   -9999.25    0.10700   68.58330  113.49870   69.83000
 6884.00000   -9999.25    0.11120   62.02110  114.21490   69.42920
 6884.50000   -9999.25    0.12630   55.75380  110.86790   66.31720
 6885.00000   -9999.25    0.14080   51.58750  106.61960   62.77050
 6885.50000   -9999.25    0.13610   49.35060  103.03290   59.57350
 6886.00000   -9999.25    0.11890   46.31570  100.38470   57.46950
 6886.50000   -9999.25    0.11170   42.98680   98.65740   55.96300
 6887.00000   -9999.25    0.10610   38.68520   96.79210   55.39410
 6887.50000   -9999.25    0.08970   37.83230   96.38460   55.82120
 6888.00000   -9999.25    0.08510   40.35480   98.34410   56.13540
 6888.50000   -9999.25    0.08260   40.32250  101.16450   55.72450
 6889.00000   -9999.25    0.07350   34.63690  102.12430   53.27610
 6889.50000   -9999.25    0.06830   27.58430  101.76430   51.46010
 6890.00000   -9999.25    0.06170   24.73730  102.52700   51.46920
 6890.50000   -9999.25    0.05430   26.63220  104.44530   52.63740
 6891.00000   -9999.25    0.05460   28.94450  106.76750   54.07510
 6891.50000   -9999.25    0.05870   32.00980  107.58530   55.62220
 6892.00000   -9999.25    0.06220   33.90890  107.41370   56.76210
 6892.50000   -9999.25    0.06120   31.88900  107.49940   57.64720
 6893.00000   -9999.25    0.05610   28.56650  108.21330   57.70880
 6893.50000   -9999.25    0.05470   24.86520  109.09710   55.55340
 6894.00000   -9999.25    0.05340   25.90110  111.12950   53.21700
 6894.50000   -9999.25    0.05160   28.07990  113.48230   52.26710
 6895.00000   -9999.25    0.05220   30.47250  114.33390   52.74180
 6895.50000   -9999.25    0.05120   31.08970  113.17380   53.25130
 6896.00000   -9999.25    0.04980   29.97580  110.26780   53.28990
 6896.50000   -9999.25    0.05050   29.13300  107.34590   53.27690
 6897.00000   -9999.25    0.05110   29.19710  103.47590   53.26220
 6897.50000   -9999.25    0.05100   34.42690  100.10010   53.17410
 6898.00000   -9999.25    0.05100   34.89160   97.83210   53.15270
 6898.50000   -9999.25    0.05030   35.46650   96.57360   53.28470
 6899.00000   -9999.25    0.05300   29.74870   95.72620   53.32860
 6899.50000   -9999.25    0.06060   30.25310   95.03520   53.76460
 6900.00000   -9999.25    0.06850   31.20230   95.94460   54.39370
 6900.50000   -9999.25    0.07180   31.38780   97.78690   54.79320
 6901.00000   -9999.25    0.06780   28.89520  101.34400   54.37170
 6901.50000   -9999.25    0.06060   27.18390  104.52850   54.01200
 6902.00000   -9999.25    0.05670   26.63860  108.30180   53.90660
 6902.50000   -9999.25    0.05240   28.59330  110.86040   54.06280
 6903.00000   -9999.25    0.04470   29.03970  113.20430   54.58160
 6903.50000   -9999.25    0.04120   30.61480  114.37280   55.18440
 6904.00000   -9999.25    0.04140   28.35340  111.66800   54.86950
 6904.50000   -9999.25    0.04240   29.05100  104.78550   55.43470
 6905.00000   -9999.25    0.04710   28.70760   99.02390   57.00740
 6905.50000   -9999.25    0.05350   38.46010   99.18170   60.34350
 6906.00000   -9999.25    0.06270   49.48750  100.91950   63.29290
 6906.50000   -9999.25    0.07160   62.26780  103.03060   64.34470
 6907.00000   -9999.25    0.07580   64.71240  103.75670   64.34210
 6907.50000   -9999.25    0.09000   65.64980  104.07350   64.51300
 6908.00000   -9999.25    0.11220   67.72860  105.30080   65.63980
 6908.50000   -9999.25    0.10760   69.51300  105.49340   66.18550
 6909.00000   -9999.25    0.09280   64.36310  104.58420   64.72830
 6909.50000   -9999.25    0.08280   52.83970  102.16110   61.31090
 6910.00000   -9999.25    0.07970   43.55480  100.35110   58.62250
 6910.50000   -9999.25    0.08400   39.43800   99.59710   58.56790
 6911.00000   -9999.25    0.08510   41.68510  100.25220   60.81100
 6911.50000   -9999.25    0.08300   49.19540  101.55810   61.66740
 6912.00000   -9999.25    0.07890   50.12450  102.77950   59.78760
 6912.50000   -9999.25    0.07390   45.03140  103.52100   56.56370
