~Version ---------------------------------------------------
VERS.   2.0 : CWLS log ASCII Standard -VERSION 2.0
WRAP.    NO : One line per depth step
DLM . SPACE : Column Data Section Delimiter
~Well ------------------------------------------------------
STRT .F                   13.0 : START DEPTH
STOP .F                 9040.0 : STOP DEPTH
STEP .F                    0.5 : STEP
NULL .                -9999.25 : NULL VALUE
COMP .                         : COMPANY
WELL .                         : WELL
FLD  .                         : FIELD
LOC  .                         : LOCATION
PROV .                         : PROVINCE
CNTY .                         : COUNTY
STAT .                         : STATE
CTRY .                         : COUNTRY
SRVC .                         : SERVICE COMPANY
DATE .                         : DATE
UWI  .                         : UNIQUE WELL ID
API  .                         : API NUMBER
SLAT .WGS84 1.0851799897875019 : SURFACE LATITUDE
SLON .WGS84  7.322864505002002 : SURFACE LONGITUDE
DATUM.F                    nan : DEPTH DATUM ELEV
~Curve Information -----------------------------------------
DEPT    .F     : 1 MEASURED DEPTH
GRD     .GAPI  : GAMMA RAY FROM DENSITY LOG
CNPOR_LS.DEC   : COMPENSATED ENHANCED THERMAL NEUTRON POROSITY IN SELECTED LITHOLOGY LIMESTONE
GRS     .GAPI  : GAMMA RAY FROM SONIC LOG
DTCO    .US/F  : DELTA-T COMPRESSIONAL
DTSM    .US/F  : DELTA-T SHEAR
~Params ----------------------------------------------------
~Other -----------------------------------------------------
~ASCII -----------------------------------------------------
# ...
 5893.00000   -9999.25    0.16840   89.60710  115.90650   70.51320
 5893.50000   -9999.25    0.15540   89.02810  113.71560   70.88310
 5894.00000   -9999.25    0.14810   88.45320  112.87200   71.21660
 5894.50000   -9999.25    0.14220   86.70280  111.73870   71.28850
 5895.00000   -9999.25    0.13630   83.61100  112.27690   71.09340
 5895.50000   -9999.25    0.13260   87.70920  115.24600   71.76280
 5896.00000   -9999.25    0.14310   91.45460  120.00630   72.75900
 5896.50000   -9999.25    0.16320   94.01220  123.79690   73.65030
 5897.00000   -9999.25    0.18090   89.41510  126.60450   73.83460
 5897.50000   -9999.25    0.18710   85.76510  127.06010   73.97080
 5898.00000   -9999.25    0.17620   83.81960  125.22920   73.54880
 5898.50000   -9999.25    0.15550   82.42810  123.47130   73.18800
 5899.00000   -9999.25    0.15110   77.45490  122.06470   72.91150
 5899.50000   -9999.25    0.17250   77.92410  120.89640   72.72450
 5900.00000   -9999.25    0.17640   82.51580  120.13970   72.71800
 5900.50000   -9999.25    0.15410   89.26290  119.53410   72.89060
 5901.00000   -9999.25    0.13630   87.16110  118.74080   72.89540
 5901.50000   -9999.25    0.13220   81.27970  117.57720   72.50290
 5902.00000   -9999.25    0.13340   76.78820  116.55770   72.14450
 5902.50000   -9999.25    0.13500   75.30310  116.49270   72.05760
 5903.00000   -9999.25    0.14300   77.52350  118.14390   73.35130
 5903.50000   -9999.25    0.15340   79.49660  119.46730   74.26180
 5904.00000   -9999.25    0.16150   80.31940  120.15960   74.56720
 5904.50000   -9999.25    0.18210   79.82760  120.40180   74.92230
 5905.00000   -9999.25    0.21540   80.30520  120.75530   75.31200
 5905.50000   -9999.25    0.23210   76.39610  120.41120   74.78230
 5906.00000   -9999.25    0.22460   70.17410  117.35670   73.25530
 5906.50000   -9999.25    0.20690   67.42160  113.68920   70.58940
 5907.00000   -9999.25    0.19510   68.85750  110.90340   69.71390
 5907.50000   -9999.25    0.19440   71.32710  111.35930   69.45070
 5908.00000   -9999.25    0.18480   67.27200  113.84620   70.53320
 5908.50000   -9999.25    0.16220   71.38930  116.85650   71.48770
 5909.00000   -9999.25    0.14560   77.18830  118.82880   72.15090
 5909.50000   -9999.25    0.13820   80.08900  119.52360   72.49600
 5910.00000   -9999.25    0.13770   79.38200  119.12000   72.60290
 5910.50000   -9999.25    0.14350   76.40340  118.03120   72.23410
 5911.00000   -9999.25    0.16120   73.28920  116.05550   71.24280
 5911.50000   -9999.25    0.17960   67.11530  113.43810   69.60200
 5912.00000   -9999.25    0.17780   59.89600  111.00910   68.75720
 5912.50000   -9999.25    0.16610   58.13430  110.42540   68.98650
 5913.00000   -9999.25    0.15680   59.40520  112.54590   70.29210
 5913.50000   -9999.25    0.16810   64.78940  114.51430   71.45240
 5914.00000   -9999.25    0.18690   71.59840  115.67200   72.21290
 5914.50000   -9999.25    0.17510   79.14670  116.61780   72.86670
 5915.00000   -9999.25    0.14670   85.42460  117.20550   72.84050
 5915.50000   -9999.25    0.14780   83.24230  117.27210   72.30110
 5916.00000   -9999.25    0.15810   75.03620  117.29760   71.55110
 5916.50000   -9999.25    0.16630   65.26100  117.56470   71.44470
 5917.00000   -9999.25    0.17370   61.71730  116.91880   71.60610
 5917.50000   -9999.25    0.17290   60.64000  114.70530   71.65490
 5918.00000   -9999.25    0.16840   62.89940  112.37640   71.46420
 5918.50000   -9999.25    0.16250   63.68980  110.37210   71.17520
 5919.00000   -9999.25    0.16830   64.39800  110.26940   71.00590
 5919.50000   -9999.25    0.17450   62.85860  111.02760   70.78320
 5920.00000   -9999.25    0.18100   66.25040  111.86890   70.37240
 5920.50000   -9999.25    0.18540   65.96480  112.62300   70.05910
 5921.00000   -9999.25    0.17710   67.20580  113.00550   69.83940
 5921.50000   -9999.25    0.17360   62.26500  112.91740   69.61980
 5922.00000   -9999.25    0.18480   66.51470  112.23890   69.40990
 5922.50000   -9999.25    0.21300   66.28050  110.50830   69.02420
 5923.00000   -9999.25    0.20630   66.56490  109.37350   68.79570
 5923.50000   -9999.25    0.17310   62.90110  108.95840   69.25050
 5924.00000   -9999.25    0.15880   62.48630  109.84500   70.13460
 5924.50000   -9999.25    0.15580   59.70240  110.84340   70.86570
 5925.00000   -9999.25    0.16470   56.01480  112.26090   69.82730
 5925.50000   -9999.25    0.16990   51.39420  113.14580   68.30100
 5926.00000   -9999.25    0.15390   54.36220  114.02480   67.92690
 5926.50000   -9999.25    0.13930   57.02560  115.50480   68.58770
 5927.00000   -9999.25    0.13670   63.64610  117.51890   71.01710
 5927.50000   -9999.25    0.13970   61.89610  119.67030   73.12270
 5928.00000   -9999.25    0.14910   62.89540  120.01310   73.74320
 5928.50000   -9999.25    0.16220   62.54110  119.27050   73.42910
 5929.00000   -9999.25    0.17760   66.47130  116.92850   72.15910
 5929.50000   -9999.25    0.17340   68.57290  114.33410   70.94940
 5930.00000   -9999.25    0.16140   65.80580  111.28070   68.39930
 5930.50000   -9999.25    0.15610   60.16740  107.86870   65.91850
 5931.00000   -9999.25    0.13290   54.89710  105.09470   63.97690
 5931.50000   -9999.25    0.10910   55.84970  105.08210   63.25410
 5932.00000   -9999.25    0.10480   58.42080  106.97020   64.96070
 5932.50000   -9999.25    0.11850   61.04400  109.25970   66.87360
 5933.00000   -9999.25    0.13350   62.60680  111.06530   68.45200
 5933.50000   -9999.25    0.13850   62.33340  112.03130   69.07570
 5934.00000   -9999.25    0.13550   67.70880  112.45910   69.24270
 5934.50000   -9999.25    0.12650   72.41180  112.80700   70.07130
 5935.00000   -9999.25    0.12450   80.72410  113.21320   70.88680
 5935.50000   -9999.25    0.14260   79.95820  113.17680   71.03840
 5936.00000   -9999.25    0.16180   78.93710  112.89540   71.07960
 5936.50000   -9999.25    0.15070   73.99770  112.49920   71.60730
 5937.00000   -9999.25    0.12520   70.84120  112.09690   71.63490
 5937.50000   -9999.25    0.12430   63.93560  111.32970   71.27350
 5938.00000   -9999.25    0.15700   59.51160  110.21960   70.16340
 5938.50000   -9999.25    0.17470   60.75140  109.56960   69.35890
 5939.00000   -9999.25    0.14330   63.32340  110.11520   69.26270
 5939.50000   -9999.25    0.12800   69.17330  110.52630   68.88860
 5940.00000   -9999.25    0.12910   67.77110  109.31110   68.12150
 5940.50000   -9999.25    0.12800   64.46680  106.82030   67.12430
 5941.00000   -9999.25    0.12400   58.04100  105.32430   66.96100
 5941.50000   -9999.25    0.13780   58.03930  107.57230   68.82780
 5942.00000   -9999.25    0.15330   62.21520  110.38700   70.58410
 5942.50000   -9999.25    0.14510   66.64000  110.86180   70.93320
 5943.00000   -9999.25    0.13180   65.45990  108.84440   69.51070
 5943.50000   -9999.25    0.13380   64.19250  108.42800   68.26270
 5944.00000   -9999.25    0.14740   65.27000  109.07170   67.68290
 5944.50000   -9999.25    0.13910   67.49560  109.51690   67.65140
 5945.00000   -9999.25    0.11130   68.49710  109.55050   67.62850
 5945.50000   -9999.25    0.10140   69.50680  109.34570   67.60390
 5946.00000   -9999.25    0.10770   71.64580  108.66510   67.29330
 5946.50000   -9999.25    0.12460   73.65730  108.55380   67.32380
 5947.00000   -9999.25    0.14650   73.50610  109.72800   68.50260
 5947.50000   -9999.25    0.16660   72.61960  113.60660   71.35400
 5948.00000   -9999.25    0.18700   69.57600  115.54560   72.01820
 5948.50000   -9999.25    0.18140   60.21650  113.02090   70.56860
 5949.00000   -9999.25    0.15740   48.94490  106.38910   65.70720
 5949.50000   -9999.25    0.13620   35.76760   99.71660   60.07690
 5950.00000   -9999.25    0.11330   28.50020   97.07830   55.69800
 5950.50000   -9999.25    0.09110   23.46990   96.38000   52.82440
 5951.00000   -9999.25    0.07530   21.33720   94.27150   51.72900
 5951.50000   -9999.25    0.07010   19.52680   92.96380   51.05310
 5952.00000   -9999.25    0.06760   17.78750   93.15740   50.98300
 5952.50000   -9999.25    0.06660   15.68340   96.08750   51.73380
