~Version ---------------------------------------------------
VERS.   2.0 : CWLS log ASCII Standard -VERSION 2.0
WRAP.    NO : One line per depth step
DLM . SPACE : Column Data Section Delimiter
~Well ------------------------------------------------------
STRT .F                   13.0 : START DEPTH
STOP .F                 9040.0 : STOP DEPTH
STEP .F                    0.5 : STEP
NULL .                -9999.25 : NULL VALUE
COMP .                         : COMPANY
WELL .                         : WELL
FLD  .                         : FIELD
LOC  .                         : LOCATION
PROV .                         : PROVINCE
CNTY .                         : COUNTY
STAT .                         : STATE
CTRY .                         : COUNTRY
SRVC .                         : SERVICE COMPANY
DATE .                         : DATE
UWI  .                         : UNIQUE WELL ID
API  .                         : API NUMBER
SLAT .WGS84 1.0851799897875019 : SURFACE LATITUDE
SLON .WGS84  7.322864505002002 : SURFACE LONGITUDE
DATUM.F                    nan : DEPTH DATUM ELEV
~Curve Information -----------------------------------------
DEPT    .F     : 1 MEASURED DEPTH
GRD     .GAPI  : GAMMA RAY FROM DENSITY LOG
CNPOR_LS.DEC   : COMPENSATED ENHANCED THERMAL NEUTRON POROSITY IN SELECTED LITHOLOGY LIMESTONE
GRS     .GAPI  : GAMMA RAY FROM SONIC LOG
DTCO    .US/F  : DELTA-T COMPRESSIONAL
DTSM    .US/F  : DELTA-T SHEAR
~Params ----------------------------------------------------
~Other -----------------------------------------------------
~ASCII -----------------------------------------------------
# ...
 7753.00000   -9999.25    0.15920   50.05380  114.20760   54.84600
 7753.50000   -9999.25    0.15140   53.61230  114.01770   54.62280
 7754.00000   -9999.25    0.12160   59.45910  112.19010   55.23830
 7754.50000   -9999.25    0.10700   58.46160  110.27600   57.20690
 7755.00000   -9999.25    0.10760   54.13500  110.26760   60.00560
 7755.50000   -9999.25    0.10910   50.66260  110.26380   61.59640
 7756.00000   -9999.25    0.10350   46.95310  109.77980   61.77540
 7756.50000   -9999.25    0.09900   45.21850  109.66910   61.76240
 7757.00000   -9999.25    0.10050   41.13690  109.82860   61.59140
 7757.50000   -9999.25    0.10620   40.73950  110.16230   61.49610
 7758.00000   -9999.25    0.11440   39.74290  110.66140   61.70780
 7758.50000   -9999.25    0.10920   39.73650  111.42600   62.32500
 7759.00000   -9999.25    0.08830   40.45950  111.52010   62.64010
 7759.50000   -9999.25    0.08490   44.66980  111.28200   62.99640
 7760.00000   -9999.25    0.10620   48.44780  110.18740   63.15980
 7760.50000   -9999.25    0.12230   49.68480  109.23370   62.61030
 7761.00000   -9999.25    0.11790   47.91270  106.85940   61.45570
 7761.50000   -9999.25    0.10870   44.24260  105.66040   60.04290
 7762.00000   -9999.25    0.10800   41.60670  106.35070   60.31680
 7762.50000   -9999.25    0.12700   42.67960  108.81510   61.88730
 7763.00000   -9999.25    0.13790   45.72110  111.12540   63.58150
 7763.50000   -9999.25    0.12640   50.23290  113.03180   64.76770
 7764.00000   -9999.25    0.12380   54.52560  114.68250   66.01290
 7764.50000   -9999.25    0.13350   59.52620  116.44440   67.17810
 7765.00000   -9999.25    0.15210   59.30310  117.34810   68.19650
 7765.50000   -9999.25    0.17770   58.00430  118.10200   68.88910
 7766.00000   -9999.25    0.17770   54.70420  118.10050   69.75810
 7766.50000   -9999.25    0.15990   56.55640  118.03710   70.34720
 7767.00000   -9999.25    0.15370   55.64670  117.85100   70.35040
 7767.50000   -9999.25    0.14000   52.89490  116.82390   69.59070
 7768.00000   -9999.25    0.13830   49.40750  115.68530   68.83640
 7768.50000   -9999.25    0.15130   48.24100  114.65950   68.11500
 7769.00000   -9999.25    0.14420   48.51560  113.56110   67.09750
 7769.50000   -9999.25    0.13220   45.58480  112.20610   65.93220
 7770.00000   -9999.25    0.13510   44.32350  111.66690   65.48370
 7770.50000   -9999.25    0.14490   41.91700  111.31520   65.34790
 7771.00000   -9999.25    0.15810   41.34720  111.51100   65.37310
 7771.50000   -9999.25    0.15690   41.72010  111.74520   65.50490
 7772.00000   -9999.25    0.13100   42.16540  112.27230   66.34220
 7772.50000   -9999.25    0.11990   43.21940  113.63050   67.73600
 7773.00000   -9999.25    0.12270   43.05360  113.68530   68.18360
 7773.50000   -9999.25    0.12480   45.56260  112.46180   67.35940
 7774.00000   -9999.25    0.13160   49.64740  111.00980   65.70680
 7774.50000   -9999.25    0.13850   54.68610  110.46150   65.50370
 7775.00000   -9999.25    0.12630   60.96370  112.57370   66.40920
 7775.50000   -9999.25    0.11800   65.69720  115.22270   68.06120
 7776.00000   -9999.25    0.11850   67.25850  116.89730   68.64440
 7776.50000   -9999.25    0.11790   63.79900  117.57910   68.37630
 7777.00000   -9999.25    0.12750   55.81840  116.58050   67.72110
 7777.50000   -9999.25    0.15700   53.83520  115.64080   67.00680
 7778.00000   -9999.25    0.16680   57.15360  115.00730   66.91860
 7778.50000   -9999.25    0.14290   62.49680  115.00730   67.09830
 7779.00000   -9999.25    0.12080   64.01720  115.88840   67.32340
 7779.50000   -9999.25    0.10760   64.62330  117.39370   67.90850
 7780.00000   -9999.25    0.11120   66.26390  119.79130   69.22180
 7780.50000   -9999.25    0.12560   69.40830  122.29760   70.52860
 7781.00000   -9999.25    0.14000   69.99370  124.26840   71.54340
 7781.50000   -9999.25    0.15060   72.55680  125.27650   72.45380
 7782.00000   -9999.25    0.16750   72.73630  126.01890   72.87200
 7782.50000   -9999.25    0.18420   72.05150  126.76710   73.12240
 7783.00000   -9999.25    0.17910   70.35450  127.65670   73.40140
 7783.50000   -9999.25    0.16680   76.06180  129.40350   73.94160
 7784.00000   -9999.25    0.16070   84.69040  131.46050   74.62510
 7784.50000   -9999.25    0.15620   89.12600  133.48000   75.34610
 7785.00000   -9999.25    0.15840   87.47330  133.60680   75.63210
 7785.50000   -9999.25    0.17320   83.52570  133.05660   75.75650
 7786.00000   -9999.25    0.20100   80.19350  131.06480   75.22930
 7786.50000   -9999.25    0.19290   79.16240  127.97430   74.41250
 7787.00000   -9999.25    0.16870   75.96400  123.92430   71.15710
 7787.50000   -9999.25    0.18610   70.61990  118.23240   67.34160
 7788.00000   -9999.25    0.24550   61.93270  116.47220   66.04500
 7788.50000   -9999.25    0.26830   59.11550  120.02780   67.33090
 7789.00000   -9999.25    0.20740   62.36270  125.51680   70.92220
 7789.50000   -9999.25    0.14710   70.45850  130.06420   74.30340
 7790.00000   -9999.25    0.11940   73.70620  133.39450   75.68780
 7790.50000   -9999.25    0.12540   79.00760  135.05840   76.68640
 7791.00000   -9999.25    0.15480   79.77810  135.38340   76.60770
 7791.50000   -9999.25    0.18410   79.05580  134.53890   75.99730
 7792.00000   -9999.25    0.17790   76.05190  132.61990   74.81630
 7792.50000   -9999.25    0.15010   74.95830  130.47240   73.84170
 7793.00000   -9999.25    0.14780   73.40030  127.82890   72.84030
 7793.50000   -9999.25    0.16590   69.48390  125.29770   72.02850
 7794.00000   -9999.25    0.18340   64.87670  123.15950   71.17540
 7794.50000   -9999.25    0.18620   61.54880  121.33530   70.25160
 7795.00000   -9999.25    0.18340   59.92220  120.62290   69.64750
 7795.50000   -9999.25    0.17780   62.34900  120.57700   69.57590
 7796.00000   -9999.25    0.16310   66.56350  121.84250   70.40410
 7796.50000   -9999.25    0.15630   67.48650  123.97270   71.89710
 7797.00000   -9999.25    0.16210   65.91750  125.69740   72.95570
 7797.50000   -9999.25    0.17600   65.73850  125.30760   73.50030
 7798.00000   -9999.25    0.18890   65.65230  124.68710   73.16540
 7798.50000   -9999.25    0.20000   63.77470  122.96650   72.38820
 7799.00000   -9999.25    0.22080   60.67700  121.53860   71.39860
 7799.50000   -9999.25    0.21500   61.51380  119.94430   70.12990
 7800.00000   -9999.25    0.16310   61.52110  118.04230   68.50030
 7800.50000   -9999.25    0.14160   58.27110  115.51310   66.99280
 7801.00000   -9999.25    0.14570   52.72410  113.43110   65.84790
 7801.50000   -9999.25    0.14630   50.69990  112.93230   65.37690
 7802.00000   -9999.25    0.13960   55.79870  113.92900   66.38340
 7802.50000   -9999.25    0.13430   57.19340  114.16550   66.76550
 7803.00000   -9999.25    0.14270   56.66790  112.45250   64.54110
 7803.50000   -9999.25    0.15380   52.06280  106.65590   59.69110
 7804.00000   -9999.25    0.13760   47.88520  102.30230   55.69960
 7804.50000   -9999.25    0.11710   51.03570  102.24140   55.29140
 7805.00000   -9999.25    0.11060   59.89590  107.91120   58.96090
 7805.50000   -9999.25    0.11230   71.07810  116.32210   64.73920
 7806.00000   -9999.25    0.11680   78.32080  124.01050   69.84970
 7806.50000   -9999.25    0.12990   80.25860  126.49390   72.24500
 7807.00000   -9999.25    0.16850   80.95060  127.11250   72.29610
 7807.50000   -9999.25    0.21070   75.92030  125.65160   71.02320
 7808.00000   -9999.25    0.20030   74.71890  125.65610   70.32950
 7808.50000   -9999.25    0.16940   79.36670  126.19240   70.45200
 7809.00000   -9999.25    0.15270   86.53750  127.75230   71.41930
 7809.50000   -9999.25    0.14470   92.76630  128.09460   72.11220
 7810.00000   -9999.25    0.14920   87.82430  127.91240   72.45350
 7810.50000   -9999.25    0.16120   84.60520  127.26540   72.64170
 7811.00000   -9999.25    0.17950   84.90660  126.91720   72.80430
 7811.50000   -9999.25    0.19560   88.43610  126.63380   72.61660
 7812.00000   -9999.25    0.19920   90.67440  126.37800   72.25440
 7812.50000   -9999.25    0.20490   87.28430  125.98440   71.89210
