~Version ---------------------------------------------------
VERS.   2.0 : CWLS log ASCII Standard -VERSION 2.0
WRAP.    NO : One line per depth step
DLM . SPACE : Column Data Section Delimiter
~Well ------------------------------------------------------
STRT .F                   13.0 : START DEPTH
STOP .F                 9040.0 : STOP DEPTH
STEP .F                    0.5 : STEP
NULL .                -9999.25 : NULL VALUE
COMP .                         : COMPANY
WELL .                         : WELL
FLD  .                         : FIELD
LOC  .                         : LOCATION
PROV .                         : PROVINCE
CNTY .                         : COUNTY
STAT .                         : STATE
CTRY .                         : COUNTRY
SRVC .                         : SERVICE COMPANY
DATE .                         : DATE
UWI  .                         : UNIQUE WELL ID
API  .                         : API NUMBER
SLAT .WGS84 1.0851799897875019 : SURFACE LATITUDE
SLON .WGS84  7.322864505002002 : SURFACE LONGITUDE
DATUM.F                    nan : DEPTH DATUM ELEV
~Curve Information -----------------------------------------
DEPT    .F     : 1 MEASURED DEPTH
GRD     .GAPI  : GAMMA RAY FROM DENSITY LOG
CNPOR_LS.DEC   : COMPENSATED ENHANCED THERMAL NEUTRON POROSITY IN SELECTED LITHOLOGY LIMESTONE
GRS     .GAPI  : GAMMA RAY FROM SONIC LOG
DTCO    .US/F  : DELTA-T COMPRESSIONAL
DTSM    .US/F  : DELTA-T SHEAR
~Params ----------------------------------------------------
~Other -----------------------------------------------------
~ASCII -----------------------------------------------------
# ...
 7993.00000   -9999.25    0.09240   44.39100  112.02410   65.06260
 7993.50000   -9999.25    0.10620   41.13490  110.34990   63.91990
 7994.00000   -9999.25    0.11020   38.49870  109.52220   63.80390
 7994.50000   -9999.25    0.11190   35.91800  109.07320   63.54180
 7995.00000   -9999.25    0.11300   33.20640  107.81170   62.81150
 7995.50000   -9999.25    0.10470   29.20780  106.25770   60.98710
 7996.00000   -9999.25    0.09120   26.78510  104.43870   58.83720
 7996.50000   -9999.25    0.08570   26.87170  104.72510   59.59480
 7997.00000   -9999.25    0.09170   31.82550  108.07080   62.84480
 7997.50000   -9999.25    0.10610   42.38540  112.60430   66.82570
 7998.00000   -9999.25    0.11550   43.90060  115.02760   67.52750
 7998.50000   -9999.25    0.12380   41.28300  115.12130   66.94590
 7999.00000   -9999.25    0.14220   33.00350  114.01690   64.99660
 7999.50000   -9999.25    0.14030   38.43140  113.28680   64.55780
 8000.00000   -9999.25    0.12140   44.42230  115.78250   67.17070
 8000.50000   -9999.25    0.12120   50.56970  119.98730   70.97500
 8001.00000   -9999.25    0.11600   54.19040  125.62300   74.80390
 8001.50000   -9999.25    0.11240   58.73280  129.12990   77.38930
 8002.00000   -9999.25    0.13780   62.01910  130.61430   77.46950
 8002.50000   -9999.25    0.17320   63.40330  129.70300   76.54930
 8003.00000   -9999.25    0.17730   56.65820  125.69470   73.35300
 8003.50000   -9999.25    0.17370   47.07100  119.54990   69.60740
 8004.00000   -9999.25    0.14560   35.04370  113.76410   65.06750
 8004.50000   -9999.25    0.10550   27.97750  108.22710   61.62150
 8005.00000   -9999.25    0.07170   25.61670  106.03040   59.30610
 8005.50000   -9999.25    0.06280   25.90830  105.58340   58.89390
 8006.00000   -9999.25    0.06560   26.20940  105.48170   59.15730
 8006.50000   -9999.25    0.07160   27.41100  106.17540   60.01450
 8007.00000   -9999.25    0.06780   28.19430  106.65700   60.53290
 8007.50000   -9999.25    0.06190   28.63870  106.77840   60.32310
 8008.00000   -9999.25    0.06320   27.50120  107.14950   60.38500
 8008.50000   -9999.25    0.06910   27.95540  108.11340   61.27330
 8009.00000   -9999.25    0.07530   29.87250  109.56870   62.64270
 8009.50000   -9999.25    0.08290   32.42480  110.41940   63.40520
 8010.00000   -9999.25    0.08560   33.33800  110.69290   63.63760
 8010.50000   -9999.25    0.08460   34.30460  111.14270   63.65220
 8011.00000   -9999.25    0.08910   34.17550  111.34720   63.72050
 8011.50000   -9999.25    0.09630   34.04380  111.73120   64.06070
 8012.00000   -9999.25    0.10340   33.46450  111.30350   64.33640
 8012.50000   -9999.25    0.11470   30.98190  110.64640   63.87100
 8013.00000   -9999.25    0.12390   28.60530  109.70870   63.31400
 8013.50000   -9999.25    0.11760   27.35220  108.72980   62.71330
 8014.00000   -9999.25    0.10200   27.15240  107.33880   61.72230
 8014.50000   -9999.25    0.08680   23.60970  104.74680   59.40140
 8015.00000   -9999.25    0.07690   19.05480  103.21670   57.55620
 8015.50000   -9999.25    0.07420   17.71350  103.05740   57.03130
 8016.00000   -9999.25    0.07250   21.09390  103.88950   57.80890
 8016.50000   -9999.25    0.06720   24.24230  105.00360   59.38820
 8017.00000   -9999.25    0.06230   27.66440  105.84960   60.42100
 8017.50000   -9999.25    0.06770   30.71820  106.69290   61.33500
 8018.00000   -9999.25    0.08470   34.12340  107.79050   62.12050
 8018.50000   -9999.25    0.09400   35.59340  109.28240   62.78080
 8019.00000   -9999.25    0.09030   34.58840  110.78180   63.56290
 8019.50000   -9999.25    0.09520   34.64020  113.21200   65.37690
 8020.00000   -9999.25    0.11430   36.45310  115.64230   67.53540
 8020.50000   -9999.25    0.12460   38.61800  117.88420   69.79170
 8021.00000   -9999.25    0.12000   40.50690  117.36150   69.41440
 8021.50000   -9999.25    0.11670   38.29790  115.06320   67.37240
 8022.00000   -9999.25    0.11840   36.34840  112.30710   65.53360
 8022.50000   -9999.25    0.11550   34.80750  111.08600   64.74010
 8023.00000   -9999.25    0.10880   36.50190  111.67520   65.69080
 8023.50000   -9999.25    0.11160   38.48820  111.53040   65.86160
 8024.00000   -9999.25    0.11330   38.30110  110.44640   64.73230
 8024.50000   -9999.25    0.11010   38.72310  110.54480   63.73600
 8025.00000   -9999.25    0.10900   41.29150  114.24940   65.28800
 8025.50000   -9999.25    0.10540   49.24510  121.27500   69.53170
 8026.00000   -9999.25    0.10490   57.83630  129.41820   74.17520
 8026.50000   -9999.25    0.11680   61.63950  130.03030   75.84820
 8027.00000   -9999.25    0.13160   59.33820  128.17140   75.39910
 8027.50000   -9999.25    0.14420   56.55920  125.89140   74.37820
 8028.00000   -9999.25    0.17340   60.58920  124.93780   74.38940
 8028.50000   -9999.25    0.18920   65.86240  124.28330   75.00050
 8029.00000   -9999.25    0.16790   67.52090  121.71700   73.35680
 8029.50000   -9999.25    0.13470   54.49110  114.05270   67.02320
 8030.00000   -9999.25    0.11040   37.24670  106.45500   60.01430
 8030.50000   -9999.25    0.10730   25.40210  105.13700   57.84820
 8031.00000   -9999.25    0.10500   26.08460  108.48310   60.54940
 8031.50000   -9999.25    0.09340   29.71170  111.79630   64.08820
 8032.00000   -9999.25    0.08380   34.55490  111.55180   65.15450
 8032.50000   -9999.25    0.08610   39.44720  110.03400   64.35250
 8033.00000   -9999.25    0.09570   39.64810  108.34790   62.96750
 8033.50000   -9999.25    0.10880   39.45320  107.49450   61.71720
 8034.00000   -9999.25    0.11650   38.32830  106.65210   60.69990
 8034.50000   -9999.25    0.10880   38.49940  105.92270   59.78430
 8035.00000   -9999.25    0.09120   37.52710  104.82880   58.95870
 8035.50000   -9999.25    0.08010   36.48480  104.63500   59.12880
 8036.00000   -9999.25    0.07570   37.88460  104.80400   59.69290
 8036.50000   -9999.25    0.07520   39.26260  104.20790   59.92720
 8037.00000   -9999.25    0.07610   38.10620  102.87980   59.71540
 8037.50000   -9999.25    0.07770   34.08340  101.81490   59.70700
 8038.00000   -9999.25    0.07770   33.14740  102.61180   60.19860
 8038.50000   -9999.25    0.07430   33.82790  103.11840   59.67800
 8039.00000   -9999.25    0.07030   37.65460  103.10730   58.37800
 8039.50000   -9999.25    0.06890   35.43690  102.44290   57.23630
 8040.00000   -9999.25    0.06680   31.60980  102.21860   56.95330
 8040.50000   -9999.25    0.06550   27.35460  101.78270   57.42340
 8041.00000   -9999.25    0.06710   25.14680  101.62060   58.14400
 8041.50000   -9999.25    0.06570   25.25490  101.39470   58.13330
 8042.00000   -9999.25    0.05920   23.67190  101.02500   56.99550
 8042.50000   -9999.25    0.05640   22.71660  100.59180   54.76480
 8043.00000   -9999.25    0.05990   21.05630  100.16200   53.44430
 8043.50000   -9999.25    0.05810   19.93410   99.61610   53.19790
 8044.00000   -9999.25    0.05580   19.44380  100.44860   55.16800
 8044.50000   -9999.25    0.05720   20.18780  102.79910   57.65170
 8045.00000   -9999.25    0.05670   22.07510  103.68400   58.76430
 8045.50000   -9999.25    0.05200   22.47080  102.53080   57.11560
 8046.00000   -9999.25    0.05060   20.64370   99.48780   54.25000
 8046.50000   -9999.25    0.05150   19.68950   98.13010   52.41070
 8047.00000   -9999.25    0.05310   22.26010   98.78320   52.70330
 8047.50000   -9999.25    0.05620   27.74990  101.43780   55.15690
 8048.00000   -9999.25    0.05790   32.62830  103.85640   57.87080
 8048.50000   -9999.25    0.05790   35.73700  104.84470   59.09510
 8049.00000   -9999.25    0.06040   36.32920  104.66170   58.97800
 8049.50000   -9999.25    0.06770   36.72790  104.50560   58.30850
 8050.00000   -9999.25    0.07520   36.33800  108.16490   60.33890
 8050.50000   -9999.25    0.08150   39.72960  112.95010   64.51290
 8051.00000   -9999.25    0.08780   41.06770  115.33530   67.83370
 8051.50000   -9999.25    0.08920   39.47060  112.08710   66.07930
 8052.00000   -9999.25    0.08950   31.92720  105.76150   59.71420
 8052.50000   -9999.25    0.08900   26.89510  100.04410   55.01460
