~Version ---------------------------------------------------
VERS.   2.0 : CWLS log ASCII Standard -VERSION 2.0
WRAP.    NO : One line per depth step
DLM . SPACE : Column Data Section Delimiter
~Well ------------------------------------------------------
STRT .F                   13.0 : START DEPTH
STOP .F                 9040.0 : STOP DEPTH
STEP .F                    0.5 : STEP
NULL .                -9999.25 : NULL VALUE
COMP .                         : COMPANY
WELL .                         : WELL
FLD  .                         : FIELD
LOC  .                         : LOCATION
PROV .                         : PROVINCE
CNTY .                         : COUNTY
STAT .                         : STATE
CTRY .                         : COUNTRY
SRVC .                         : SERVICE COMPANY
DATE .                         : DATE
UWI  .                         : UNIQUE WELL ID
API  .                         : API NUMBER
SLAT .WGS84 1.0851799897875019 : SURFACE LATITUDE
SLON .WGS84  7.322864505002002 : SURFACE LONGITUDE
DATUM.F                    nan : DEPTH DATUM ELEV
~Curve Information -----------------------------------------
DEPT    .F     : 1 MEASURED DEPTH
GRD     .GAPI  : GAMMA RAY FROM DENSITY LOG
CNPOR_LS.DEC   : COMPENSATED ENHANCED THERMAL NEUTRON POROSITY IN SELECTED LITHOLOGY LIMESTONE
GRS     .GAPI  : GAMMA RAY FROM SONIC LOG
DTCO    .US/F  : DELTA-T COMPRESSIONAL
DTSM    .US/F  : DELTA-T SHEAR
~Params ----------------------------------------------------
~Other -----------------------------------------------------
~ASCII -----------------------------------------------------
# ...
 5413.00000   52.79900    0.16230   53.49180   -9999.25   -9999.25
 5413.50000   48.30970    0.16840   53.28230   -9999.25   -9999.25
 5414.00000   50.61820    0.17260   54.90250   -9999.25   -9999.25
 5414.50000   59.77920    0.17020   57.62430   -9999.25   -9999.25
 5415.00000   63.29590    0.16080   61.54690   -9999.25   -9999.25
 5415.50000   58.68460    0.14810   63.06950   -9999.25   -9999.25
 5416.00000   56.55740    0.13040   65.79350   -9999.25   -9999.25
 5416.50000   62.70100    0.13450   63.98520   -9999.25   -9999.25
 5417.00000   68.09360    0.14530   67.55570   -9999.25   -9999.25
 5417.50000   60.30150    0.15510   61.87400   -9999.25   -9999.25
 5418.00000   48.55270    0.17990   60.78830   -9999.25   -9999.25
 5418.50000   44.72400    0.19580   62.23390   -9999.25   -9999.25
 5419.00000   46.53590    0.17960   65.05350   -9999.25   -9999.25
 5419.50000   49.11360    0.15150   68.06530   -9999.25   -9999.25
 5420.00000   55.99540    0.14150   70.85650   -9999.25   -9999.25
 5420.50000   62.89400    0.16210   78.80990   -9999.25   -9999.25
 5421.00000   66.23170    0.18410   85.28040   -9999.25   -9999.25
 5421.50000   65.91630    0.16790   87.63950   -9999.25   -9999.25
 5422.00000   67.26370    0.15290   88.11700   -9999.25   -9999.25
 5422.50000   76.06770    0.16760   84.13880   -9999.25   -9999.25
 5423.00000   78.21790    0.17170   76.76990   -9999.25   -9999.25
 5423.50000   68.34920    0.15870   66.23680   -9999.25   -9999.25
 5424.00000   57.57160    0.15700   60.83980   -9999.25   -9999.25
 5424.50000   53.47610    0.15190   57.50800   -9999.25   -9999.25
 5425.00000   52.52820    0.14900   55.73690   -9999.25   -9999.25
 5425.50000   48.15290    0.14720   54.97660   -9999.25   -9999.25
 5426.00000   47.38110    0.13170   52.58010   -9999.25   -9999.25
 5426.50000   49.62890    0.11830   51.76750   -9999.25   -9999.25
 5427.00000   55.83500    0.11850   53.43300   -9999.25   -9999.25
 5427.50000   69.81640    0.11560   56.03120   -9999.25   -9999.25
 5428.00000   80.20350    0.10170   56.72320  101.72820   63.50350
 5428.50000   69.94300    0.09250   56.79340  101.90640   64.16480
 5429.00000   51.21850    0.09460   57.12880  102.07820   64.70590
 5429.50000   41.90230    0.10790   59.70450  102.80890   65.47720
 5430.00000   42.21620    0.13300   59.70700  103.33140   65.13050
 5430.50000   49.00100    0.12930   60.21130  103.52150   63.79630
 5431.00000   63.74080    0.10560   60.85880  103.83730   63.16120
 5431.50000   75.13610    0.10840   61.99740  104.54700   63.03730
 5432.00000   72.09690    0.12540   60.24150  104.60960   63.03210
 5432.50000   62.03680    0.13870   57.50550  104.13990   62.61000
 5433.00000   55.47830    0.15030   55.90340  103.78530   62.50270
 5433.50000   49.15970    0.18340   58.26220  103.77860   62.77150
 5434.00000   43.44430    0.22350   58.33080  104.42950   63.61580
 5434.50000   45.27300    0.21580   58.25580  105.16530   64.87050
 5435.00000   51.46280    0.16700   56.58620  105.01260   65.59770
 5435.50000   55.20840    0.14530   54.82070  104.51340   65.29020
 5436.00000   56.56110    0.13850   54.18350  104.60490   64.86590
 5436.50000   57.65800    0.13690   56.69470  104.95950   64.67700
 5437.00000   62.87570    0.15960   60.32240  104.95280   64.38670
 5437.50000   64.47390    0.17470   58.55950  104.42950   63.63060
 5438.00000   63.33150    0.15810   53.10190  103.97880   62.87210
 5438.50000   61.34020    0.13560   54.86260  103.96770   62.69600
 5439.00000   55.89220    0.12330   62.68910  105.75410   64.39670
 5439.50000   57.58070    0.12390   72.16510  108.86190   66.85710
 5440.00000   66.85840    0.12840   75.64860  111.02890   68.72790
 5440.50000   73.43170    0.14100   73.47410  111.82110   69.43140
 5441.00000   79.06040    0.16950   66.66210  111.28280   68.53950
 5441.50000   77.38260    0.20230   63.51480  110.26300   67.77900
 5442.00000   64.56770    0.22290   64.42300  110.10870   67.52280
 5442.50000   56.29140    0.19930   70.55080  110.16960   67.59440
 5443.00000   63.74260    0.15190   72.66780  110.32370   67.57980
 5443.50000   68.72620    0.14180   69.97140  109.87290   66.91220
 5444.00000   61.70330    0.14320   63.97590  108.32390   65.91110
 5444.50000   52.23290    0.14170   61.58540  107.52250   65.47190
 5445.00000   52.93780    0.15290   65.68600  108.27100   65.99840
 5445.50000   63.45830    0.15290   68.00730  108.73490   66.75810
 5446.00000   74.81130    0.15110   68.55230  108.53400   66.33880
 5446.50000   77.98390    0.15500   67.32510  107.13310   65.43380
 5447.00000   79.03080    0.14610   66.08620  105.70980   64.52910
 5447.50000   70.45920    0.13340   63.25570  105.18680   64.50030
 5448.00000   59.91180    0.13860   60.21220  105.25900   65.08760
 5448.50000   56.20670    0.14680   62.61080  105.78420   65.86110
 5449.00000   55.15640    0.13580   64.31170  105.42240   65.76150
 5449.50000   60.33820    0.12910   63.23400  104.45270   64.67810
 5450.00000   61.63910    0.12900   59.82180  103.28840   62.87180
 5450.50000   57.71950    0.13010   56.52270  101.94160   61.18100
 5451.00000   50.02840    0.13110   52.29880  100.07510   59.36370
 5451.50000   44.89900    0.12660   46.75750   98.30730   58.00580
 5452.00000   46.24280    0.12320   44.07590   98.68290   58.57850
 5452.50000   47.26300    0.12730   46.18490  100.96130   59.89210
 5453.00000   47.65930    0.12740   50.53940  102.92810   62.07130
 5453.50000   54.52430    0.12080   51.55050  103.73660   63.07200
 5454.00000   59.92450    0.12040   51.96650  104.34880   63.83810
 5454.50000   56.63940    0.12610   51.49190  104.20120   64.43380
 5455.00000   53.50580    0.13470   51.48660  103.54790   64.98500
 5455.50000   53.88680    0.14410   54.02600  103.17440   65.54550
 5456.00000   47.05720    0.14750   55.05280  102.74000   65.38720
 5456.50000   42.23010    0.14860   54.92710  102.58780   64.85590
 5457.00000   40.94210    0.13550   50.57100  102.33880   63.35910
 5457.50000   40.46780    0.12060   48.44030  101.71270   61.59030
 5458.00000   46.62870    0.11930   46.78970  101.10000   60.15840
 5458.50000   52.61900    0.12240   47.31920  100.55520   59.72050
 5459.00000   49.19740    0.11800   47.52190  100.20760   59.69780
 5459.50000   44.03940    0.11560   48.89680  100.80450   60.21760
 5460.00000   43.13630    0.12460   53.18280  102.78210   61.93430
 5460.50000   42.64040    0.14970   58.71170  105.13170   63.84670
 5461.00000   48.93520    0.17870   63.37550  107.01410   65.42950
 5461.50000   58.67240    0.17760   63.36480  106.97390   65.88510
 5462.00000   56.82920    0.14560   59.12510  105.59390   65.05830
 5462.50000   46.69110    0.10860   52.42210  103.67400   63.69450
 5463.00000   46.50730    0.10200   46.99350  102.49690   62.79950
 5463.50000   55.14350    0.12980   46.06740  102.37660   62.19940
 5464.00000   60.16590    0.17300   47.73570  102.25360   61.83630
 5464.50000   57.96500    0.18660   49.93470  102.21550   61.83070
 5465.00000   56.59090    0.15180   52.82410  102.48840   62.11080
 5465.50000   58.12020    0.12400   52.95120  102.49170   62.51420
 5466.00000   66.17640    0.12160   54.16220  102.37830   62.61460
 5466.50000   69.99480    0.11880   53.18290  102.26500   62.87220
 5467.00000   63.57420    0.11210   53.73580  102.05510   62.92490
 5467.50000   55.42160    0.12110   52.75950  101.96230   62.68180
 5468.00000   48.03510    0.13940   53.10210  101.47380   62.37260
 5468.50000   45.95260    0.13860   53.76910  100.59120   61.87450
 5469.00000   48.15740    0.12820   52.84750   99.68270   61.24450
 5469.50000   46.14720    0.11540   52.72840   99.96740   61.19710
 5470.00000   45.02840    0.11080   54.08610  100.85760   61.38480
 5470.50000   45.07700    0.11080   56.73040  101.59130   61.45290
 5471.00000   41.75150    0.10460   54.90030  101.24830   61.15100
 5471.50000   38.90750    0.09940   52.10610  100.51360   60.70230
 5472.00000   36.31300    0.10230   47.96310   99.73600   60.43730
 5472.50000   29.87960    0.10670   49.61310   99.49040   60.60740
