~Version ---------------------------------------------------
VERS.   2.0 : CWLS log ASCII Standard -VERSION 2.0
WRAP.    NO : One line per depth step
DLM . SPACE : Column Data Section Delimiter
~Well ------------------------------------------------------
STRT .F                   13.0 : START DEPTH
STOP .F                 9040.0 : STOP DEPTH
STEP .F                    0.5 : STEP
NULL .                -9999.25 : NULL VALUE
COMP .                         : COMPANY
WELL .                         : WELL
FLD  .                         : FIELD
LOC  .                         : LOCATION
PROV .                         : PROVINCE
CNTY .                         : COUNTY
STAT .                         : STATE
CTRY .                         : COUNTRY
SRVC .                         : SERVICE COMPANY
DATE .                         : DATE
UWI  .                         : UNIQUE WELL ID
API  .                         : API NUMBER
SLAT .WGS84 1.0851799897875019 : SURFACE LATITUDE
SLON .WGS84  7.322864505002002 : SURFACE LONGITUDE
DATUM.F                    nan : DEPTH DATUM ELEV
~Curve Information -----------------------------------------
DEPT    .F     : 1 MEASURED DEPTH
GRD     .GAPI  : GAMMA RAY FROM DENSITY LOG
CNPOR_LS.DEC   : COMPENSATED ENHANCED THERMAL NEUTRON POROSITY IN SELECTED LITHOLOGY LIMESTONE
GRS     .GAPI  : GAMMA RAY FROM SONIC LOG
DTCO    .US/F  : DELTA-T COMPRESSIONAL
DTSM    .US/F  : DELTA-T SHEAR
~Params ----------------------------------------------------
~Other -----------------------------------------------------
~ASCII -----------------------------------------------------
# ...
 6613.00000   -9999.25    0.16680   72.21390  117.92010   70.28830
 6613.50000   -9999.25    0.16680   78.54180  119.87230   71.79450
 6614.00000   -9999.25    0.16080   79.59430  120.00310   71.85350
 6614.50000   -9999.25    0.17510   78.87820  119.15170   71.23780
 6615.00000   -9999.25    0.19700   69.62130  117.84310   69.91740
 6615.50000   -9999.25    0.19540   64.91130  116.89520   68.92040
 6616.00000   -9999.25    0.17220   60.90800  116.37900   68.41410
 6616.50000   -9999.25    0.15480   66.29410  116.39160   68.32350
 6617.00000   -9999.25    0.13440   71.59360  116.65220   68.91780
 6617.50000   -9999.25    0.11160   78.88770  117.19550   69.61940
 6618.00000   -9999.25    0.10900   79.34470  117.28970   69.61940
 6618.50000   -9999.25    0.13910   76.15460  117.17150   69.29330
 6619.00000   -9999.25    0.17290   69.03130  116.73120   68.77960
 6619.50000   -9999.25    0.17650   68.74890  116.07420   68.43570
 6620.00000   -9999.25    0.16120   71.13330  116.37150   68.42600
 6620.50000   -9999.25    0.14540   74.05340  116.99610   68.98810
 6621.00000   -9999.25    0.14370   75.48620  118.07000   69.36260
 6621.50000   -9999.25    0.14710   82.35700  119.34470   70.08360
 6622.00000   -9999.25    0.14990   83.92540  120.03590   70.23180
 6622.50000   -9999.25    0.16610   82.52880  119.90070   70.11580
 6623.00000   -9999.25    0.16980   73.07290  118.96090   69.28980
 6623.50000   -9999.25    0.16200   67.94130  118.07800   68.91060
 6624.00000   -9999.25    0.16670   70.37400  118.31970   68.81800
 6624.50000   -9999.25    0.15830   73.78510  119.01060   69.21620
 6625.00000   -9999.25    0.13380   81.91830  119.83600   69.80470
 6625.50000   -9999.25    0.12270   82.09350  119.66170   70.39320
 6626.00000   -9999.25    0.13250   81.69140  119.13970   70.31030
 6626.50000   -9999.25    0.14550   75.76510  118.34580   69.48830
 6627.00000   -9999.25    0.16130   70.97330  117.49680   68.79210
 6627.50000   -9999.25    0.17160   67.25260  116.70630   67.94110
 6628.00000   -9999.25    0.17140   67.88950  116.09650   67.54460
 6628.50000   -9999.25    0.16760   67.66590  115.15950   67.30750
 6629.00000   -9999.25    0.16270   68.01140  114.00180   67.28360
 6629.50000   -9999.25    0.15110   65.80340  113.04850   67.46820
 6630.00000   -9999.25    0.13990   68.07270  112.68710   67.98590
 6630.50000   -9999.25    0.13340   70.69600  113.04760   68.76990
 6631.00000   -9999.25    0.13170   69.04790  113.20130   68.23930
 6631.50000   -9999.25    0.13380   62.53190  110.80990   65.50130
 6632.00000   -9999.25    0.13620   51.99900  107.98350   61.69520
 6632.50000   -9999.25    0.12400   50.52820  107.15010   60.45150
 6633.00000   -9999.25    0.10920   52.00100  108.12340   61.37990
 6633.50000   -9999.25    0.11670   59.99630  110.78200   64.25270
 6634.00000   -9999.25    0.12730   61.21210  112.50110   66.68990
 6634.50000   -9999.25    0.11810   66.72400  113.08830   67.18800
 6635.00000   -9999.25    0.10680   68.23640  112.32890   66.64950
 6635.50000   -9999.25    0.12750   70.82780  111.56670   66.66750
 6636.00000   -9999.25    0.15990   69.53880  111.07280   67.19280
 6636.50000   -9999.25    0.14660   70.46200  111.03090   67.87470
 6637.00000   -9999.25    0.11960   72.77710  111.78880   68.22550
 6637.50000   -9999.25    0.12370   74.22720  112.74890   68.25550
 6638.00000   -9999.25    0.14160   70.27460  112.98310   68.14900
 6638.50000   -9999.25    0.15970   67.54100  112.35240   68.19160
 6639.00000   -9999.25    0.18470   65.53510  111.98970   68.74080
 6639.50000   -9999.25    0.18770   70.17130  114.31390   69.39370
 6640.00000   -9999.25    0.16530   73.02590  118.97570   70.43130
 6640.50000   -9999.25    0.15470   76.15000  124.30350   71.84070
 6641.00000   -9999.25    0.15690   80.08200  128.89820   72.76210
 6641.50000   -9999.25    0.17220   83.93770  130.08200   72.79670
 6642.00000   -9999.25    0.19840   80.48410  128.03650   71.94770
 6642.50000   -9999.25    0.19270   75.31320  125.26770   70.91790
 6643.00000   -9999.25    0.17610   70.08440  122.80810   69.98830
 6643.50000   -9999.25    0.19070   70.45790  121.63170   69.52540
 6644.00000   -9999.25    0.20770   73.75620  121.48510   70.69310
 6644.50000   -9999.25    0.18210   78.87980  121.96180   71.90600
 6645.00000   -9999.25    0.15940   81.73330  121.75390   73.30480
 6645.50000   -9999.25    0.16770   81.24750  121.04560   73.98330
 6646.00000   -9999.25    0.18680   77.18750  119.92430   73.46730
 6646.50000   -9999.25    0.20390   76.75040  118.68700   72.67600
 6647.00000   -9999.25    0.20900   76.13480  117.94000   71.19250
 6647.50000   -9999.25    0.20090   74.81430  117.73680   70.71390
 6648.00000   -9999.25    0.19620   73.60310  117.63620   70.60160
 6648.50000   -9999.25    0.18650   71.08020  117.37950   70.84210
 6649.00000   -9999.25    0.17500   72.49640  116.45960   71.08410
 6649.50000   -9999.25    0.17580   71.93060  115.88330   71.32340
 6650.00000   -9999.25    0.18090   71.11090  116.55160   71.67590
 6650.50000   -9999.25    0.18310   71.07460  118.15130   71.97630
 6651.00000   -9999.25    0.18220   74.82650  120.07260   72.07560
 6651.50000   -9999.25    0.20050   80.83030  121.75450   72.24270
 6652.00000   -9999.25    0.22680   80.55660  122.02100   72.61200
 6652.50000   -9999.25    0.21000   76.95970  122.32360   73.12740
 6653.00000   -9999.25    0.17270   74.67900  121.65400   73.61360
 6653.50000   -9999.25    0.16360   74.71200  120.57280   73.34750
 6654.00000   -9999.25    0.17500   75.22460  118.63990   72.73130
 6654.50000   -9999.25    0.20530   75.89110  117.18090   72.05220
 6655.00000   -9999.25    0.21200   77.92160  117.07070   72.43690
 6655.50000   -9999.25    0.18300   80.81070  119.16230   74.15110
 6656.00000   -9999.25    0.18030   85.27130  120.91610   75.35420
 6656.50000   -9999.25    0.21800   82.49110  120.59120   74.77580
 6657.00000   -9999.25    0.20580   68.63900  114.73490   69.52910
 6657.50000   -9999.25    0.17880   49.18990  106.55090   60.53080
 6658.00000   -9999.25    0.16450   35.00170   99.68610   54.38120
 6658.50000   -9999.25    0.13670   31.45160   95.92630   51.83230
 6659.00000   -9999.25    0.10050   34.14390   95.41710   52.70520
 6659.50000   -9999.25    0.07910   37.37110  100.36960   57.25590
 6660.00000   -9999.25    0.06760   52.58080  106.93260   63.24040
 6660.50000   -9999.25    0.06790   65.94830  113.68310   67.84140
 6661.00000   -9999.25    0.08000   78.27750  117.67070   70.37770
 6661.50000   -9999.25    0.09800   78.38290  118.92320   70.96540
 6662.00000   -9999.25    0.11950   77.72340  118.24790   70.89690
 6662.50000   -9999.25    0.13910   75.19800  116.88170   70.89190
 6663.00000   -9999.25    0.14120   74.32820  116.42700   71.15400
 6663.50000   -9999.25    0.14570   74.76720  117.15260   71.87650
 6664.00000   -9999.25    0.16810   78.45040  118.47140   72.75380
 6664.50000   -9999.25    0.19500   79.66150  119.53150   73.05070
 6665.00000   -9999.25    0.21710   78.24940  120.02360   72.85830
 6665.50000   -9999.25    0.21160   77.23030  119.71920   72.13690
 6666.00000   -9999.25    0.19000   80.49990  119.96940   72.00190
 6666.50000   -9999.25    0.18520   79.22690  120.42740   71.97350
 6667.00000   -9999.25    0.20180   79.74840  120.85180   71.95370
 6667.50000   -9999.25    0.21040   79.27040  120.81810   71.59110
 6668.00000   -9999.25    0.22260   80.64210  120.17920   70.86210
 6668.50000   -9999.25    0.22570   79.24310  119.34770   70.26500
 6669.00000   -9999.25    0.20690   75.52870  117.98960   69.88290
 6669.50000   -9999.25    0.18160   73.77880  116.36010   69.50710
 6670.00000   -9999.25    0.16960   74.44860  114.78900   69.51030
 6670.50000   -9999.25    0.16910   75.46740  113.45020   69.92470
 6671.00000   -9999.25    0.16970   75.09280  114.04720   70.92700
 6671.50000   -9999.25    0.17900   70.55430  114.97980   70.60500
 6672.00000   -9999.25    0.19120   64.20740  113.31900   68.47050
 6672.50000   -9999.25    0.18750   58.43520  110.82890   64.98320
