~Version ---------------------------------------------------
VERS.   2.0 : CWLS log ASCII Standard -VERSION 2.0
WRAP.    NO : One line per depth step
DLM . SPACE : Column Data Section Delimiter
~Well ------------------------------------------------------
STRT .F                   13.0 : START DEPTH
STOP .F                 9040.0 : STOP DEPTH
STEP .F                    0.5 : STEP
NULL .                -9999.25 : NULL VALUE
COMP .                         : COMPANY
WELL .                         : WELL
FLD  .                         : FIELD
LOC  .                         : LOCATION
PROV .                         : PROVINCE
CNTY .                         : COUNTY
STAT .                         : STATE
CTRY .                         : COUNTRY
SRVC .                         : SERVICE COMPANY
DATE .                         : DATE
UWI  .                         : UNIQUE WELL ID
API  .                         : API NUMBER
SLAT .WGS84 1.0851799897875019 : SURFACE LATITUDE
SLON .WGS84  7.322864505002002 : SURFACE LONGITUDE
DATUM.F                    nan : DEPTH DATUM ELEV
~Curve Information -----------------------------------------
DEPT    .F     : 1 MEASURED DEPTH
GRD     .GAPI  : GAMMA RAY FROM DENSITY LOG
CNPOR_LS.DEC   : COMPENSATED ENHANCED THERMAL NEUTRON POROSITY IN SELECTED LITHOLOGY LIMESTONE
GRS     .GAPI  : GAMMA RAY FROM SONIC LOG
DTCO    .US/F  : DELTA-T COMPRESSIONAL
DTSM    .US/F  : DELTA-T SHEAR
~Params ----------------------------------------------------
~Other -----------------------------------------------------
~ASCII -----------------------------------------------------
# ...
 7513.00000   -9999.25    0.11870   60.97230  110.72620   69.00810
 7513.50000   -9999.25    0.14200   57.30110  110.30760   68.48680
 7514.00000   -9999.25    0.12590   58.23690  110.18840   68.58890
 7514.50000   -9999.25    0.10940   67.57840  110.43960   69.16980
 7515.00000   -9999.25    0.12800   69.62300  110.41070   68.65140
 7515.50000   -9999.25    0.14550   69.87950  108.73970   66.07490
 7516.00000   -9999.25    0.13830   63.04450  106.69270   63.62730
 7516.50000   -9999.25    0.12500   59.30700  105.07890   63.08940
 7517.00000   -9999.25    0.11540   57.50650  105.35990   64.56720
 7517.50000   -9999.25    0.10860   55.53580  108.82920   67.62980
 7518.00000   -9999.25    0.11000   50.94570  112.54560   70.18150
 7518.50000   -9999.25    0.11900   46.26120  114.77690   71.28030
 7519.00000   -9999.25    0.12870   44.71050  115.18370   70.57370
 7519.50000   -9999.25    0.13540   43.17280  113.19670   69.55990
 7520.00000   -9999.25    0.14820   43.21610  110.70300   68.80600
 7520.50000   -9999.25    0.16840   41.92260  108.52070   68.35960
 7521.00000   -9999.25    0.15610   41.39690  107.75560   68.30700
 7521.50000   -9999.25    0.12680   39.01600  107.43720   68.28980
 7522.00000   -9999.25    0.10770   38.34940  107.17640   68.27260
 7522.50000   -9999.25    0.09730   38.39630  106.81540   68.11380
 7523.00000   -9999.25    0.09460   40.45700  106.10910   67.49260
 7523.50000   -9999.25    0.09920   40.66730  104.19370   65.52720
 7524.00000   -9999.25    0.09970   40.75330  101.80300   62.39290
 7524.50000   -9999.25    0.09320   39.34020   99.88540   60.23000
 7525.00000   -9999.25    0.08730   39.58910   98.73530   60.03950
 7525.50000   -9999.25    0.07830   40.11610   99.20620   61.56670
 7526.00000   -9999.25    0.06890   42.93570  101.62340   63.95240
 7526.50000   -9999.25    0.07140   46.32580  104.21430   66.50340
 7527.00000   -9999.25    0.08540   51.14660  106.95580   68.14890
 7527.50000   -9999.25    0.09890   52.09920  108.82850   69.06720
 7528.00000   -9999.25    0.11600   56.16970  110.83740   69.82130
 7528.50000   -9999.25    0.12930   58.00640  113.07180   70.73940
 7529.00000   -9999.25    0.13440   63.19690  115.43260   71.45460
 7529.50000   -9999.25    0.13000   61.43670  117.76170   72.67960
 7530.00000   -9999.25    0.12870   61.86950  118.91610   73.88190
 7530.50000   -9999.25    0.13550   63.62880  118.61620   73.73700
 7531.00000   -9999.25    0.12200   65.63660  114.58500   70.99530
 7531.50000   -9999.25    0.10220   56.26420  108.00630   65.34610
 7532.00000   -9999.25    0.08980   41.37550  101.95670   59.66870
 7532.50000   -9999.25    0.08460   29.26300   98.67250   55.16330
 7533.00000   -9999.25    0.07470   21.67580   96.34300   52.28060
 7533.50000   -9999.25    0.05830   21.63550   95.99010   51.62760
 7534.00000   -9999.25    0.04010   21.93490   97.40360   53.17780
 7534.50000   -9999.25    0.03230   26.19240  100.06870   56.69730
 7535.00000   -9999.25    0.03480   35.27090  104.55630   61.96060
 7535.50000   -9999.25    0.04740   44.80460  109.42300   67.56820
 7536.00000   -9999.25    0.06050   52.17870  112.39930   70.87940
 7536.50000   -9999.25    0.06760   55.50180  113.24470   71.87950
 7537.00000   -9999.25    0.07750   56.60200  112.66030   71.68870
 7537.50000   -9999.25    0.10250   54.93450  110.85530   70.37290
 7538.00000   -9999.25    0.13600   49.40230  108.48690   68.09950
 7538.50000   -9999.25    0.14400   43.01300  106.42490   66.04220
 7539.00000   -9999.25    0.12000   41.51830  106.56710   65.13270
 7539.50000   -9999.25    0.10640   41.82760  107.36760   65.55720
 7540.00000   -9999.25    0.10390   45.38670  107.82250   65.68950
 7540.50000   -9999.25    0.09580   43.92370  107.72070   65.35470
 7541.00000   -9999.25    0.09520   42.40680  107.10670   65.09360
 7541.50000   -9999.25    0.11240   41.79040  106.63840   65.67160
 7542.00000   -9999.25    0.11920   44.05380  108.56490   67.72850
 7542.50000   -9999.25    0.10850   46.04920  110.55050   69.98160
 7543.00000   -9999.25    0.11580   45.67490  111.19050   70.64140
 7543.50000   -9999.25    0.13090   44.14920  109.69530   68.76620
 7544.00000   -9999.25    0.12780   43.81220  108.41630   66.71790
 7544.50000   -9999.25    0.11420   47.75120  108.78650   65.98180
 7545.00000   -9999.25    0.11400   52.65420  110.53980   66.61040
 7545.50000   -9999.25    0.12970   56.04480  113.58470   68.85680
 7546.00000   -9999.25    0.14480   55.04090  116.07690   71.73690
 7546.50000   -9999.25    0.14320   55.32690  117.70300   74.61390
 7547.00000   -9999.25    0.14550   58.89070  117.77730   75.17320
 7547.50000   -9999.25    0.15730   58.13130  113.95240   71.90780
 7548.00000   -9999.25    0.15050   48.22750  107.22650   64.02050
 7548.50000   -9999.25    0.12590   34.82980  100.77490   56.00530
 7549.00000   -9999.25    0.09530   25.50730   97.04410   51.92460
 7549.50000   -9999.25    0.07620   20.00240   96.07590   50.18030
 7550.00000   -9999.25    0.05950   15.48090   95.78070   49.38110
 7550.50000   -9999.25    0.04240   11.45280   95.62680   49.12120
 7551.00000   -9999.25    0.03020   10.54190   95.41000   49.12120
 7551.50000   -9999.25    0.02560   10.23150   95.15960   49.12120
 7552.00000   -9999.25    0.02690   11.25630   94.83460   49.18030
 7552.50000   -9999.25    0.02810   12.83910   94.75810   49.71690
 7553.00000   -9999.25    0.02850   16.09210   95.78180   52.68380
 7553.50000   -9999.25    0.03060   31.57100  100.22250   58.40420
 7554.00000   -9999.25    0.03620   46.68120  106.04410   65.76270
 7554.50000   -9999.25    0.04920   61.76670  111.48200   70.10070
 7555.00000   -9999.25    0.07710   62.92860  112.33990   69.54490
 7555.50000   -9999.25    0.10400   57.47050  109.69790   67.14360
 7556.00000   -9999.25    0.11650   47.27130  105.61700   64.25140
 7556.50000   -9999.25    0.10320   37.42650  103.03520   62.08260
 7557.00000   -9999.25    0.08750   37.39030  101.08000   60.46640
 7557.50000   -9999.25    0.07880   40.05340  100.28880   60.69480
 7558.00000   -9999.25    0.07350   45.97490  102.93080   62.79440
 7558.50000   -9999.25    0.07840   52.03530  106.27320   65.57680
 7559.00000   -9999.25    0.09500   53.26390  109.56540   67.46450
 7559.50000   -9999.25    0.10630   51.86560  111.61040   68.03560
 7560.00000   -9999.25    0.11490   48.12290  112.62760   68.75450
 7560.50000   -9999.25    0.13060   50.94050  113.64880   69.98540
 7561.00000   -9999.25    0.13420   55.34500  114.30460   70.97340
 7561.50000   -9999.25    0.11380   58.11720  113.69190   70.30150
 7562.00000   -9999.25    0.10000   53.14380  109.10150   66.41960
 7562.50000   -9999.25    0.10120   44.59750  104.56200   60.98660
 7563.00000   -9999.25    0.09860   34.67690  101.14000   56.81670
 7563.50000   -9999.25    0.07720   28.06310  100.55320   54.73580
 7564.00000   -9999.25    0.05820   28.23220  100.36250   53.94960
 7564.50000   -9999.25    0.04850   33.21460  100.67770   54.63600
 7565.00000   -9999.25    0.04860   41.85360  102.12930   57.71490
 7565.50000   -9999.25    0.05480   48.06360  105.63040   62.62310
 7566.00000   -9999.25    0.07050   57.75030  109.37280   68.16520
 7566.50000   -9999.25    0.09960   61.14630  113.09710   71.95320
 7567.00000   -9999.25    0.13540   60.64210  115.20580   72.84790
 7567.50000   -9999.25    0.15150   58.11100  114.94160   71.11800
 7568.00000   -9999.25    0.14310   56.70340  113.22920   68.98790
 7568.50000   -9999.25    0.13350   56.95890  109.11490   66.32160
 7569.00000   -9999.25    0.11730   52.23180  105.37440   64.67860
 7569.50000   -9999.25    0.09750   44.02370  102.96530   64.01330
 7570.00000   -9999.25    0.08440   40.90950  102.18730   63.39740
 7570.50000   -9999.25    0.08340   44.18660  101.07650   62.41570
 7571.00000   -9999.25    0.07770   48.66070   98.16920   58.81920
 7571.50000   -9999.25    0.07070   50.15140   94.75540   54.50170
 7572.00000   -9999.25    0.07340   41.82690   93.87130   52.50710
 7572.50000   -9999.25    0.07600   38.42370   94.09380   53.06310
