~Version ---------------------------------------------------
VERS.   2.0 : CWLS log ASCII Standard -VERSION 2.0
WRAP.    NO : One line per depth step
DLM . SPACE : Column Data Section Delimiter
~Well ------------------------------------------------------
STRT .F                   13.0 : START DEPTH
STOP .F                 9040.0 : STOP DEPTH
STEP .F                    0.5 : STEP
NULL .                -9999.25 : NULL VALUE
COMP .                         : COMPANY
WELL .                         : WELL
FLD  .                         : FIELD
LOC  .                         : LOCATION
PROV .                         : PROVINCE
CNTY .                         : COUNTY
STAT .                         : STATE
CTRY .                         : COUNTRY
SRVC .                         : SERVICE COMPANY
DATE .                         : DATE
UWI  .                         : UNIQUE WELL ID
API  .                         : API NUMBER
SLAT .WGS84 1.0851799897875019 : SURFACE LATITUDE
SLON .WGS84  7.322864505002002 : SURFACE LONGITUDE
DATUM.F                    nan : DEPTH DATUM ELEV
~Curve Information -----------------------------------------
DEPT    .F     : 1 MEASURED DEPTH
GRD     .GAPI  : GAMMA RAY FROM DENSITY LOG
CNPOR_LS.DEC   : COMPENSATED ENHANCED THERMAL NEUTRON POROSITY IN SELECTED LITHOLOGY LIMESTONE
GRS     .GAPI  : GAMMA RAY FROM SONIC LOG
DTCO    .US/F  : DELTA-T COMPRESSIONAL
DTSM    .US/F  : DELTA-T SHEAR
~Params ----------------------------------------------------
~Other -----------------------------------------------------
~ASCII -----------------------------------------------------
# ...
 7273.00000   -9999.25    0.06270   25.67860   97.88600   54.85310
 7273.50000   -9999.25    0.06220   30.00380  100.34690   57.73410
 7274.00000   -9999.25    0.05690   35.07230   99.66280   59.58360
 7274.50000   -9999.25    0.05080   38.08690   98.22340   59.43810
 7275.00000   -9999.25    0.05110   46.40560   95.68970   57.67020
 7275.50000   -9999.25    0.05930   59.91140   95.76270   56.55900
 7276.00000   -9999.25    0.06270   71.14120   96.64970   56.40500
 7276.50000   -9999.25    0.05860   64.82220   97.64410   56.35660
 7277.00000   -9999.25    0.05620   53.96580   97.97270   56.13610
 7277.50000   -9999.25    0.06150   40.48450   98.73170   56.60570
 7278.00000   -9999.25    0.06660   40.10930  100.98870   58.29860
 7278.50000   -9999.25    0.06600   41.48290  103.36770   60.13370
 7279.00000   -9999.25    0.06400   42.25120  103.42140   60.44690
 7279.50000   -9999.25    0.06440   38.88160  101.93730   59.44300
 7280.00000   -9999.25    0.06720   33.66060  100.57550   57.69780
 7280.50000   -9999.25    0.07170   27.35720   99.28890   55.77850
 7281.00000   -9999.25    0.07510   22.10570   99.59340   54.95070
 7281.50000   -9999.25    0.07600   20.42150  100.45020   54.22820
 7282.00000   -9999.25    0.07520   21.23350  100.73400   53.47720
 7282.50000   -9999.25    0.06790   20.01610  101.24590   52.66860
 7283.00000   -9999.25    0.05870   17.99920  102.64660   52.03970
 7283.50000   -9999.25    0.05470   17.86870  104.33850   51.90980
 7284.00000   -9999.25    0.05260   18.87110  105.52500   52.11880
 7284.50000   -9999.25    0.04790   20.21210  106.12630   52.74010
 7285.00000   -9999.25    0.04170   22.62580  106.23400   53.89740
 7285.50000   -9999.25    0.03700   33.62250  106.37210   56.24330
 7286.00000   -9999.25    0.03610   49.29910  106.37050   58.19090
 7286.50000   -9999.25    0.03920   69.09270  105.69340   58.90140
 7287.00000   -9999.25    0.04360   87.42090  105.83330   58.98200
 7287.50000   -9999.25    0.05090   91.48910  106.59220   58.79780
 7288.00000   -9999.25    0.06130   78.14520  106.63630   57.68290
 7288.50000   -9999.25    0.06770   54.33490  105.99290   56.33900
 7289.00000   -9999.25    0.06820   42.53670  105.94610   56.17230
 7289.50000   -9999.25    0.06650   52.46260  109.26380   59.10080
 7290.00000   -9999.25    0.06450   65.27140  114.81540   65.16620
 7290.50000   -9999.25    0.06730   75.15940  120.34330   71.21480
 7291.00000   -9999.25    0.07450   68.00520  120.65590   71.66670
 7291.50000   -9999.25    0.08210   54.10060  116.35280   67.44790
 7292.00000   -9999.25    0.09910   41.95560  111.43390   62.14540
 7292.50000   -9999.25    0.11610   34.16690  108.69870   58.82160
 7293.00000   -9999.25    0.12110   36.13490  108.09810   58.51920
 7293.50000   -9999.25    0.11020   41.59780  108.83920   59.98590
 7294.00000   -9999.25    0.09270   45.74190  113.38850   64.43740
 7294.50000   -9999.25    0.08330   53.00370  119.37410   69.73230
 7295.00000   -9999.25    0.09340   58.73320  125.09610   74.05340
 7295.50000   -9999.25    0.10970   71.57810  126.58850   75.93130
 7296.00000   -9999.25    0.12560   73.17750  126.02850   75.79190
 7296.50000   -9999.25    0.15540   71.12160  124.66660   75.09150
 7297.00000   -9999.25    0.19120   62.91380  124.43020   74.94250
 7297.50000   -9999.25    0.19970   60.44430  124.40410   74.91720
 7298.00000   -9999.25    0.20360   62.89200  124.20500   74.66420
 7298.50000   -9999.25    0.22760   65.12420  123.66780   74.45700
 7299.00000   -9999.25    0.22670   66.46950  123.41380   74.26110
 7299.50000   -9999.25    0.18680   63.42580  123.30810   74.16150
 7300.00000   -9999.25    0.14540   61.73240  123.70450   74.37650
 7300.50000   -9999.25    0.13870   61.41790  124.45280   74.87130
 7301.00000   -9999.25    0.14980   66.60390  124.94900   75.20440
 7301.50000   -9999.25    0.16280   69.39320  125.35540   74.84730
 7302.00000   -9999.25    0.16990   69.80520  124.76270   74.44790
 7302.50000   -9999.25    0.18430   64.82530  123.82620   74.20350
 7303.00000   -9999.25    0.19900   64.42220  122.90480   74.42860
 7303.50000   -9999.25    0.17820   63.93450  122.65280   75.14650
 7304.00000   -9999.25    0.15810   60.74420  120.85220   73.68200
 7304.50000   -9999.25    0.16740   57.08690  115.36340   68.38430
 7305.00000   -9999.25    0.16320   48.52210  108.38840   61.36820
 7305.50000   -9999.25    0.14740   39.95860  102.90050   56.72420
 7306.00000   -9999.25    0.11650   28.80890   99.92420   54.48790
 7306.50000   -9999.25    0.08750   22.67190   97.45890   53.41050
 7307.00000   -9999.25    0.06320   23.17020   96.48200   53.19590
 7307.50000   -9999.25    0.05270   24.31490   96.37420   53.58690
 7308.00000   -9999.25    0.04770   25.80330   96.76730   53.90660
 7308.50000   -9999.25    0.04500   26.18360   97.15380   54.24050
 7309.00000   -9999.25    0.04480   27.38890   97.41430   53.99460
 7309.50000   -9999.25    0.04610   28.62930   97.56770   54.17070
 7310.00000   -9999.25    0.04800   29.11430   98.07320   54.91410
 7310.50000   -9999.25    0.05090   30.13310   98.89590   55.65500
 7311.00000   -9999.25    0.05360   28.64240   99.15340   56.28960
 7311.50000   -9999.25    0.05800   28.03810   98.88640   56.29440
 7312.00000   -9999.25    0.05980   24.86940   98.42640   55.77550
 7312.50000   -9999.25    0.05950   27.34640   98.42330   55.51430
 7313.00000   -9999.25    0.05920   30.34670   98.42020   55.40150
 7313.50000   -9999.25    0.05660   33.48080   98.41700   55.28340
 7314.00000   -9999.25    0.05290   34.01350   97.99560   55.16520
 7314.50000   -9999.25    0.04830   33.65890   98.34350   55.21950
 7315.00000   -9999.25    0.04540   36.52280   99.46280   55.78150
 7315.50000   -9999.25    0.04610   36.49760  100.53020   56.54030
 7316.00000   -9999.25    0.04800   35.55130  100.78450   56.91830
 7316.50000   -9999.25    0.04970   34.33840  101.29110   57.42960
 7317.00000   -9999.25    0.05810   35.93070  102.15890   58.06480
 7317.50000   -9999.25    0.06410   37.57000  103.03640   58.44210
 7318.00000   -9999.25    0.06460   36.09180  103.20380   58.80360
 7318.50000   -9999.25    0.06780   35.89110  103.00960   58.88080
 7319.00000   -9999.25    0.07340   37.32540  102.64560   58.99330
 7319.50000   -9999.25    0.07470   37.61290  102.28170   59.24490
 7320.00000   -9999.25    0.07260   35.87810  101.48300   58.68600
 7320.50000   -9999.25    0.07510   32.11320  100.21200   57.85470
 7321.00000   -9999.25    0.07820   32.47480   99.45250   57.02480
 7321.50000   -9999.25    0.07050   33.08990   99.60990   57.75410
 7322.00000   -9999.25    0.05890   41.53050  102.51600   61.32780
 7322.50000   -9999.25    0.05620   52.92900  106.67130   65.76170
 7323.00000   -9999.25    0.06860   63.00060  109.48120   69.44390
 7323.50000   -9999.25    0.08100   58.30700  109.28150   67.87210
 7324.00000   -9999.25    0.08820   50.22470  104.16620   64.36630
 7324.50000   -9999.25    0.10180   42.18750   99.50460   61.34270
 7325.00000   -9999.25    0.11820   39.01890   97.57630   61.16810
 7325.50000   -9999.25    0.11270   38.99790   98.81230   62.74330
 7326.00000   -9999.25    0.10160   40.75670   99.79400   63.10040
 7326.50000   -9999.25    0.09630   41.91490   99.86630   62.32000
 7327.00000   -9999.25    0.09440   40.51920   98.44890   60.06690
 7327.50000   -9999.25    0.09390   39.05180   96.29050   58.02020
 7328.00000   -9999.25    0.08990   38.91460   93.73930   56.14780
 7328.50000   -9999.25    0.07850   40.30200   92.72250   54.89260
 7329.00000   -9999.25    0.06560   39.76110   92.86000   55.06530
 7329.50000   -9999.25    0.05840   40.35420   95.57680   56.65290
 7330.00000   -9999.25    0.05930   39.92220   98.45430   58.95910
 7330.50000   -9999.25    0.06060   40.81870  101.43460   61.23220
 7331.00000   -9999.25    0.05880   45.48760  104.91240   63.48240
 7331.50000   -9999.25    0.06010   48.13380  108.39020   65.90410
 7332.00000   -9999.25    0.07090   50.41980  111.86790   67.23700
 7332.50000   -9999.25    0.09250   50.54770  113.64960   67.20420
