~Version ---------------------------------------------------
VERS.   2.0 : CWLS log ASCII Standard -VERSION 2.0
WRAP.    NO : One line per depth step
DLM . SPACE : Column Data Section Delimiter
~Well ------------------------------------------------------
STRT .F                   13.0 : START DEPTH
STOP .F                 9040.0 : STOP DEPTH
STEP .F                    0.5 : STEP
NULL .                -9999.25 : NULL VALUE
COMP .                         : COMPANY
WELL .                         : WELL
FLD  .                         : FIELD
LOC  .                         : LOCATION
PROV .                         : PROVINCE
CNTY .                         : COUNTY
STAT .                         : STATE
CTRY .                         : COUNTRY
SRVC .                         : SERVICE COMPANY
DATE .                         : DATE
UWI  .                         : UNIQUE WELL ID
API  .                         : API NUMBER
SLAT .WGS84 1.0851799897875019 : SURFACE LATITUDE
SLON .WGS84  7.322864505002002 : SURFACE LONGITUDE
DATUM.F                    nan : DEPTH DATUM ELEV
~Curve Information -----------------------------------------
DEPT    .F     : 1 MEASURED DEPTH
GRD     .GAPI  : GAMMA RAY FROM DENSITY LOG
CNPOR_LS.DEC   : COMPENSATED ENHANCED THERMAL NEUTRON POROSITY IN SELECTED LITHOLOGY LIMESTONE
GRS     .GAPI  : GAMMA RAY FROM SONIC LOG
DTCO    .US/F  : DELTA-T COMPRESSIONAL
DTSM    .US/F  : DELTA-T SHEAR
~Params ----------------------------------------------------
~Other -----------------------------------------------------
~ASCII -----------------------------------------------------
# ...
 7093.00000   -9999.25    0.04510   23.73280   99.23570   55.33530
 7093.50000   -9999.25    0.05050   25.65980   98.23680   55.82990
 7094.00000   -9999.25    0.04930   27.31300   97.93690   57.01930
 7094.50000   -9999.25    0.05000   33.95270   98.85570   58.88880
 7095.00000   -9999.25    0.05170   42.43230   98.62660   58.84130
 7095.50000   -9999.25    0.04850   46.27270   97.62520   57.65980
 7096.00000   -9999.25    0.04570   43.93400   97.40380   56.87700
 7096.50000   -9999.25    0.04510   47.38640   98.51140   57.39650
 7097.00000   -9999.25    0.04660   53.00970  101.14090   61.05240
 7097.50000   -9999.25    0.05110   58.49790  104.39540   64.22960
 7098.00000   -9999.25    0.05690   56.20480  104.56210   64.52520
 7098.50000   -9999.25    0.06290   54.41220  103.44550   63.22630
 7099.00000   -9999.25    0.07990   52.20820  102.73070   61.28880
 7099.50000   -9999.25    0.09980   47.40020  102.32320   59.80420
 7100.00000   -9999.25    0.10530   46.86490  102.24830   59.68200
 7100.50000   -9999.25    0.09770   46.99660  102.43460   60.25050
 7101.00000   -9999.25    0.09010   49.38360  103.34660   62.06520
 7101.50000   -9999.25    0.08520   48.95230  103.89470   63.03430
 7102.00000   -9999.25    0.08040   49.43750  103.91130   63.17720
 7102.50000   -9999.25    0.07610   49.57170  104.02910   63.22630
 7103.00000   -9999.25    0.07220   50.04380  104.61880   63.95320
 7103.50000   -9999.25    0.07460   48.27900  105.22590   64.81600
 7104.00000   -9999.25    0.08030   50.86880  105.41190   65.16070
 7104.50000   -9999.25    0.08590   53.57790  104.70820   64.55830
 7105.00000   -9999.25    0.09050   53.25080  103.49820   62.17200
 7105.50000   -9999.25    0.09330   49.58460  101.74920   59.75770
 7106.00000   -9999.25    0.09940   44.73500   99.54350   57.45090
 7106.50000   -9999.25    0.09470   42.08390   97.59060   55.94830
 7107.00000   -9999.25    0.07670   39.50380   96.71130   55.78260
 7107.50000   -9999.25    0.06920   38.58030   96.00240   55.76080
 7108.00000   -9999.25    0.06470   38.13370   95.67770   55.76080
 7108.50000   -9999.25    0.05850   36.15310   95.65790   55.78030
 7109.00000   -9999.25    0.05850   36.73630   95.83630   55.85440
 7109.50000   -9999.25    0.06080   36.92990   96.79800   56.57710
 7110.00000   -9999.25    0.05920   41.74710   98.42150   57.49920
 7110.50000   -9999.25    0.05460   45.02010   99.91690   58.21230
 7111.00000   -9999.25    0.05550   47.47470   99.68090   57.79070
 7111.50000   -9999.25    0.05640   44.85840   98.53540   57.18320
 7112.00000   -9999.25    0.05970   45.28230   97.50390   56.75970
 7112.50000   -9999.25    0.07080   47.21780   96.93550   56.36220
 7113.00000   -9999.25    0.07810   49.44830   97.16560   55.76660
 7113.50000   -9999.25    0.07300   45.85130   97.47810   54.40630
 7114.00000   -9999.25    0.06130   40.76740   97.74590   53.27490
 7114.50000   -9999.25    0.05750   35.54530   97.94410   52.32870
 7115.00000   -9999.25    0.06070   32.59100   98.14220   51.48840
 7115.50000   -9999.25    0.05880   32.89040   98.37660   51.32760
 7116.00000   -9999.25    0.05100   34.64170   97.95130   51.59790
 7116.50000   -9999.25    0.04470   37.38530   97.49020   52.19630
 7117.00000   -9999.25    0.04450   37.65990   97.22920   53.15620
 7117.50000   -9999.25    0.04870   41.14230   97.78020   55.26440
 7118.00000   -9999.25    0.05290   45.75400  100.65960   58.60880
 7118.50000   -9999.25    0.06070   50.62900  105.05410   64.15930
 7119.00000   -9999.25    0.06720   56.75550  109.10190   69.01600
 7119.50000   -9999.25    0.07360   55.77110  111.01590   70.25570
 7120.00000   -9999.25    0.08950   54.09700  109.34160   67.89830
 7120.50000   -9999.25    0.11280   46.13130  103.95300   63.11850
 7121.00000   -9999.25    0.12170   43.16730   99.33710   59.47480
 7121.50000   -9999.25    0.11070   40.55160   96.51500   58.08020
 7122.00000   -9999.25    0.09380   38.79080   95.00120   57.50380
 7122.50000   -9999.25    0.07470   39.64310   94.21160   56.94580
 7123.00000   -9999.25    0.05690   37.85000   93.58920   55.92800
 7123.50000   -9999.25    0.04700   35.47860   92.92830   54.70280
 7124.00000   -9999.25    0.04640   32.96890   93.19770   54.12050
 7124.50000   -9999.25    0.04890   33.25400   93.72190   54.14260
 7125.00000   -9999.25    0.04850   34.09560   94.34700   54.52950
 7125.50000   -9999.25    0.04780   31.66950   94.67570   53.91400
 7126.00000   -9999.25    0.04820   28.23460   94.68710   53.48150
 7126.50000   -9999.25    0.04680   26.49350   94.73620   53.17460
 7127.00000   -9999.25    0.04270   29.79760   95.27280   53.27080
 7127.50000   -9999.25    0.04140   32.14080   95.25450   53.25660
 7128.00000   -9999.25    0.04240   30.60850   94.69670   53.15960
 7128.50000   -9999.25    0.04420   29.56170   93.99880   53.19810
 7129.00000   -9999.25    0.04110   32.48430   93.50290   53.67950
 7129.50000   -9999.25    0.03980   39.36470   93.83320   54.67830
 7130.00000   -9999.25    0.04450   42.78770   94.20400   55.37090
 7130.50000   -9999.25    0.05210   43.19930   94.70510   55.72750
 7131.00000   -9999.25    0.05350   39.41160   95.27010   55.63660
 7131.50000   -9999.25    0.05360   36.66890   95.05700   55.32550
 7132.00000   -9999.25    0.05920   37.01310   94.98100   54.88170
 7132.50000   -9999.25    0.06500   37.97590   94.75820   54.79590
 7133.00000   -9999.25    0.06480   37.52430   94.68640   55.19360
 7133.50000   -9999.25    0.05910   34.53690   94.58380   54.40080
 7134.00000   -9999.25    0.05550   30.36130   93.92880   53.26860
 7134.50000   -9999.25    0.05310   28.65210   93.00780   52.13190
 7135.00000   -9999.25    0.05140   28.97350   92.92330   51.68350
 7135.50000   -9999.25    0.04810   31.24200   93.17590   51.56850
 7136.00000   -9999.25    0.04300   30.02400   93.20210   51.14990
 7136.50000   -9999.25    0.04130   25.21920   92.76380   50.59310
 7137.00000   -9999.25    0.04130   22.68300   92.79450   50.05610
 7137.50000   -9999.25    0.03810   25.64010   93.16550   50.66740
 7138.00000   -9999.25    0.03290   30.26960   93.21140   51.40850
 7138.50000   -9999.25    0.02790   30.44560   92.70770   51.50460
 7139.00000   -9999.25    0.02450   25.64210   91.70860   50.82620
 7139.50000   -9999.25    0.02250   22.80640   92.40600   50.78220
 7140.00000   -9999.25    0.02430   22.64140   95.18640   52.06580
 7140.50000   -9999.25    0.02890   25.77590   98.94810   53.07840
 7141.00000   -9999.25    0.03340   26.53980  101.96200   53.60260
 7141.50000   -9999.25    0.03740   26.98560  102.82810   52.58900
 7142.00000   -9999.25    0.04070   24.48750  102.21460   51.44930
 7142.50000   -9999.25    0.03960   22.26470  101.27910   50.54760
 7143.00000   -9999.25    0.03700   21.76330  100.73740   51.33100
 7143.50000   -9999.25    0.03410   23.14500  101.89890   54.35090
 7144.00000   -9999.25    0.03290   34.51980  103.76840   58.33220
 7144.50000   -9999.25    0.03510   46.20280  105.13940   61.14720
 7145.00000   -9999.25    0.03930   58.85190  105.06840   61.39060
 7145.50000   -9999.25    0.04190   63.49420  103.79970   59.01200
 7146.00000   -9999.25    0.04870   59.27730  102.58760   55.90160
 7146.50000   -9999.25    0.06080   47.96770  101.52940   53.10620
 7147.00000   -9999.25    0.07060   35.04220  100.61830   52.06060
 7147.50000   -9999.25    0.06940   29.44400   99.58440   51.96130
 7148.00000   -9999.25    0.05920   30.92800   98.41500   52.20300
 7148.50000   -9999.25    0.04890   32.67860   97.17660   52.48490
 7149.00000   -9999.25    0.03960   32.66360   96.36510   52.65130
 7149.50000   -9999.25    0.03910   32.20300   95.98850   52.68920
 7150.00000   -9999.25    0.04340   35.05460   95.90900   52.96770
 7150.50000   -9999.25    0.04530   39.44690   95.92450   53.00500
 7151.00000   -9999.25    0.04330   40.06570   96.02660   52.74510
 7151.50000   -9999.25    0.04130   36.17800   96.51220   52.68080
 7152.00000   -9999.25    0.04230   30.52960   96.59970   52.68080
 7152.50000   -9999.25    0.04380   27.64790   96.52740   52.58220
