~Version ---------------------------------------------------
VERS.   2.0 : CWLS log ASCII Standard -VERSION 2.0
WRAP.    NO : One line per depth step
DLM . SPACE : Column Data Section Delimiter
~Well ------------------------------------------------------
STRT .F                   13.0 : START DEPTH
STOP .F                 9040.0 : STOP DEPTH
STEP .F                    0.5 : STEP
NULL .                -9999.25 : NULL VALUE
COMP .                         : COMPANY
WELL .                         : WELL
FLD  .                         : FIELD
LOC  .                         : LOCATION
PROV .                         : PROVINCE
CNTY .                         : COUNTY
STAT .                         : STATE
CTRY .                         : COUNTRY
SRVC .                         : SERVICE COMPANY
DATE .                         : DATE
UWI  .                         : UNIQUE WELL ID
API  .                         : API NUMBER
SLAT .WGS84 1.0851799897875019 : SURFACE LATITUDE
SLON .WGS84  7.322864505002002 : SURFACE LONGITUDE
DATUM.F                    nan : DEPTH DATUM ELEV
~Curve Information -----------------------------------------
DEPT    .F     : 1 MEASURED DEPTH
GRD     .GAPI  : GAMMA RAY FROM DENSITY LOG
CNPOR_LS.DEC   : COMPENSATED ENHANCED THERMAL NEUTRON POROSITY IN SELECTED LITHOLOGY LIMESTONE
GRS     .GAPI  : GAMMA RAY FROM SONIC LOG
DTCO    .US/F  : DELTA-T COMPRESSIONAL
DTSM    .US/F  : DELTA-T SHEAR
~Params ----------------------------------------------------
~Other -----------------------------------------------------
~ASCII -----------------------------------------------------
# ...
 6373.00000   -9999.25    0.17550   60.36520  126.66510   70.61570
 6373.50000   -9999.25    0.19700   61.83790  127.29270   71.23090
 6374.00000   -9999.25    0.17970   57.24030  127.74680   71.97540
 6374.50000   -9999.25    0.16230   52.44030  127.64320   72.75020
 6375.00000   -9999.25    0.16290   46.69610  126.63620   72.78260
 6375.50000   -9999.25    0.15700   42.31960  124.04790   71.79290
 6376.00000   -9999.25    0.13980   39.34480  119.41320   68.24500
 6376.50000   -9999.25    0.12940   35.32810  114.39380   64.37480
 6377.00000   -9999.25    0.12310   30.28020  110.49690   61.44720
 6377.50000   -9999.25    0.11140   24.30110  107.42630   59.26440
 6378.00000   -9999.25    0.09940   20.58440  105.41100   57.50430
 6378.50000   -9999.25    0.08640   19.50850  104.14030   55.61730
 6379.00000   -9999.25    0.07490   17.04540  103.02400   54.17970
 6379.50000   -9999.25    0.07020   15.43170  101.81650   53.30240
 6380.00000   -9999.25    0.06720   14.42800  101.07410   53.15240
 6380.50000   -9999.25    0.06270   16.03270  101.09650   53.37080
 6381.00000   -9999.25    0.06580   17.68600  103.60320   54.82990
 6381.50000   -9999.25    0.07310   31.87100  110.15080   58.73330
 6382.00000   -9999.25    0.07690   47.08770  120.10560   65.53270
 6382.50000   -9999.25    0.09000   61.43760  128.06030   72.14060
 6383.00000   -9999.25    0.10970   61.85730  131.13560   74.31000
 6383.50000   -9999.25    0.11630   57.28940  131.65180   74.36690
 6384.00000   -9999.25    0.11680   52.98560  132.30600   74.48700
 6384.50000   -9999.25    0.12610   50.76120  133.66890   75.75020
 6385.00000   -9999.25    0.15340   54.03370  135.51830   77.54530
 6385.50000   -9999.25    0.19200   55.98930  135.19600   78.44010
 6386.00000   -9999.25    0.20280   55.30660  132.39570   76.81640
 6386.50000   -9999.25    0.17070   50.84990  125.20990   72.54720
 6387.00000   -9999.25    0.15260   46.26010  119.66770   69.73030
 6387.50000   -9999.25    0.16170   49.25780  119.29950   70.37720
 6388.00000   -9999.25    0.17950   53.23690  124.04890   73.02110
 6388.50000   -9999.25    0.17340   59.01930  128.79830   75.48490
 6389.00000   -9999.25    0.15230   62.29780  131.27240   76.06670
 6389.50000   -9999.25    0.15370   65.83550  129.38120   75.27140
 6390.00000   -9999.25    0.19190   65.77500  125.92500   74.14180
 6390.50000   -9999.25    0.22860   61.96490  122.46890   72.79100
 6391.00000   -9999.25    0.21980   58.67260  119.01280   71.73610
 6391.50000   -9999.25    0.20360   54.48340  115.89190   70.66680
 6392.00000   -9999.25    0.19120   52.21920  115.31340   69.70880
 6392.50000   -9999.25    0.18160   49.06270  116.81310   69.93510
 6393.00000   -9999.25    0.18410   52.86680  119.71020   70.88590
 6393.50000   -9999.25    0.19770   58.21050  121.92350   71.21490
 6394.00000   -9999.25    0.20220   64.16040  122.38140   70.11500
 6394.50000   -9999.25    0.19760   59.78740  119.46130   67.62680
 6395.00000   -9999.25    0.17820   51.18440  117.77630   66.22430
 6395.50000   -9999.25    0.15290   45.69730  117.33430   67.25410
 6396.00000   -9999.25    0.14310   46.13400  119.88290   70.31370
 6396.50000   -9999.25    0.16130   50.16470  122.73010   73.20650
 6397.00000   -9999.25    0.16760   50.75310  123.82740   73.26180
 6397.50000   -9999.25    0.15030   51.43070  123.68590   71.59140
 6398.00000   -9999.25    0.15010   52.35110  125.24230   70.94210
 6398.50000   -9999.25    0.17560   52.85940  126.95710   71.66560
 6399.00000   -9999.25    0.20780   53.06540  129.15190   73.38430
 6399.50000   -9999.25    0.21360   51.77270  129.24640   74.16850
 6400.00000   -9999.25    0.18140   51.17530  128.07640   73.96690
 6400.50000   -9999.25    0.16170   49.01700  126.67930   73.25160
 6401.00000   -9999.25    0.17560   48.91060  127.01500   72.62290
 6401.50000   -9999.25    0.18650   49.86180  128.06000   72.89350
 6402.00000   -9999.25    0.18630   51.50930  128.96490   72.91600
 6402.50000   -9999.25    0.18550   50.33820  129.09900   72.86980
 6403.00000   -9999.25    0.17770   47.08360  127.85450   72.31380
 6403.50000   -9999.25    0.17750   44.86390  126.31370   71.71370
 6404.00000   -9999.25    0.18020   43.57420  124.89180   71.04700
 6404.50000   -9999.25    0.17480   42.80660  123.79790   70.35060
 6405.00000   -9999.25    0.15560   40.83260  123.68000   70.22490
 6405.50000   -9999.25    0.14710   43.48940  125.54520   70.31350
 6406.00000   -9999.25    0.13340   46.05890  129.56140   70.73740
 6406.50000   -9999.25    0.11910   49.26630  133.36480   72.24970
 6407.00000   -9999.25    0.13650   50.71740  136.92050   74.25340
 6407.50000   -9999.25    0.16150   54.13040  135.09680   74.48720
 6408.00000   -9999.25    0.18800   57.74510  129.35160   70.11810
 6408.50000   -9999.25    0.18820   49.27560  119.55440   63.13920
 6409.00000   -9999.25    0.17410   37.71120  113.64950   57.10190
 6409.50000   -9999.25    0.15110   25.02290  112.87990   56.47780
 6410.00000   -9999.25    0.13180   26.41410  115.60230   60.57230
 6410.50000   -9999.25    0.11050   34.19460  118.86580   65.42010
 6411.00000   -9999.25    0.08790   45.63990  121.27320   70.19140
 6411.50000   -9999.25    0.08150   51.76980  122.03070   73.05010
 6412.00000   -9999.25    0.08990   50.93030  121.06970   73.00460
 6412.50000   -9999.25    0.11580   46.15890  118.50180   71.58970
 6413.00000   -9999.25    0.15460   44.03390  117.70020   70.77890
 6413.50000   -9999.25    0.17370   44.70660  118.30800   71.41100
 6414.00000   -9999.25    0.17170   47.10510  120.29760   72.68740
 6414.50000   -9999.25    0.16860   48.41710  122.14110   73.85490
 6415.00000   -9999.25    0.19450   50.11790  122.66780   74.33010
 6415.50000   -9999.25    0.21780   49.71290  122.91540   74.58260
 6416.00000   -9999.25    0.19060   48.82730  123.20690   74.61390
 6416.50000   -9999.25    0.16530   45.86390  123.50670   74.23270
 6417.00000   -9999.25    0.17610   44.06640  123.04130   73.32690
 6417.50000   -9999.25    0.18760   45.00570  122.12260   72.47610
 6418.00000   -9999.25    0.19640   47.26610  122.05970   72.70890
 6418.50000   -9999.25    0.20530   52.62070  123.43560   74.18460
 6419.00000   -9999.25    0.21140   53.76550  124.47960   75.25880
 6419.50000   -9999.25    0.19190   53.83370  124.18540   73.97600
 6420.00000   -9999.25    0.16880   47.60030  120.31940   68.77010
 6420.50000   -9999.25    0.15620   40.69060  116.03150   63.17190
 6421.00000   -9999.25    0.14670   40.34930  115.42880   62.29960
 6421.50000   -9999.25    0.15380   45.85880  117.98140   65.57240
 6422.00000   -9999.25    0.16080   54.76560  121.34410   69.60980
 6422.50000   -9999.25    0.15350   61.58290  124.40980   72.93300
 6423.00000   -9999.25    0.14390   65.10630  126.70020   74.02580
 6423.50000   -9999.25    0.15370   67.21990  127.72360   74.58710
 6424.00000   -9999.25    0.16970   66.78280  127.86660   74.61670
 6424.50000   -9999.25    0.16700   63.58580  127.29120   74.41750
 6425.00000   -9999.25    0.15240   59.29780  125.89560   74.05680
 6425.50000   -9999.25    0.15580   54.14920  124.76120   73.59520
 6426.00000   -9999.25    0.17980   53.09670  123.80340   73.54040
 6426.50000   -9999.25    0.18080   51.27190  123.72210   73.37170
 6427.00000   -9999.25    0.17970   49.77490  122.98100   72.69410
 6427.50000   -9999.25    0.17780   48.80970  120.20360   70.96300
 6428.00000   -9999.25    0.17750   54.96990  118.17310   70.14880
 6428.50000   -9999.25    0.18940   55.95750  119.72270   71.20050
 6429.00000   -9999.25    0.19370   52.77850  123.00840   73.19250
 6429.50000   -9999.25    0.17350   49.36100  126.16070   74.79380
 6430.00000   -9999.25    0.14960   49.35430  128.69470   75.65090
 6430.50000   -9999.25    0.14390   50.94630  130.56030   76.16490
 6431.00000   -9999.25    0.14330   51.70670  131.06210   76.45890
 6431.50000   -9999.25    0.14370   54.32620  131.35400   76.81370
 6432.00000   -9999.25    0.16340   55.16950  131.93990   77.28750
 6432.50000   -9999.25    0.19890   57.35900  132.22460   76.99060
