~Version ---------------------------------------------------
VERS.   2.0 : CWLS log ASCII Standard -VERSION 2.0
WRAP.    NO : One line per depth step
DLM . SPACE : Column Data Section Delimiter
~Well ------------------------------------------------------
STRT .F                   13.0 : START DEPTH
STOP .F                 9040.0 : STOP DEPTH
STEP .F                    0.5 : STEP
NULL .                -9999.25 : NULL VALUE
COMP .                         : COMPANY
WELL .                         : WELL
FLD  .                         : FIELD
LOC  .                         : LOCATION
PROV .                         : PROVINCE
CNTY .                         : COUNTY
STAT .                         : STATE
CTRY .                         : COUNTRY
SRVC .                         : SERVICE COMPANY
DATE .                         : DATE
UWI  .                         : UNIQUE WELL ID
API  .                         : API NUMBER
SLAT .WGS84 1.0851799897875019 : SURFACE LATITUDE
SLON .WGS84  7.322864505002002 : SURFACE LONGITUDE
DATUM.F                    nan : DEPTH DATUM ELEV
~Curve Information -----------------------------------------
DEPT    .F     : 1 MEASURED DEPTH
GRD     .GAPI  : GAMMA RAY FROM DENSITY LOG
CNPOR_LS.DEC   : COMPENSATED ENHANCED THERMAL NEUTRON POROSITY IN SELECTED LITHOLOGY LIMESTONE
GRS     .GAPI  : GAMMA RAY FROM SONIC LOG
DTCO    .US/F  : DELTA-T COMPRESSIONAL
DTSM    .US/F  : DELTA-T SHEAR
~Params ----------------------------------------------------
~Other -----------------------------------------------------
~ASCII -----------------------------------------------------
# ...
 5653.00000   -9999.25    0.24140  101.79200  131.31270   76.07930
 5653.50000   -9999.25    0.21760  106.28850  130.62540   75.97160
 5654.00000   -9999.25    0.20210  103.94190  127.90790   74.66590
 5654.50000   -9999.25    0.18810   96.52840  123.68610   72.62420
 5655.00000   -9999.25    0.17870   86.46130  120.55510   70.54340
 5655.50000   -9999.25    0.19190   80.00160  118.85190   69.58600
 5656.00000   -9999.25    0.21310   69.65880  117.31530   68.53200
 5656.50000   -9999.25    0.20370   64.86450  115.34750   66.98800
 5657.00000   -9999.25    0.17840   61.34750  113.21700   66.11730
 5657.50000   -9999.25    0.16370   60.10440  112.59440   66.61640
 5658.00000   -9999.25    0.14830   60.11950  114.60640   68.27870
 5658.50000   -9999.25    0.15380   66.27910  118.72110   70.63570
 5659.00000   -9999.25    0.16380   79.89540  123.20150   72.41820
 5659.50000   -9999.25    0.17070   91.40030  125.49200   73.02070
 5660.00000   -9999.25    0.19170   91.96740  124.26410   72.14820
 5660.50000   -9999.25    0.19980   83.74580  122.41770   70.73150
 5661.00000   -9999.25    0.18340   75.79160  121.54020   69.58040
 5661.50000   -9999.25    0.18790   76.57140  121.85020   70.21550
 5662.00000   -9999.25    0.20980   79.65320  122.97830   71.45340
 5662.50000   -9999.25    0.20870   80.32880  122.09540   72.12180
 5663.00000   -9999.25    0.19960   76.22530  121.26000   71.78780
 5663.50000   -9999.25    0.20400   69.00940  120.05240   70.67970
 5664.00000   -9999.25    0.20660   68.75650  121.84460   70.15140
 5664.50000   -9999.25    0.22330   70.26670  124.84440   71.04850
 5665.00000   -9999.25    0.22730   75.57200  126.82520   72.35520
 5665.50000   -9999.25    0.20150   73.48320  127.39560   72.63780
 5666.00000   -9999.25    0.19110   71.50990  126.79890   72.64480
 5666.50000   -9999.25    0.18330   68.69610  127.43260   73.48690
 5667.00000   -9999.25    0.17020   71.01790  132.02400   76.30480
 5667.50000   -9999.25    0.18310   76.33770  135.65350   79.24280
 5668.00000   -9999.25    0.21840   81.14150  136.05890   79.57740
 5668.50000   -9999.25    0.25390   78.51590  133.48720   77.33580
 5669.00000   -9999.25    0.24620   77.42450  132.50200   75.70610
 5669.50000   -9999.25    0.22720   75.09590  131.87130   76.21100
 5670.00000   -9999.25    0.24120   82.28350  133.69120   78.09550
 5670.50000   -9999.25    0.22560   83.03530  133.68130   79.05450
 5671.00000   -9999.25    0.18780   89.01160  132.30270   78.50470
 5671.50000   -9999.25    0.19920   87.62730  130.00610   76.68060
 5672.00000   -9999.25    0.23990   85.30470  127.95380   75.58190
 5672.50000   -9999.25    0.26440   79.65100  125.41300   74.78850
 5673.00000   -9999.25    0.24960   73.30770  123.46390   73.99600
 5673.50000   -9999.25    0.26250   72.30360  121.99680   73.61150
 5674.00000   -9999.25    0.34930   69.51040  122.16500   73.86310
 5674.50000   -9999.25    0.40660   74.30700  123.77410   74.52250
 5675.00000   -9999.25    0.33760   73.73020  126.32160   75.95530
 5675.50000   -9999.25    0.27660   76.55310  128.79600   77.23660
 5676.00000   -9999.25    0.24640   76.40470  130.70030   77.99360
 5676.50000   -9999.25    0.21130   78.82670  132.38620   78.84410
 5677.00000   -9999.25    0.17940   82.61210  132.72580   79.51690
 5677.50000   -9999.25    0.16300   80.80520  131.83080   79.54700
 5678.00000   -9999.25    0.16610   78.63850  129.84670   78.81100
 5678.50000   -9999.25    0.17790   73.77440  127.60080   77.03120
 5679.00000   -9999.25    0.18590   75.39420  127.09110   76.45270
 5679.50000   -9999.25    0.18700   79.33730  126.41780   75.97130
 5680.00000   -9999.25    0.18120   77.68880  125.81590   75.11750
 5680.50000   -9999.25    0.16310   71.30540  122.97880   73.12410
 5681.00000   -9999.25    0.15330   62.96610  121.68730   72.14690
 5681.50000   -9999.25    0.17160   63.10840  123.14720   72.73000
 5682.00000   -9999.25    0.20220   70.18630  125.50100   74.95950
 5682.50000   -9999.25    0.23300   76.05140  127.00100   76.61430
 5683.00000   -9999.25    0.26810   76.55670  127.56680   77.10980
 5683.50000   -9999.25    0.29030   75.83030  129.16940   77.44960
 5684.00000   -9999.25    0.27090   73.95310  130.36840   77.55240
 5684.50000   -9999.25    0.26810   72.72780  131.22170   77.48780
 5685.00000   -9999.25    0.29260   72.23210  129.68470   76.98990
 5685.50000   -9999.25    0.32450   74.38520  127.97780   76.54840
 5686.00000   -9999.25    0.31790   76.93410  126.82620   77.21040
 5686.50000   -9999.25    0.27330   75.16030  126.51070   77.85230
 5687.00000   -9999.25    0.21490   73.73940  126.01410   78.09620
 5687.50000   -9999.25    0.19630   73.75510  125.51580   77.63080
 5688.00000   -9999.25    0.19890   77.82460  124.72370   76.79230
 5688.50000   -9999.25    0.19200   82.21640  123.21480   75.48080
 5689.00000   -9999.25    0.19720   80.18540  122.47510   74.87690
 5689.50000   -9999.25    0.23090   78.67550  122.50840   74.75120
 5690.00000   -9999.25    0.27040   73.78000  123.77710   75.17920
 5690.50000   -9999.25    0.25790   72.90970  125.71700   75.61380
 5691.00000   -9999.25    0.22120   71.81860  128.19340   76.35550
 5691.50000   -9999.25    0.22650   76.39720  133.74570   78.94900
 5692.00000   -9999.25    0.25600   83.40610  139.91220   82.83840
 5692.50000   -9999.25    0.26170   89.48630  142.99620   83.89850
 5693.00000   -9999.25    0.26090   91.67050  141.11190   82.80740
 5693.50000   -9999.25    0.28030   90.50090  133.83800   77.89850
 5694.00000   -9999.25    0.31270   89.35250  128.94630   74.74070
 5694.50000   -9999.25    0.31380   86.87160  128.40640   73.88500
 5695.00000   -9999.25    0.27020   86.03240  130.31740   75.84350
 5695.50000   -9999.25    0.22370   82.54070  135.18480   79.31750
 5696.00000   -9999.25    0.18980   74.34180  130.96080   73.71060
 5696.50000   -9999.25    0.20490   59.74060  115.67990   60.93800
 5697.00000   -9999.25    0.21490   41.68070  106.33780   52.35780
 5697.50000   -9999.25    0.16860   26.41720  100.84410   49.46150
 5698.00000   -9999.25    0.12410   20.03130   98.35510   49.08320
 5698.50000   -9999.25    0.10960   20.83950  101.39960   52.65500
 5699.00000   -9999.25    0.09180   32.49420  112.40660   61.47500
 5699.50000   -9999.25    0.08160   50.35600  124.59390   70.88790
 5700.00000   -9999.25    0.09360   69.90260  133.21780   77.93070
 5700.50000   -9999.25    0.11710   80.89060  135.55480   81.03600
 5701.00000   -9999.25    0.14570   81.99910  133.90910   80.81830
 5701.50000   -9999.25    0.18120   81.62080  131.28220   79.32410
 5702.00000   -9999.25    0.21690   82.48540  130.96520   78.65930
 5702.50000   -9999.25    0.22060   85.59310  131.46250   78.84330
 5703.00000   -9999.25    0.19990   86.33940  131.92440   79.19940
 5703.50000   -9999.25    0.20770   83.33590  131.28430   78.79640
 5704.00000   -9999.25    0.25010   78.06280  130.82700   78.67570
 5704.50000   -9999.25    0.27880   75.23640  131.08140   78.96130
 5705.00000   -9999.25    0.26940   77.15010  132.71820   79.81520
 5705.50000   -9999.25    0.25320   82.17650  133.40230   80.28500
 5706.00000   -9999.25    0.24790   88.84750  133.04550   80.26970
 5706.50000   -9999.25    0.23330   88.81950  132.53570   80.12160
 5707.00000   -9999.25    0.23360   88.61510  132.38930   79.96540
 5707.50000   -9999.25    0.25070   81.47890  132.81330   79.64350
 5708.00000   -9999.25    0.21860   79.14560  132.12490   79.07310
 5708.50000   -9999.25    0.17760   77.13990  132.53310   78.58390
 5709.00000   -9999.25    0.19090   77.29400  131.48530   78.11980
 5709.50000   -9999.25    0.22380   75.59590  129.02860   77.08970
 5710.00000   -9999.25    0.24900   71.73640  124.19210   74.33000
 5710.50000   -9999.25    0.24290   68.05440  120.30620   71.88470
 5711.00000   -9999.25    0.20050   65.62840  121.65400   72.32510
 5711.50000   -9999.25    0.19560   67.43700  126.00640   75.45320
 5712.00000   -9999.25    0.21350   75.53720  130.14490   78.61160
 5712.50000   -9999.25    0.19160   82.92950  131.98480   80.13130
