~Version ---------------------------------------------------
VERS.   2.0 : CWLS log ASCII Standard -VERSION 2.0
WRAP.    NO : One line per depth step
DLM . SPACE : Column Data Section Delimiter
~Well ------------------------------------------------------
STRT .F                   13.0 : START DEPTH
STOP .F                 9040.0 : STOP DEPTH
STEP .F                    0.5 : STEP
NULL .                -9999.25 : NULL VALUE
COMP .                         : COMPANY
WELL .                         : WELL
FLD  .                         : FIELD
LOC  .                         : LOCATION
PROV .                         : PROVINCE
CNTY .                         : COUNTY
STAT .                         : STATE
CTRY .                         : COUNTRY
SRVC .                         : SERVICE COMPANY
DATE .                         : DATE
UWI  .                         : UNIQUE WELL ID
API  .                         : API NUMBER
SLAT .WGS84 1.0851799897875019 : SURFACE LATITUDE
SLON .WGS84  7.322864505002002 : SURFACE LONGITUDE
DATUM.F                    nan : DEPTH DATUM ELEV
~Curve Information -----------------------------------------
DEPT    .F     : 1 MEASURED DEPTH
GRD     .GAPI  : GAMMA RAY FROM DENSITY LOG
CNPOR_LS.DEC   : COMPENSATED ENHANCED THERMAL NEUTRON POROSITY IN SELECTED LITHOLOGY LIMESTONE
GRS     .GAPI  : GAMMA RAY FROM SONIC LOG
DTCO    .US/F  : DELTA-T COMPRESSIONAL
DTSM    .US/F  : DELTA-T SHEAR
~Params ----------------------------------------------------
~Other -----------------------------------------------------
~ASCII -----------------------------------------------------
# ...
 8713.00000   -9999.25    0.11410   46.80420  119.11840   67.54570
 8713.50000   -9999.25    0.11800   45.49410  118.05730   66.71560
 8714.00000   -9999.25    0.10620   44.08140  118.48330   67.20810
 8714.50000   -9999.25    0.09680   46.83380  120.99810   68.43500
 8715.00000   -9999.25    0.10270   44.77750  121.19450   68.74980
 8715.50000   -9999.25    0.11180   42.63350  121.65950   68.74140
 8716.00000   -9999.25    0.12180   42.39840  122.28020   68.69910
 8716.50000   -9999.25    0.12650   43.07470  123.91880   69.36880
 8717.00000   -9999.25    0.12400   45.74690  125.69660   70.11150
 8717.50000   -9999.25    0.14050   46.35680  126.21160   70.41790
 8718.00000   -9999.25    0.15640   49.06770  126.12240   70.43900
 8718.50000   -9999.25    0.13320   50.04030  125.83070   70.35430
 8719.00000   -9999.25    0.10390   50.10010  125.52400   70.31290
 8719.50000   -9999.25    0.09600   50.00200  125.62990   70.53890
 8720.00000   -9999.25    0.09970   52.48170  126.73800   71.46790
 8720.50000   -9999.25    0.10640   55.13450  128.55160   74.25920
 8721.00000   -9999.25    0.10660   56.88110  127.38630   74.51900
 8721.50000   -9999.25    0.10710   49.43020  121.57110   70.94170
 8722.00000   -9999.25    0.10790   42.49800  113.17600   64.97900
 8722.50000   -9999.25    0.09780   37.33920  108.80640   62.60560
 8723.00000   -9999.25    0.08070   39.81680  109.33720   62.99510
 8723.50000   -9999.25    0.06970   41.50800  109.44080   63.61040
 8724.00000   -9999.25    0.06840   43.03780  108.94120   62.90220
 8724.50000   -9999.25    0.07610   43.55300  109.22040   62.97920
 8725.00000   -9999.25    0.08440   44.23710  111.53210   64.65190
 8725.50000   -9999.25    0.08890   44.49390  114.43800   66.80620
 8726.00000   -9999.25    0.09600   44.19570  115.98630   67.65410
 8726.50000   -9999.25    0.10800   44.44700  118.23730   68.28920
 8727.00000   -9999.25    0.11680   45.68980  121.48390   69.51100
 8727.50000   -9999.25    0.11490   49.94640  127.63070   72.59260
 8728.00000   -9999.25    0.11480   54.93660  134.79870   76.30800
 8728.50000   -9999.25    0.12880   59.66500  138.81990   78.37510
 8729.00000   -9999.25    0.14850   60.28060  139.94760   78.54780
 8729.50000   -9999.25    0.15970   58.31300  139.59790   78.10790
 8730.00000   -9999.25    0.18310   55.45290  136.81340   76.94010
 8730.50000   -9999.25    0.19850   49.77000  133.78190   75.79590
 8731.00000   -9999.25    0.18510   47.26230  130.74070   74.92600
 8731.50000   -9999.25    0.16580   44.40320  128.56370   73.89810
 8732.00000   -9999.25    0.13930   42.54850  124.08220   70.95470
 8732.50000   -9999.25    0.12550   35.82250  118.28910   66.46990
 8733.00000   -9999.25    0.11280   32.40360  115.60980   64.04940
 8733.50000   -9999.25    0.08710   36.86070  114.72000   63.64260
 8734.00000   -9999.25    0.06670   42.00880  113.18800   62.48050
 8734.50000   -9999.25    0.06680   36.77800  108.26660   58.88150
 8735.00000   -9999.25    0.07660   25.17390  103.72200   55.58780
 8735.50000   -9999.25    0.07050   15.93290  103.26250   55.30880
 8736.00000   -9999.25    0.05990   19.38750  104.87410   56.17270
 8736.50000   -9999.25    0.06020   22.27860  106.82940   57.34660
 8737.00000   -9999.25    0.06950   27.42280  108.09490   58.06550
 8737.50000   -9999.25    0.07460   24.64930  108.84650   58.30850
 8738.00000   -9999.25    0.07200   23.84700  108.29250   57.76950
 8738.50000   -9999.25    0.06940   21.08960  107.54290   56.96100
 8739.00000   -9999.25    0.06640   19.34440  106.46620   56.07370
 8739.50000   -9999.25    0.06250   16.60920  105.63300   55.63240
 8740.00000   -9999.25    0.05910   14.72340  105.38980   55.58300
 8740.50000   -9999.25    0.05790   14.24130  105.17220   55.77330
 8741.00000   -9999.25    0.06090   15.62470  105.93430   57.04380
 8741.50000   -9999.25    0.06430   18.03140  107.87990   58.58510
 8742.00000   -9999.25    0.06600   19.64840  108.87000   58.75180
 8742.50000   -9999.25    0.06700   20.30530  108.63770   57.37420
 8743.00000   -9999.25    0.06840   19.37360  107.92670   55.75930
 8743.50000   -9999.25    0.07550   16.71630  108.29840   55.51700
 8744.00000   -9999.25    0.07970   16.06320  109.65490   56.87360
 8744.50000   -9999.25    0.07440   16.68860  111.30370   58.67610
 8745.00000   -9999.25    0.07410   18.43670  112.30560   59.27160
 8745.50000   -9999.25    0.07930   19.08060  113.05970   59.85280
 8746.00000   -9999.25    0.08640   17.66610  113.75110   60.64860
 8746.50000   -9999.25    0.09710   17.90100  114.48240   61.64310
 8747.00000   -9999.25    0.10090   19.44990  115.30630   62.54870
 8747.50000   -9999.25    0.10010   23.11480  115.14260   63.01380
 8748.00000   -9999.25    0.10280   22.32160  114.18520   62.29910
 8748.50000   -9999.25    0.11190   20.85630  113.23860   61.57090
 8749.00000   -9999.25    0.11590   19.04860  112.34950   60.75470
 8749.50000   -9999.25    0.11360   21.29050  112.27910   60.56720
 8750.00000   -9999.25    0.11710   21.25570  112.90810   60.84510
 8750.50000   -9999.25    0.12100   20.17290  113.69840   61.42100
 8751.00000   -9999.25    0.12030   17.87290  113.86590   61.75730
 8751.50000   -9999.25    0.11970   18.14490  113.64700   61.54920
 8752.00000   -9999.25    0.12020   17.94130  113.15720   61.48290
 8752.50000   -9999.25    0.12580   18.15230  112.90650   61.44790
 8753.00000   -9999.25    0.12830   18.13410  112.80080   61.27400
 8753.50000   -9999.25    0.12130   18.98480  112.80610   61.18660
 8754.00000   -9999.25    0.11590   19.16300  113.05040   61.11520
 8754.50000   -9999.25    0.11450   18.61220  113.59030   61.86690
 8755.00000   -9999.25    0.11640   19.13430  114.69050   62.22160
 8755.50000   -9999.25    0.11730   18.61080  115.68050   62.39700
 8756.00000   -9999.25    0.11770   19.66800  115.76540   62.15370
 8756.50000   -9999.25    0.12000   19.64300  115.77120   61.57450
 8757.00000   -9999.25    0.11240   19.06860  115.76610   61.59860
 8757.50000   -9999.25    0.09700   17.37720  115.76100   61.95880
 8758.00000   -9999.25    0.10020   17.07250  115.34220   62.35400
 8758.50000   -9999.25    0.11490   18.15590  114.50980   62.26230
 8759.00000   -9999.25    0.12370   18.33100  113.54950   61.86740
 8759.50000   -9999.25    0.12250   18.05710  112.63900   61.37790
 8760.00000   -9999.25    0.10530   18.26350  112.34230   61.11270
 8760.50000   -9999.25    0.08410   19.31650  111.87790   61.43500
 8761.00000   -9999.25    0.08160   20.25590  112.58870   62.39160
 8761.50000   -9999.25    0.09100   21.17700  112.51920   63.11250
 8762.00000   -9999.25    0.09370   20.67210  111.51430   62.71230
 8762.50000   -9999.25    0.08060   18.42090  109.23660   60.82380
 8763.00000   -9999.25    0.07190   14.22240  107.10930   58.90130
 8763.50000   -9999.25    0.07070   11.50740  105.99510   57.25820
 8764.00000   -9999.25    0.06690   10.69260  104.35850   55.64280
 8764.50000   -9999.25    0.06190   12.55560  102.73570   54.14230
 8765.00000   -9999.25    0.06500   14.72000  103.73980   54.46400
 8765.50000   -9999.25    0.07300   16.78880  108.61100   57.34420
 8766.00000   -9999.25    0.07450   23.92510  116.88760   63.75910
 8766.50000   -9999.25    0.06900   33.01340  124.98190   70.23220
 8767.00000   -9999.25    0.07590   41.64260  131.38570   74.78550
 8767.50000   -9999.25    0.10690   43.38650  132.91320   76.34920
 8768.00000   -9999.25    0.13810   42.92010  132.17820   75.44570
 8768.50000   -9999.25    0.13650   39.62200  129.11960   72.94820
 8769.00000   -9999.25    0.11410   37.13150  124.99540   69.66200
 8769.50000   -9999.25    0.10420   30.44590  122.21150   67.76980
 8770.00000   -9999.25    0.09770   31.78640  122.13500   68.25830
 8770.50000   -9999.25    0.09910   35.79970  125.89610   70.64790
 8771.00000   -9999.25    0.11580   43.27190  131.05710   74.14870
 8771.50000   -9999.25    0.14220   47.45200  139.98330   77.37210
 8772.00000   -9999.25    0.18020   48.71260  150.37350   81.71730
 8772.50000   -9999.25    0.22320   57.71040  162.83480   86.22780
