~Version ---------------------------------------------------
VERS.   2.0 : CWLS log ASCII Standard -VERSION 2.0
WRAP.    NO : One line per depth step
DLM . SPACE : Column Data Section Delimiter
~Well ------------------------------------------------------
STRT .F                   13.0 : START DEPTH
STOP .F                 9040.0 : STOP DEPTH
STEP .F                    0.5 : STEP
NULL .                -9999.25 : NULL VALUE
COMP .                         : COMPANY
WELL .                         : WELL
FLD  .                         : FIELD
LOC  .                         : LOCATION
PROV .                         : PROVINCE
CNTY .                         : COUNTY
STAT .                         : STATE
CTRY .                         : COUNTRY
SRVC .                         : SERVICE COMPANY
DATE .                         : DATE
UWI  .                         : UNIQUE WELL ID
API  .                         : API NUMBER
SLAT .WGS84 1.0851799897875019 : SURFACE LATITUDE
SLON .WGS84  7.322864505002002 : SURFACE LONGITUDE
DATUM.F                    nan : DEPTH DATUM ELEV
~Curve Information -----------------------------------------
DEPT    .F     : 1 MEASURED DEPTH
GRD     .GAPI  : GAMMA RAY FROM DENSITY LOG
CNPOR_LS.DEC   : COMPENSATED ENHANCED THERMAL NEUTRON POROSITY IN SELECTED LITHOLOGY LIMESTONE
GRS     .GAPI  : GAMMA RAY FROM SONIC LOG
DTCO    .US/F  : DELTA-T COMPRESSIONAL
DTSM    .US/F  : DELTA-T SHEAR
~Params ----------------------------------------------------
~Other -----------------------------------------------------
~ASCII -----------------------------------------------------
# ...
 8953.00000   -9999.25    0.19830   90.41350  168.71240   89.25710
 8953.50000   -9999.25    0.22140   99.89350  170.70950   90.65640
 8954.00000   -9999.25    0.27190   99.14210  171.01550   90.95930
 8954.50000   -9999.25    0.26670   96.29530  170.50110   90.55940
 8955.00000   -9999.25    0.24420   94.86960  168.55660   89.01890
 8955.50000   -9999.25    0.23120   95.26820  166.60450   87.42640
 8956.00000   -9999.25    0.22360   91.85600  165.20530   86.31430
 8956.50000   -9999.25    0.22420   88.94690  164.51650   86.20250
 8957.00000   -9999.25    0.24410   83.98000  165.15050   86.85210
 8957.50000   -9999.25    0.25040   88.80220  166.17120   87.68920
 8958.00000   -9999.25    0.23250   90.85340  167.76300   88.38350
 8958.50000   -9999.25    0.23670   92.94070  168.91130   88.74300
 8959.00000   -9999.25    0.26220   92.13500  169.77860   89.10240
 8959.50000   -9999.25    0.26900   89.56100  170.60760   89.59090
 8960.00000   -9999.25    0.26930   91.19630  170.81230   90.07340
 8960.50000   -9999.25    0.25940   92.30580  170.65760   90.21270
 8961.00000   -9999.25    0.24030   97.14480  170.19100   90.00300
 8961.50000   -9999.25    0.23870   92.21130  169.73060   89.77800
 8962.00000   -9999.25    0.23790   88.98930  169.47410   89.42690
 8962.50000   -9999.25    0.23900   85.71270  169.25370   89.31750
 8963.00000   -9999.25    0.25650   89.38740  169.08260   89.32590
 8963.50000   -9999.25    0.27840   88.64600  169.08450   89.34770
 8964.00000   -9999.25    0.29030   87.70850  169.44820   89.51620
 8964.50000   -9999.25    0.27490   86.91110  169.06520   89.05940
 8965.00000   -9999.25    0.23920   85.46180  168.18190   88.06470
 8965.50000   -9999.25    0.21320   83.41520  166.69460   87.00400
 8966.00000   -9999.25    0.21190   78.14370  166.18330   86.64500
 8966.50000   -9999.25    0.21390   81.15630  166.28040   86.77260
 8967.00000   -9999.25    0.20310   82.05710  167.15050   87.50010
 8967.50000   -9999.25    0.20050   85.52500  168.63380   88.27430
 8968.00000   -9999.25    0.21100   82.89480  168.99650   88.50450
 8968.50000   -9999.25    0.23910   86.27950  169.07660   88.55570
 8969.00000   -9999.25    0.26240   87.01280  169.13750   88.58410
 8969.50000   -9999.25    0.24620   85.01750  169.71500   88.99120
 8970.00000   -9999.25    0.21660   82.55550  170.57240   89.55360
 8970.50000   -9999.25    0.20520   81.24300  171.10740   89.84480
 8971.00000   -9999.25    0.21260   84.64510  171.08280   89.66190
 8971.50000   -9999.25    0.21850   89.68460  170.56920   89.44810
 8972.00000   -9999.25    0.23590   95.97050  170.19860   89.37940
 8972.50000   -9999.25    0.24670   97.52110  169.99610   89.62390
 8973.00000   -9999.25    0.23030   93.47790  169.60680   89.76810
 8973.50000   -9999.25    0.22150   92.80260  169.07860   89.68700
 8974.00000   -9999.25    0.23840   93.08120  168.36610   88.99350
 8974.50000   -9999.25    0.25770   93.02650  166.97450   88.12960
 8975.00000   -9999.25    0.23960   88.30120  166.33890   87.58920
 8975.50000   -9999.25    0.22030   84.73880  166.61020   87.90920
 8976.00000   -9999.25    0.22410   84.20630  166.86900   88.50150
 8976.50000   -9999.25    0.24860   86.31960  167.26870   89.07620
 8977.00000   -9999.25    0.23940   90.39750  167.02390   88.72510
 8977.50000   -9999.25    0.21310   89.69410  165.35370   87.71940
 8978.00000   -9999.25    0.21960   85.74310  162.73410   86.06520
 8978.50000   -9999.25    0.23830   77.94850  158.91750   84.00280
 8979.00000   -9999.25    0.24490   72.05110  155.34670   82.45440
 8979.50000   -9999.25    0.26160   72.66630  154.48150   82.28890
 8980.00000   -9999.25    0.25700   79.70330  157.22200   84.26770
 8980.50000   -9999.25    0.22750   86.92410  161.64460   86.52570
 8981.00000   -9999.25    0.21120   91.06340  165.97610   88.27910
 8981.50000   -9999.25    0.22290   90.22350  168.34250   89.07080
 8982.00000   -9999.25    0.24850   92.11780  169.14180   89.15360
 8982.50000   -9999.25    0.26010   88.50300  170.01930   89.33160
 8983.00000   -9999.25    0.25800   87.92580  170.04350   89.68500
 8983.50000   -9999.25    0.24200   87.30370  169.69260   89.85520
 8984.00000   -9999.25    0.23840   91.59330  168.89170   89.37340
 8984.50000   -9999.25    0.25980   92.77050  167.91320   88.97010
 8985.00000   -9999.25    0.27530   91.27720  167.11980   88.65950
 8985.50000   -9999.25    0.27060   88.53250  166.81610   88.34890
 8986.00000   -9999.25    0.24080   89.35570  166.68920   88.07150
 8986.50000   -9999.25    0.21230   89.56100  166.42910   88.05860
 8987.00000   -9999.25    0.20450   89.56100  166.00970   87.96100
 8987.50000   -9999.25    0.22140   89.56100  165.90040   87.92320
 8988.00000   -9999.25    0.24920   89.56110  166.77670   88.23990
 8988.50000   -9999.25    0.29470   89.56110  167.99560   89.00660
 8989.00000   -9999.25    0.35140   89.56110  169.89110   89.69960
 8989.50000   -9999.25    0.37020   89.56110  170.78840   90.12230
 8990.00000   -9999.25    0.33800   89.56110  170.85170   90.11890
 8990.50000   -9999.25    0.29730   89.56120  170.42280   89.72730
 8991.00000   -9999.25    0.27440   89.56120  166.91560   87.34270
 8991.50000   -9999.25    0.25410   89.56120  162.36460   84.60490
 8992.00000   -9999.25    0.24020   89.56120  159.33850   83.30350
 8992.50000   -9999.25    0.22760   89.56130  157.73030   83.40990
 8993.00000   -9999.25    0.20710   89.56130  158.26690   85.02750
 8993.50000   -9999.25    0.18340   89.56130  159.62100   85.97220
 8994.00000   -9999.25    0.18430   89.56130  161.27150   86.61660
 8994.50000   -9999.25    0.23190   89.56140  163.05450   87.19000
 8995.00000   -9999.25    0.24760   89.56140  165.00510   87.83050
 8995.50000   -9999.25    0.21910   89.56200  166.64960   88.03020
 8996.00000   -9999.25    0.19260   89.56350  167.44940   87.79890
 8996.50000   -9999.25    0.19840   89.56510  167.64110   87.59440
 8997.00000   -9999.25    0.24240   89.56660  167.38840   87.46690
 8997.50000   -9999.25    0.26590   89.56810  167.14750   87.23690
 8998.00000   -9999.25    0.24740   89.56970  167.05700   87.03870
 8998.50000   -9999.25    0.23140   89.57120   -9999.25   -9999.25
 8999.00000   -9999.25    0.21940   89.57270   -9999.25   -9999.25
 8999.50000   -9999.25    0.20340   89.57430   -9999.25   -9999.25
 9000.00000   -9999.25    0.19900   89.57580   -9999.25   -9999.25
 9000.50000   -9999.25    0.22110   89.57730   -9999.25   -9999.25
 9001.00000   -9999.25    0.23100   89.57880   -9999.25   -9999.25
 9001.50000   -9999.25    0.23410   -9999.25   -9999.25   -9999.25
 9002.00000   -9999.25    0.25300   -9999.25   -9999.25   -9999.25
 9002.50000   -9999.25    0.27290   -9999.25   -9999.25   -9999.25
 9003.00000   -9999.25    0.26360   -9999.25   -9999.25   -9999.25
 9003.50000   -9999.25    0.24310   -9999.25   -9999.25   -9999.25
 9004.00000   -9999.25    0.23820   -9999.25   -9999.25   -9999.25
 9004.50000   -9999.25    0.26580   -9999.25   -9999.25   -9999.25
 9005.00000   -9999.25    0.31020   -9999.25   -9999.25   -9999.25
 9005.50000   -9999.25    0.31300   -9999.25   -9999.25   -9999.25
 9006.00000   -9999.25    0.29950   -9999.25   -9999.25   -9999.25
 9006.50000   -9999.25    0.28320   -9999.25   -9999.25   -9999.25
 9007.00000   -9999.25    0.25670   -9999.25   -9999.25   -9999.25
 9007.50000   -9999.25    0.25290   -9999.25   -9999.25   -9999.25
 9008.00000   -9999.25    0.25650   -9999.25   -9999.25   -9999.25
 9008.50000   -9999.25    0.25650   -9999.25   -9999.25   -9999.25
 9009.00000   -9999.25    0.24490   -9999.25   -9999.25   -9999.25
 9009.50000   -9999.25    0.21810   -9999.25   -9999.25   -9999.25
 9010.00000   -9999.25    0.20240   -9999.25   -9999.25   -9999.25
 9010.50000   -9999.25    0.20770   -9999.25   -9999.25   -9999.25
 9011.00000   -9999.25    0.21730   -9999.25   -9999.25   -9999.25
 9011.50000   -9999.25    0.22740   -9999.25   -9999.25   -9999.25
 9012.00000   -9999.25    0.23070   -9999.25   -9999.25   -9999.25
 9012.50000   -9999.25    0.20890   -9999.25   -9999.25   -9999.25
