~Version ---------------------------------------------------
VERS.   2.0 : CWLS log ASCII Standard -VERSION 2.0
WRAP.    NO : One line per depth step
DLM . SPACE : Column Data Section Delimiter
~Well ------------------------------------------------------
STRT .F                  150.0 : START DEPTH
STOP .F                 8018.0 : STOP DEPTH
STEP .F                    0.5 : STEP
NULL .                -9999.25 : NULL VALUE
COMP .                         : COMPANY
WELL .                         : WELL
FLD  .                         : FIELD
LOC  .                         : LOCATION
PROV .                         : PROVINCE
CNTY .                         : COUNTY
STAT .                         : STATE
CTRY .                         : COUNTRY
SRVC .                         : SERVICE COMPANY
DATE .                         : DATE
UWI  .                         : UNIQUE WELL ID
API  .                         : API NUMBER
SLAT .WGS84 1.1530180465535018 : SURFACE LATITUDE
SLON .WGS84 5.4940184151720075 : SURFACE LONGITUDE
DATUM.F                    nan : DEPTH DATUM ELEV
~Curve Information -----------------------------------------
DEPT   .F     : 1 MEASURED DEPTH
SGRDD  .GAPI  : SPECTROSCOPY GAMMA RAY FROM DENSITY LOG
TNPH_LS.DEC   : THERMAL NEUTRON POROSITY [LIMESTONE]
DPHZ_LS.DEC   : HGRD STANDARD RESOLUTION DENSITY POROSITY
HDRA   .G/C3  : HRDD SPINE AND RIBS DENSITY CORRECTION
PEFZ   .B/E   : HRDD STANDARD RESOLUTION FORMATION PHOTOELECTRIC FACTOR
CALD   .IN    : CALIPER FROM DENSITY LOG
DTCO   .US/F  : DELTA-T COMPRESSIONAL
DTSM   .US/F  : DELTA-T SHEAR
RHOZ   .G/C3  : HRDD STANDARD RESOLUTION FORMATION DENSITY
RXOZ   .OHMM  : INVADED FORMATION RESISTIVITY FILTERED AT 18 INCHES
RLA5   .OHMM  : APPARENT RESISTIVITY FROM COMPUTED FOCUSING MODE 5
RLA3   .OHMM  : APPARENT RESISTIVITY FROM COMPUTED FOCUSING MODE 3
~Params ----------------------------------------------------
~Other -----------------------------------------------------
~ASCII -----------------------------------------------------
# ...
 4322.00000   78.44970    0.15300    0.07830    0.00330    3.05200    9.29270   75.67950  129.06250    2.58210    4.98410    6.50580    5.53270
 4322.50000   86.36020    0.17450    0.08390   -0.00130    2.95910    9.33330   75.94530  129.62810    2.56800    4.39450    5.71520    5.28270
 4323.00000   90.39710    0.19320    0.08680   -0.00320    2.94310    9.34930   75.96920  130.21410    2.56280    4.27240    5.36100    5.02590
 4323.50000   93.42730    0.19610    0.08680   -0.00350    2.94180    9.34440   75.73040  130.24010    2.56280    4.09010    5.34700    4.94830
 4324.00000   94.20870    0.19300    0.08330   -0.00250    2.94050    9.33570   75.58910  130.09930    2.56620    3.81770    5.05200    4.66740
 4324.50000   92.18840    0.18820    0.08020   -0.00230    2.94640    9.33190   75.72800  129.95840    2.57300    3.79000    5.11820    4.74170
 4325.00000   84.46280    0.17510    0.07300   -0.00210    2.95930    9.38460   76.09700  129.88090    2.58530    4.36320    5.39250    4.93710
 4325.50000   77.28430    0.16060    0.06570   -0.00190    2.99080    9.33510   76.37760  130.72190    2.59990    5.54610    7.24590    6.21070
 4326.00000   71.69460    0.14570    0.05870   -0.00170    3.00620    9.24030   76.68220  131.30980    2.61010    6.24690    8.80360    7.53350
 4326.50000   71.53570    0.14230    0.06040   -0.00140    3.05670    9.24840   77.51690  131.58620    2.60610    5.92700    7.93010    6.94470
 4327.00000   77.27190    0.14450    0.07110   -0.00120    3.03010    9.21060   78.07470  132.23460    2.59490    5.18120    6.85760    6.12310
 4327.50000   85.22930    0.16810    0.08110   -0.00100    3.01040    9.20630   78.54050  133.22070    2.56960    5.30450    6.88500    6.09560
 4328.00000   93.52120    0.18840    0.09440   -0.00080    3.03190    9.20800   78.84260  133.94380    2.54730    5.87130    7.84730    6.94940
 4328.50000   99.41110    0.20710    0.09730   -0.00060    3.05290    9.21040   78.86040  134.74960    2.54360    6.11620    8.01440    7.02820
 4329.00000   99.89450    0.21050    0.09240   -0.00040    3.02940    9.21860   78.72640  134.86410    2.55170    5.31590    6.94900    6.00160
 4329.50000   96.23910    0.20520    0.08280   -0.00060    3.00360    9.24200   78.38100  134.29600    2.56300    4.20990    5.21800    4.87700
 4330.00000   92.37920    0.19230    0.07850   -0.00100    2.97780    9.26540   77.64610  133.72790    2.57130    3.73690    5.11980    4.49100
 4330.50000   87.89560    0.17620    0.07650   -0.00130    2.95480    9.27020   77.65000  133.57140    2.57840    3.49920    5.07260    4.59310
 4331.00000   82.61430    0.16820    0.07470   -0.00190    2.94640    9.24680   77.66470  133.51880    2.58360    3.50790    5.03360    4.51220
 4331.50000   80.53520    0.16100    0.07370   -0.00230    2.93840    9.25830   78.01860  133.64270    2.58380    3.57100    5.13950    4.62590
 4332.00000   79.39220    0.16310    0.07560   -0.00270    2.92250    9.26170   78.95340  135.20160    2.58070    3.94290    5.42330    4.95240
 4332.50000   81.10690    0.16670    0.07830   -0.00300    2.89820    9.26850   79.60030  136.61620    2.57390    4.11900    5.68830    5.25240
 4333.00000   83.19510    0.16460    0.08780   -0.00390    2.88520    9.27540   79.95410  138.78710    2.56580    4.12650    5.67280    5.29150
 4333.50000   83.94800    0.16030    0.09440   -0.00500    2.87620    9.26580   80.68730  140.04990    2.55080    4.06230    5.62120    5.16880
 4334.00000   87.88800    0.15730    0.10080   -0.00600    2.85190    9.26770   82.01710  141.57140    2.53750    3.97260    5.15220    4.85710
 4334.50000   93.80460    0.18100    0.09970   -0.00700    2.83890    9.27060   82.65650  142.60300    2.53770    3.88480    5.00530    4.67690
 4335.00000   97.94400    0.20020    0.09690   -0.00540    2.84850    9.26950   83.33360  143.48720    2.54420    3.73810    4.86260    4.54100
 4335.50000   99.34280    0.21770    0.08980   -0.00360    2.87640    9.25660   84.41070  144.78400    2.55710    3.59650    4.72690    4.30280
 4336.00000  100.10240    0.22000    0.08510   -0.00180    2.90430    9.24380   84.82600  145.68460    2.56570    3.51830    4.61520    4.15600
 4336.50000  101.30520    0.21440    0.07920    0.00000    2.92440    9.23820   85.20510  146.14050    2.57550    3.61980    4.64090    4.32560
 4337.00000  102.54610    0.21780    0.07860    0.00060    2.97900    9.21990   85.55470  146.55000    2.57850    4.03170    5.40860    4.97810
 4337.50000  102.09540    0.22880    0.08290   -0.00050    3.04350    9.21400   86.13260  147.08640    2.56790    5.32870    7.56470    6.44010
 4338.00000  100.45990    0.23510    0.09460   -0.00130    3.06760    9.20970   86.37300  147.30780    2.55140    6.43420    8.17750    7.32860
 4338.50000  100.81690    0.23860    0.10460   -0.00200    3.08110    9.20960   86.60250  147.58380    2.53140    7.24160    8.06330    7.53860
 4339.00000  101.72210    0.23830    0.10910   -0.00280    3.08540    9.20950   87.21410  147.85990    2.52560    6.87310    8.36910    7.87280
 4339.50000  102.54200    0.23180    0.10750   -0.00350    3.13700    9.20990   87.10000  147.92320    2.52450    6.52340    7.63730    7.24360
 4340.00000  101.47500    0.21980    0.10080   -0.00290    3.13700    9.21790   86.66780  147.47620    2.53560    4.80810    6.11940    5.29720
 4340.50000  102.00380    0.22170    0.09220   -0.00040    3.13530    9.23270   86.24170  146.89130    2.54840    3.98970    4.66980    4.35010
 4341.00000  102.99660    0.23220    0.08790    0.00200    3.13630    9.22700   86.18230  146.43890    2.55920    3.78890    4.82340    4.54240
 4341.50000  103.34470    0.24650    0.08380    0.00280    3.13720    9.20670   86.12100  146.11340    2.56740    4.17320    5.59190    5.20090
 4342.00000  103.33620    0.23620    0.09000    0.00140    3.13820    9.19810   86.14780  145.81390    2.56520    5.32360    6.46760    5.67850
 4342.50000  101.63240    0.24290    0.09670   -0.00010    3.13910    9.18990   86.10590  145.86900    2.54710    6.84140    9.19230    8.63670
 4343.00000   99.45810    0.22800    0.10710   -0.00260    3.13320    9.19140   86.25370  145.99350    2.53530    7.82720    9.67010    9.43730
 4343.50000   97.19400    0.23050    0.10720   -0.00260    3.12350    9.19150   86.48010  146.00700    2.52690    7.09560   10.53910    9.99340
 4344.00000   98.29120    0.22810    0.09960   -0.00190    3.08920    9.16400   85.63570  145.97480    2.53330    5.64670    9.37840    8.39890
 4344.50000  101.34190    0.23100    0.09350   -0.00120    3.05700    9.14990   85.11150  145.89710    2.55170    4.36660    6.66730    5.56060
 4345.00000  103.57310    0.24870    0.08530   -0.00040    3.02490    9.14810   84.93390  145.81930    2.56170    3.84500    4.38080    4.28370
 4345.50000  103.84430    0.26000    0.08100   -0.00100    3.02490    9.14340   84.62900  145.51250    2.56960    3.79470    4.78290    4.49460
 4346.00000  105.05920    0.25610    0.08580   -0.00180    3.07140    9.13460   83.92200  144.80060    2.56760    4.48970    5.64210    5.26430
 4346.50000  107.86070    0.24790    0.09450   -0.00250    3.20390    9.11830   83.43740  144.03070    2.55260    5.35960    6.84830    6.42000
 4347.00000  103.42400    0.23580    0.09850   -0.00330    3.33840    9.11000   82.82870  143.36900    2.54330    6.57530    9.15870    8.17940
 4347.50000   96.59350    0.22420    0.09440   -0.00320    3.47290    9.10320   82.06830  141.64630    2.54510    9.23750   12.17450   10.34420
 4348.00000   91.14120    0.20480    0.08430   -0.00310    3.49730    9.09630   81.63860  140.61030    2.56590    9.95810   14.10260   11.70870
 4348.50000   93.71500    0.19690    0.08650   -0.00290    3.43630    9.09250   81.15580  139.77270    2.56480    8.46990    9.78270    9.05080
 4349.00000   99.07190    0.21370    0.08940   -0.00280    3.22450    9.18510   80.86280  138.64030    2.55790    7.22560    8.24680    8.10850
 4349.50000  100.91740    0.22430    0.09460   -0.00260    3.09890    9.14900   80.53120  138.15080    2.55100    7.15850    8.55790    8.12360
