~Version ---------------------------------------------------
VERS.   2.0 : CWLS log ASCII Standard -VERSION 2.0
WRAP.    NO : One line per depth step
DLM . SPACE : Column Data Section Delimiter
~Well ------------------------------------------------------
STRT .F                  150.0 : START DEPTH
STOP .F                 8018.0 : STOP DEPTH
STEP .F                    0.5 : STEP
NULL .                -9999.25 : NULL VALUE
COMP .                         : COMPANY
WELL .                         : WELL
FLD  .                         : FIELD
LOC  .                         : LOCATION
PROV .                         : PROVINCE
CNTY .                         : COUNTY
STAT .                         : STATE
CTRY .                         : COUNTRY
SRVC .                         : SERVICE COMPANY
DATE .                         : DATE
UWI  .                         : UNIQUE WELL ID
API  .                         : API NUMBER
SLAT .WGS84 1.1530180465535018 : SURFACE LATITUDE
SLON .WGS84 5.4940184151720075 : SURFACE LONGITUDE
DATUM.F                    nan : DEPTH DATUM ELEV
~Curve Information -----------------------------------------
DEPT   .F     : 1 MEASURED DEPTH
SGRDD  .GAPI  : SPECTROSCOPY GAMMA RAY FROM DENSITY LOG
TNPH_LS.DEC   : THERMAL NEUTRON POROSITY [LIMESTONE]
DPHZ_LS.DEC   : HGRD STANDARD RESOLUTION DENSITY POROSITY
HDRA   .G/C3  : HRDD SPINE AND RIBS DENSITY CORRECTION
PEFZ   .B/E   : HRDD STANDARD RESOLUTION FORMATION PHOTOELECTRIC FACTOR
CALD   .IN    : CALIPER FROM DENSITY LOG
DTCO   .US/F  : DELTA-T COMPRESSIONAL
DTSM   .US/F  : DELTA-T SHEAR
RHOZ   .G/C3  : HRDD STANDARD RESOLUTION FORMATION DENSITY
RXOZ   .OHMM  : INVADED FORMATION RESISTIVITY FILTERED AT 18 INCHES
RLA5   .OHMM  : APPARENT RESISTIVITY FROM COMPUTED FOCUSING MODE 5
RLA3   .OHMM  : APPARENT RESISTIVITY FROM COMPUTED FOCUSING MODE 3
~Params ----------------------------------------------------
~Other -----------------------------------------------------
~ASCII -----------------------------------------------------
# ...
 3902.00000   93.02260    0.19830    0.10510   -0.00380    2.98720    9.30430   84.84300  145.78250    2.53190    3.49530    5.64110    5.10890
 3902.50000   93.37140    0.19680    0.10590   -0.00480    2.96450    9.30820   85.07280  146.10220    2.53060    3.39390    5.41890    5.05060
 3903.00000   93.19310    0.20040    0.10180   -0.00410    2.98740    9.28390   85.26510  146.42200    2.53350    3.46210    5.53830    5.15380
 3903.50000   94.04890    0.20600    0.09800   -0.00250    3.00940    9.28300   85.44500  146.74170    2.54320    3.60430    5.93740    5.41910
 3904.00000   97.24910    0.21800    0.10150   -0.00090    3.03090    9.26020   85.44240  147.37150    2.54320    4.01840    6.23810    5.71750
 3904.50000  103.69320    0.23010    0.10960   -0.00000    3.05240    9.23950   85.50540  147.47020    2.52790    4.79180    7.59620    6.63240
 3905.00000  107.61370    0.24540    0.11320    0.00000    3.07390    9.21880   85.66040  147.45760    2.51670    5.83590    8.96910    7.97580
 3905.50000  106.73670    0.26670    0.10850   -0.00020    3.08090    9.22210   85.97880  147.21210    2.51790    6.02350    8.69840    7.64700
 3906.00000  101.82300    0.26570    0.10310   -0.00050    3.07870    9.22240   86.42530  147.91380    2.53430    4.93320    7.73730    6.29220
 3906.50000   98.41930    0.24270    0.10170   -0.00080    3.04920    9.25060   86.91530  148.04050    2.53550    4.07220    6.26690    5.44260
 3907.00000   96.44830    0.21690    0.10080   -0.00100    3.01850    9.28560   87.19910  148.53490    2.53670    3.62620    5.80020    5.03920
 3907.50000   94.57450    0.20230    0.10160   -0.00130    2.95590    9.28780   87.64890  149.27920    2.53710    3.59440    5.81730    4.99550
 3908.00000   94.76770    0.20610    0.10670   -0.00130    2.98330    9.29000   89.09840  149.96500    2.53190    3.80080    6.20430    5.21720
 3908.50000   97.13980    0.23210    0.11380   -0.00130    3.01070    9.28610   89.72220  150.62410    2.51880    4.38430    6.92000    5.78990
 3909.00000  102.81390    0.25820    0.12010   -0.00130    3.03810    9.21890   89.62120  151.23450    2.50320    5.79200    9.42380    7.30440
 3909.50000  108.31260    0.27480    0.12430   -0.00130    3.06550    9.19560   88.47100  150.93710    2.49960    6.24880    9.59000    8.12480
 3910.00000  110.64470    0.26580    0.12510   -0.00140    3.09220    9.19840   87.83050  150.24360    2.49830    5.70650    8.52780    6.68810
 3910.50000  113.20380    0.25450    0.12630   -0.00180    3.10360    9.19450   86.24490  149.26490    2.49490    5.18560    7.02510    6.11850
 3911.00000  112.34080    0.24710    0.12650   -0.00130    3.10170    9.19070   84.94370  147.66400    2.49380    5.44530    7.89110    6.59800
 3911.50000  110.89880    0.24890    0.12640   -0.00160    3.08000    9.19100   83.21140  144.33010    2.49430    6.40120    9.87480    7.80730
 3912.00000  106.35800    0.25040    0.12270   -0.00150    3.07650    9.19790   82.68100  142.74300    2.49590    6.66670    9.80080    8.06830
 3912.50000   98.65710    0.23180    0.11680   -0.00040    2.99070    9.20220   82.68450  141.25770    2.51160    5.50570    7.84100    7.18370
 3913.00000   91.06840    0.21030    0.10880    0.00010    2.93590    9.20990   83.06900  141.20950    2.52080    4.60390    7.07640    6.44580
 3913.50000   86.00390    0.18880    0.10380   -0.00050    2.94150    9.20960   83.15450  141.06900    2.53290    3.95750    6.34520    5.87980
 3914.00000   85.08600    0.18300    0.10270   -0.00190    3.01380    9.20960   83.10390  141.25370    2.53360    4.31640    6.17660    5.74320
 3914.50000   86.54170    0.19680    0.10300   -0.00320    3.14670    9.20860   83.28600  141.77830    2.53360    5.16400    9.02160    7.23180
 3915.00000   88.30670    0.21060    0.10370   -0.00460    3.27920    9.20700   83.42600  141.80560    2.53150    6.14770    8.77140    8.15070
 3915.50000   91.35490    0.22710    0.10970   -0.00590    3.27190    9.20530   83.42540  142.17090    2.52310    5.42310    7.60020    6.95070
 3916.00000   94.25770    0.24590    0.11290   -0.00520    3.17910    9.20360   83.18620  142.17000    2.51850    5.39670    7.54280    6.50290
 3916.50000   96.69820    0.26460    0.11250   -0.00430    3.10530    9.19860   82.65530  141.86090    2.51880    5.88980    8.49200    7.27780
 3917.00000   99.44750    0.27000    0.10540   -0.00350    3.03810    9.19290   82.27210  141.53910    2.53060    6.00050    7.86600    6.77360
 3917.50000   98.85220    0.26090    0.09930   -0.00480    2.97000    9.19700   81.58870  140.31010    2.53880    5.14120    6.50300    5.69550
 3918.00000   96.70170    0.23150    0.09970   -0.00620    2.93580    9.20760   80.98750  139.21160    2.54010    4.44250    6.04770    5.47540
 3918.50000   94.34440    0.20230    0.10160   -0.00760    2.94150    9.21040   80.75890  138.87840    2.53730    4.09320    5.59050    5.16860
 3919.00000   93.67550    0.19480    0.10050   -0.00690    2.94060    9.20970   81.19260  138.99260    2.53820    3.78820    5.28840    4.97880
 3919.50000   92.36520    0.18730    0.09600   -0.00520    2.94080    9.20960   81.59740  139.41920    2.54890    3.86910    5.55540    4.98670
 3920.00000   87.61110    0.17980    0.09180   -0.00350    2.93600    9.21010   82.20650  139.73870    2.55480    4.00240    6.05860    5.35850
 3920.50000   83.53920    0.17540    0.09190   -0.00220    2.93000    9.21030   82.32450  140.17110    2.55470    4.18820    5.94160    5.35960
 3921.00000   81.55850    0.17890    0.09510   -0.00380    2.92870    9.19840   82.23720  140.25530    2.54590    4.23280    6.25580    5.79930
 3921.50000   85.27410    0.18690    0.10490   -0.00560    2.95950    9.20770   82.15220  140.47210    2.53060    4.48490    6.17450    5.69990
 3922.00000   90.41450    0.20800    0.11360   -0.00740    3.01810    9.19240   81.87870  140.74890    2.51550    4.85390    6.53650    5.80790
 3922.50000   96.94970    0.23200    0.11570   -0.00760    3.08350    9.15260   81.56620  140.14100    2.51250    5.78400    7.91760    6.57160
 3923.00000   98.46080    0.23630    0.10720   -0.00410    3.09360    9.14570   80.77350  139.39320    2.52630    5.81200    7.83460    6.90050
 3923.50000   96.83290    0.23140    0.09560   -0.00050    3.04670    9.14730   80.29000  138.64540    2.55030    4.83490    6.66500    5.84170
 3924.00000   91.48280    0.21030    0.09090   -0.00050    2.97070    9.14890   78.62030  137.76540    2.55470    4.28970    5.76380    5.18050
 3924.50000   87.19880    0.19030    0.09110   -0.00120    2.91480    9.15040   77.69890  136.77550    2.55260    4.27910    6.14510    5.52310
 3925.00000   81.33260    0.18140    0.09620   -0.00180    2.89630    9.15560   76.30330  136.10120    2.54650    4.08500    5.95080    5.22930
 3925.50000   79.53850    0.17580    0.09950   -0.00240    2.87830    9.18330   75.81690  135.53550    2.53990    3.82840    5.50490    4.91720
 3926.00000   79.90290    0.17360    0.10100   -0.00310    2.85670    9.20770   76.77250  135.51100    2.53730    3.55520    5.65630    5.04200
 3926.50000   81.15370    0.17710    0.09880   -0.00370    2.84680    9.23100   77.27630  135.81130    2.53990    3.62350    5.33980    4.87740
 3927.00000   79.70850    0.18160    0.08480   -0.00440    2.95290    9.21770   77.63920  137.02610    2.56410    3.87180    5.56250    5.01460
 3927.50000   73.83840    0.18160    0.06670   -0.00500    3.24570    9.15580   78.04450  138.44000    2.59690    5.14070    8.26710    5.78120
 3928.00000   63.50190    0.15840    0.04780   -0.00220    3.63030    9.09390   78.34430  139.34980    2.62560   10.22630   16.09580   11.42670
 3928.50000   60.22880    0.13640    0.04760    0.00250    3.86410    9.06360   78.61130  139.75380    2.63490   13.77190   20.90570   14.68160
 3929.00000   70.71920    0.15200    0.06380    0.00380    3.81420    9.08100   79.12970  138.75750    2.61060   11.74520   14.51730   12.65660
 3929.50000   87.59460    0.18210    0.09100    0.00180    3.50200    9.11750   79.61470  138.80560    2.54440    7.89570   10.62260    9.33640
