~Version ---------------------------------------------------
VERS.   2.0 : CWLS log ASCII Standard -VERSION 2.0
WRAP.    NO : One line per depth step
DLM . SPACE : Column Data Section Delimiter
~Well ------------------------------------------------------
STRT .F                  150.0 : START DEPTH
STOP .F                 8018.0 : STOP DEPTH
STEP .F                    0.5 : STEP
NULL .                -9999.25 : NULL VALUE
COMP .                         : COMPANY
WELL .                         : WELL
FLD  .                         : FIELD
LOC  .                         : LOCATION
PROV .                         : PROVINCE
CNTY .                         : COUNTY
STAT .                         : STATE
CTRY .                         : COUNTRY
SRVC .                         : SERVICE COMPANY
DATE .                         : DATE
UWI  .                         : UNIQUE WELL ID
API  .                         : API NUMBER
SLAT .WGS84 1.1530180465535018 : SURFACE LATITUDE
SLON .WGS84 5.4940184151720075 : SURFACE LONGITUDE
DATUM.F                    nan : DEPTH DATUM ELEV
~Curve Information -----------------------------------------
DEPT   .F     : 1 MEASURED DEPTH
SGRDD  .GAPI  : SPECTROSCOPY GAMMA RAY FROM DENSITY LOG
TNPH_LS.DEC   : THERMAL NEUTRON POROSITY [LIMESTONE]
DPHZ_LS.DEC   : HGRD STANDARD RESOLUTION DENSITY POROSITY
HDRA   .G/C3  : HRDD SPINE AND RIBS DENSITY CORRECTION
PEFZ   .B/E   : HRDD STANDARD RESOLUTION FORMATION PHOTOELECTRIC FACTOR
CALD   .IN    : CALIPER FROM DENSITY LOG
DTCO   .US/F  : DELTA-T COMPRESSIONAL
DTSM   .US/F  : DELTA-T SHEAR
RHOZ   .G/C3  : HRDD STANDARD RESOLUTION FORMATION DENSITY
RXOZ   .OHMM  : INVADED FORMATION RESISTIVITY FILTERED AT 18 INCHES
RLA5   .OHMM  : APPARENT RESISTIVITY FROM COMPUTED FOCUSING MODE 5
RLA3   .OHMM  : APPARENT RESISTIVITY FROM COMPUTED FOCUSING MODE 3
~Params ----------------------------------------------------
~Other -----------------------------------------------------
~ASCII -----------------------------------------------------
# ...
 5526.00000   94.60680    0.19180    0.09920   -0.00360    3.30130    9.08450   83.09770  139.85190    2.53980   11.97860   20.66390   16.52210
 5526.50000  102.35810    0.21290    0.09900   -0.00340    3.22240    9.06510   83.70530  139.55860    2.54280    9.13340   16.47490   14.07660
 5527.00000   96.99280    0.19960    0.09200   -0.00310    3.33880    9.03990   83.87030  139.38870    2.55130    9.78980   19.57260   15.89410
 5527.50000   88.44040    0.17650    0.09070   -0.00280    3.49600    9.01440   83.73870  139.36760    2.55610   12.13880   46.99110   32.36740
 5528.00000   94.56660    0.16960    0.10350   -0.00220    3.38220    8.98890   83.05790  139.02570    2.53440   12.25630   37.12360   30.43290
 5528.50000  106.67810    0.18890    0.11930   -0.00170    3.29360    8.96340   82.35310  138.99260    2.51160   10.62980   26.97260   23.91110
 5529.00000  107.25420    0.20190    0.12940   -0.00230    3.06960    8.93790   81.75510  138.96880    2.49030    9.90770   27.81110   24.55150
 5529.50000  100.54560    0.21210    0.12510   -0.00410    2.94890    8.91420   80.25990  137.80270    2.49020   11.05070   25.33950   24.05750
 5530.00000   92.86950    0.20850    0.11240   -0.00600    3.03140    8.90940   79.55180  136.20330    2.50340   13.17010   30.70790   21.55320
 5530.50000   86.97480    0.19190    0.10000   -0.00710    3.17840    8.93170   79.06670  134.51430    2.53600   13.51360   41.68980   32.05230
 5531.00000   83.35540    0.17720    0.09020   -0.00680    3.37910    8.96250   78.86950  133.51630    2.55870   14.64400   36.07720   27.56280
 5531.50000   79.07400    0.15670    0.07460   -0.00670    3.58880    8.99340   79.07760  133.10630    2.57980   15.93030   47.33000   35.99240
 5532.00000   76.39610    0.15730    0.06670   -0.00640    3.74920    9.02800   79.91310  131.53450    2.59520   22.86790   57.94200   49.61640
 5532.50000   78.10100    0.16100    0.07140   -0.00610    3.76510    9.09020   80.26940  131.64430    2.58730   26.04070   55.55960   48.59640
 5533.00000   84.60550    0.16860    0.09360   -0.00570    3.63420    9.09260   80.20670  131.34530    2.57280   23.54790   54.96610   49.54120
 5533.50000   96.56460    0.17380    0.11690   -0.00540    3.39070    9.06310   78.60280  131.06250    2.52320   20.66250   43.52140   39.97650
 5534.00000  113.77140    0.18400    0.13100   -0.00550    3.11990    9.00650   80.87420  129.46290    2.49380   15.78780   38.30420   35.26970
 5534.50000  129.90010    0.20480    0.14000   -0.00480    2.94570    8.94780   82.89360  128.03190    2.47310   14.07210   40.28920   35.00350
 5535.00000  137.98830    0.21280    0.13370   -0.00420    3.02140    8.88900   85.76310  126.44830    2.47270   13.96340   37.45600   35.57480
 5535.50000  118.01420    0.18840    0.09910   -0.00330    3.34280    8.85070   87.80220  124.36830    2.52850   17.35350   36.46590   34.38900
 5536.00000   83.25000    0.13170    0.05690    0.00140    3.87820    8.81770   88.96660  123.20440    2.62430   23.63400   79.68050   56.23630
 5536.50000   52.85000    0.10300    0.00800    0.00620    4.22660    8.78530   88.50340  122.73530    2.69480   51.30880  128.28500  105.63500
 5537.00000   33.46550    0.07820   -0.02150    0.00950    4.67960    8.78410   73.93910  125.05230    2.73760   80.92420  311.08640  200.93600
 5537.50000   34.21700    0.07880   -0.03030    0.00910    4.80630    8.83300   89.99100  126.75260    2.76830  131.67900  265.57860  180.38070
 5538.00000   51.61850    0.09950    0.02130    0.00680    4.45020    8.87790   91.33310  128.49400    2.71310   44.96370  140.07330   93.48750
 5538.50000   76.58480    0.12810    0.06710    0.00510    3.99580    8.89460   88.10490  130.97190    2.60670   33.49170   37.94960   34.76860
 5539.00000   93.26810    0.18790    0.10690    0.00390    3.44200    8.90880   85.21360  134.59600    2.53520   16.25110   29.30180   25.25150
 5539.50000  105.60300    0.21640    0.12490    0.00270    2.99550    8.90510   86.02310  137.03490    2.50550   12.09220   30.77490   25.96960
 5540.00000  107.16560    0.23340    0.13250    0.00140    2.82680    8.89290   86.60900  139.99600    2.48150   10.25990   24.11450   19.53880
 5540.50000  101.39970    0.23840    0.13280    0.00040    2.77230    8.86960   87.74250  142.44300    2.47970   12.83630   19.01360   18.05720
 5541.00000   94.83150    0.23910    0.13130    0.00020    2.79950    8.84630   87.75300  144.15450    2.48380   15.48530   25.73440   18.22060
 5541.50000   89.04870    0.22400    0.12660    0.00010    2.82780    8.83040   87.06190  143.92270    2.48980   22.35710   47.52050   38.35670
 5542.00000   85.73010    0.20960    0.12280   -0.00000    2.84550    8.83000   86.69800  143.59040    2.49580   21.88900   49.00680   43.53510
 5542.50000   87.69760    0.20190    0.12250   -0.00020    2.79780    8.92420   86.71360  142.78220    2.50020   21.30330   42.22480   38.24140
 5543.00000   90.77510    0.20170    0.12520   -0.00010    2.73370    8.89090   87.01810  142.44760    2.49760   19.32080   41.93600   38.61150
 5543.50000   92.46190    0.21050    0.13000    0.00040    2.66890    8.85750   86.70350  142.36040    2.48860   15.76880   43.89570   35.42140
 5544.00000   89.50720    0.22790    0.12870    0.00160    2.64780    8.85140   86.64220  141.92600    2.48680   12.85950   34.30460   28.21740
 5544.50000   86.24950    0.23400    0.11880    0.00290    2.69620    8.86390   86.55720  141.49160    2.50820   12.47260   40.46610   31.95380
 5545.00000   82.63790    0.22120    0.11130    0.00210    2.82950    8.90840   85.96080  140.72780    2.52040   12.43300   32.90140   24.64260
 5545.50000   85.72990    0.22320    0.11110   -0.00010    3.04500    8.91260   83.21300  139.44190    2.52210   11.18320   26.98690   21.88680
 5546.00000   88.49110    0.23060    0.11750   -0.00230    3.16990    8.87930   82.62960  138.78550    2.51500    9.68350   26.68710   21.03380
 5546.50000   88.94150    0.22780    0.11620   -0.00190    3.22180    8.83710   82.07190  137.01330    2.51070   11.01300   31.48030   25.51110
 5547.00000   86.15570    0.19410    0.10120    0.00150    3.25060    8.84630   82.18690  137.29280    2.53350   14.43930   42.93740   30.89970
 5547.50000   84.12360    0.17480    0.08510    0.00490    3.38180    8.89060   82.85020  138.15500    2.56140   16.58810   34.57680   26.99550
 5548.00000   81.32570    0.16700    0.06480    0.01000    3.52950    8.98050   83.31530  138.54100    2.60090   18.02050   32.78780   24.21220
 5548.50000   77.86350    0.16180    0.03920    0.01490    3.69380    9.00500   83.84790  140.07560    2.62990   28.10960   50.86430   38.79670
 5549.00000   77.99430    0.16170    0.04760    0.01560    3.72220    9.00680   85.31130  140.43810    2.64400   49.81010   86.90490   52.15490
 5549.50000   92.26370    0.17870    0.07570    0.01400    3.48420    9.00060   86.78940  142.60760    2.62160   26.30640   57.35770   44.75880
 5550.00000  107.24250    0.21170    0.10990    0.00980    3.16910    8.99430   87.82230  144.84660    2.55710   19.60770   47.04120   34.04240
 5550.50000  110.56280    0.23780    0.12860    0.00560    2.94220    8.98940   88.83550  147.06750    2.48940   12.58400   35.66270   28.84580
 5551.00000  107.93880    0.22940    0.12660    0.00240    2.88450    8.97740   89.71050  149.19020    2.49120   10.14620   31.85440   26.00830
 5551.50000  107.20370    0.21720    0.12090    0.00090    2.87040    8.95870   90.55420  150.41280    2.50110    7.93200   34.44070   28.75670
 5552.00000  107.54060    0.21140    0.11300    0.00010    2.88790    8.94010   90.63510  151.78680    2.51110    7.10030   29.91460   25.75960
 5552.50000  107.25580    0.21730    0.11140   -0.00060    2.90500    8.92690   90.67710  152.12040    2.51890    6.87500   28.55830   24.06810
 5553.00000  106.92110    0.23510    0.11840   -0.00090    2.89500    8.92580   89.82680  150.77950    2.51130    6.96500   35.28690   30.80270
 5553.50000  107.76490    0.24870    0.12670   -0.00120    2.86110    8.92830   89.27520  150.27920    2.49580    7.82700   34.70950   30.47960
