~Version ---------------------------------------------------
VERS.   2.0 : CWLS log ASCII Standard -VERSION 2.0
WRAP.    NO : One line per depth step
DLM . SPACE : Column Data Section Delimiter
~Well ------------------------------------------------------
STRT .F                  150.0 : START DEPTH
STOP .F                 8018.0 : STOP DEPTH
STEP .F                    0.5 : STEP
NULL .                -9999.25 : NULL VALUE
COMP .                         : COMPANY
WELL .                         : WELL
FLD  .                         : FIELD
LOC  .                         : LOCATION
PROV .                         : PROVINCE
CNTY .                         : COUNTY
STAT .                         : STATE
CTRY .                         : COUNTRY
SRVC .                         : SERVICE COMPANY
DATE .                         : DATE
UWI  .                         : UNIQUE WELL ID
API  .                         : API NUMBER
SLAT .WGS84 1.1530180465535018 : SURFACE LATITUDE
SLON .WGS84 5.4940184151720075 : SURFACE LONGITUDE
DATUM.F                    nan : DEPTH DATUM ELEV
~Curve Information -----------------------------------------
DEPT   .F     : 1 MEASURED DEPTH
SGRDD  .GAPI  : SPECTROSCOPY GAMMA RAY FROM DENSITY LOG
TNPH_LS.DEC   : THERMAL NEUTRON POROSITY [LIMESTONE]
DPHZ_LS.DEC   : HGRD STANDARD RESOLUTION DENSITY POROSITY
HDRA   .G/C3  : HRDD SPINE AND RIBS DENSITY CORRECTION
PEFZ   .B/E   : HRDD STANDARD RESOLUTION FORMATION PHOTOELECTRIC FACTOR
CALD   .IN    : CALIPER FROM DENSITY LOG
DTCO   .US/F  : DELTA-T COMPRESSIONAL
DTSM   .US/F  : DELTA-T SHEAR
RHOZ   .G/C3  : HRDD STANDARD RESOLUTION FORMATION DENSITY
RXOZ   .OHMM  : INVADED FORMATION RESISTIVITY FILTERED AT 18 INCHES
RLA5   .OHMM  : APPARENT RESISTIVITY FROM COMPUTED FOCUSING MODE 5
RLA3   .OHMM  : APPARENT RESISTIVITY FROM COMPUTED FOCUSING MODE 3
~Params ----------------------------------------------------
~Other -----------------------------------------------------
~ASCII -----------------------------------------------------
# ...
 7570.00000  111.31780    0.17750    0.03390   -0.00140    3.54040    9.01670   77.05800  133.58490    2.64760   13.08160   15.13270   14.26140
 7570.50000  113.44530    0.17830    0.03620   -0.00320    3.48820    9.01960   77.30570  134.14820    2.65370   12.73840   14.51930   13.55860
 7571.00000  114.33110    0.18160    0.02830   -0.00110    3.45570    9.02260   77.56570  134.71150    2.66450   12.66300   14.28140   13.26810
 7571.50000  113.94770    0.18650    0.02360    0.00050    3.42460    9.02550   77.84970  135.22040    2.67220   13.02730   14.83370   13.75790
 7572.00000  113.87840    0.18060    0.02320    0.00170    3.41810    9.02850   78.20360  136.62680    2.67140   12.96090   14.24330   13.29860
 7572.50000  114.57930    0.18270    0.02900    0.00020    3.37650    9.03140   78.67580  137.31920    2.65930   12.44240   13.67650   12.75120
 7573.00000  114.40150    0.18680    0.03450   -0.00120    3.36020    9.03440   78.97520  137.89650    2.64830   11.88230   13.13220   12.22630
 7573.50000  116.39320    0.19570    0.03910   -0.00210    3.32950    9.03730   79.10320  138.05060    2.64060   11.32770   12.54610   11.70770
 7574.00000  116.86840    0.19830    0.04180   -0.00300    3.29280    9.04220   79.04580  138.66300    2.63820   10.79900   11.84910   11.13510
 7574.50000  117.26520    0.19670    0.04130   -0.00310    3.25620    9.04790   78.85370  138.72070    2.64400   10.29490   12.05400   11.05310
 7575.00000  116.21650    0.20120    0.03720   -0.00260    3.21950    9.05370   78.57440  138.60110    2.64990   10.31000   12.26250   11.29250
 7575.50000  113.89740    0.20050    0.03040   -0.00110    3.25390    9.05950   77.90490  137.93640    2.66100   10.67910   13.43950   11.68180
 7576.00000  110.07100    0.19950    0.02250    0.00050    3.38850    9.05810   77.62100  136.99700    2.67790   12.54950   15.29120   13.51790
 7576.50000  106.32780    0.19460    0.01160    0.00200    3.53900    9.05680   77.28120  136.40370    2.68650   15.05550   17.72080   15.64260
 7577.00000  104.90240    0.19100    0.00470    0.00240    3.66140    9.05610   77.25120  136.06290    2.70100   16.61740   18.90570   17.22510
 7577.50000  105.39330    0.18650    0.00510    0.00290    3.66890    9.05490   77.33970  135.95430    2.70100   15.87590   18.43640   16.57750
 7578.00000  106.32480    0.19150    0.01350    0.00230    3.52020    9.05360   77.38000  135.90950    2.68600   14.16100   16.89580   14.77240
 7578.50000  107.36450    0.19490    0.02110    0.00120    3.36770    9.05250   77.82580  136.49790    2.67170   12.63140   14.53290   13.16380
 7579.00000  109.03950    0.19570    0.02970   -0.00000    3.26090    9.05140   78.66410  138.18310    2.65900   11.96340   13.62890   12.45270
 7579.50000  112.36700    0.19120    0.03730   -0.00120    3.22750    9.05630   79.45910  139.68580    2.64850   11.91460   13.33290   12.19250
 7580.00000  113.68070    0.20530    0.04160   -0.00200    3.22660    9.06440   79.77150  140.31560    2.63850   11.23710   12.52150   11.69580
 7580.50000  114.94490    0.22310    0.04490   -0.00280    3.25470    9.06970   79.86200  140.75220    2.63390   10.32550   11.41440   10.79500
 7581.00000  113.68400    0.23400    0.04570   -0.00360    3.26740    9.06800   79.98650  141.18880    2.62930    9.71920   10.82650   10.10830
 7581.50000  111.31180    0.22870    0.04850   -0.00360    3.28010    9.06330   80.39480  141.24010    2.62840   10.06300   11.42800   10.58930
 7582.00000  109.04540    0.21230    0.04760   -0.00280    3.29280    9.05910   80.43210  141.19700    2.62900   10.76550   13.05620   11.90760
 7582.50000  108.49210    0.21320    0.04680   -0.00200    3.30050    9.05780   80.38030  141.24710    2.63200   11.98650   14.15250   13.17420
 7583.00000  108.71920    0.20590    0.04520   -0.00120    3.30060    9.05650   80.33540  141.26460    2.63310   12.20260   14.60700   13.48840
 7583.50000  109.83470    0.20790    0.04360   -0.00040    3.29770    9.05630   80.14480  141.26470    2.63830   12.36420   14.30000   13.09090
 7584.00000  110.59160    0.20740    0.04040    0.00040    3.29380    9.05310   80.02960  141.25790    2.64270   12.14850   13.94320   12.88000
 7584.50000  111.60060    0.20990    0.03940    0.00110    3.28990    9.03990   79.92940  141.27980    2.64330   11.40820   13.52720   12.42960
 7585.00000  111.35690    0.20470    0.04000    0.00050    3.33140    9.02670   79.85000  141.43660    2.64200   10.31620   11.82290   10.95140
 7585.50000  110.08620    0.19280    0.04120   -0.00150    3.42880    9.01620   79.91760  142.14760    2.64090    9.79170   10.60460   10.18410
 7586.00000  107.36820    0.19070    0.03050   -0.00370    3.54460    9.01620   80.10160  142.61200    2.66310   10.32750   11.46890   10.89470
 7586.50000  106.42820    0.18890    0.02170   -0.00320    3.61860    9.01620   80.35680  143.04620    2.68040   10.95880   12.37850   11.60320
 7587.00000  106.30610    0.19650    0.01740   -0.00050    3.52090    9.01620   80.52780  143.48040    2.68010   10.99040   12.52500   12.11000
 7587.50000  110.56890    0.20480    0.02650    0.00110    3.37390    9.02000   80.68240  143.53230    2.64370   10.98120   12.91770   12.37200
 7588.00000  109.30210    0.20820    0.04710    0.00270    3.28140    9.03520   80.79240  143.53540    2.61750   11.67890   13.13910   12.44090
 7588.50000  112.12020    0.20620    0.05470    0.00430    3.23570    9.05200   80.89410  143.56220    2.61780   10.73890   12.68990   11.85190
 7589.00000  112.13810    0.21100    0.05090    0.00470    3.19270    9.06300   81.08570  143.68000    2.63440    8.78780   11.47020   10.97200
 7589.50000  113.85630    0.21460    0.03380    0.00420    3.23400    9.13310   81.02600  143.58520    2.65290    8.13150   10.86940   10.51900
 7590.00000  112.88950    0.20710    0.02750    0.00370    3.37110    9.08660   80.90360  143.40480    2.66710    9.08410   10.43110   10.13570
 7590.50000  110.12560    0.20240    0.02060    0.00220    3.51120    9.01630   80.89230  143.67360    2.67650    9.39260   10.09430    9.76640
 7591.00000  109.42010    0.20150    0.02010    0.00070    3.58040    9.00310   80.87140  143.63670    2.67480    9.25220   10.03980    9.60170
 7591.50000  110.13030    0.20640    0.02160   -0.00090    3.56790    8.99300   80.63470  142.41640    2.66920    9.10210   10.37420   10.03770
 7592.00000  112.07150    0.21170    0.02910   -0.00110    3.46620    8.99180   80.61660  142.16560    2.65900    8.88500   11.26500   10.80530
 7592.50000  114.38610    0.21240    0.03550   -0.00110    3.35810    8.99070   80.56980  141.91480    2.64940    9.68080   13.78580   12.45720
 7593.00000  116.72030    0.21050    0.03900   -0.00110    3.31950    8.98950   80.67680  141.46350    2.64050   10.87780   18.66630   15.50230
 7593.50000  116.10590    0.20780    0.04400   -0.00110    3.28740    8.98840   80.94510  141.20430    2.63000   12.77950   21.34870   20.07800
 7594.00000  116.73850    0.21910    0.04940   -0.00310    3.28650    8.98720   80.90170  140.78290    2.62270   13.38480   20.37600   19.05090
 7594.50000  115.68370    0.22720    0.05230   -0.00500    3.28310    8.98610   80.87470  140.74750    2.62150   12.97600   17.46610   16.01540
 7595.00000  115.28170    0.21550    0.05050   -0.00550    3.22260    8.98490   80.80920  140.59780    2.62500   11.59970   14.52280   13.31460
 7595.50000  113.47930    0.19680    0.04960   -0.00480    3.16580    8.98380   80.81820  139.76680    2.62500   10.43180   12.08630   11.10890
 7596.00000  112.97160    0.19020    0.05010   -0.00400    3.11890    8.98260   81.19860  138.84950    2.62210   10.20570   12.81500   11.56160
 7596.50000  114.33330    0.19830    0.05270   -0.00340    3.11560    8.98150   81.65410  138.76270    2.61900   12.37060   18.07400   15.13930
 7597.00000  113.14800    0.21010    0.05530   -0.00300    3.19140    8.98030   81.72440  138.74680    2.61270   18.30290   30.41980   22.47380
 7597.50000  112.84250    0.20880    0.06090   -0.00300    3.28020    8.97920   82.16470  138.61970    2.60420   26.47150   46.98310   35.36960
