~Version ---------------------------------------------------
VERS.   2.0 : CWLS log ASCII Standard -VERSION 2.0
WRAP.    NO : One line per depth step
DLM . SPACE : Column Data Section Delimiter
~Well ------------------------------------------------------
STRT .F                  150.0 : START DEPTH
STOP .F                 8018.0 : STOP DEPTH
STEP .F                    0.5 : STEP
NULL .                -9999.25 : NULL VALUE
COMP .                         : COMPANY
WELL .                         : WELL
FLD  .                         : FIELD
LOC  .                         : LOCATION
PROV .                         : PROVINCE
CNTY .                         : COUNTY
STAT .                         : STATE
CTRY .                         : COUNTRY
SRVC .                         : SERVICE COMPANY
DATE .                         : DATE
UWI  .                         : UNIQUE WELL ID
API  .                         : API NUMBER
SLAT .WGS84 1.1530180465535018 : SURFACE LATITUDE
SLON .WGS84 5.4940184151720075 : SURFACE LONGITUDE
DATUM.F                    nan : DEPTH DATUM ELEV
~Curve Information -----------------------------------------
DEPT   .F     : 1 MEASURED DEPTH
SGRDD  .GAPI  : SPECTROSCOPY GAMMA RAY FROM DENSITY LOG
TNPH_LS.DEC   : THERMAL NEUTRON POROSITY [LIMESTONE]
DPHZ_LS.DEC   : HGRD STANDARD RESOLUTION DENSITY POROSITY
HDRA   .G/C3  : HRDD SPINE AND RIBS DENSITY CORRECTION
PEFZ   .B/E   : HRDD STANDARD RESOLUTION FORMATION PHOTOELECTRIC FACTOR
CALD   .IN    : CALIPER FROM DENSITY LOG
DTCO   .US/F  : DELTA-T COMPRESSIONAL
DTSM   .US/F  : DELTA-T SHEAR
RHOZ   .G/C3  : HRDD STANDARD RESOLUTION FORMATION DENSITY
RXOZ   .OHMM  : INVADED FORMATION RESISTIVITY FILTERED AT 18 INCHES
RLA5   .OHMM  : APPARENT RESISTIVITY FROM COMPUTED FOCUSING MODE 5
RLA3   .OHMM  : APPARENT RESISTIVITY FROM COMPUTED FOCUSING MODE 3
~Params ----------------------------------------------------
~Other -----------------------------------------------------
~ASCII -----------------------------------------------------
# ...
 2698.00000   93.55690    0.29980    0.11390   -0.00090    3.16160    9.79840   91.86130  182.25960    2.51590    2.40350    3.08910    3.00480
 2698.50000   95.65400    0.29530    0.11740   -0.00030    3.15470    9.87550   94.14260  183.01060    2.51390    2.37540    3.01480    2.89200
 2699.00000   90.59140    0.28150    0.12430    0.00020    3.19590    9.80450   94.75230  183.99260    2.49990    2.48950    3.04710    2.86740
 2699.50000   80.04330    0.30440    0.10270    0.00070    3.28350    9.46150   97.68410  186.66740    2.49990    2.59640    3.26700    3.12400
 2700.00000   66.65760    0.29520    0.07080    0.01410    3.40730    9.28590   98.37990  190.51770    2.54610    2.81240    4.08120    3.54790
 2700.50000   58.45300    0.25080    0.03620    0.03560    3.53100    9.17950   99.05480  192.57760    2.64000    3.22200    4.91620    4.73400
 2701.00000   59.27640    0.23010    0.03580    0.04100    3.57720    9.12140   99.41260  196.61900    2.64940    3.65890    8.27740    6.42520
 2701.50000   66.41520    0.23690    0.05310    0.02790    3.50400    9.06360   99.70720  199.95450    2.63430    3.91810    5.88200    4.47860
 2702.00000   74.22620    0.26650    0.08710    0.01450    3.35680    9.10380   99.92430  199.82200    2.59120    3.19280    4.01190    3.74210
 2702.50000   82.52850    0.27760    0.10700    0.00910    3.21130    9.19260  100.00680  198.99300    2.53610    2.78630    3.89100    3.46740
 2703.00000   87.52280    0.28460    0.12220    0.00430    3.16460    9.17040  100.02670  200.32470    2.50750    2.57550    3.29270    3.15050
 2703.50000   90.76850    0.28880    0.12930    0.00340    3.14350    9.11400   99.96500  200.11960    2.48940    2.49610    3.28510    3.07400
 2704.00000   92.12990    0.30300    0.12690    0.00340    3.14280    9.08060   99.85570  199.80940    2.49180    2.51240    3.29010    3.12880
 2704.50000   91.54950    0.29140    0.12010    0.00400    3.15510    9.09140   99.61840  198.83630    2.50220    2.51770    3.29510    3.16000
 2705.00000   89.24520    0.27970    0.11580    0.00620    3.15230    9.08260   99.20680  196.57640    2.51180    2.49900    3.30010    3.18110
 2705.50000   90.68390    0.27330    0.11930    0.00900    3.12960    9.07090   98.94570  195.82770    2.51180    2.47550    3.30270    3.20220
 2706.00000   90.06670    0.28490    0.12450    0.00830    3.11310    9.09730   98.80680  195.91820    2.49950    2.45550    3.29150    3.19880
 2706.50000   89.09210    0.30500    0.12400    0.00780    3.15580    9.15730   98.68850  196.30630    2.49550    2.44280    3.27720    3.19350
 2707.00000   88.63530    0.29190    0.11700    0.00900    3.21160    9.22350   98.59980  196.65190    2.50640    2.47670    3.26520    3.19180
 2707.50000   87.98150    0.27520    0.11210    0.01260    3.22510    9.24730   98.42190  196.47840    2.51810    2.50640    3.26710    3.19010
 2708.00000   90.67480    0.25260    0.11570    0.01400    3.21180    9.16640   98.29150  195.33690    2.51710    2.51990    3.29580    3.18850
 2708.50000   87.94230    0.26130    0.12030    0.01190    3.19860    9.14470   98.24070  195.20120    2.50690    2.49470    3.30430    3.18680
 2709.00000   87.97100    0.27540    0.12860    0.00970    3.14600    9.07130   98.31200  197.13980    2.49640    2.49530    3.30430    3.18510
 2709.50000   85.58270    0.28920    0.13120    0.00750    3.14030    8.99640   98.48360  197.38630    2.48800    2.51240    3.29840    3.18350
 2710.00000   85.27650    0.28370    0.12910    0.00800    3.15150    9.06310   98.58970  197.67670    2.48720    2.56680    3.29310    3.20110
 2710.50000   84.08820    0.29230    0.11840    0.01580    3.19390    9.12240   98.75370  198.01460    2.49910    2.62030    3.37060    3.24850
 2711.00000   84.42060    0.28670    0.11130    0.02150    3.21950    8.99890   99.08560  197.94740    2.51980    2.60070    3.42970    3.24010
 2711.50000   83.88800    0.29570    0.11250    0.01760    3.21080    9.04430   99.34800  197.79450    2.51870    2.55740    3.32190    3.17550
 2712.00000   83.66760    0.29490    0.11620    0.01290    3.20420    9.13520   99.52190  197.69950    2.51660    2.54290    3.30100    3.11610
 2712.50000   84.01230    0.29120    0.12210    0.00990    3.20240    9.22240   99.67200  197.70660    2.50720    2.54400    3.27940    3.09860
 2713.00000   87.36220    0.27960    0.12210    0.00830    3.20200    9.26190   99.83140  198.01740    2.50190    2.52050    3.25800    3.08130
 2713.50000   87.06800    0.27100    0.12370    0.00800    3.20400    9.28470   99.94110  198.01080    2.49680    2.53540    3.22560    3.06400
 2714.00000   86.90570    0.27000    0.12760    0.00810    3.21500    9.50320   99.97080  198.12390    2.49330    2.49920    3.21340    3.04680
 2714.50000   85.72330    0.28060    0.12910    0.01020    3.22590    9.70430   99.95520  198.25970    2.49030    2.50330    3.17980    3.03230
 2715.00000   86.54030    0.29800    0.12900    0.01230    3.24030    9.69850   99.91520  198.50090    2.48990    2.55520    3.19720    3.08070
 2715.50000   87.16000    0.31800    0.12280    0.01410    3.26200    9.64070   99.81070  198.27690    2.49490    2.59350    3.31040    3.14450
 2716.00000   87.11110    0.31640    0.12260    0.01300    3.27600    9.53950   99.69350  198.15940    2.50090    2.57780    3.28990    3.12470
 2716.50000   86.38510    0.30620    0.12300    0.01100    3.27410    9.49150   99.56490  198.52510    2.50120    2.53600    3.26750    3.07630
 2717.00000   85.83560    0.31420    0.12680    0.00900    3.25540    9.41870   99.40680  198.84440    2.49770    2.54910    3.26730    3.07470
 2717.50000   87.67960    0.31880    0.12730    0.00750    3.23540    9.28690   99.22490  199.12310    2.49300    2.52480    3.27880    3.06610
 2718.00000   89.52320    0.31840    0.12750    0.00930    3.21600    9.16600   99.18060  199.40180    2.49300    2.48120    3.25620    3.03920
 2718.50000   91.84820    0.29790    0.12680    0.01110    3.20780    9.20230   99.15730  199.60570    2.49340    2.44620    3.22850    3.01250
 2719.00000   91.37330    0.29710    0.12180    0.01200    3.22330    9.15750   99.12950  200.12000    2.49590    2.43770    3.20100    2.98600
 2719.50000   91.08300    0.30210    0.11730    0.01140    3.23840    9.07750   99.19700  200.82340    2.50840    2.43680    3.20100    2.99620
 2720.00000   90.62790    0.30060    0.11210    0.01210    3.25540    8.96710   99.40550  201.73510    2.51910    2.44700    3.25810    3.06590
 2720.50000   89.33220    0.29370    0.10940    0.01070    3.27090    8.95280   99.70980  202.35260    2.52350    2.44080    3.30330    3.11140
 2721.00000   87.42410    0.28080    0.10610    0.00770    3.27110    8.91350   99.85850  203.05490    2.52700    2.43620    3.29490    3.09940
 2721.50000   86.61430    0.29390    0.10820    0.00420    3.24040    8.91800   99.93550  203.75200    2.52990    2.43210    3.28050    3.07960
 2722.00000   85.89320    0.30510    0.11570    0.00150    3.20700    8.92310  100.24870  204.58050    2.52000    2.45330    3.24960    3.04370
 2722.50000   89.52860    0.30290    0.12220    0.00110    3.17070    8.94590  100.56190  206.63200    2.50780    2.44260    3.20440    2.98830
 2723.00000   90.90120    0.30250    0.13030    0.00080    3.18580    9.03160  100.87510  207.13890    2.49250    2.41680    3.15570    2.93390
 2723.50000   92.11780    0.31230    0.13550    0.00050    3.20840    9.15080  101.46230  207.38840    2.47980    2.36130    3.06000    2.88800
 2724.00000   90.60420    0.32560    0.13960    0.00050    3.21980    9.20560  101.68620  207.75110    2.47350    2.34890    3.10750    2.89200
 2724.50000   88.86240    0.32230    0.13340    0.00090    3.21030    9.21110  102.07750  208.11370    2.47850    2.35370    3.12740    2.90260
 2725.00000   88.01660    0.30510    0.12420    0.00290    3.18460    9.32110  102.28790  208.46290    2.49990    2.39680    3.11060    2.90230
 2725.50000   89.13740    0.31770    0.12180    0.00470    3.15810    9.42170  102.49200  208.80660    2.50110    2.38620    3.04640    2.89010
