~Version ---------------------------------------------------
VERS.   2.0 : CWLS log ASCII Standard -VERSION 2.0
WRAP.    NO : One line per depth step
DLM . SPACE : Column Data Section Delimiter
~Well ------------------------------------------------------
STRT .F                  150.0 : START DEPTH
STOP .F                 8018.0 : STOP DEPTH
STEP .F                    0.5 : STEP
NULL .                -9999.25 : NULL VALUE
COMP .                         : COMPANY
WELL .                         : WELL
FLD  .                         : FIELD
LOC  .                         : LOCATION
PROV .                         : PROVINCE
CNTY .                         : COUNTY
STAT .                         : STATE
CTRY .                         : COUNTRY
SRVC .                         : SERVICE COMPANY
DATE .                         : DATE
UWI  .                         : UNIQUE WELL ID
API  .                         : API NUMBER
SLAT .WGS84 1.1530180465535018 : SURFACE LATITUDE
SLON .WGS84 5.4940184151720075 : SURFACE LONGITUDE
DATUM.F                    nan : DEPTH DATUM ELEV
~Curve Information -----------------------------------------
DEPT   .F     : 1 MEASURED DEPTH
SGRDD  .GAPI  : SPECTROSCOPY GAMMA RAY FROM DENSITY LOG
TNPH_LS.DEC   : THERMAL NEUTRON POROSITY [LIMESTONE]
DPHZ_LS.DEC   : HGRD STANDARD RESOLUTION DENSITY POROSITY
HDRA   .G/C3  : HRDD SPINE AND RIBS DENSITY CORRECTION
PEFZ   .B/E   : HRDD STANDARD RESOLUTION FORMATION PHOTOELECTRIC FACTOR
CALD   .IN    : CALIPER FROM DENSITY LOG
DTCO   .US/F  : DELTA-T COMPRESSIONAL
DTSM   .US/F  : DELTA-T SHEAR
RHOZ   .G/C3  : HRDD STANDARD RESOLUTION FORMATION DENSITY
RXOZ   .OHMM  : INVADED FORMATION RESISTIVITY FILTERED AT 18 INCHES
RLA5   .OHMM  : APPARENT RESISTIVITY FROM COMPUTED FOCUSING MODE 5
RLA3   .OHMM  : APPARENT RESISTIVITY FROM COMPUTED FOCUSING MODE 3
~Params ----------------------------------------------------
~Other -----------------------------------------------------
~ASCII -----------------------------------------------------
# ...
 5946.00000   86.39680    0.21020    0.12440    0.00090    2.89010    8.84020   87.57550  143.02230    2.49040   12.27630   19.55390   16.77430
 5946.50000   86.67480    0.21550    0.11280    0.00370    2.94220    8.85350   88.38660  145.53700    2.51590   10.62740   18.42100   17.23930
 5947.00000   91.23620    0.22190    0.10810    0.00470    2.98210    8.87460   89.42030  146.14440    2.52480    9.48020   16.70700   14.34810
 5947.50000   96.20060    0.23810    0.11490    0.00280    3.02200    8.85350   89.83000  146.80900    2.51980    8.64120   13.23400   12.92090
 5948.00000   97.90460    0.23900    0.12060   -0.00010    3.04660    8.84930   89.91670  147.47360    2.50450    9.83000   12.89000   12.65400
 5948.50000   98.41880    0.23790    0.11920   -0.00310    3.07010    8.84920   89.91110  148.11810    2.50530   11.83480   15.30850   14.39780
 5949.00000   99.73070    0.23390    0.11730   -0.00450    3.09200    8.84850   89.76810  149.14930    2.50990   13.45160   16.85430   16.34350
 5949.50000  103.77980    0.24540    0.11730   -0.00530    3.10920    8.86830   89.51190  148.12430    2.51040   12.20160   15.71160   14.41810
 5950.00000  107.21220    0.25640    0.12300   -0.00610    3.12640    8.89270   89.21060  148.04890    2.49920   11.97720   19.70000   16.27890
 5950.50000  105.15860    0.25960    0.12380   -0.00690    3.13310    8.91620   88.91040  147.97340    2.49710   11.76840   22.51250   21.45830
 5951.00000  100.76790    0.25610    0.11660   -0.00560    3.13620    8.92470   88.84790  147.52380    2.51070   10.05630   17.60720   13.79340
 5951.50000   96.91740    0.22830    0.10100   -0.00410    3.13930    8.88630   89.99210  147.68210    2.53280   10.97560   18.49970   16.10620
 5952.00000   95.79830    0.20900    0.09990   -0.00270    3.13540    8.92680   90.20710  147.43350    2.53920   13.29530   24.99350   21.08650
 5952.50000   96.69040    0.20920    0.10700   -0.00120    3.11540    8.92450   89.87260  146.88250    2.52940   14.85770   20.66970   18.13420
 5953.00000   97.42360    0.22250    0.12140   -0.00150    3.06900    8.91380   88.87570  146.25560    2.50560   13.42670   16.33840   15.33740
 5953.50000   98.41710    0.23830    0.12400   -0.00220    3.01500    9.01010   83.76140  143.48910    2.49510   11.35090   19.20960   17.54250
 5954.00000  101.99580    0.24170    0.12580   -0.00400    2.96100    9.00160   83.69530  142.69760    2.49480   11.85790   21.11270   19.91860
 5954.50000  103.75970    0.25880    0.12520   -0.00580    2.92020    8.98410   83.33290  142.19640    2.49490   10.75080   20.21580   18.92510
 5955.00000   92.45560    0.25050    0.11730   -0.00610    2.97290    8.96650   82.97020  141.29530    2.50400   10.42910   19.85590   17.71580
 5955.50000   77.82970    0.18110    0.10110   -0.00560    3.05060    8.94960   83.24130  140.54890    2.54210   13.45460   24.83490   22.59630
 5956.00000   64.29400    0.13030    0.08550   -0.00500    3.12100    8.93340   82.80510  140.15820    2.56090   18.43130  113.17010   40.58080
 5956.50000   65.48880    0.12000    0.08280   -0.00420    3.15650    8.91720   82.26820  139.46830    2.57250   21.74210   37.17240   33.56190
 5957.00000   82.26140    0.14250    0.09400   -0.00330    3.15480    8.90850   81.67920  138.77840    2.55810   15.53990   28.91020   25.08320
 5957.50000   92.01780    0.18110    0.10770   -0.00310    3.12120    8.90850   80.75810  138.14310    2.52720   12.44920   20.09960   17.99980
 5958.00000   98.40020    0.20420    0.11930   -0.00280    3.06920    8.91120   82.40060  137.83450    2.51350   11.72110   22.95470   20.96770
 5958.50000   94.84740    0.22670    0.11440   -0.00050    3.00330    8.92030   83.02520  138.76660    2.51410   10.27200   28.09140   26.11670
 5959.00000   84.45170    0.23490    0.09890    0.00170    2.93070    8.93800   82.82710  138.79160    2.55250   10.67720   24.85970   21.51040
 5959.50000   70.61760    0.18930    0.07150    0.00360    3.52740    9.00360   83.15520  138.86170    2.58390   13.12560   34.86200   25.88940
 5960.00000   63.79770    0.16790    0.07050    0.00430    3.65410    8.97430   83.73940  138.94540    2.59380   15.77210   55.15850   31.93920
 5960.50000   71.74050    0.15930    0.07650    0.00500    3.54610    8.92840   84.18870  138.81980    2.57920   15.72760   30.42860   24.95160
 5961.00000   83.92290    0.18920    0.09160    0.00550    3.32190    8.89890   84.42660  139.27440    2.55870   12.44360   21.70470   19.04530
 5961.50000   86.63360    0.22450    0.10080    0.00390    3.18040    8.89740   85.80030  140.01840    2.54010   16.44770   22.43250   19.77530
 5962.00000   86.96620    0.24120    0.11030    0.00180    3.06770    8.90500   89.13180  140.84550    2.52460   18.86070   25.28350   21.28880
 5962.50000   87.85980    0.22870    0.11210   -0.00020    3.01430    8.91010   90.30780  141.67610    2.51780   20.22670   27.76200   22.85290
 5963.00000   92.33720    0.22640    0.11540   -0.00010    2.96420    8.91670   90.13980  142.50660    2.51310   13.59400   27.36380   23.20100
 5963.50000   93.89480    0.22170    0.11770    0.00160    2.93770    8.98030   89.48610  143.24440    2.50400   11.93790   26.37400   22.56180
 5964.00000   96.08230    0.21620    0.12930    0.00320    2.89610    9.05280   88.67440  143.46580    2.48670    8.04190   25.42000   21.24050
 5964.50000   97.55430    0.22330    0.13830    0.00480    2.84180    9.12540   88.21870  143.49710    2.47280    6.00050   22.70020   20.08580
 5965.00000   97.56990    0.23310    0.13790    0.00440    2.86370    9.21430   87.00020  143.45600    2.47280    4.59560   22.49640   19.92290
 5965.50000   91.83590    0.23670    0.12660    0.00370    2.96750    9.23950   88.21530  143.40490    2.49040    5.07370   23.46280   19.74940
 5966.00000   88.61970    0.22470    0.10840    0.00300    3.09610    9.20910   87.87240  143.34170    2.52110    8.85860   25.84080   22.60410
 5966.50000   87.17590    0.22260    0.09590    0.00240    3.22450    9.16650   86.80700  143.27850    2.54610   14.26890   32.66660   26.83850
 5967.00000   89.27610    0.21380    0.08320    0.00170    3.35710    9.12390   87.91160  143.21520    2.56810   16.75900   30.11250   26.98330
 5967.50000   91.74290    0.21100    0.08350    0.00100    3.40510    9.08720   88.19170  143.30760    2.56810   15.79480   27.02590   23.52030
 5968.00000   93.29640    0.20980    0.09150    0.00030    3.33190    9.05310   87.78760  143.53670    2.55350   15.36520   20.91400   18.72470
 5968.50000   95.98970    0.20970    0.09920   -0.00030    3.17620    9.01850   86.97950  143.76580    2.53840   14.74050   21.58950   19.28840
 5969.00000   99.86950    0.22230    0.11090   -0.00050    3.03340    8.97290   86.37950  143.91000    2.52300   15.93010   21.48350   19.46260
 5969.50000  103.67410    0.23200    0.12150   -0.00070    2.93480    8.92950   85.65520  143.05950    2.50770   16.82730   25.30160   22.32500
 5970.00000  107.06030    0.24300    0.12550   -0.00090    2.95750    8.89640   85.04620  142.30910    2.49660   18.50600   27.33470   26.03410
 5970.50000  105.85650    0.23690    0.11870   -0.00120    2.99130    8.90200   86.07710  141.67470    2.50680   16.76500   22.76770   19.89390
 5971.00000   93.36200    0.22600    0.09960   -0.00110    3.02650    8.89740   86.55710  142.31970    2.53510   16.23670   19.95120   19.40550
 5971.50000   83.02110    0.18970    0.08300   -0.00090    3.06170    8.88060   86.49360  142.42310    2.56780   18.16760   21.78970   20.59570
 5972.00000   76.64600    0.16340    0.08600   -0.00060    3.07740    8.89630   86.18790  142.88300    2.57000   16.49070   32.90980   21.72370
 5972.50000   82.05500    0.16480    0.09390   -0.00020    3.00650    8.91200   86.44880  143.61760    2.55390   13.81670   17.37520   16.55950
 5973.00000   91.72370    0.19610    0.10610    0.00010    2.93520    8.90430   84.92190  143.64720    2.53570   12.40380   19.17350   18.11940
 5973.50000   96.58510    0.23580    0.11040    0.00020    2.86390    8.90890   85.57950  142.68370    2.52130   10.78740   16.96870   16.53690
