~Version ---------------------------------------------------
VERS.   2.0 : CWLS log ASCII Standard -VERSION 2.0
WRAP.    NO : One line per depth step
DLM . SPACE : Column Data Section Delimiter
~Well ------------------------------------------------------
STRT .F                  150.0 : START DEPTH
STOP .F                 8018.0 : STOP DEPTH
STEP .F                    0.5 : STEP
NULL .                -9999.25 : NULL VALUE
COMP .                         : COMPANY
WELL .                         : WELL
FLD  .                         : FIELD
LOC  .                         : LOCATION
PROV .                         : PROVINCE
CNTY .                         : COUNTY
STAT .                         : STATE
CTRY .                         : COUNTRY
SRVC .                         : SERVICE COMPANY
DATE .                         : DATE
UWI  .                         : UNIQUE WELL ID
API  .                         : API NUMBER
SLAT .WGS84 1.1530180465535018 : SURFACE LATITUDE
SLON .WGS84 5.4940184151720075 : SURFACE LONGITUDE
DATUM.F                    nan : DEPTH DATUM ELEV
~Curve Information -----------------------------------------
DEPT   .F     : 1 MEASURED DEPTH
SGRDD  .GAPI  : SPECTROSCOPY GAMMA RAY FROM DENSITY LOG
TNPH_LS.DEC   : THERMAL NEUTRON POROSITY [LIMESTONE]
DPHZ_LS.DEC   : HGRD STANDARD RESOLUTION DENSITY POROSITY
HDRA   .G/C3  : HRDD SPINE AND RIBS DENSITY CORRECTION
PEFZ   .B/E   : HRDD STANDARD RESOLUTION FORMATION PHOTOELECTRIC FACTOR
CALD   .IN    : CALIPER FROM DENSITY LOG
DTCO   .US/F  : DELTA-T COMPRESSIONAL
DTSM   .US/F  : DELTA-T SHEAR
RHOZ   .G/C3  : HRDD STANDARD RESOLUTION FORMATION DENSITY
RXOZ   .OHMM  : INVADED FORMATION RESISTIVITY FILTERED AT 18 INCHES
RLA5   .OHMM  : APPARENT RESISTIVITY FROM COMPUTED FOCUSING MODE 5
RLA3   .OHMM  : APPARENT RESISTIVITY FROM COMPUTED FOCUSING MODE 3
~Params ----------------------------------------------------
~Other -----------------------------------------------------
~ASCII -----------------------------------------------------
# ...
 6338.00000  121.07910    0.23850    0.09120   -0.00050    2.93190    8.79700   84.89040  141.05270    2.55800    7.50960   21.41550   20.72370
 6338.50000  121.67100    0.22810    0.09300   -0.00390    2.85490    8.83040   85.75410  140.10900    2.55110    7.27530   20.52560   20.11740
 6339.00000  116.47800    0.22840    0.09410    0.00010    2.89330    8.89430   86.38080  135.89780    2.55070    7.41950   20.55700   19.65840
 6339.50000  100.15070    0.20430    0.08220    0.00620    2.98690    9.06340   89.63430  132.05460    2.56320    8.45760   19.40150   18.32680
 6340.00000   80.03960    0.15910    0.05650    0.00820    3.30370    9.04340   92.66280  127.51740    2.67650   11.49430   73.86180   22.45900
 6340.50000   49.25240    0.10310    0.00500    0.00840    3.80440    9.00290   83.88130  124.23160    2.71490   27.41710  132.79820  129.64620
 6341.00000   28.23890    0.05610   -0.03590    0.00300    4.37350    8.95380   84.14770  122.81600    2.74450  187.66700  696.92740  226.87250
 6341.50000   25.77080    0.04070   -0.04610    0.00170    4.61770    8.90480   85.33750  122.68640    2.78730  211.00690  807.29500  248.94850
 6342.00000   43.93620    0.04210   -0.03890    0.01630    4.40130    8.85570   84.56160  124.62340    2.78620  155.75140  599.77440  201.18970
 6342.50000   80.77970    0.07050   -0.01460    0.03070    3.90970    8.80890   84.33820  126.57330    2.75410   30.10430  102.06570   42.67360
 6343.00000  117.42500    0.11740    0.03140    0.02750    3.32780    8.76710   84.28540  127.48460    2.66500   12.86780   22.60480   19.90570
 6343.50000  132.67410    0.16770    0.06770    0.01280    3.00490    8.72870   80.48740  133.84870    2.59000    8.25690   17.00170   16.05150
 6344.00000  132.56550    0.19780    0.09060    0.00280    2.87770    8.71030   81.14350  136.66450    2.55420    7.32220   17.33770   16.25900
 6344.50000  126.43170    0.19420    0.08610    0.00090    2.85730    8.70510   82.51400  139.63840    2.56250    8.29370   18.50560   17.33870
 6345.00000  120.76550    0.18590    0.07710    0.00220    2.90190    8.70630   82.77670  140.94730    2.57660    9.55270   17.30510   15.41310
 6345.50000  116.20930    0.18400    0.07400   -0.00110    2.97380    8.71060   82.68910  142.03520    2.58290   10.91670   21.02060   17.80230
 6346.00000  114.85720    0.17620    0.08070   -0.00100    3.02510    8.72590   82.78740  142.38070    2.57640   12.57290   26.43610   24.43510
 6346.50000  117.92200    0.17740    0.08640    0.00030    3.06550    8.73310   82.68750  141.49530    2.56230   15.04220   26.26390   23.66940
 6347.00000  124.40650    0.17760    0.08960    0.00220    3.06280    8.71150   82.85380  141.07390    2.55780   12.33860   24.63490   20.65700
 6347.50000  124.22250    0.18000    0.07890    0.00500    3.13520    8.70880   83.41330  141.51180    2.56580   10.55830   24.42830   20.48160
 6348.00000  121.41860    0.17580    0.06780    0.00410    3.25510    8.67470   83.77810  142.40040    2.58560   11.29000   25.18170   21.97570
 6348.50000  122.50100    0.17980    0.06140    0.00230    3.29620    8.65050   84.54130  143.49350    2.60460   14.39580   37.16790   24.62080
 6349.00000  125.86610    0.19520    0.06830    0.00050    3.22280    8.67500   84.43590  144.44380    2.59840   10.95020   21.14580   16.26040
 6349.50000  127.66700    0.21400    0.07330   -0.00130    3.07280    8.69950   83.54590  144.76520    2.58300    7.35240   20.16210   16.21550
 6350.00000  123.60350    0.21760    0.07910   -0.00320    2.98590    8.72190   81.26320  142.46010    2.57140    6.76330   21.33290   17.05340
 6350.50000  119.02780    0.21220    0.08620   -0.00440    2.89010    8.74310   79.09040  140.68920    2.55980    6.69120   20.01430   16.46070
 6351.00000  111.92230    0.20730    0.09660   -0.00450    2.94450    8.77170   77.65250  138.41280    2.54880    6.48810   18.87530   16.04800
 6351.50000   99.36420    0.19750    0.09900   -0.00300    3.06890    8.85650   77.03740  136.84330    2.53980    5.96830   19.40410   16.11710
 6352.00000   81.61940    0.18990    0.07080    0.00450    3.37260    8.88940   76.99610  135.91450    2.57060    7.67200   29.74760   22.38010
 6352.50000   67.90920    0.15100    0.03720    0.01190    3.67850    8.86000   77.14330  135.14600    2.64000   13.47390   48.41120   38.90890
 6353.00000   64.27860    0.13120    0.02350    0.01800    3.91920    8.83030   78.15610  135.38280    2.66800   35.19110   68.81820   42.17240
 6353.50000   81.90480    0.12410    0.03560    0.01720    3.87980    8.83650   78.42070  135.19910    2.66760   18.07360   55.90560   30.25450
 6354.00000  101.78140    0.15070    0.06240    0.01600    3.52830    8.86440   78.20370  135.34210    2.61130   10.28510   28.55290   21.61490
 6354.50000  116.62180    0.17730    0.06980    0.01480    3.17970    8.91770   77.29660  135.14040    2.59030    6.49280   19.85300   15.02010
 6355.00000  116.68950    0.20500    0.07500    0.01480    2.95210    9.13080   75.25100  134.45370    2.58480    6.00290   15.45800   12.04470
 6355.50000  113.54350    0.22770    0.07680    0.01190    2.89930    8.76050   75.06180  133.76900    2.57920    5.92810   16.11640   12.25670
 6356.00000  102.43530    0.21480    0.07680    0.00770    3.05810    8.74140   74.98000  131.90680    2.58030    6.52520   16.06800   12.22180
 6356.50000   83.79690    0.19830    0.06840    0.00360    3.37400    8.74500   74.82530  131.64690    2.60890    8.70070   39.79200   19.14830
 6357.00000   61.69210    0.12390    0.03820    0.00140    3.71010    8.74860   74.61620  131.38710    2.65200   16.98810   57.38090   44.77940
 6357.50000   60.29980    0.09580    0.02610    0.00040    3.89410    8.75240   74.45250  130.90380    2.66900   49.23520  301.54010   60.22240
 6358.00000   79.64310    0.09220    0.02610    0.00040    3.74670    8.75640   74.45630  130.39190    2.66730   19.44660   43.94270   27.56060
 6358.50000  103.96410    0.12160    0.04590    0.00040    3.53550    8.76270   74.66230  130.18730    2.63360   12.57220   22.92190   18.76720
 6359.00000  117.16420    0.15420    0.06390    0.00050    3.34680    8.77150   75.76390  130.22290    2.59300    9.46710   21.53730   17.15180
 6359.50000  121.20980    0.18870    0.07880    0.00040    3.24060    8.78030   76.56860  130.29750    2.57890    9.45910   22.32160   18.19670
 6360.00000  113.36500    0.18090    0.07930    0.00040    3.21030    8.78780   77.73550  131.71510    2.57700    9.73700   25.34090   18.49760
 6360.50000  102.13530    0.16730    0.07430    0.00040    3.17130    8.78420   78.14770  132.13140    2.58280   11.99810   27.43580   21.21620
 6361.00000   92.12730    0.14910    0.06760    0.00040    3.16220    8.78110   78.37280  132.42940    2.59490   13.03080   24.12910   20.21910
 6361.50000   90.87660    0.13690    0.06370    0.00020    3.17980    8.78540   79.64860  133.93230    2.59930   16.00820   25.58460   21.01860
 6362.00000   96.74960    0.14550    0.06380    0.00000    3.20190    8.86730   80.71510  134.66250    2.59980   11.49430   25.82280   19.89810
 6362.50000  104.52200    0.16710    0.06800   -0.00020    3.14270    8.94100   80.77640  135.39270    2.59310    9.34620   21.15940   17.24190
 6363.00000  107.18990    0.18850    0.07460   -0.00080    3.08550    9.04740   80.95340  136.25480    2.58380    8.45420   20.84640   17.21680
 6363.50000  108.86380    0.19820    0.07930   -0.00250    3.02260    9.06550   81.82970  138.47460    2.57460    7.97140   21.26230   18.42470
 6364.00000  115.07950    0.19450    0.08370   -0.00420    3.00250    9.07370   83.39520  140.15030    2.56900    7.75450   25.92670   21.83640
 6364.50000  125.14870    0.18520    0.08650   -0.00550    3.01100    9.07040   83.83130  141.08590    2.56250    8.44300   27.63930   25.94740
 6365.00000  135.21330    0.19790    0.08840   -0.00510    3.01950    9.04470   83.59610  141.70900    2.56290   10.38800   38.87950   32.39780
 6365.50000  129.43530    0.20790    0.08400   -0.00420    3.00410    8.96710   82.97770  141.63960    2.56740   11.68110   48.86160   43.32620
