~Version ---------------------------------------------------
VERS.   2.0 : CWLS log ASCII Standard -VERSION 2.0
WRAP.    NO : One line per depth step
DLM . SPACE : Column Data Section Delimiter
~Well ------------------------------------------------------
STRT .F                  150.0 : START DEPTH
STOP .F                 8018.0 : STOP DEPTH
STEP .F                    0.5 : STEP
NULL .                -9999.25 : NULL VALUE
COMP .                         : COMPANY
WELL .                         : WELL
FLD  .                         : FIELD
LOC  .                         : LOCATION
PROV .                         : PROVINCE
CNTY .                         : COUNTY
STAT .                         : STATE
CTRY .                         : COUNTRY
SRVC .                         : SERVICE COMPANY
DATE .                         : DATE
UWI  .                         : UNIQUE WELL ID
API  .                         : API NUMBER
SLAT .WGS84 1.1530180465535018 : SURFACE LATITUDE
SLON .WGS84 5.4940184151720075 : SURFACE LONGITUDE
DATUM.F                    nan : DEPTH DATUM ELEV
~Curve Information -----------------------------------------
DEPT   .F     : 1 MEASURED DEPTH
SGRDD  .GAPI  : SPECTROSCOPY GAMMA RAY FROM DENSITY LOG
TNPH_LS.DEC   : THERMAL NEUTRON POROSITY [LIMESTONE]
DPHZ_LS.DEC   : HGRD STANDARD RESOLUTION DENSITY POROSITY
HDRA   .G/C3  : HRDD SPINE AND RIBS DENSITY CORRECTION
PEFZ   .B/E   : HRDD STANDARD RESOLUTION FORMATION PHOTOELECTRIC FACTOR
CALD   .IN    : CALIPER FROM DENSITY LOG
DTCO   .US/F  : DELTA-T COMPRESSIONAL
DTSM   .US/F  : DELTA-T SHEAR
RHOZ   .G/C3  : HRDD STANDARD RESOLUTION FORMATION DENSITY
RXOZ   .OHMM  : INVADED FORMATION RESISTIVITY FILTERED AT 18 INCHES
RLA5   .OHMM  : APPARENT RESISTIVITY FROM COMPUTED FOCUSING MODE 5
RLA3   .OHMM  : APPARENT RESISTIVITY FROM COMPUTED FOCUSING MODE 3
~Params ----------------------------------------------------
~Other -----------------------------------------------------
~ASCII -----------------------------------------------------
# ...
 5134.00000   97.40840    0.21990    0.09710   -0.00320    3.78660    8.73120   81.02840  139.53050    2.54260   17.10220   36.19690   32.85430
 5134.50000   98.80790    0.22950    0.11030   -0.00660    3.72850    8.72910   80.22710  139.30670    2.52060   16.54870   47.03350   43.24300
 5135.00000   93.49660    0.22040    0.11210   -0.01000    3.67050    8.72700   79.68390  136.16670    2.51770   15.73380   44.42640   42.21240
 5135.50000   83.24550    0.19310    0.09580   -0.00500    3.64570    8.72490   78.24860  135.12020    2.54490   22.10880   46.33410   38.39410
 5136.00000   77.61530    0.15760    0.07640    0.00470    3.74380    8.72280   76.46560  133.35800    2.58300   41.13630  116.82630   59.36070
 5136.50000   80.67190    0.15190    0.07470    0.00850    3.79690    8.72070   75.11350  131.29940    2.58470   76.39890  106.76980   88.92160
 5137.00000   85.98790    0.16030    0.08290    0.00530    3.88830    8.71860   74.44690  128.17580    2.56660   45.11870   93.76840   83.66320
 5137.50000   82.65640    0.16230    0.09160   -0.00080    3.94840    8.71650   74.46940  128.15830    2.55450   46.93510   92.91900   86.18940
 5138.00000   75.18490    0.15500    0.09020   -0.00530    4.09270    8.71440   75.42190  128.45570    2.55690   40.07500  121.61410   93.89760
 5138.50000   68.33640    0.14980    0.08740   -0.00930    4.31190    8.71390   76.18320  128.75310    2.56360   39.93380   77.32530   58.73820
 5139.00000   61.52610    0.12960    0.07900   -0.01000    4.46070    8.71470   76.64160  129.51750    2.57920   42.36200  104.31150   98.04420
 5139.50000   57.48530    0.11610    0.06910   -0.00860    4.47530    8.71550   77.69240  132.17160    2.59170   50.94440  162.76800   98.48940
 5140.00000   66.99080    0.11510    0.07220   -0.00670    4.30970    8.71630   78.95790  133.27410    2.57850   49.34510   64.78200   55.87190
 5140.50000   91.46580    0.14650    0.09540   -0.00500    4.07350    8.71710   79.59090  133.48030    2.55290   47.66240   61.07860   56.18480
 5141.00000  109.12530    0.17760    0.11280   -0.00350    3.83280    8.71790   79.68350  134.10140    2.52950   54.99110   99.28130   86.70470
 5141.50000  113.35700    0.19410    0.12130   -0.00210    3.66390    8.71870   79.93130  136.00220    2.50500   40.96210   83.04930   76.92330
 5142.00000  104.31640    0.22380    0.11610   -0.00080    3.54290    8.71950   79.78350  135.73000    2.50590   31.95580   69.03040   49.73330
 5142.50000   93.43340    0.22350    0.10510    0.00030    3.55330    8.72030   79.33760  135.47710    2.52200   26.43650   46.40300   44.71360
 5143.00000   83.42200    0.22040    0.08910   -0.00010    3.72880    8.72120   79.17070  135.72730    2.55040   25.73080   44.33550   42.95370
 5143.50000   78.87790    0.19290    0.07230   -0.00070    3.86140    8.72200   79.28500  134.72790    2.58200   23.67970   43.06100   41.73890
 5144.00000   76.86600    0.18020    0.06010   -0.00140    3.99050    8.72280   79.78090  134.78160    2.60930   23.79330   49.38430   46.78390
 5144.50000   76.88970    0.16910    0.05770   -0.00210    4.07880    8.71880   79.85600  135.00410    2.61330   29.36500   57.71740   50.72180
 5145.00000   82.91310    0.16420    0.06770   -0.00280    4.12820    8.70270   80.12660  135.35310    2.59880   39.58020  100.59990   76.61190
 5145.50000   90.62250    0.16480    0.08690   -0.00390    4.11260    8.70770   80.38400  136.35840    2.57000   39.79460   76.22090   66.11200
 5146.00000   93.72180    0.17630    0.10200   -0.00570    3.98990    8.70780   81.71730  138.01390    2.54350   33.84770   64.85470   56.54050
 5146.50000   93.50720    0.19110    0.11140   -0.00650    3.81540    8.70780   82.18660  138.73490    2.51650   24.67610   53.20910   48.48110
 5147.00000   91.14120    0.20580    0.11240   -0.00740    3.69060    8.70980   82.73300  139.91910    2.51550   18.82990   48.74160   44.24640
 5147.50000   92.14340    0.21060    0.10750   -0.00790    3.63970    8.71280   83.10240  140.54720    2.51870   17.85860   39.79270   34.74190
 5148.00000   93.35410    0.20360    0.09800   -0.00630    3.66790    8.71580   83.03240  140.89160    2.54420   19.48960   35.57070   34.16840
 5148.50000   95.48080    0.19100    0.08420   -0.00360    3.66840    8.71880   82.77010  141.04060    2.56380   19.25230   38.87260   36.59000
 5149.00000   98.69620    0.19310    0.08200   -0.00100    3.64130    8.72180   82.26870  141.10280    2.56960   15.73180   32.49140   28.86510
 5149.50000   98.98290    0.19780    0.08600    0.00040    3.57440    8.72480   82.18570  141.11890    2.56810   16.23830   34.49520   32.99420
 5150.00000   95.97780    0.19530    0.09200    0.00030    3.55910    8.72780   81.90740  140.74090    2.55790   18.50900   47.41650   36.78290
 5150.50000   90.37000    0.17940    0.09390   -0.00120    3.56080    8.73090   81.69100  140.39850    2.55060   21.13290   52.62080   49.93510
 5151.00000   85.56660    0.17310    0.09110   -0.00180    3.57050    8.73390   81.57980  140.40610    2.55530   19.01390   53.03140   48.32130
 5151.50000   81.87190    0.17860    0.08720   -0.00170    3.65300    8.73690   81.37160  140.37100    2.55830   18.33350   37.23930   32.89570
 5152.00000   80.83480    0.17960    0.08090   -0.00150    3.71410    8.73990   81.43920  140.18730    2.57080   20.09960   38.34680   35.51250
 5152.50000   81.16480    0.18490    0.07520   -0.00130    3.74510    8.74280   81.54760  140.11350    2.58190   23.74640   41.01200   36.65660
 5153.00000   80.71160    0.18940    0.07380   -0.00100    3.71150    8.74200   81.69860  140.03980    2.58490   22.53040   36.09910   31.66350
 5153.50000   80.41180    0.19410    0.07500   -0.00050    3.68430    8.73620   82.18660  140.75330    2.58400   17.72590   33.56570   29.91660
 5154.00000   78.87530    0.20300    0.08260    0.00010    3.65710    8.73750   82.83600  141.20650    2.57210   16.61640   36.49000   30.41750
 5154.50000   82.58930    0.20000    0.08990    0.00020    3.58790    8.73850   83.27580  141.36730    2.55660   21.22500   56.85960   49.19120
 5155.00000   89.14000    0.19860    0.09560   -0.00060    3.44450    8.73780   83.63550  141.67130    2.55230   28.69830   92.55590   64.30530
 5155.50000   91.32930    0.19620    0.09680   -0.00150    3.29670    8.73790   83.35600  141.34030    2.54890   28.87570   54.55740   44.23120
 5156.00000   92.14660    0.20100    0.09590   -0.00140    3.26940    8.73910   82.87670  141.26200    2.54320   22.33230   53.02280   41.74880
 5156.50000   92.70100    0.21100    0.10110   -0.00290    3.31900    8.74030   82.65610  141.12390    2.53370   18.85030   41.37410   30.28970
 5157.00000   96.44850    0.22010    0.11410   -0.00620    3.40730    8.74150   82.84320  140.77280    2.51550   17.62960   33.70170   26.52330
 5157.50000   95.95520    0.21610    0.12360   -0.00940    3.49150    8.74270   83.26530  141.30910    2.49910   21.87560   47.96460   32.99740
 5158.00000   91.98220    0.19790    0.11740   -0.01010    3.51230    8.74390   83.90820  142.68820    2.50520   26.01800   76.94710   49.84470
 5158.50000   87.24480    0.19420    0.10690   -0.00870    3.55280    8.74520   84.56370  143.94190    2.52510   33.25630   74.74320   51.42350
 5159.00000   85.65330    0.18470    0.10010   -0.00710    3.58930    8.74640   84.76050  145.19550    2.53970   36.48880  107.20320   64.27360
 5159.50000   89.10640    0.18050    0.10370   -0.00560    3.50960    8.74760   85.03580  147.14110    2.53280   31.87120   76.29650   53.44390
 5160.00000   99.16520    0.19970    0.10480   -0.00390    3.36080    8.74880   86.45360  147.95790    2.52940   19.88780   38.33520   27.09710
 5160.50000  114.48750    0.22680    0.09980   -0.00230    3.21190    8.75000   86.47200  149.28800    2.54080   13.81760   25.29000   19.13200
 5161.00000  121.38830    0.25090    0.08790   -0.00070    3.09580    8.76010   86.77560  151.06220    2.56040   11.37550   20.48120   15.59350
 5161.50000  122.18660    0.23680    0.07980    0.00050    3.04830    8.78190   87.30930  151.30170    2.57120    9.65330   16.23580   12.76240
