~Version ---------------------------------------------------
VERS.   2.0 : CWLS log ASCII Standard -VERSION 2.0
WRAP.    NO : One line per depth step
DLM . SPACE : Column Data Section Delimiter
~Well ------------------------------------------------------
STRT .F                  150.0 : START DEPTH
STOP .F                 8018.0 : STOP DEPTH
STEP .F                    0.5 : STEP
NULL .                -9999.25 : NULL VALUE
COMP .                         : COMPANY
WELL .                         : WELL
FLD  .                         : FIELD
LOC  .                         : LOCATION
PROV .                         : PROVINCE
CNTY .                         : COUNTY
STAT .                         : STATE
CTRY .                         : COUNTRY
SRVC .                         : SERVICE COMPANY
DATE .                         : DATE
UWI  .                         : UNIQUE WELL ID
API  .                         : API NUMBER
SLAT .WGS84 1.1530180465535018 : SURFACE LATITUDE
SLON .WGS84 5.4940184151720075 : SURFACE LONGITUDE
DATUM.F                    nan : DEPTH DATUM ELEV
~Curve Information -----------------------------------------
DEPT   .F     : 1 MEASURED DEPTH
SGRDD  .GAPI  : SPECTROSCOPY GAMMA RAY FROM DENSITY LOG
TNPH_LS.DEC   : THERMAL NEUTRON POROSITY [LIMESTONE]
DPHZ_LS.DEC   : HGRD STANDARD RESOLUTION DENSITY POROSITY
HDRA   .G/C3  : HRDD SPINE AND RIBS DENSITY CORRECTION
PEFZ   .B/E   : HRDD STANDARD RESOLUTION FORMATION PHOTOELECTRIC FACTOR
CALD   .IN    : CALIPER FROM DENSITY LOG
DTCO   .US/F  : DELTA-T COMPRESSIONAL
DTSM   .US/F  : DELTA-T SHEAR
RHOZ   .G/C3  : HRDD STANDARD RESOLUTION FORMATION DENSITY
RXOZ   .OHMM  : INVADED FORMATION RESISTIVITY FILTERED AT 18 INCHES
RLA5   .OHMM  : APPARENT RESISTIVITY FROM COMPUTED FOCUSING MODE 5
RLA3   .OHMM  : APPARENT RESISTIVITY FROM COMPUTED FOCUSING MODE 3
~Params ----------------------------------------------------
~Other -----------------------------------------------------
~ASCII -----------------------------------------------------
# ...
 3510.00000  107.50070    0.25540    0.13260   -0.00060    2.77630    8.96850   79.40620  140.68320    2.48730    4.95960    6.07300    5.57230
 3510.50000  102.73310    0.25040    0.13570   -0.00130    2.79440    8.96080   79.08660  138.36410    2.47710    4.85780    6.42500    6.01630
 3511.00000   92.80920    0.22270    0.11690   -0.00220    2.85680    8.95300   79.03250  136.81840    2.49790    4.52220    6.57150    6.16000
 3511.50000   76.95770    0.20200    0.09010   -0.00130    3.06590    8.94040   79.44130  136.46290    2.53800    5.68640    9.67730    7.43600
 3512.00000   63.33100    0.17830    0.05130   -0.00040    3.27240    8.92000   80.69330  136.49730    2.61010    7.72100   13.93910   10.18230
 3512.50000   56.10870    0.15880    0.04190    0.00040    3.43890    8.90000   81.98690  137.08470    2.63700   16.60020   20.78290   17.59630
 3513.00000   65.54130    0.15380    0.06010    0.00010    3.42610    8.88850   83.93810  138.39500    2.60590   11.37820   19.93690   14.03120
 3513.50000   79.74600    0.18040    0.10020   -0.00170    3.30200    8.91170   84.72040  141.33370    2.54140    7.16240   10.19030    8.80220
 3514.00000   88.94980    0.20560    0.12570   -0.00360    3.09600    8.97650   85.24900  143.76150    2.50260    5.89150    7.98780    7.25210
 3514.50000   93.62420    0.21640    0.13660   -0.00530    2.89570    9.00220   87.12450  146.32600    2.47870    5.88570    7.53580    7.06490
 3515.00000   94.66860    0.22060    0.13630   -0.00380    2.77250    9.00140   87.26010  146.66560    2.47360    6.26820    7.85530    7.36250
 3515.50000   99.43110    0.22970    0.13920   -0.00230    2.74850    8.99890   87.24420  147.04480    2.47230    6.65440    8.19880    7.78680
 3516.00000  104.78950    0.24490    0.13890   -0.00090    2.73770    8.99650   87.15990  148.27880    2.47360    6.99770    8.50380    8.09340
 3516.50000  104.54230    0.24220    0.13720    0.00040    2.72230    8.99410   86.90800  147.24120    2.47590    7.00950    8.55800    8.17920
 3517.00000   99.58840    0.23820    0.13650    0.00090    2.70700    8.99170   86.49360  147.37730    2.47830    6.42480    8.36460    7.88780
 3517.50000   95.12620    0.23280    0.13430   -0.00030    2.68920    8.98920   86.58880  147.47690    2.48070    6.13310    7.63410    7.27180
 3518.00000   93.50030    0.23240    0.13480   -0.00360    2.68560    8.98680   86.92170  147.62060    2.48030    6.21610    7.79010    7.32060
 3518.50000   95.64390    0.22830    0.13790   -0.00640    2.71570    8.98440   87.21320  147.76440    2.47450    6.46610    8.17340    7.72650
 3519.00000   98.08310    0.22670    0.14110   -0.00700    2.75180    8.98200   87.32660  147.82180    2.46960    6.79650    8.00550    7.62670
 3519.50000   99.14410    0.22300    0.14210   -0.00770    2.77590    8.97950   86.85810  147.60640    2.46860    6.81230    8.32400    7.92060
 3520.00000   97.95100    0.23230    0.14170   -0.00830    2.78020    8.97710   86.50760  147.26560    2.46750    6.47640    8.07010    7.48120
 3520.50000   95.38430    0.23640    0.14250   -0.00870    2.78330    8.97470   86.01430  146.81940    2.46640    5.99210    7.09940    6.73380
 3521.00000   96.09520    0.24340    0.14430   -0.00770    2.78610    8.97230   85.12220  146.10580    2.46370    5.95110    7.29440    6.91120
 3521.50000  101.94960    0.25130    0.14520   -0.00580    2.79170    8.96980   85.17850  145.53970    2.46210    6.34770    7.91050    7.49810
 3522.00000  106.27760    0.26590    0.14300   -0.00390    2.79130    8.96740   85.18840  145.68050    2.46350    6.89190    8.12010    7.70010
 3522.50000  103.37920    0.25420    0.13830   -0.00200    2.79080    8.96530   84.98060  145.91420    2.47300    6.31880    8.21630    7.65090
 3523.00000   91.89540    0.22640    0.12540   -0.00060    2.71850    8.96440   84.68270  145.96720    2.49550    5.45310    6.84700    6.40860
 3523.50000   80.60920    0.19990    0.12240   -0.00140    2.67260    8.96340   84.14250  145.43100    2.49920    4.60200    6.48720    6.16490
 3524.00000   75.92990    0.18750    0.12260   -0.00250    2.68690    8.96240   83.94170  144.88970    2.49840    4.49600    6.45300    6.19830
 3524.50000   77.53510    0.18970    0.12840   -0.00360    2.72830    8.96150   83.94640  144.34840    2.49050    4.66010    6.89150    6.38350
 3525.00000   87.64960    0.20530    0.13120   -0.00470    2.79000    8.96050   83.96850  143.47780    2.48580    5.17860    7.92500    7.51090
 3525.50000   97.77110    0.22710    0.13190   -0.00350    2.84570    8.95950   83.12830  142.76760    2.48580    5.61230    7.50720    7.10060
 3526.00000  100.27680    0.23730    0.12710   -0.00190    2.85580    8.95850   80.90840  141.21550    2.48900    5.52560    7.32610    6.97410
 3526.50000   96.23520    0.22640    0.11920   -0.00040    2.81770    8.95760   78.01520  137.82650    2.50670    5.17640    7.40980    6.80970
 3527.00000   89.06180    0.21510    0.11210   -0.00130    2.74630    8.96490   77.65120  137.09500    2.51810    4.68060    6.27380    6.09440
 3527.50000   82.89470    0.19490    0.11380   -0.00280    2.76240    8.97490   78.27740  137.23800    2.51440    4.35200    6.06720    5.91820
 3528.00000   78.08810    0.19370    0.11820   -0.00430    2.77880    9.01930   78.64450  138.04360    2.50700    4.19260    6.02340    5.86330
 3528.50000   73.50570    0.19370    0.10210   -0.00550    2.80990    9.02090   79.59720  138.87050    2.53210    4.28210    6.06750    5.89700
 3529.00000   64.49690    0.19060    0.06470    0.00190    3.06840    8.93780   80.57610  143.44030    2.58580    5.87700    7.63690    6.56520
 3529.50000   58.43480    0.15160    0.01250    0.01350    3.32420    8.85940   82.47620  146.04530    2.70930   10.41480   31.41400   12.99040
 3530.00000   66.63880    0.13570    0.00030    0.02220    3.57230    8.88510   85.26000  149.56450    2.70800    9.06330   31.37570   19.18660
 3530.50000   83.07670    0.15870    0.02330    0.02330    3.49810    8.93950   87.29620  152.51370    2.64180    5.31060    7.36420    6.24030
 3531.00000   96.37840    0.19850    0.06960    0.01490    3.33090    9.01370   88.32060  151.32990    2.58450    3.86040    4.70550    4.36690
 3531.50000  103.43270    0.23990    0.09160    0.00660    3.16370    9.04260   90.70120  159.54320    2.55560    3.91650    5.30120    4.80170
 3532.00000  103.44970    0.23260    0.10000    0.00400    3.04030    9.04840   91.84150  164.33260    2.53940    4.18280    6.04270    5.67850
 3532.50000  103.54190    0.24810    0.10520    0.00240    3.00830    9.05420   92.02240  165.14880    2.52990    3.74290    6.04140    5.51390
 3533.00000  104.47930    0.26550    0.11170    0.00080    2.98270    9.09110   92.05560  166.75700    2.52010    3.27650    5.12240    4.77320
 3533.50000  106.74900    0.28530    0.12040   -0.00100    2.98730    9.12560   92.42790  168.95350    2.50670    3.20830    4.93140    4.69070
 3534.00000  109.11810    0.27300    0.12190   -0.00490    2.99270    9.16250   93.10440  170.78510    2.50220    3.51240    4.76160    4.52880
 3534.50000  111.55780    0.27170    0.12250   -0.00590    3.00050    9.19010   93.33080  172.96930    2.50170    3.65720    5.29870    4.84280
 3535.00000  114.41550    0.27600    0.12080   -0.00480    3.01260    9.20050   93.51290  173.71580    2.50200    3.87240    5.72540    5.13300
 3535.50000  117.24850    0.28960    0.12070   -0.00370    3.02480    9.23040   93.96400  173.00360    2.50250    3.64320    5.17040    4.60940
 3536.00000  118.27150    0.28320    0.12030   -0.00260    3.03690    9.26030   94.34220  176.07980    2.50310    3.60130    4.75010    4.26120
 3536.50000  118.24710    0.28170    0.11560   -0.00150    3.04910    9.29010   95.77340  178.30370    2.51230    3.77650    5.26440    4.56400
 3537.00000  115.54300    0.26890    0.10810   -0.00170    3.06120    9.31700   96.08120  180.02960    2.52140    3.86890    5.94570    5.12320
 3537.50000  112.41620    0.27590    0.10600   -0.00190    3.07330    9.34450   96.40370  180.59210    2.53000    3.53670    5.15910    4.41250
