~Version ---------------------------------------------------
VERS.   2.0 : CWLS log ASCII Standard -VERSION 2.0
WRAP.    NO : One line per depth step
DLM . SPACE : Column Data Section Delimiter
~Well ------------------------------------------------------
STRT .F                  150.0 : START DEPTH
STOP .F                 8018.0 : STOP DEPTH
STEP .F                    0.5 : STEP
NULL .                -9999.25 : NULL VALUE
COMP .                         : COMPANY
WELL .                         : WELL
FLD  .                         : FIELD
LOC  .                         : LOCATION
PROV .                         : PROVINCE
CNTY .                         : COUNTY
STAT .                         : STATE
CTRY .                         : COUNTRY
SRVC .                         : SERVICE COMPANY
DATE .                         : DATE
UWI  .                         : UNIQUE WELL ID
API  .                         : API NUMBER
SLAT .WGS84 1.1530180465535018 : SURFACE LATITUDE
SLON .WGS84 5.4940184151720075 : SURFACE LONGITUDE
DATUM.F                    nan : DEPTH DATUM ELEV
~Curve Information -----------------------------------------
DEPT   .F     : 1 MEASURED DEPTH
SGRDD  .GAPI  : SPECTROSCOPY GAMMA RAY FROM DENSITY LOG
TNPH_LS.DEC   : THERMAL NEUTRON POROSITY [LIMESTONE]
DPHZ_LS.DEC   : HGRD STANDARD RESOLUTION DENSITY POROSITY
HDRA   .G/C3  : HRDD SPINE AND RIBS DENSITY CORRECTION
PEFZ   .B/E   : HRDD STANDARD RESOLUTION FORMATION PHOTOELECTRIC FACTOR
CALD   .IN    : CALIPER FROM DENSITY LOG
DTCO   .US/F  : DELTA-T COMPRESSIONAL
DTSM   .US/F  : DELTA-T SHEAR
RHOZ   .G/C3  : HRDD STANDARD RESOLUTION FORMATION DENSITY
RXOZ   .OHMM  : INVADED FORMATION RESISTIVITY FILTERED AT 18 INCHES
RLA5   .OHMM  : APPARENT RESISTIVITY FROM COMPUTED FOCUSING MODE 5
RLA3   .OHMM  : APPARENT RESISTIVITY FROM COMPUTED FOCUSING MODE 3
~Params ----------------------------------------------------
~Other -----------------------------------------------------
~ASCII -----------------------------------------------------
# ...
 7962.00000  136.83750    0.18450    0.02170    0.00360    3.19210    8.67820   68.34180  116.68730    2.67880   22.94080   30.11980   29.26780
 7962.50000  141.01190    0.18860    0.01490    0.00430    3.27820    8.73130   68.80170  118.60490    2.69440   25.29760   30.01690   29.15820
 7963.00000  140.77560    0.19660    0.00340    0.00500    3.39800    8.73820   68.43070  123.42530    2.70810   19.74090   28.34820   26.19030
 7963.50000  139.55490    0.19200    0.00080    0.00570    3.43650    8.72190   67.24210  123.55270    2.70060   17.15490   27.15210   25.40180
 7964.00000  136.87620    0.19420    0.00730    0.00660    3.38710    8.68800   66.66870  123.36110    2.68680   15.89310   31.33810   29.02240
 7964.50000  130.98370    0.19120    0.01830    0.00760    3.21810    8.68780   63.91790  123.10090    2.66410   17.29220   41.68360   33.07340
 7965.00000  126.25700    0.20060    0.03000    0.00700    3.06320    8.68810   62.96160  122.84080    2.64970   13.80280   29.75360   26.09130
 7965.50000  125.15210    0.24350    0.03670    0.00820    2.86670    8.71050   62.00690  122.49730    2.65280   10.08130   23.33530   22.23050
 7966.00000  129.06070    0.33110    0.03390    0.00970    2.85590    8.70930   60.77680  122.13350    2.66040    8.71840   22.60320   21.52600
 7966.50000  131.92730    0.36250    0.02870    0.01160    2.85640    8.70380   60.07170  122.13690    2.66100    9.95590   21.89420   20.84400
 7967.00000  131.85420    0.35650    0.03060    0.01480    2.85160    8.69000   59.63280  121.41930    2.65280   11.13020   21.20740   20.18350
 7967.50000  131.62010    0.34520    0.03560    0.01840    2.81590    8.68810   59.21450  121.01580    2.64680   10.66010   20.92610   20.16830
 7968.00000  130.22120    0.32190    0.03490    0.02400    2.79900    8.68860   58.88170  119.31880    2.65560   10.29380   22.10340   20.98290
 7968.50000  126.49600    0.30470    0.02420    0.03010    2.81160    8.69450   58.89220  118.70990    2.67290    9.95630   30.97140   26.98150
 7969.00000  123.07480    0.26340    0.01770    0.03670    2.89860    8.71730   58.43900  117.07430    2.67780    9.52650   26.02520   24.23290
 7969.50000  121.08070    0.24120    0.02420    0.03250    3.06420    8.83810   57.27240  113.24610    2.66210    7.30150   23.93140   22.98580
 7970.00000  123.36430    0.23340    0.03720    0.01090    3.23420    8.94750   56.40690  110.29940    2.63990    5.96580   29.62740   24.71280
 7970.50000  124.15570    0.23720    0.04730    0.00070    3.40410    9.09320   55.64810  108.61870    2.63970    5.11770   42.18050   40.13360
 7971.00000  123.02720    0.21440    0.03390   -0.00020    3.49100    9.20990   54.25610  107.38030    2.68670    6.65160   50.51920   47.71280
 7971.50000  121.79370    0.18470    0.00490   -0.00070    3.49100    8.82360   51.03240  100.95810    2.73030   12.06130   57.31400   55.04970
 7972.00000  122.15000    0.10270   -0.02940   -0.00110    3.50450    8.68290   48.60500   96.29550    2.77510   56.78750  369.46640  158.33600
 7972.50000  123.98110    0.04890   -0.04220   -0.00160    3.59950    8.68600   47.11080   92.17730    2.77940   65.83370  983.98200  365.74910
 7973.00000  123.66560    0.03380   -0.04280   -0.00210    3.87840    8.70050   46.10850   91.13080    2.78370   65.69700  830.92960  252.93670
 7973.50000  122.03340    0.03760   -0.04120   -0.00210    4.34660    8.72460   43.68090   90.86100    2.78970   15.66730  145.26290  119.17480
 7974.00000  121.87750    0.05860   -0.04920    0.01520    4.91850    8.72350   44.65320   91.58150    2.80740    7.95980   83.89920   70.51240
 7974.50000  122.45820    0.09400   -0.06520    0.03360    5.54140    8.65420   49.19100   92.67200    2.82730    6.84150   64.75090   55.39730
 7975.00000  125.90280    0.13260   -0.06700    0.05340    5.78810    8.67500   50.81650   92.94530    2.82520   10.26750   97.01850   78.88740
 7975.50000   -9999.25    0.11660   -0.06420    0.07520    5.71830    8.70860   51.19770   93.35310    2.81360    3.06700  111.77880   92.20720
 7976.00000   -9999.25    0.09830   -0.05510    0.08640    5.56900    8.70910   51.45970   94.42810    2.80240    1.92140   63.33990   42.18370
 7976.50000   -9999.25    0.10520   -0.05170    0.06860    5.26860    8.70050   51.66390   95.42870    2.79910    1.79750   20.99890   16.97300
 7977.00000   -9999.25    0.13860   -0.05470    0.04010    4.96550    8.69960   51.34820   96.31180    2.80800    3.90720   22.05630   18.26390
 7977.50000   -9999.25    0.15950   -0.06230    0.01690    4.59490    8.70260   50.49990   95.73210    2.83020    8.26040  113.44360   67.65070
 7978.00000   -9999.25    0.12740   -0.07260    0.00690    4.16710    8.68950   50.29300   95.08590    2.83930   19.04070  592.91360  345.36560
 7978.50000   -9999.25    0.04540   -0.07630    0.00650    3.76730    8.67690   50.01750   93.85930    2.84530   55.30220  917.43580  405.83480
 7979.00000   -9999.25    0.02980   -0.07990    0.01050    3.52710    8.66440   49.74840   92.80300    2.84940   41.99760  865.11140  379.85350
 7979.50000   -9999.25    0.02500   -0.08020    0.01580    3.50650    8.64300   48.67170   90.71460    2.84940   30.73320  699.36080  336.10130
 7980.00000   -9999.25    0.02430   -0.07670    0.02100    3.53980    8.64810   47.53160   88.48530    2.83950   26.36660  653.17970  329.70590
 7980.50000   -9999.25    0.02390   -0.07060    0.02630    3.58400    8.64830   47.49010   86.93520    2.83090   21.32630  458.96960  256.17470
 7981.00000   -9999.25    0.02410   -0.06880    0.03140    3.58050    8.65500   47.68090   86.28970    2.82730   20.63520  465.46140  256.26120
 7981.50000   -9999.25    0.02460   -0.06730    0.02820    3.50560    8.65360   47.98270   86.04350    2.82310   19.85560  488.68580  252.62870
 7982.00000   -9999.25    0.02560   -0.06180    0.01840    3.39650    8.72200   48.68480   86.08520    2.80250   17.63220  252.70230  164.98020
 7982.50000   -9999.25    0.02640   -0.05110    0.01000    3.34760    8.71170   49.60510   86.71830    2.79210   14.96760  258.29670  172.19550
 7983.00000   -9999.25    0.02590   -0.04390    0.01150    3.39420    8.70420   49.85510   87.28170    2.78660   10.84090  305.44890  176.66220
 7983.50000   -9999.25    0.02500   -0.04590    0.02370    3.46760    8.72540   49.77880   88.82240    2.78290   10.85520  590.13590  326.77020
 7984.00000   -9999.25    0.02230   -0.04070    0.02920    3.48930    8.74030   49.20950   89.31740    2.77390   10.46790  672.97940  347.21490
 7984.50000   -9999.25    0.02080   -0.03400    0.02920    3.44460    8.68600   48.64740   89.40450    2.76310    9.15250  588.77350  323.28260
 7985.00000   -9999.25    0.02000   -0.02890    0.02980    3.32190    8.61820   48.18300   89.77830    2.76300    7.70140  313.29420  187.57440
 7985.50000   -9999.25    0.01990   -0.03710    0.03810    3.24040    8.59910   47.94110   89.67670    2.78520    8.23600  251.28830  173.02980
 7986.00000   -9999.25    0.01980   -0.04880    0.04680    3.17060    8.60290   47.87260   89.51530    2.79890   11.33030  297.41850  200.73610
 7986.50000   -9999.25    0.01970   -0.05760    0.03510    3.17210    8.64890   47.87920   89.34520    2.81290   15.86000  379.97130  222.68260
 7987.00000   -9999.25    0.01970   -0.06340    0.02020    3.31300    8.67480   47.89270   89.17500    2.82160   17.80450  761.23350  326.02050
 7987.50000   -9999.25   -9999.25   -0.06480    0.01020    3.40190    8.65110   47.92250   89.25840    2.82230   19.51130  868.10960  369.15260
 7988.00000   -9999.25   -9999.25   -0.06670    0.00720    3.42090    8.65940   47.94730   89.29960    2.82700   23.66730  917.46500  381.92160
 7988.50000   -9999.25   -9999.25   -0.06850    0.00680    3.40910    8.68150   47.89510   89.13660    2.82460   25.16740  731.86490  325.07490
 7989.00000   -9999.25   -9999.25   -0.06490    0.00770    3.38590    8.63530   47.87910   89.13690    2.81760   21.11150  577.25100  276.57140
 7989.50000   -9999.25   -9999.25   -0.05930    0.00930    3.39370    8.64040   47.89630   89.18800    2.81320   20.63700  551.60530  248.81500
