~Version ---------------------------------------------------
VERS.   2.0 : CWLS log ASCII Standard -VERSION 2.0
WRAP.    NO : One line per depth step
DLM . SPACE : Column Data Section Delimiter
~Well ------------------------------------------------------
STRT .F                  150.0 : START DEPTH
STOP .F                 8018.0 : STOP DEPTH
STEP .F                    0.5 : STEP
NULL .                -9999.25 : NULL VALUE
COMP .                         : COMPANY
WELL .                         : WELL
FLD  .                         : FIELD
LOC  .                         : LOCATION
PROV .                         : PROVINCE
CNTY .                         : COUNTY
STAT .                         : STATE
CTRY .                         : COUNTRY
SRVC .                         : SERVICE COMPANY
DATE .                         : DATE
UWI  .                         : UNIQUE WELL ID
API  .                         : API NUMBER
SLAT .WGS84 1.1530180465535018 : SURFACE LATITUDE
SLON .WGS84 5.4940184151720075 : SURFACE LONGITUDE
DATUM.F                    nan : DEPTH DATUM ELEV
~Curve Information -----------------------------------------
DEPT   .F     : 1 MEASURED DEPTH
SGRDD  .GAPI  : SPECTROSCOPY GAMMA RAY FROM DENSITY LOG
TNPH_LS.DEC   : THERMAL NEUTRON POROSITY [LIMESTONE]
DPHZ_LS.DEC   : HGRD STANDARD RESOLUTION DENSITY POROSITY
HDRA   .G/C3  : HRDD SPINE AND RIBS DENSITY CORRECTION
PEFZ   .B/E   : HRDD STANDARD RESOLUTION FORMATION PHOTOELECTRIC FACTOR
CALD   .IN    : CALIPER FROM DENSITY LOG
DTCO   .US/F  : DELTA-T COMPRESSIONAL
DTSM   .US/F  : DELTA-T SHEAR
RHOZ   .G/C3  : HRDD STANDARD RESOLUTION FORMATION DENSITY
RXOZ   .OHMM  : INVADED FORMATION RESISTIVITY FILTERED AT 18 INCHES
RLA5   .OHMM  : APPARENT RESISTIVITY FROM COMPUTED FOCUSING MODE 5
RLA3   .OHMM  : APPARENT RESISTIVITY FROM COMPUTED FOCUSING MODE 3
~Params ----------------------------------------------------
~Other -----------------------------------------------------
~ASCII -----------------------------------------------------
# ...
 1886.00000   41.96920    0.61440   -9999.25   -9999.25   -9999.25   -9999.25   -9999.25   -9999.25   -9999.25   -9999.25   -9999.25   -9999.25
 1886.50000   39.36480    0.57000   -9999.25   -9999.25   -9999.25   -9999.25   -9999.25   -9999.25   -9999.25   -9999.25   -9999.25   -9999.25
 1887.00000   36.63590    0.57820   -9999.25   -9999.25   -9999.25   -9999.25   -9999.25   -9999.25   -9999.25   -9999.25   -9999.25   -9999.25
 1887.50000   37.10140    0.64600   -9999.25   -9999.25   -9999.25   -9999.25   -9999.25   -9999.25   -9999.25   -9999.25   -9999.25   -9999.25
 1888.00000   41.05610    0.69760   -9999.25   -9999.25   -9999.25   -9999.25   -9999.25   -9999.25   -9999.25   -9999.25   -9999.25   -9999.25
 1888.50000   46.83100    0.67990   -9999.25   -9999.25   -9999.25   -9999.25   -9999.25   -9999.25   -9999.25   -9999.25   -9999.25   -9999.25
 1889.00000   56.77120    0.60570   -9999.25   -9999.25   -9999.25   -9999.25   -9999.25   -9999.25   -9999.25   -9999.25   -9999.25   -9999.25
 1889.50000   66.70490    0.52390   -9999.25   -9999.25   -9999.25   -9999.25   -9999.25   -9999.25   -9999.25   -9999.25   -9999.25   -9999.25
 1890.00000   74.96520    0.43330   -9999.25   -9999.25   -9999.25   -9999.25   -9999.25   -9999.25   -9999.25   -9999.25   -9999.25   -9999.25
 1890.50000   78.62050    0.33440   -9999.25   -9999.25   -9999.25   -9999.25   -9999.25   -9999.25   -9999.25   -9999.25   -9999.25   -9999.25
 1891.00000   79.16030    0.31660   -9999.25   -9999.25   -9999.25   -9999.25   -9999.25   -9999.25   -9999.25   -9999.25   -9999.25   -9999.25
 1891.50000   79.44430    0.32400   -9999.25   -9999.25   -9999.25   -9999.25   -9999.25   -9999.25   -9999.25   -9999.25   -9999.25   -9999.25
 1892.00000   81.99190    0.33730    0.14280    0.00220    3.30920    8.91220   99.01480  208.19740    2.48460    2.32040    3.20800    2.85700
 1892.50000   84.38570    0.34340    0.15000    0.00070    3.27060    8.89240   96.03370  200.22010    2.46250    2.04470    2.71380    2.67450
 1893.00000   82.89780    0.34000    0.15200    0.00070    3.34200    8.87780   94.67250  196.88350    2.45170    2.04010    2.70730    2.66080
 1893.50000   80.20930    0.31810    0.13940    0.00070    3.53380    8.87850   92.69390  191.74780    2.45120    2.49540    3.30330    2.79900
 1894.00000   77.52560    0.28170    0.11860    0.00070    3.68700    8.87890   90.56990  186.74240    2.49860    3.12960    4.37420    3.36860
 1894.50000   77.77530    0.27350    0.10840    0.00130    3.70900    8.87880   88.26420  179.92400    2.52170    3.51410    4.51460    3.87040
 1895.00000   79.44590    0.27470    0.10780    0.00020    3.63610    8.87880   84.56000  173.44870    2.52610    3.40260    4.51060    3.92320
 1895.50000   80.80160    0.28020    0.11050   -0.00160    3.59420    8.87880   83.24120  168.61740    2.51640    3.29470    4.17240    3.73120
 1896.00000   78.62180    0.26810    0.11120   -0.00150    3.63710    8.87520   83.68710  167.39920    2.51490    3.27790    4.13930    3.77030
 1896.50000   75.82810    0.25880    0.10670   -0.00030    3.73130    8.85910   84.57360  166.64410    2.52630    3.84200    4.79090    4.56140
 1897.00000   74.79480    0.24770    0.09410    0.00070    3.82550    8.85930   85.67500  167.57040    2.53870    4.45090    6.03880    5.81650
 1897.50000   75.46630    0.24630    0.09010    0.00190    3.91060    8.89330   87.17320  172.54790    2.55100    4.47790    5.86580    5.40130
 1898.00000   76.07380    0.23710    0.08730    0.00310    3.98830    8.89480   88.48370  178.02110    2.55880    4.17940    5.31520    4.91780
 1898.50000   74.01940    0.23110    0.08370    0.00450    4.08630    8.89720   89.91000  180.91280    2.56590    4.52400    6.79650    5.67490
 1899.00000   60.08860    0.20110    0.07070    0.00590    4.30620    8.88940   90.41410  185.00200    2.57200    5.55670    9.22550    7.54770
 1899.50000   48.16940    0.17110    0.05960    0.00730    4.52470    8.89050   92.60730  190.04150    2.59040    7.03400   12.59080    9.92000
 1900.00000   43.89660    0.14420    0.05450    0.00870    4.56390    8.89160   95.41150  199.49160    2.60940    8.67100   13.76230   11.51760
 1900.50000   44.66780    0.14410    0.05300    0.01030    4.51750    8.89270   98.85990  208.89490    2.61790    8.61640   14.35030   12.10650
 1901.00000   52.30730    0.16910    0.05910    0.01130    4.27150    8.89380  103.92720  218.23380    2.61460    7.72750   11.38560    9.38640
 1901.50000   63.01210    0.20730    0.07920    0.01170    4.02570    8.89390  105.03570  217.67990    2.59220    4.94620    8.05260    6.63890
 1902.00000   71.83420    0.25610    0.09570    0.01240    3.80840    8.89890  106.36300  225.60420    2.56930    3.84280    5.41960    4.63410
 1902.50000   73.92810    0.29340    0.11170    0.01300    3.66510    8.91060  107.36570  236.96140    2.53140    3.46750    4.68110    3.93740
 1903.00000   71.78460    0.28880    0.11150    0.01360    3.66890    8.92760  107.72720  243.04940    2.51850    3.84710    5.68560    4.70780
 1903.50000   68.78440    0.27590    0.10710    0.01430    3.76760    8.91140  107.72810  247.65960    2.52160    4.07330    6.16220    5.15490
 1904.00000   65.78530    0.27120    0.10310    0.01500    3.86670    8.90690  107.58220  248.67500    2.52930    4.72240    5.56770    5.20870
 1904.50000   64.20290    0.26110    0.10300    0.01570    3.84560    8.90880  107.54230  249.70860    2.53590    4.76910    8.04420    6.76970
 1905.00000   70.79450    0.27970    0.11690    0.01640    3.65490    8.90920  106.71070  249.77970    2.53270    3.72610    6.54510    4.61830
 1905.50000   78.52230    0.30930    0.13970    0.01710    3.45440    8.91780  105.19340  249.77970    2.48250    2.68060    3.56240    3.23020
 1906.00000   85.25960    0.35330    0.15360    0.01660    3.25380    8.92630  103.19030  242.04640    2.45530    2.04810    2.93100    2.67160
 1906.50000   87.90970    0.36900    0.16430    0.01470    3.11810    8.91800  102.41110  234.31690    2.43710    1.87520    2.66790    2.44440
 1907.00000   89.39780    0.38540    0.16920    0.01290    3.09080    8.93120  102.01000  226.55880    2.42450    1.79510    2.65210    2.44340
 1907.50000   85.47770    0.38340    0.17060    0.01110    3.16880    8.96330  102.12010  225.81850    2.41710    1.79080    2.63650    2.41600
 1908.00000   76.89300    0.36390    0.15400    0.00930    3.32120    8.96980  103.12240  231.20750    2.44020    1.89930    2.71050    2.48270
 1908.50000   68.40260    0.33040    0.12640    0.00750    3.59450    8.96570  105.88970  236.27010    2.47440    2.85520    5.93430    4.01670
 1909.00000   68.13040    0.28420    0.09610    0.00510    3.81460    8.96160  106.76890  241.73740    2.54720    4.52450    7.52810    6.41620
 1909.50000   70.27190    0.28080    0.10070    0.00160    3.84990    8.96440  109.00380  243.20250    2.54440    3.98300    5.06030    4.37380
 1910.00000   75.87780    0.33310    0.12080   -0.00180    3.73290    8.97030  110.89360  244.08580    2.50990    2.53010    3.86290    3.15030
 1910.50000   80.58300    0.37940    0.14050   -0.00510    3.64540    8.97040  114.55370  232.12980    2.47130    2.36870    3.15720    2.60600
 1911.00000   80.64730    0.37250    0.14080   -0.00780    3.68750    8.97050  116.88540  212.60460    2.46640    2.40630    4.23510    3.52570
 1911.50000   78.32250    0.34330    0.12690   -0.00600    3.73990    8.97060  117.32220  200.66150    2.48580    3.33750    5.04360    4.36110
 1912.00000   78.34200    0.32260    0.10930   -0.00210    3.74730    8.97110  119.69280  201.61250    2.51480    3.62140    5.52860    4.64310
 1912.50000   79.82730    0.32200    0.10690    0.00100    3.69430    8.97230  120.15180  196.96480    2.52610    3.25630    5.07690    4.09050
 1913.00000   82.89360    0.33280    0.12480    0.00030    3.55070    8.97250  119.21350  191.52090    2.50440    2.45590    3.59200    2.99050
 1913.50000   85.60470    0.35350    0.14170   -0.00140    3.41330    8.97370  117.12500  188.44700    2.46640    1.95580    2.71230    2.58540
