~Version ---------------------------------------------------
VERS.   2.0 : CWLS log ASCII Standard -VERSION 2.0
WRAP.    NO : One line per depth step
DLM . SPACE : Column Data Section Delimiter
~Well ------------------------------------------------------
STRT .F                  150.0 : START DEPTH
STOP .F                 8018.0 : STOP DEPTH
STEP .F                    0.5 : STEP
NULL .                -9999.25 : NULL VALUE
COMP .                         : COMPANY
WELL .                         : WELL
FLD  .                         : FIELD
LOC  .                         : LOCATION
PROV .                         : PROVINCE
CNTY .                         : COUNTY
STAT .                         : STATE
CTRY .                         : COUNTRY
SRVC .                         : SERVICE COMPANY
DATE .                         : DATE
UWI  .                         : UNIQUE WELL ID
API  .                         : API NUMBER
SLAT .WGS84 1.1530180465535018 : SURFACE LATITUDE
SLON .WGS84 5.4940184151720075 : SURFACE LONGITUDE
DATUM.F                    nan : DEPTH DATUM ELEV
~Curve Information -----------------------------------------
DEPT   .F     : 1 MEASURED DEPTH
SGRDD  .GAPI  : SPECTROSCOPY GAMMA RAY FROM DENSITY LOG
TNPH_LS.DEC   : THERMAL NEUTRON POROSITY [LIMESTONE]
DPHZ_LS.DEC   : HGRD STANDARD RESOLUTION DENSITY POROSITY
HDRA   .G/C3  : HRDD SPINE AND RIBS DENSITY CORRECTION
PEFZ   .B/E   : HRDD STANDARD RESOLUTION FORMATION PHOTOELECTRIC FACTOR
CALD   .IN    : CALIPER FROM DENSITY LOG
DTCO   .US/F  : DELTA-T COMPRESSIONAL
DTSM   .US/F  : DELTA-T SHEAR
RHOZ   .G/C3  : HRDD STANDARD RESOLUTION FORMATION DENSITY
RXOZ   .OHMM  : INVADED FORMATION RESISTIVITY FILTERED AT 18 INCHES
RLA5   .OHMM  : APPARENT RESISTIVITY FROM COMPUTED FOCUSING MODE 5
RLA3   .OHMM  : APPARENT RESISTIVITY FROM COMPUTED FOCUSING MODE 3
~Params ----------------------------------------------------
~Other -----------------------------------------------------
~ASCII -----------------------------------------------------
# ...
 2278.00000   98.72020    0.34620    0.12790    0.00770    3.35670    8.98790  106.15140  227.72770    2.48810    2.27060    3.16690    2.99400
 2278.50000   98.67250    0.32910    0.12300    0.00680    3.35760    8.97740  106.38930  227.94250    2.49430    2.31010    3.28380    3.08430
 2279.00000   99.62520    0.32840    0.12040    0.00580    3.30660    8.97770  106.54430  228.26410    2.50050    2.35850    3.40500    3.17720
 2279.50000  101.65300    0.34420    0.11840    0.00490    3.23570    8.91310  106.74310  228.70990    2.50670    2.34480    3.34940    3.14240
 2280.00000   98.76730    0.35580    0.12290    0.00400    3.19000    8.91480  107.22410  229.16130    2.50640    2.24280    3.05860    2.87250
 2280.50000   96.60820    0.34470    0.12540    0.00320    3.14860    8.93050  107.55520  228.89010    2.49430    2.13150    2.97160    2.75170
 2281.00000   94.80130    0.32760    0.12930    0.00250    3.13900    9.00040  107.74080  229.08980    2.48830    2.08390    2.97620    2.76350
 2281.50000   94.97330    0.32830    0.13180    0.00190    3.14050    9.08660  107.91530  229.77520    2.48500    2.10800    2.98370    2.77090
 2282.00000   94.22320    0.32640    0.13360    0.00290    3.16920    9.06450  107.95510  230.23000    2.48170    2.16480    2.99120    2.77090
 2282.50000   93.35560    0.32170    0.13170    0.00410    3.20380    9.28380  107.92810  230.58200    2.48500    2.20180    2.99870    2.78140
 2283.00000   93.17370    0.32130    0.12740    0.00520    3.23360    9.49660  107.82400  230.47830    2.49110    2.21160    3.00620    2.84210
 2283.50000   95.69580    0.32710    0.12680    0.00460    3.24940    9.47830  107.67880  230.59870    2.49330    2.29710    3.05330    2.90410
 2284.00000   98.47710    0.34020    0.12900    0.00350    3.24010    9.39880  107.32720  230.92270    2.49120    2.32420    3.13950    2.96750
 2284.50000   99.17770    0.35590    0.13130    0.00240    3.21950    9.29840  106.94440  233.13410    2.48380    2.31030    3.16550    2.98560
 2285.00000   96.71210    0.36140    0.13500    0.00210    3.21990    9.26510  106.74680  235.76560    2.47890    2.22520    2.99680    2.83260
 2285.50000   94.09250    0.36600    0.13660    0.00260    3.23250    9.24610  106.21560  237.71300    2.47730    2.06520    2.83330    2.68740
 2286.00000   95.14780    0.36780    0.13660    0.00320    3.24510    9.22220  105.93990  235.53130    2.47660    1.98100    2.71280    2.56610
 2286.50000   95.56600    0.37110    0.13450    0.00370    3.23290    9.20060  105.63980  234.26580    2.47790    1.95640    2.71740    2.54520
 2287.00000   95.61970    0.35290    0.13200    0.00440    3.21350    9.21450  105.21220  233.37010    2.48210    2.07420    2.82500    2.63630
 2287.50000   93.64260    0.33020    0.13170    0.00480    3.18550    9.16460  104.39780  231.48680    2.48560    2.13820    2.91900    2.74000
 2288.00000   90.71370    0.31890    0.13020    0.00520    3.16630    9.14300  103.79320  228.55740    2.48830    2.16700    2.93140    2.80870
 2288.50000   88.26530    0.33650    0.12830    0.00560    3.16290    9.13030  103.35150  225.91830    2.49100    2.11640    2.81140    2.71110
 2289.00000   89.81030    0.36420    0.12590    0.00590    3.19010    9.11750  103.18850  224.34150    2.49360    2.11050    2.71540    2.60120
 2289.50000   91.91520    0.37320    0.12130    0.00630    3.24760    9.20180  102.90590  223.66640    2.49640    2.15990    2.92280    2.74160
 2290.00000   91.82050    0.36780    0.11790    0.00550    3.29120    9.20120  102.40400  221.75650    2.50740    2.21230    2.92580    2.82540
 2290.50000   91.37460    0.33350    0.11820    0.00490    3.31610    9.17120  102.11240  219.64060    2.50970    2.21790    2.87170    2.79950
 2291.00000   91.94820    0.31820    0.12230    0.00410    3.30590    9.12930  101.38200  217.82480    2.50500    2.28510    2.97720    2.87420
 2291.50000   94.22390    0.29810    0.12410    0.00310    3.27340    9.08790  100.99130  216.32150    2.50030    2.43270    3.14580    3.02190
 2292.00000   93.63750    0.30610    0.12100    0.00310    3.24790    9.05140  100.48590  214.66140    2.50290    2.48660    3.31520    3.16140
 2292.50000   93.26770    0.30440    0.11510    0.00370    3.24910    9.03870   99.99710  212.78850    2.51160    2.58030    3.30830    3.16140
 2293.00000   92.50520    0.30490    0.11540    0.00610    3.25380    9.08760   99.70160  211.80220    2.51290    2.62770    3.54020    3.29960
 2293.50000   93.20450    0.30850    0.11750    0.00850    3.26590    9.10030   99.22780  208.71550    2.51250    2.61550    3.55130    3.30610
 2294.00000   94.05560    0.31910    0.12000    0.01100    3.28320    9.08060   98.52330  207.27600    2.50530    2.49990    3.32810    3.16880
 2294.50000   98.75810    0.32860    0.12090    0.01350    3.30060    9.04780   98.26090  205.58480    2.50180    2.47720    3.37080    3.16730
 2295.00000   99.64510    0.33080    0.11500    0.01600    3.31800    9.00320   98.27190  200.12750    2.50820    2.52180    3.47170    3.27060
 2295.50000  100.37060    0.31230    0.10770    0.01820    3.31860    8.97230   98.49220  199.52970    2.52690    2.65760    3.62360    3.31080
 2296.00000   99.45080    0.28040    0.09900    0.01680    3.31090    8.98980   99.04050  201.41230    2.53650    2.81240    3.92850    3.60580
 2296.50000   99.92770    0.28320    0.09970    0.01140    3.28860    9.05350   99.63200  203.41920    2.54090    3.01630    4.14780    3.89710
 2297.00000  100.74640    0.28170    0.10440    0.00710    3.25500    9.09020  100.22360  205.57530    2.53570    3.15920    4.31080    4.05480
 2297.50000   99.65720    0.29070    0.10890    0.00660    3.23060    9.12630  100.75510  208.24760    2.52950    3.18810    4.16090    3.86590
 2298.00000   98.75640    0.28790    0.11270    0.00610    3.21950    9.10790  101.32990  211.53590    2.52330    3.18890    4.19710    3.93520
 2298.50000   98.96280    0.27600    0.11200    0.00560    3.24030    9.02680  101.94670  214.88880    2.51810    3.18860    4.46000    4.07810
 2299.00000   99.98680    0.25300    0.11390    0.00520    3.29010    8.97780  102.68150  216.65990    2.51720    3.26020    4.39650    4.13320
 2299.50000  100.71020    0.25240    0.11580    0.00470    3.31000    8.96720  103.15550  216.78610    2.51490    3.24130    4.33620    4.03940
 2300.00000  100.23940    0.26250    0.11820    0.00440    3.31640    8.97550  103.39620  218.26570    2.51040    3.05190    4.26840    3.85800
 2300.50000   97.72060    0.27680    0.11920    0.00420    3.31900    8.99520  103.61190  219.99580    2.50620    2.83670    3.84230    3.59170
 2301.00000   93.98070    0.29310    0.12070    0.00410    3.28110    9.02310  103.78710  220.55480    2.50230    2.58390    3.45240    3.25980
 2301.50000   89.06470    0.30760    0.12470    0.00390    3.22580    9.07550  104.19970  221.21150    2.49840    2.34700    3.19640    2.96730
 2302.00000   88.18500    0.32550    0.12770    0.00380    3.17030    9.12690  104.48170  221.67340    2.49430    2.21210    3.00100    2.80820
 2302.50000   88.19760    0.33990    0.13100    0.00360    3.16030    9.17750  104.62580  222.63710    2.48870    2.18000    2.98270    2.75720
 2303.00000   90.50960    0.33770    0.13280    0.00350    3.16450    9.22880  104.77920  223.41290    2.48310    2.22090    2.98830    2.83760
 2303.50000   88.54480    0.34100    0.13370    0.00330    3.17790    9.25740  104.90800  224.18880    2.48000    2.25220    2.99610    2.88180
 2304.00000   88.66400    0.33360    0.13250    0.00320    3.17760    9.32950  105.17010  224.98590    2.48520    2.27520    2.96080    2.86600
 2304.50000   87.79070    0.32480    0.13200    0.00300    3.15400    9.33520  105.26270  225.67620    2.48470    2.30170    2.95230    2.84690
 2305.00000   88.78150    0.32580    0.13280    0.00290    3.14370    9.27860  105.29840  225.98040    2.48280    2.28550    3.02940    2.93490
 2305.50000   87.53450    0.32690    0.13370    0.00270    3.14390    9.25050  105.38890  226.12240    2.48210    2.26700    2.90440    2.77430
