~Version ---------------------------------------------------
VERS.   2.0 : CWLS log ASCII Standard -VERSION 2.0
WRAP.    NO : One line per depth step
DLM . SPACE : Column Data Section Delimiter
~Well ------------------------------------------------------
STRT .F                  150.0 : START DEPTH
STOP .F                 8018.0 : STOP DEPTH
STEP .F                    0.5 : STEP
NULL .                -9999.25 : NULL VALUE
COMP .                         : COMPANY
WELL .                         : WELL
FLD  .                         : FIELD
LOC  .                         : LOCATION
PROV .                         : PROVINCE
CNTY .                         : COUNTY
STAT .                         : STATE
CTRY .                         : COUNTRY
SRVC .                         : SERVICE COMPANY
DATE .                         : DATE
UWI  .                         : UNIQUE WELL ID
API  .                         : API NUMBER
SLAT .WGS84 1.1530180465535018 : SURFACE LATITUDE
SLON .WGS84 5.4940184151720075 : SURFACE LONGITUDE
DATUM.F                    nan : DEPTH DATUM ELEV
~Curve Information -----------------------------------------
DEPT   .F     : 1 MEASURED DEPTH
SGRDD  .GAPI  : SPECTROSCOPY GAMMA RAY FROM DENSITY LOG
TNPH_LS.DEC   : THERMAL NEUTRON POROSITY [LIMESTONE]
DPHZ_LS.DEC   : HGRD STANDARD RESOLUTION DENSITY POROSITY
HDRA   .G/C3  : HRDD SPINE AND RIBS DENSITY CORRECTION
PEFZ   .B/E   : HRDD STANDARD RESOLUTION FORMATION PHOTOELECTRIC FACTOR
CALD   .IN    : CALIPER FROM DENSITY LOG
DTCO   .US/F  : DELTA-T COMPRESSIONAL
DTSM   .US/F  : DELTA-T SHEAR
RHOZ   .G/C3  : HRDD STANDARD RESOLUTION FORMATION DENSITY
RXOZ   .OHMM  : INVADED FORMATION RESISTIVITY FILTERED AT 18 INCHES
RLA5   .OHMM  : APPARENT RESISTIVITY FROM COMPUTED FOCUSING MODE 5
RLA3   .OHMM  : APPARENT RESISTIVITY FROM COMPUTED FOCUSING MODE 3
~Params ----------------------------------------------------
~Other -----------------------------------------------------
~ASCII -----------------------------------------------------
# ...
 7150.00000  114.26750    0.21630    0.04960   -0.00220    3.09310    9.06940   80.42770  153.13720    2.62480    5.03350    5.57980    5.39060
 7150.50000  111.10320    0.22110    0.05280   -0.00320    3.14350    9.06950   80.36180  153.12980    2.61920    5.00470    5.59840    5.42820
 7151.00000  105.01510    0.21480    0.03830   -0.00440    3.32960    9.06950   80.08910  152.90970    2.63240    5.45370    6.52340    6.05040
 7151.50000   96.94100    0.18150    0.01680   -0.00110    3.63120    9.06950   80.08190  152.67290    2.66470    9.10770   12.60330   10.89120
 7152.00000   90.56350    0.15980   -0.00640    0.00310    3.86840    9.06930   80.07660  152.28250    2.72120   13.00800   17.87480   13.87390
 7152.50000   96.85770    0.15500    0.00040    0.00740    3.84260    9.06610   79.06890  151.44500    2.71570    7.87000   13.07600   10.12430
 7153.00000  104.31230    0.18040    0.02240    0.00320    3.61940    9.06370   78.50110  151.00350    2.67670    5.81820    6.93180    6.42850
 7153.50000  112.54780    0.20100    0.04050   -0.00240    3.42080    9.08250   78.42370  150.87750    2.64600    4.93700    6.01650    5.66570
 7154.00000  113.95650    0.20530    0.04450   -0.00440    3.37490    9.06950   78.40870  150.75140    2.63330    4.93560    6.79950    6.01420
 7154.50000  112.65380    0.20300    0.03460   -0.00560    3.37480    9.07260   78.31870  150.62540    2.63550    5.05620    6.02990    5.67420
 7155.00000  102.18330    0.19530    0.02290   -0.00680    3.66870    9.07890   77.72370  150.25840    2.65840    5.58500    6.55350    6.14850
 7155.50000   91.68310    0.17450    0.01170   -0.00810    4.04320    9.07460   76.72000  149.39910    2.69030    7.09930    9.07000    7.50490
 7156.00000   90.22390    0.16310    0.01470   -0.01000    4.12360    9.07030   76.60070  148.75440    2.69010    7.03520   13.99590   11.12390
 7156.50000   97.09340    0.17010    0.02010   -0.01030    3.96650    9.06900   76.59650  148.52790    2.67490    6.60440   13.82340    7.30110
 7157.00000  104.29250    0.18040    0.02630   -0.01050    3.77000    9.06900   76.62040  148.30140    2.66360    6.60440   12.99870    7.25720
 7157.50000  102.31560    0.17970    0.02500   -0.00810    3.62170    9.06900   77.22010  147.90310    2.67050    7.99800   10.49150    8.42630
 7158.00000  102.59350    0.17240    0.01780   -0.00440    3.47370    9.07360   76.55620  146.45170    2.67970    7.43910    9.69820    8.04360
 7158.50000  110.53270    0.18050    0.02050   -0.00080    3.33700    9.08950   75.84060  143.76650    2.67390    6.34320    8.26910    6.80790
 7159.00000  119.71880    0.20300    0.02940    0.00100    3.17120    9.10540   75.72950  143.39000    2.65670    5.21170    6.27540    5.75930
 7159.50000  122.24770    0.22250    0.03890   -0.00050    3.08500    9.09980   75.65780  143.09320    2.63960    5.36720    6.14490    5.64090
 7160.00000  115.21540    0.21330    0.04310   -0.00390    3.19550    9.09860   74.86700  143.91580    2.63780    5.81360    7.18500    6.69420
 7160.50000   99.64490    0.17010    0.01960   -0.00190    3.44000    9.09810   74.17390  144.44030    2.68310    7.21440    9.58180    8.39640
 7161.00000   87.99050    0.12230   -0.01420    0.01380    3.61920    9.09770   73.72040  141.92520    2.74790   13.94390   27.59970   15.43130
 7161.50000   90.57310    0.11620   -0.04140    0.02990    3.57680    9.09740   73.59980  137.93210    2.77720   13.10330   13.94570   13.38520
 7162.00000  102.15880    0.13300   -0.02570    0.02640    3.26650    9.09700   73.52020  135.07680    2.77360    9.09770   11.53350   10.62560
 7162.50000  106.20930    0.16890    0.02420    0.01450    2.97940    9.09670   72.85280  132.72940    2.67820    7.90800   11.15400    9.01740
 7163.00000   96.49470    0.18910    0.06830    0.00430    2.71650    9.09630   74.11400  131.63620    2.61370    9.91720   13.72090   13.48670
 7163.50000   83.52260    0.16950    0.08570   -0.00260    2.65840    9.09600   74.67140  132.01830    2.56420   11.73400   17.61880   16.17560
 7164.00000   76.98680    0.15740    0.09130   -0.00290    2.68110    9.09560   74.81750  132.40670    2.55180   14.64640   20.08140   18.48160
 7164.50000   74.70410    0.15140    0.08820   -0.00270    2.73760    9.09530   74.94550  132.66110    2.55180   14.92400   19.23610   17.68170
 7165.00000   83.27320    0.16690    0.07780   -0.00300    2.85080    9.09490   75.61510  133.48680    2.57920   13.11670   18.38070   16.08710
 7165.50000   97.37080    0.19750    0.06260   -0.00430    2.99430    9.09460   77.44660  137.56500    2.60550    8.90850   11.45330   10.16170
 7166.00000  111.83900    0.22480    0.05660   -0.00590    3.11450    9.09420   78.74440  143.16770    2.60840    6.83000    7.93740    7.37210
 7166.50000  118.30420    0.23770    0.05550   -0.00750    3.19550    9.09390   79.03120  144.78870    2.61490    6.21940    6.68650    6.39320
 7167.00000  117.07660    0.23130    0.05180   -0.00660    3.18950    9.09350   79.56030  145.69910    2.62260    6.43880    6.99350    6.58830
 7167.50000  113.64850    0.23740    0.04350   -0.00460    3.17090    9.09320   80.28100  147.46160    2.63330    7.13000    7.56280    7.27800
 7168.00000  115.71990    0.23660    0.03260   -0.00250    3.15220    9.09280   81.11900  149.71040    2.64890    6.93220    7.23170    7.10220
 7168.50000  119.36170    0.23190    0.02980   -0.00110    3.13350    9.09180   81.71100  151.64640    2.66010    6.44260    6.88690    6.73380
 7169.00000  121.99020    0.22770    0.03440   -0.00230    3.11490    9.08970   81.87330  152.61420    2.65520    4.81850    5.49010    5.23860
 7169.50000  121.70520    0.22240    0.04040   -0.00360    3.10920    9.08770   81.99110  153.34630    2.64380    5.40270    5.86950    5.47180
 7170.00000  120.76580    0.21780    0.04640   -0.00480    3.10980    9.08570   82.06890  153.75850    2.63240    4.90420    5.86360    5.54720
 7170.50000  118.90380    0.22470    0.04870   -0.00500    3.10520    9.08370   82.33650  153.86260    2.62810    4.87320    5.68000    5.42090
 7171.00000  117.00400    0.22090    0.04860   -0.00430    3.08900    9.08170   82.28490  153.50250    2.62680    4.80360    5.83660    5.42090
 7171.50000  116.35930    0.21660    0.04700   -0.00360    3.07280    9.07970   82.24860  153.57800    2.62680    5.48220    6.00160    5.42090
 7172.00000  116.49040    0.20790    0.04300   -0.00350    3.06270    9.07770   82.24600  153.23220    2.63560    6.16380    5.84250    5.52970
 7172.50000  116.64700    0.21190    0.04030   -0.00620    3.14460    9.07560   82.20250  153.15850    2.63990    6.59060    5.81750    5.84600
 7173.00000  112.65450    0.21140    0.03560   -0.00920    3.33730    9.07480   81.86590  152.64370    2.65050    6.65470    5.79250    6.00630
 7173.50000  111.87120    0.20520    0.03380   -0.01050    3.66280    9.07470   81.33200  150.42470    2.65470    6.68800    5.76760    5.88300
 7174.00000  113.00680    0.20210    0.03320   -0.00970    3.85620    9.07470   81.11650  148.70340    2.65470    7.10120    5.74280    6.14030
 7174.50000  115.65170    0.19840    0.03700   -0.00890    3.78110    9.07470   81.07150  148.20710    2.65030    6.89980    5.71840    6.03650
 7175.00000  115.53100    0.19040    0.03820   -0.00600    3.38890    9.07460   80.62080  148.16430    2.64350    6.88850    5.92500    6.08460
 7175.50000  112.51450    0.17440    0.04230   -0.00260    3.09460    9.07460   79.91160  146.08880    2.63900    8.02480    6.31860    6.52900
 7176.00000  108.28440    0.17560    0.04600   -0.00350    3.01000    9.07450   79.65550  145.46280    2.63090    8.36140    6.73840    7.00600
 7176.50000  106.08140    0.18410    0.05290   -0.00520    3.05420    9.07450   79.60930  144.89670    2.61900    8.71220    7.01750    7.22640
 7177.00000  105.95950    0.19530    0.05690   -0.00460    3.07570    9.07450   79.58510  144.41470    2.61470    8.52240    6.89260    7.09460
 7177.50000  104.21820    0.19780    0.05330   -0.00310    3.07800    9.07440   79.38320  144.37130    2.61970    8.16100    6.62440    6.96110
