~Version ---------------------------------------------------
VERS.   2.0 : CWLS log ASCII Standard -VERSION 2.0
WRAP.    NO : One line per depth step
DLM . SPACE : Column Data Section Delimiter
~Well ------------------------------------------------------
STRT .F                  150.0 : START DEPTH
STOP .F                 8018.0 : STOP DEPTH
STEP .F                    0.5 : STEP
NULL .                -9999.25 : NULL VALUE
COMP .                         : COMPANY
WELL .                         : WELL
FLD  .                         : FIELD
LOC  .                         : LOCATION
PROV .                         : PROVINCE
CNTY .                         : COUNTY
STAT .                         : STATE
CTRY .                         : COUNTRY
SRVC .                         : SERVICE COMPANY
DATE .                         : DATE
UWI  .                         : UNIQUE WELL ID
API  .                         : API NUMBER
SLAT .WGS84 1.1530180465535018 : SURFACE LATITUDE
SLON .WGS84 5.4940184151720075 : SURFACE LONGITUDE
DATUM.F                    nan : DEPTH DATUM ELEV
~Curve Information -----------------------------------------
DEPT   .F     : 1 MEASURED DEPTH
SGRDD  .GAPI  : SPECTROSCOPY GAMMA RAY FROM DENSITY LOG
TNPH_LS.DEC   : THERMAL NEUTRON POROSITY [LIMESTONE]
DPHZ_LS.DEC   : HGRD STANDARD RESOLUTION DENSITY POROSITY
HDRA   .G/C3  : HRDD SPINE AND RIBS DENSITY CORRECTION
PEFZ   .B/E   : HRDD STANDARD RESOLUTION FORMATION PHOTOELECTRIC FACTOR
CALD   .IN    : CALIPER FROM DENSITY LOG
DTCO   .US/F  : DELTA-T COMPRESSIONAL
DTSM   .US/F  : DELTA-T SHEAR
RHOZ   .G/C3  : HRDD STANDARD RESOLUTION FORMATION DENSITY
RXOZ   .OHMM  : INVADED FORMATION RESISTIVITY FILTERED AT 18 INCHES
RLA5   .OHMM  : APPARENT RESISTIVITY FROM COMPUTED FOCUSING MODE 5
RLA3   .OHMM  : APPARENT RESISTIVITY FROM COMPUTED FOCUSING MODE 3
~Params ----------------------------------------------------
~Other -----------------------------------------------------
~ASCII -----------------------------------------------------
# ...
 3090.00000   99.97480    0.33580    0.14250    0.03510    3.11230    9.83350   -9999.25  213.50640    2.46780    2.02160    2.70560    2.57850
 3090.50000  100.54870    0.36170    0.14140    0.02550    3.09570    9.74680   -9999.25  214.51680    2.47000    2.17970    2.98450    2.88180
 3091.00000  106.17930    0.37790    0.14450    0.01450    3.06580    9.61120   -9999.25  214.39290    2.46420    2.42560    3.46090    3.30920
 3091.50000  109.62730    0.37420    0.14980    0.00730    3.04040    9.46200   -9999.25  216.60630    2.45720    2.56120    3.58900    3.49450
 3092.00000  111.98840    0.35640    0.14890    0.00020    3.04040    9.40090   -9999.25  218.31910    2.45320    2.47140    3.28540    3.07430
 3092.50000  113.27550    0.33380    0.14280   -0.00150    3.02750    9.36440   -9999.25  213.90180    2.46570    2.27360    2.92580    2.75720
 3093.00000  115.76630    0.33290    0.13790   -0.00110    3.00230    9.32960   -9999.25  209.70570    2.47330    2.20520    2.81600    2.65710
 3093.50000  118.33340    0.32470    0.14180   -0.00070    3.01070    9.27310   -9999.25  208.21220    2.46900    2.24480    2.88260    2.73360
 3094.00000  121.14940    0.33260    0.14720   -0.00020    3.03460    9.22200   -9999.25  207.86210    2.46300    2.39370    3.01060    2.84570
 3094.50000  122.22180    0.33280    0.15020    0.00020    3.05820    9.19320   -9999.25  207.76460    2.45710    2.42850    3.14420    2.96230
 3095.00000  120.65940    0.32830    0.14540    0.00060    3.06360    9.20390   -9999.25  209.06350    2.45810    2.38680    3.08330    2.90300
 3095.50000  117.15070    0.31070    0.13930    0.00100    3.06700    9.21030   -9999.25  212.22480    2.47110    2.24220    2.93380    2.75670
 3096.00000  111.28970    0.30950    0.13210    0.00050    3.06690    9.21830   -9999.25  216.44540    2.48370    2.09780    2.77020    2.61780
 3096.50000  105.50790    0.30580    0.12790   -0.00010    3.06660    9.26550   -9999.25  216.75050    2.49380    1.95450    2.70860    2.56940
 3097.00000  101.77490    0.31630    0.12660   -0.00070    3.06050    9.28390   -9999.25  216.75410    2.49400    2.04600    2.77000    2.58190
 3097.50000  102.38930    0.30660    0.13120   -0.00130    3.04770    9.30230   -9999.25  216.62810    2.49140    2.36170    3.36880    3.10420
 3098.00000  108.17120    0.29950    0.13730   -0.00130    3.03500    9.32070   -9999.25  215.41520    2.47800    2.74000    3.94030    3.75400
 3098.50000  114.34200    0.30720    0.14150   -0.00110    3.02230    9.34000   -9999.25  212.48740    2.47060    2.98820    3.87720    3.62020
 3099.00000  118.99960    0.33410    0.14480   -0.00080    3.02450    9.41030   -9999.25  210.18090    2.46540    2.63880    3.27220    3.02100
 3099.50000  121.44280    0.36170    0.14650   -0.00060    3.06500    9.44440   -9999.25  209.22940    2.46040    2.32760    2.92720    2.83770
 3100.00000  121.77340    0.35240    0.14690   -0.00040    3.08040    9.45520  106.96220  208.29540    2.45840    2.29980    2.91020    2.80850
 3100.50000  120.22340    0.33830    0.14690   -0.00110    3.06170    9.46550  107.04230  207.98170    2.46080    2.28720    2.89920    2.79020
 3101.00000  118.46200    0.33280    0.14270   -0.00230    3.05650    9.48480  107.12240  209.02030    2.46640    2.35790    2.94720    2.79020
 3101.50000  115.17600    0.33960    0.14150   -0.00350    3.09620    9.52010  107.20240  210.96100    2.46850    2.38100    3.05340    2.96680
 3102.00000  111.82330    0.35810    0.14200   -0.00480    3.24630    9.43330  107.28250  212.72430    2.46850    2.72060    3.26700    3.04560
 3102.50000  108.81890    0.33640    0.14440   -0.00610    3.27320    9.43190  107.36260  214.40280    2.46650    2.88520    3.63620    3.42460
 3103.00000  109.90890    0.32400    0.14760   -0.00670    3.21860    9.43040  107.44270  215.23140    2.45920    2.89750    3.65680    3.50770
 3103.50000  112.64550    0.31380    0.14960   -0.00390    3.16330    9.44710  107.26890  215.07160    2.45470    2.68180    3.54520    3.38010
 3104.00000  117.14870    0.32570    0.15050   -0.00080    3.07680    9.45530  107.04890  216.61290    2.45270    2.61010    3.39250    3.23280
 3104.50000  119.91550    0.33790    0.14660    0.00230    3.01560    9.46880  107.00250  216.00110    2.45740    2.57170    3.22530    3.09200
 3105.00000  123.34390    0.35220    0.14390    0.00270    2.99880    9.49150  106.87310  215.70280    2.46290    2.53100    3.12810    3.05080
 3105.50000  124.68620    0.35000    0.14400    0.00200    2.97860    9.49570  106.52700  214.45860    2.46510    2.52880    3.12810    3.05080
 3106.00000  126.75740    0.34210    0.14860    0.00100    2.96310    9.49990  105.69500  212.74630    2.46050    2.51310    3.12810    3.05080
 3106.50000  126.05790    0.34750    0.15250   -0.00000    2.96380    9.50230  105.41540  211.86060    2.44930    2.49440    3.10460    3.02220
 3107.00000  125.76030    0.34690    0.15910   -0.00100    2.97930    9.52600  105.24670  211.34680    2.43840    2.52200    3.09500    2.99610
 3107.50000  124.79060    0.34590    0.16270   -0.00200    2.98750    9.52020  104.98350  211.02210    2.43240    2.58550    3.25640    3.13720
 3108.00000  123.74690    0.34590    0.15890   -0.00220    2.99560    9.48010  104.56000  210.35060    2.43470    2.64170    3.33170    3.24940
 3108.50000  122.70830    0.34480    0.15350   -0.00140    3.00380    9.50970  104.19890  209.27970    2.44660    2.69490    3.36310    3.27740
 3109.00000  122.94160    0.32740    0.14980   -0.00050    3.01200    9.53940  103.51240  206.96960    2.45500    2.71850    3.40200    3.31530
 3109.50000  122.19060    0.33110    0.15020    0.00030    3.02020    9.55160  102.68090  205.41610    2.45310    2.65900    3.37350    3.24550
 3110.00000  120.45410    0.33000    0.15080    0.00110    3.02830    9.55900  102.66430  203.86260    2.45310    2.52540    3.16800    3.03560
 3110.50000  117.86510    0.33640    0.14740    0.00080    3.03600    9.57080  103.01640  203.27790    2.46000    2.41240    3.00940    2.87140
 3111.00000  116.42160    0.32520    0.14420   -0.00010    3.04420    9.57730  103.23750  203.10060    2.46480    2.42230    2.98390    2.86040
 3111.50000  117.15160    0.34360    0.14390   -0.00090    3.05240    9.61140  103.52870  203.95710    2.46510    2.53660    3.20810    2.97140
 3112.00000  117.47360    0.33480    0.14410   -0.00140    3.05360    9.64300  103.58990  205.31920    2.46510    2.58560    3.31810    3.21830
 3112.50000  117.04560    0.33840    0.14040   -0.00090    3.05170    9.68130  103.53950  205.81970    2.46510    2.46640    3.13650    2.96570
 3113.00000  111.38890    0.32310    0.13360   -0.00040    3.04980    9.75120  103.36970  206.61440    2.47880    2.32710    2.85810    2.76980
 3113.50000  107.29820    0.31980    0.12820    0.00010    3.04950    9.78370  103.30740  206.98100    2.49340    2.16990    2.87060    2.77880
 3114.00000  105.36100    0.30770    0.12490    0.00050    3.04760    9.80900  102.88990  207.39410    2.49740    2.27490    3.04580    2.89530
 3114.50000  103.06740    0.29570    0.12540    0.00090    3.04560    9.79960  102.43720  207.88760    2.49700    2.56150    3.44800    3.23130
 3115.00000  103.47430    0.27750    0.12930    0.00030    3.04370    9.78830  102.20430  208.15560    2.48720    2.82650    3.91480    3.72490
 3115.50000  106.60450    0.31270    0.14180   -0.00030    3.04180    9.75320  101.24230  206.58090    2.47320    2.81620    3.68940    3.37990
 3116.00000  109.78910    0.34800    0.14910   -0.00090    3.04700    9.73620  100.48140  205.27240    2.45940    2.50820    3.15990    2.91820
 3116.50000  112.93340    0.38350    0.15070   -0.00150    3.07410    9.72580   99.72050  203.99230    2.45160    2.27600    2.86810    2.73740
 3117.00000  109.36310    0.36010    0.14210    0.00090    3.10120    9.71080   99.35360  201.58730    2.46020    2.15230    2.70980    2.57020
 3117.50000  104.55390    0.34710    0.13130    0.00280    3.13350    9.75900   99.30930  200.78370    2.47790    2.15280    2.73300    2.62370
