~Version ---------------------------------------------------
VERS.   2.0 : CWLS log ASCII Standard -VERSION 2.0
WRAP.    NO : One line per depth step
DLM . SPACE : Column Data Section Delimiter
~Well ------------------------------------------------------
STRT .F                  150.0 : START DEPTH
STOP .F                 8018.0 : STOP DEPTH
STEP .F                    0.5 : STEP
NULL .                -9999.25 : NULL VALUE
COMP .                         : COMPANY
WELL .                         : WELL
FLD  .                         : FIELD
LOC  .                         : LOCATION
PROV .                         : PROVINCE
CNTY .                         : COUNTY
STAT .                         : STATE
CTRY .                         : COUNTRY
SRVC .                         : SERVICE COMPANY
DATE .                         : DATE
UWI  .                         : UNIQUE WELL ID
API  .                         : API NUMBER
SLAT .WGS84 1.1530180465535018 : SURFACE LATITUDE
SLON .WGS84 5.4940184151720075 : SURFACE LONGITUDE
DATUM.F                    nan : DEPTH DATUM ELEV
~Curve Information -----------------------------------------
DEPT   .F     : 1 MEASURED DEPTH
SGRDD  .GAPI  : SPECTROSCOPY GAMMA RAY FROM DENSITY LOG
TNPH_LS.DEC   : THERMAL NEUTRON POROSITY [LIMESTONE]
DPHZ_LS.DEC   : HGRD STANDARD RESOLUTION DENSITY POROSITY
HDRA   .G/C3  : HRDD SPINE AND RIBS DENSITY CORRECTION
PEFZ   .B/E   : HRDD STANDARD RESOLUTION FORMATION PHOTOELECTRIC FACTOR
CALD   .IN    : CALIPER FROM DENSITY LOG
DTCO   .US/F  : DELTA-T COMPRESSIONAL
DTSM   .US/F  : DELTA-T SHEAR
RHOZ   .G/C3  : HRDD STANDARD RESOLUTION FORMATION DENSITY
RXOZ   .OHMM  : INVADED FORMATION RESISTIVITY FILTERED AT 18 INCHES
RLA5   .OHMM  : APPARENT RESISTIVITY FROM COMPUTED FOCUSING MODE 5
RLA3   .OHMM  : APPARENT RESISTIVITY FROM COMPUTED FOCUSING MODE 3
~Params ----------------------------------------------------
~Other -----------------------------------------------------
~ASCII -----------------------------------------------------
# ...
 6758.00000  122.37310    0.22580    0.04770   -0.00310    3.26070    9.06980   84.28170  159.47090    2.62950    4.86660    5.83200    5.37420
 6758.50000  122.32060    0.22330    0.04730   -0.00280    3.28160    9.07280   84.52690  159.64000    2.62970    5.14690    5.74080    5.33790
 6759.00000  121.11300    0.22490    0.04600   -0.00240    3.30110    9.07780   84.64630  159.78260    2.63260    5.47670    6.00890    5.30170
 6759.50000  118.22120    0.21690    0.04190   -0.00200    3.33340    9.08280   84.81240  159.69270    2.63960    5.50750    5.94160    5.36310
 6760.00000  119.73390    0.21490    0.04040   -0.00160    3.33660    9.08790   84.75180  159.68350    2.64350    5.33270    6.34040    5.47520
 6760.50000  122.65920    0.21370    0.03790   -0.00130    3.29420    9.09700   84.40930  159.77860    2.64450    5.16350    5.88390    5.41630
 6761.00000  125.19640    0.21390    0.04090   -0.00120    3.27260    9.07320   84.11720  158.18070    2.64140    4.99970    5.66500    5.17150
 6761.50000  124.58460    0.21570    0.04400   -0.00190    3.25250    9.07120   84.23130  156.98260    2.63540    4.90020    5.45430    5.13640
 6762.00000  124.29470    0.21850    0.04700   -0.00280    3.25390    9.06970   84.28680  156.53180    2.63030    5.02190    6.03260    5.56960
 6762.50000  123.73360    0.21170    0.04950   -0.00350    3.31750    9.06920   84.31850  156.90180    2.62560    5.22200    6.13300    5.72550
 6763.00000  118.37410    0.21780    0.04710   -0.00420    3.42040    9.06250   84.80710  157.02790    2.62720    5.65030    6.16940    6.25700
 6763.50000  112.73800    0.21760    0.03920   -0.00330    3.45480    9.06850   84.54730  157.20120    2.64480    7.86330   11.53300    8.37520
 6764.00000  110.96900    0.22460    0.03360   -0.00090    3.44350    9.07010   84.46740  157.37460    2.65220    9.95620   11.97200   10.63700
 6764.50000  115.61920    0.23240    0.03570    0.00020    3.38330    9.07110   84.39560  157.00280    2.65320    8.85760   12.31300   11.30710
 6765.00000  121.49090    0.23800    0.04730   -0.00030    3.30470    9.07200   84.25910  157.20290    2.62700    6.06940   11.75690    9.70350
 6765.50000  125.43380    0.24320    0.05440   -0.00130    3.22610    9.07290   82.54720  154.72000    2.61770    5.31340    9.05240    7.83710
 6766.00000  125.16700    0.23880    0.05460   -0.00220    3.17520    9.07330   81.74210  152.89720    2.61610    5.13840    7.44240    6.40570
 6766.50000  121.81500    0.23210    0.05350   -0.00320    3.18150    9.06890   81.25820  149.72150    2.61760    5.24710    6.54260    5.72910
 6767.00000  117.58660    0.21970    0.04560   -0.00260    3.24940    9.06460   80.89660  148.44440    2.63200    5.75420    7.17900    6.45050
 6767.50000  110.05180    0.21100    0.03840   -0.00180    3.39600    9.06030   80.38370  147.48520    2.64490    6.39800    8.26550    7.74880
 6768.00000  102.87920    0.19500    0.03290   -0.00100    3.54530    9.05600   80.12590  146.52710    2.65310    7.71690    8.63320    8.32140
 6768.50000   95.57060    0.18200    0.03080   -0.00020    3.63560    9.05160   80.21860  145.71580    2.65830    8.85710   13.42170   11.96080
 6769.00000   96.23020    0.18380    0.03750    0.00020    3.62700    9.05250   80.39210  145.72560    2.65100    8.27470   11.69160   10.54720
 6769.50000  104.05240    0.20370    0.04720   -0.00120    3.46170    9.05860   80.52840  145.87570    2.62840    6.53900    8.39010    7.93030
 6770.00000  109.72660    0.23010    0.05520   -0.00270    3.31310    9.06470   80.13520  146.11330    2.61230    6.05200    7.81600    7.04320
 6770.50000  113.83070    0.21610    0.05520   -0.00180    3.21880    9.05830   79.68500  146.42380    2.61390    6.60350    8.17480    7.65120
 6771.00000  115.02820    0.20500    0.05110    0.00030    3.18080    9.06400   79.63350  146.33610    2.62160    6.38820    8.11010    6.93670
 6771.50000  117.77460    0.20240    0.04940    0.00100    3.17620    9.06540   79.37410  146.39820    2.62650    5.74040    6.22450    6.02680
 6772.00000  116.37880    0.21290    0.04800   -0.00120    3.34030    9.06680   78.60990  145.57340    2.62930    5.70170    6.01950    5.90570
 6772.50000  112.67860    0.20780    0.04260   -0.00180    3.52680    9.06760   78.57950  144.89840    2.63620    6.14200    7.41670    6.76260
 6773.00000  109.11700    0.19650    0.03290    0.00040    3.68090    9.06850   78.58390  144.48090    2.65450    9.56220   13.83260   10.36450
 6773.50000  119.64550    0.18090    0.02550    0.00250    3.74270    9.06780   78.61560  144.59970    2.66530    9.72620   11.89810   10.64900
 6774.00000  142.17460    0.18460    0.03200    0.00200    3.54090    9.05940   78.95620  145.08020    2.65330    7.52550    9.32180    8.62680
 6774.50000  177.79710    0.19460    0.04470   -0.00030    3.35880    9.05760   79.62000  145.56320    2.63800    7.31340    7.87350    7.54680
 6775.00000  229.45210    0.20290    0.05220   -0.00250    3.27750    9.05290   80.44510  145.90070    2.62270    6.88700    7.27650    7.10060
 6775.50000  296.83480    0.21640    0.05130   -0.00340    3.26810    9.04810   80.60390  146.24710    2.62100    6.81610    7.66440    6.93400
 6776.00000  437.42010    0.21500    0.05230   -0.00310    3.25450    9.04340   81.07680  146.37070    2.62000    6.54020    7.34400    6.74490
 6776.50000  431.21110    0.21840    0.05410   -0.00330    3.23900    9.03870   81.05880  146.83290    2.61810    6.37930    6.83370    6.71670
 6777.00000  287.02550    0.21270    0.05500   -0.00340    3.20960    9.04150   80.91400  147.03660    2.61620    6.77710    7.34440    6.99770
 6777.50000  215.45390    0.20390    0.05250   -0.00360    3.12860    9.04530   80.75660  146.57700    2.62140    7.03360    7.91550    7.22040
 6778.00000  146.14230    0.20060    0.05180   -0.00360    3.10010    9.04480   80.18440  145.96910    2.62160    6.49370    7.21600    6.84340
 6778.50000  140.42970    0.19850    0.05220   -0.00360    3.12120    9.03980   79.38430  145.14790    2.62180    6.00730    6.97330    6.54720
 6779.00000  114.06240    0.19500    0.05100   -0.00400    3.19040    9.04190   78.79150  144.32670    2.62250    6.78170    7.42950    6.85440
 6779.50000  107.21040    0.18450    0.04500   -0.00280    3.26880    9.04760   78.70120  143.56300    2.63130    6.80820    7.43250    7.02410
 6780.00000  106.81610    0.18420    0.04220    0.00050    3.25780    9.05320   78.66180  142.82510    2.63710    6.65670    7.61500    7.07040
 6780.50000  107.09560    0.18440    0.04370    0.00390    3.16890    9.05890   78.49370  141.69680    2.63570    6.40320    7.40170    6.99170
 6781.00000  103.85500    0.18400    0.04680    0.00770    3.06320    9.08310   78.36980  141.29190    2.62990    5.73750    7.31330    6.99660
 6781.50000  101.57440    0.16940    0.04850    0.01160    3.02720    9.07680   78.28060  141.09600    2.62790    5.94430    9.65710    8.36350
 6782.00000  102.42330    0.16360    0.05490    0.00900    3.02610    9.06170   78.27380  141.02450    2.61750    6.28980    9.43980    8.47970
 6782.50000  108.07710    0.17080    0.06200   -0.00070    3.02610    9.05220   78.26150  140.85640    2.60240    6.26850    8.30800    7.85480
 6783.00000  113.31710    0.18550    0.06670   -0.00380    3.06780    9.05160   78.18130  140.68820    2.59440    6.41580    7.36860    6.95650
 6783.50000  108.74640    0.18700    0.05860   -0.00440    3.12250    9.05150   78.29450  140.45490    2.61820    6.81680    7.33190    7.06540
 6784.00000  104.92050    0.18650    0.04800   -0.00420    3.18160    9.04770   78.49680  140.41060    2.62890    7.05050    8.13090    7.78770
 6784.50000  101.95440    0.18360    0.04130   -0.00440    3.21930    9.03250   78.57360  140.64710    2.63830    6.43990    9.01700    8.58390
 6785.00000  101.38110    0.18080    0.04530   -0.00540    3.21160    9.01910   78.59300  141.96140    2.63560    6.35890    8.55840    7.90300
 6785.50000  103.11180    0.17620    0.05230   -0.00480    3.17680    9.01350   78.67150  142.15380    2.62220    7.61490   11.60320    9.66100
