~Version ---------------------------------------------------
VERS.   2.0 : CWLS log ASCII Standard -VERSION 2.0
WRAP.    NO : One line per depth step
DLM . SPACE : Column Data Section Delimiter
~Well ------------------------------------------------------
STRT .F                  150.0 : START DEPTH
STOP .F                 8018.0 : STOP DEPTH
STEP .F                    0.5 : STEP
NULL .                -9999.25 : NULL VALUE
COMP .                         : COMPANY
WELL .                         : WELL
FLD  .                         : FIELD
LOC  .                         : LOCATION
PROV .                         : PROVINCE
CNTY .                         : COUNTY
STAT .                         : STATE
CTRY .                         : COUNTRY
SRVC .                         : SERVICE COMPANY
DATE .                         : DATE
UWI  .                         : UNIQUE WELL ID
API  .                         : API NUMBER
SLAT .WGS84 1.1530180465535018 : SURFACE LATITUDE
SLON .WGS84 5.4940184151720075 : SURFACE LONGITUDE
DATUM.F                    nan : DEPTH DATUM ELEV
~Curve Information -----------------------------------------
DEPT   .F     : 1 MEASURED DEPTH
SGRDD  .GAPI  : SPECTROSCOPY GAMMA RAY FROM DENSITY LOG
TNPH_LS.DEC   : THERMAL NEUTRON POROSITY [LIMESTONE]
DPHZ_LS.DEC   : HGRD STANDARD RESOLUTION DENSITY POROSITY
HDRA   .G/C3  : HRDD SPINE AND RIBS DENSITY CORRECTION
PEFZ   .B/E   : HRDD STANDARD RESOLUTION FORMATION PHOTOELECTRIC FACTOR
CALD   .IN    : CALIPER FROM DENSITY LOG
DTCO   .US/F  : DELTA-T COMPRESSIONAL
DTSM   .US/F  : DELTA-T SHEAR
RHOZ   .G/C3  : HRDD STANDARD RESOLUTION FORMATION DENSITY
RXOZ   .OHMM  : INVADED FORMATION RESISTIVITY FILTERED AT 18 INCHES
RLA5   .OHMM  : APPARENT RESISTIVITY FROM COMPUTED FOCUSING MODE 5
RLA3   .OHMM  : APPARENT RESISTIVITY FROM COMPUTED FOCUSING MODE 3
~Params ----------------------------------------------------
~Other -----------------------------------------------------
~ASCII -----------------------------------------------------
# ...
 4714.00000  102.64200    0.19750    0.09380   -0.00450    3.36250    8.89900   85.31280  141.81140    2.55150   13.03240   19.88870   14.21820
 4714.50000  106.96550    0.21140    0.09250   -0.00480    3.31530    8.91140   85.60600  143.63890    2.54980   10.65780   13.24270   12.35780
 4715.00000  110.28040    0.22150    0.09570   -0.00420    3.20480    8.91970   85.67820  144.98410    2.54690    9.36740   12.78030   11.68790
 4715.50000  111.68480    0.23370    0.09940   -0.00140    3.08470    8.92410   85.02430  145.63310    2.53940    9.06610   12.27440   11.69740
 4716.00000  113.77070    0.24260    0.09860   -0.00080    3.03290    8.92850   84.55490  145.00090    2.54020    8.84890   13.45650   12.24400
 4716.50000  116.44660    0.23990    0.09370   -0.00080    3.04620    8.92020   83.49140  144.02890    2.54600    8.79960   12.38450   11.42140
 4717.00000  116.23170    0.23770    0.08960   -0.00080    3.08730    8.91020   82.78970  143.05690    2.55710    9.25120   12.76840   11.97130
 4717.50000  110.80730    0.23060    0.08820   -0.00070    3.05800    8.90930   82.64140  142.51440    2.55850   11.12320   16.90320   14.88780
 4718.00000  103.38040    0.22100    0.08530    0.00040    3.43810    8.90960   82.54250  141.57750    2.56100   14.07610   21.34540   19.34300
 4718.50000   99.42030    0.21080    0.06690    0.00190    4.11700    8.91320   82.45730  140.49100    2.59970   12.71250   24.09620   18.93980
 4719.00000   96.49350    0.19810    0.05270    0.00330    3.96180    8.91680   82.36530  140.27720    2.61580    8.74130   11.44940    9.90970
 4719.50000   95.83180    0.19330    0.05290    0.00170    3.46210    8.91670   82.27860  139.89400    2.62550    7.50470    9.85350    8.55260
 4720.00000   97.28550    0.20020    0.07320   -0.00030    3.25590    8.91600   82.19740  139.46620    2.59300    9.24970   15.94460   11.70490
 4720.50000  102.89410    0.20840    0.09230   -0.00110    3.19740    8.92570   82.15660  138.98500    2.55560   12.22910   17.52070   14.72050
 4721.00000  110.81880    0.21510    0.10130   -0.00100    3.20930    8.93000   82.23970  139.22380    2.53910   11.02490   17.06430   13.87790
 4721.50000  115.98410    0.22680    0.09890   -0.00080    3.16310    8.93270   83.04310  139.03850    2.53950    8.52180   12.16720   10.82540
 4722.00000  111.75010    0.21500    0.08890   -0.00120    3.07410    8.93530   83.13050  139.55510    2.55180    6.98760    9.95080    8.57780
 4722.50000  104.31360    0.20300    0.08690   -0.00310    3.08820    8.93790   83.23090  140.07160    2.56150    7.23980   12.23040   10.23540
 4723.00000  100.08150    0.18730    0.08950   -0.00460    3.15190    8.92980   83.35460  140.39510    2.56060    9.57450   15.08960   13.72910
 4723.50000  104.43550    0.19400    0.09920   -0.00600    3.22620    8.91900   84.13370  140.42240    2.54460   12.69030   18.02540   15.98450
 4724.00000  115.20700    0.20850    0.10260   -0.00680    3.28010    8.90930   85.06850  141.00160    2.53400   14.89240   21.13320   18.28030
 4724.50000  129.02890    0.22700    0.10360   -0.00450    3.28200    8.91360   85.96780  142.56050    2.53350   13.46940   20.44840   16.84780
 4725.00000  130.85540    0.24590    0.10120   -0.00190    3.20580    8.92230   86.43510  143.55170    2.54050    8.16430   10.95150    9.65590
 4725.50000  123.58140    0.23970    0.09420    0.00040    3.05120    8.93090   87.11290  145.55000    2.54780    7.09860    8.84980    8.08080
 4726.00000  116.18780    0.23010    0.09400    0.00030    2.96810    8.92760   87.74050  146.57600    2.54910    7.11370   10.93480    8.78810
 4726.50000  117.97120    0.22590    0.09770    0.00010    2.92150    8.92730   87.75510  146.80600    2.54870    9.33070   14.86670   12.28490
 4727.00000  126.24790    0.25230    0.10570   -0.00000    2.93880    8.91510   87.58900  146.67180    2.53210   12.83450   19.28430   16.31730
 4727.50000  132.02380    0.26470    0.10790   -0.00020    2.99710    8.90880   86.79220  146.08660    2.52620   12.12980   15.87520   14.16990
 4728.00000  134.49060    0.25860    0.11120   -0.00080    3.05920    8.90380   85.40280  144.54190    2.52170   11.33120   14.54860   13.17820
 4728.50000  135.62360    0.24940    0.11560   -0.00290    3.08170    8.89530   81.41860  142.66370    2.51440   12.23700   21.84660   17.00190
 4729.00000  133.91500    0.26510    0.12220   -0.00510    3.15930    8.88690   79.57900  139.68960    2.50290   17.36520   26.29090   22.60810
 4729.50000  127.42810    0.25050    0.11740   -0.00480    3.21810    8.88260   78.11150  136.49560    2.50510   17.96980   31.11710   24.97450
 4730.00000  115.49660    0.23830    0.10720   -0.00400    3.29550    8.88030   77.66010  133.69700    2.52330   12.57320   20.21920   15.79400
 4730.50000   97.68790    0.20420    0.08530   -0.00310    3.53020    8.87810   77.37000  132.22000    2.58150   10.95490   13.62540   11.89340
 4731.00000   75.52910    0.15900    0.05990   -0.00280    3.88840    8.86720   77.39820  132.03040    2.60850   13.98030   27.70470   15.96960
 4731.50000   60.82120    0.12640    0.03560    0.00300    4.39890    8.83870   77.76450  131.87600    2.63750   29.25940   67.70420   53.13560
 4732.00000   62.23840    0.11640    0.02530    0.00780    4.46800    8.82790   78.31270  131.99830    2.66630   24.86130   91.56860   35.61960
 4732.50000   79.43060    0.14440    0.04190    0.00550    4.16790    8.84760   80.12600  133.15280    2.63200   16.21150   18.09390   15.07090
 4733.00000  102.10530    0.18680    0.08280   -0.00200    3.72390    8.88970   81.39200  134.63520    2.60600   14.03910   17.94290   16.26170
 4733.50000  116.44060    0.24910    0.10920   -0.00350    3.32310    8.90760   81.89380  135.84750    2.53260   16.27430   20.77580   18.60850
 4734.00000  124.05060    0.24390    0.11210   -0.00350    3.24570    8.91650   82.95880  137.05970    2.51890   15.98390   22.45360   20.23610
 4734.50000  118.38370    0.22900    0.10030   -0.00360    3.15630    8.92560   83.43070  138.00750    2.53150   11.42370   16.43100   13.25170
 4735.00000  108.81800    0.20570    0.08730   -0.00300    3.06610    8.93100   83.45110  139.26290    2.56240    8.82740   11.84030   10.40590
 4735.50000  108.33140    0.20710    0.08070   -0.00200    3.04700    8.91340   83.01690  139.30260    2.57020    9.00340   14.14500   12.42090
 4736.00000  113.96220    0.21660    0.08590   -0.00090    3.08170    8.87930   82.88980  138.54660    2.56570   12.10440   19.59090   16.60590
 4736.50000  122.60730    0.22190    0.08930   -0.00040    3.13130    8.88370   83.27470  138.94520    2.56050   15.19110   20.32880   18.64810
 4737.00000  125.48530    0.23810    0.08910   -0.00040    3.16340    8.88990   83.87270  139.54460    2.55750   13.41570   21.11290   17.60870
 4737.50000  121.17260    0.23210    0.09140   -0.00040    3.13210    8.89620   84.51320  140.06590    2.55370    9.95820   15.37650   13.65590
 4738.00000  110.19430    0.22430    0.09400   -0.00180    3.07080    8.90450   85.16020  140.52970    2.55010    8.11220   13.10410   11.22620
 4738.50000  100.72130    0.21150    0.09740   -0.00300    3.01340    8.90880   85.77120  141.16830    2.54430    8.38250   15.24590   12.88530
 4739.00000  107.77740    0.20460    0.10140   -0.00310    3.02550    8.90880   86.28960  141.93490    2.53800   12.26330   21.10580   17.84440
 4739.50000  120.53980    0.22140    0.11330   -0.00330    3.19570    8.90880   86.68100  143.53130    2.52350   14.96120   25.02690   22.01120
 4740.00000  126.68700    0.24260    0.11710   -0.00340    3.38550    8.90880   87.45460  144.37830    2.51180   13.00820   19.29630   16.08480
 4740.50000  122.97570    0.26270    0.11840   -0.00380    3.39440    8.90910   88.06160  145.21500    2.50750   10.14760   12.10240   11.40510
 4741.00000  121.82050    0.25400    0.11660   -0.00440    3.27040    8.90930   88.37860  146.05180    2.51200   10.03670   11.98550   11.90230
 4741.50000  123.66960    0.25910    0.12030   -0.00510    3.09970    8.88910   88.59100  146.43080    2.50720   13.09670   19.29300   16.77750
