~Version ---------------------------------------------------
VERS.   2.0 : CWLS log ASCII Standard -VERSION 2.0
WRAP.    NO : One line per depth step
DLM . SPACE : Column Data Section Delimiter
~Well ------------------------------------------------------
STRT .F                  204.0 : START DEPTH
STOP .F                 5499.0 : STOP DEPTH
STEP .F                    0.5 : STEP
NULL .                -9999.25 : NULL VALUE
COMP .                         : COMPANY
WELL .                         : WELL
FLD  .                         : FIELD
LOC  .                         : LOCATION
PROV .                         : PROVINCE
CNTY .                         : COUNTY
STAT .                         : STATE
CTRY .                         : COUNTRY
SRVC .                         : SERVICE COMPANY
DATE .                         : DATE
UWI  .                         : UNIQUE WELL ID
API  .                         : API NUMBER
SLAT .WGS84 3.3151731759280025 : SURFACE LATITUDE
SLON .WGS84  8.949954479557988 : SURFACE LONGITUDE
DATUM.F                 3433.6 : DEPTH DATUM ELEV
~Curve Information -----------------------------------------
DEPT.F     : 
DTCO.US/F  : COMPRESSIONAL-WAVE INTERVAL TRANSIT TIME ACOUSTIC SLOWNESS
DTSM.US/F  : SHEAR-WAVE INTERVAL TRANSIT TIME DELTA-T
DPHZ.DEC   : DENSITY POROSITY LIMESTONE
HCAL.IN    : HILT CALIPER
HDRA.G/C3  : DELTA RHO HIP TOOL
HSGR.GAPI  : SPECTROSCOPY GAMMA RAY
PEFZ.B/E   : HILT PHOTOELECTRIC FACTOR
TNPH.DEC   : THERMAL NEUTRON POROSITY
RHOZ.G/C3  : HILT BULK DENSITY
~Params ----------------------------------------------------
~Other -----------------------------------------------------
~ASCII -----------------------------------------------------
# ...
 5095.00000   63.95030  117.41230   -0.06320    6.32780    0.00970   43.78790    3.41520    0.11830    2.77530
 5095.50000   63.16350  116.66870   -0.03690    6.31250    0.00210   42.57580    3.21160    0.12290    2.76620
 5096.00000   61.98670  114.72120   -0.03090    6.29730   -0.00230   41.96970    3.16630    0.11800    2.76390
 5096.50000   59.08170  111.87080   -0.02850    6.29710   -0.00380   43.34420    3.27160    0.10890    2.76170
 5097.00000   56.14940  106.91360   -0.02860    6.29700   -0.00690   43.14320    3.37690    0.10170    2.76320
 5097.50000   52.94620  102.07580   -0.03400    6.29680   -0.00770   39.09090    3.48980    0.09260    2.77590
 5098.00000   48.79490   95.41080   -0.05760    6.29670   -0.00390   32.27270    3.59520    0.07090    2.80690
 5098.50000   47.08100   92.92360   -0.08750    6.29650    0.00210   25.00000    3.65570    0.04220    2.86070
 5099.00000   47.94160   93.25680   -0.09480    6.29640    0.00810   21.96970    3.72300    0.03010    2.87860
 5099.50000   49.25300   94.16870   -0.10690    6.31130    0.01940   20.75760    3.73790    0.02410    2.88160
 5100.00000   50.83540   95.08050   -0.09300    6.31120    0.06010   25.75760    3.74530    0.02380    2.88970
 5100.50000   52.38180   95.69130   -0.09450    6.32610    0.11230   28.48480    3.78280    0.02710    2.91130
 5101.00000   53.06750   96.15170   -0.11540    6.32600    0.15590   26.36360    3.94840    0.02740    2.96000
 5101.50000   53.50970   95.54930   -0.15920    6.34100    0.14610   18.64110    4.31000    0.02160    2.99570
 5102.00000   52.46420   94.65230   -0.17150    6.34080    0.11360    9.24860    4.68660    0.00870    3.00750
 5102.50000   51.03450   94.05480   -0.17330    6.35570    0.03670    3.34100    5.01050   -0.01070    3.01170
 5103.00000   50.63180   93.15930   -0.17270    6.35560    0.01710    1.97890    5.31940   -0.01910    3.03260
 5103.50000   50.49900   92.11180   -0.18320    6.35540    0.02080    0.00000    5.38700   -0.02000    3.04290
 5104.00000   50.63890   90.61280   -0.19350    6.35530    0.01740    0.00000    5.40200   -0.01910    3.04440
 5104.50000   50.73280   91.97320   -0.19230    6.34000   -0.00330    0.77120    5.37920   -0.01780    3.01980
 5105.00000   50.82670   93.03260   -0.17320    6.33990   -0.02220    1.98490    5.27350   -0.01580    2.98230
 5105.50000   50.73990   91.98510   -0.16200    6.32460   -0.03730    4.59100    5.13020   -0.01310    2.95400
 5106.00000   50.11150   90.03470   -0.13840    6.32450   -0.04330    9.70790    4.92240   -0.00590    2.90710
 5106.50000   49.25720   90.04480   -0.11270    6.32430   -0.01990   18.93020    4.63460    0.00770    2.85880
 5107.00000   48.67300   91.73940   -0.08970    6.30910   -0.00940   33.80940    4.14020    0.02850    2.84290
 5107.50000   49.35470   93.25340   -0.07670    6.30890   -0.00030   34.26500    3.67520    0.03760    2.83790
 5108.00000   50.17090   94.32830   -0.07790    6.29370    0.01020   33.05440    3.45650    0.04120    2.83130
 5108.50000   50.67110   95.48340   -0.07310    6.29350    0.02080   37.29870    3.32070    0.05330    2.82550
 5109.00000   51.26150   96.09130   -0.06540    6.29330    0.03280   50.66200    3.33560    0.06320    2.82780
 5109.50000   51.89720   95.94680   -0.05970    6.27810    0.04260   61.65580    3.45600    0.06860    2.84060
 5110.00000   52.53280   94.89930   -0.07210    6.27790    0.04110   61.09090    3.49360    0.06980    2.81900
 5110.50000   52.94270   94.30180   -0.07450    6.26270    0.03050   43.06220    3.49340    0.05350    2.81220
 5111.00000   52.53870   94.30920   -0.06450    6.26250    0.01390   38.97250    3.47070    0.05290    2.81110
 5111.50000   52.40810   93.86370   -0.05870    6.26240   -0.00050   44.12580    3.41020    0.06140    2.81240
 5112.00000   52.15910   92.66570   -0.05690    6.26220    0.00360   47.46070    3.32720    0.07920    2.81360
 5112.50000   50.91800   91.46780   -0.05750    6.25590    0.00790   45.03790    3.33460    0.08040    2.81640
 5113.00000   48.94340   90.11930   -0.05750    6.24950   -0.00120   37.89270    3.39470    0.06250    2.82840
 5113.50000   46.91530   88.31940   -0.06770    6.24310   -0.00190   29.43500    3.44730    0.04050    2.87670
 5114.00000   46.33200   86.66990   -0.09120    6.23560   -0.00190   19.58800    3.53030    0.01670    2.92570
 5114.50000   46.38070   85.47200   -0.11150    6.20540    0.00030   14.28640    3.62320    0.01090    2.92970
 5115.00000   46.92600   84.87590   -0.12560    6.20540    0.01010   13.81770    3.79310    0.01030    2.90000
 5115.50000   47.95860   88.04220   -0.12710    6.20540    0.02520   15.65300    3.93660    0.01180    2.87590
 5116.00000   49.70580   92.15050   -0.12680    6.20540    0.03650   19.35400    3.86100    0.02180    2.86630
 5116.50000   51.04540   94.07370   -0.09940    6.20540    0.03570   26.16370    3.69510    0.02990    2.90750
 5117.00000   51.13930   93.28330   -0.08630    6.23560    0.02970   32.47580    3.73260    0.03350    2.93210
 5117.50000   50.82680   91.67910   -0.09050    6.25080    0.01760   33.30670    3.92840    0.03260    2.95200
 5118.00000   49.56630   89.57820   -0.13670    6.26590    0.02890   28.23640    4.05640    0.01870    2.95420
 5118.50000   48.17030   90.03560   -0.13910    6.25080    0.04250   24.75180    3.98080    0.01810    2.94010
 5119.00000   48.26420   91.54650   -0.13120    6.23560    0.02510   24.75450    3.70190    0.01900    2.88480
 5119.50000   49.89300   93.20780   -0.11460    6.22050    0.01460   25.42340    3.47560    0.02170    2.84150
 5120.00000   51.79270   95.77200   -0.09190    6.20540    0.01300   31.87910    3.27960    0.03140    2.81040
 5120.50000   54.18910   97.58390   -0.07950    6.20540    0.01460   39.23830    3.27190    0.04250    2.79580
 5121.00000   55.99850   99.09470   -0.05830    6.22050    0.01870   61.42730    3.32450    0.05330    2.78550
 5121.50000   54.87340  101.05700   -0.04260    6.23560    0.03790   71.43720    3.39220    0.07450    2.78370
 5122.00000   50.31720  102.11630   -0.04440    6.23560    0.05300   80.67270    3.46740    0.10880    2.81460
 5122.50000   50.00380  100.76790   -0.05160    6.23560    0.04770   70.05260    3.49740    0.10620    2.85450
 5123.00000   51.27240   97.46310   -0.06670    6.22050    0.02960   49.91850    3.49720    0.09410    2.86580
 5123.50000   50.05700   95.96410   -0.08150    6.20540    0.01530   32.19270    3.45070    0.05730    2.87160
 5124.00000   47.39690   94.61570   -0.09090    6.20540    0.00170   27.64870    3.44410    0.03250    2.85880
 5124.50000   47.76170   91.91280   -0.09260    6.20540    0.00470   27.04380    3.45160    0.03100    2.85450
 5125.00000   48.30700   87.85550   -0.09000    6.20540    0.00920   34.01530    3.42880    0.03370    2.85270
 5125.50000   48.40090   84.22480   -0.08110    6.20540    0.01150   37.95620    3.40600    0.03490    2.85370
 5126.00000   48.19920   83.20220   -0.07810    6.20540    0.00920   37.35170    3.37570    0.03400    2.86680
 5126.50000   47.16420   84.46110   -0.08170    6.20540    0.00090   30.38340    3.43590    0.03160    2.88380
 5127.00000   46.59750   85.17050   -0.08650    6.20540    0.00240   24.02130    3.61660    0.01920    2.89510
 5127.50000   46.47380   82.31860   -0.09430    6.20540    0.00540   19.93190    3.76710    0.01410    2.90610
 5128.00000   47.47150   82.62550   -0.11040    6.20540    0.00990   20.53940    3.73680    0.01340    2.90940
 5128.50000   49.77760   88.19960   -0.11360    6.20540    0.01370   22.66210    3.59350    0.01770    2.90660
 5129.00000   54.07010   97.23490   -0.10450    6.20540    0.01750   25.39510    3.45020    0.02250    2.79750
 5129.50000   57.64020  104.01280   -0.04560    6.20540    0.01970   30.21200    3.35960    0.03680    2.63410
 5130.00000   57.46320  108.23250    0.04510    6.20540    0.01970   39.32070    3.29160    0.08340    2.63130
 5130.50000   56.02210  107.78690    0.05330    6.19030    0.01590   47.66850    3.23870    0.11140    2.63460
 5131.00000   53.13630  105.38500    0.03790    6.19030    0.00760   49.48780    3.17830    0.11520    2.68530
