~Version ---------------------------------------------------
VERS.   2.0 : CWLS log ASCII Standard -VERSION 2.0
WRAP.    NO : One line per depth step
DLM . SPACE : Column Data Section Delimiter
~Well ------------------------------------------------------
STRT .F                  204.0 : START DEPTH
STOP .F                 5499.0 : STOP DEPTH
STEP .F                    0.5 : STEP
NULL .                -9999.25 : NULL VALUE
COMP .                         : COMPANY
WELL .                         : WELL
FLD  .                         : FIELD
LOC  .                         : LOCATION
PROV .                         : PROVINCE
CNTY .                         : COUNTY
STAT .                         : STATE
CTRY .                         : COUNTRY
SRVC .                         : SERVICE COMPANY
DATE .                         : DATE
UWI  .                         : UNIQUE WELL ID
API  .                         : API NUMBER
SLAT .WGS84 3.3151731759280025 : SURFACE LATITUDE
SLON .WGS84  8.949954479557988 : SURFACE LONGITUDE
DATUM.F                 3433.6 : DEPTH DATUM ELEV
~Curve Information -----------------------------------------
DEPT.F     : 
DTCO.US/F  : COMPRESSIONAL-WAVE INTERVAL TRANSIT TIME ACOUSTIC SLOWNESS
DTSM.US/F  : SHEAR-WAVE INTERVAL TRANSIT TIME DELTA-T
DPHZ.DEC   : DENSITY POROSITY LIMESTONE
HCAL.IN    : HILT CALIPER
HDRA.G/C3  : DELTA RHO HIP TOOL
HSGR.GAPI  : SPECTROSCOPY GAMMA RAY
PEFZ.B/E   : HILT PHOTOELECTRIC FACTOR
TNPH.DEC   : THERMAL NEUTRON POROSITY
RHOZ.G/C3  : HILT BULK DENSITY
~Params ----------------------------------------------------
~Other -----------------------------------------------------
~ASCII -----------------------------------------------------
# ...
 5314.00000   70.13730  133.92420    0.00570    6.23560    0.00310   57.31520    3.21360    0.14140    2.70180
 5314.50000   72.21900  138.74580    0.00510    6.22050    0.00690   59.76750    3.24350    0.14380    2.70030
 5315.00000   75.45740  141.91200    0.02110    6.22050    0.00840   72.19500    3.37150    0.16410    2.65880
 5315.50000   76.54900  143.27230    0.05020    6.20540    0.00230   83.07760    3.65770    0.19790    2.59170
 5316.00000   75.87400  142.97730    0.08100    6.20540   -0.00150   81.26080    3.86860    0.19760    2.57170
 5316.50000   73.21260  141.02690    0.08040    6.20540   -0.00300   73.83810    4.03420    0.18370    2.56780
 5317.00000   69.37730  134.71220    0.06830    6.20540   -0.00120   67.62750    4.16220    0.17020    2.57200
 5317.50000   66.26440  128.10900    0.06180    6.20540    0.00150   64.29560    4.26000    0.15040    2.58910
 5318.00000   61.48110  120.99140    0.05460    6.20540    0.00150   61.72130    4.33520    0.11420    2.61040
 5318.50000   57.73610  112.75960    0.03960    6.20540    0.00150   55.51070    4.43380    0.09100    2.63760
 5319.00000   55.21010  106.14400    0.02450    6.22050    0.00070   48.84550    4.51880    0.07230    2.66650
 5319.50000   52.86470  101.63530    0.01480    6.20540    0.00150   44.89480    4.65120    0.03940    2.69510
 5320.00000   52.55040   99.68490    0.00450    6.20540    0.00600   50.51510    4.80930    0.02820    2.71150
 5320.50000   52.55320   99.38830   -0.00420    6.20540    0.01350   61.74210    4.94480    0.02610    2.72200
 5321.00000   52.37480   98.79380   -0.00690    6.18940    0.02480   67.28630    5.03510    0.02330    2.72200
 5321.50000   51.97070   97.89680   -0.00210    6.17290    0.03160   68.55030    5.09520    0.02150    2.71770
 5322.00000   51.43120   97.30080    0.00060    6.12990    0.03540   68.09720    5.14030    0.02030    2.71190
 5322.50000   51.11450   96.70470   -0.00090    6.11480    0.03600   67.34110    5.18540    0.01750    2.70760
 5323.00000   50.65170   95.95820   -0.00730    6.11480    0.03450   65.22140    5.20030    0.01280    2.71210
 5323.50000   50.06990   94.91070   -0.01780    6.11480    0.02850   58.70770    5.20770    0.00940    2.73380
 5324.00000   49.81530   93.41180   -0.01150    6.14500    0.02240   55.52740    5.19140    0.00880    2.73480
 5324.50000   49.87470   92.51480   -0.00940    6.17520    0.01560   54.46830    5.13950    0.00490    2.73150
 5325.00000   50.04550   92.67120   -0.00910    6.19030    0.01180   57.50010    5.07910    0.00790    2.73100
 5325.50000   50.13750   92.97810   -0.01330    6.20540    0.01630   68.41060    4.94330    0.01000    2.73400
 5326.00000   49.05670   91.42400   -0.02180    6.22050    0.01780   72.20000    4.77740    0.01120    2.74620
 5326.50000   48.51720   89.74790   -0.04170    6.20540    0.01480   58.57550    4.54360    0.01180    2.77390
 5327.00000   48.11310   87.12830   -0.05380    6.20540    0.01330   46.41890    4.30990    0.01240    2.80030
 5327.50000   47.70900   86.53080   -0.05560    6.19030    0.01170   37.35630    4.15900    0.01270    2.81410
 5328.00000   47.48490   86.98970   -0.06030    6.16010    0.01330   33.87300    4.03070    0.01300    2.81910
 5328.50000   47.80370   87.89850   -0.06280    6.12990    0.01480   33.11650    4.04570    0.01420    2.82110
 5329.00000   48.39290   88.95790   -0.05920    6.11480    0.01170   34.02750    4.02190    0.01510    2.82010
 5329.50000   49.07230   90.16770   -0.05410    6.11480    0.01320   39.93800    4.03780    0.01670    2.79980
 5330.00000   49.79690   90.92610   -0.04440    6.11480    0.01700   57.18280    4.16580    0.02150    2.77190
 5330.50000   50.56660   90.93200   -0.03470    6.12990    0.01620   78.12390    4.27110    0.02390    2.75500
 5331.00000   51.11060   90.78600   -0.02330    6.14500    0.01320   92.51810    4.36140    0.02510    2.75120
 5331.50000   51.05260   90.04100   -0.02110    6.14500    0.00860   82.52000    4.32360    0.02390    2.76270
 5332.00000   50.75390   90.64880   -0.02330    6.14500    0.00860   60.85480    4.24810    0.02110    2.78060
 5332.50000   50.71090   91.40720   -0.04290    6.14500    0.01470   42.67450    4.16500    0.01870    2.78760
 5333.00000   50.89430   91.56360   -0.04320    6.14500    0.01610   37.06990    4.10460    0.01870    2.78580
 5333.50000   51.34800   91.87060   -0.03970    6.14500    0.01310   36.01040    4.05870    0.01930    2.77830
 5334.00000   51.80170   92.17760   -0.03140    6.14500    0.00930   37.98190    4.02040    0.02050    2.76620
 5334.50000   52.30050   92.63510   -0.02540    6.14500    0.00630   41.92280    4.00620    0.02270    2.74730
 5335.00000   52.75420   92.79280   -0.01990    6.12990    0.00470   47.07580    4.01360    0.02390    2.74300
 5335.50000   53.11760   92.79870   -0.01870    6.12990    0.00620   48.44090    3.99830    0.02480    2.74200
 5336.00000   53.39070   93.10560   -0.01990    6.12990    0.00700   47.98790    3.97560    0.02600    2.74200
 5336.50000   53.57350   93.56300   -0.01780    6.12990    0.00400   47.83780    3.98300    0.02690    2.74200
 5337.00000   53.84660   95.07380   -0.01480    6.12990    0.00240   48.95070    4.00540    0.02750    2.74000
 5337.50000   54.16490   97.03610   -0.01180    6.12990    0.00020   49.96240    4.02030    0.02810    2.73520
 5338.00000   54.43800   98.09550   -0.00570    6.14500   -0.00210   50.41840    4.05790    0.02840    2.72560
 5338.50000   54.57560   98.85380   -0.00640    6.14500    0.00010   51.32900    4.12600    0.02990    2.72650
 5339.00000   54.57790   99.31120   -0.01540    6.16010    0.00920   52.84560    4.19420    0.03320    2.73290
 5339.50000   54.62530   99.91910   -0.01900    6.16010    0.01590   61.32370    4.22320    0.03920    2.74140
 5340.00000   54.76890  100.97850   -0.01750    6.17520    0.01740   70.57580    4.24560    0.04890    2.73440
 5340.50000   55.03660  102.33880   -0.00880    6.16010    0.00990   66.04390    4.26060    0.05010    2.72940
 5341.00000   55.44510  103.24770   -0.01000    6.14500    0.00380   60.50210    4.26040    0.04500    2.72980
 5341.50000   55.98910  103.25660   -0.00940    6.14540    0.00000   58.30790    4.25270    0.04160    2.72980
 5342.00000   56.08160  102.50060   -0.00570    6.16010   -0.00150   65.58210    4.25260    0.04440    2.72330
 5342.50000   55.72270  102.06160    0.00510    6.16010   -0.00080   74.37140    4.28260    0.05310    2.71270
 5343.00000   54.68650  101.91700    0.00580    6.16010    0.00150   75.28160    4.38040    0.05430    2.70640
 5343.50000   53.46980  101.62190    0.00270    6.17520    0.00610   68.01080    4.60880    0.05100    2.70570
 5344.00000   52.83990  101.02740   -0.00290    6.17520    0.01050   61.49710    4.80830    0.04040    2.70720
 5344.50000   52.70620  100.28090   -0.02020    6.17520    0.01200   58.01340    4.98280    0.02620    2.72980
 5345.00000   52.84440   99.68490   -0.01990    6.17520    0.01050   61.50010    4.99780    0.01930    2.74560
 5345.50000   53.34320   99.23930   -0.01750    6.17520    0.01200   68.01670    4.95240    0.01900    2.74180
 5346.00000   53.79690   98.64330   -0.01180    6.17520    0.01570   73.47270    4.90700    0.02380    2.73150
 5346.50000   53.84820   98.64920   -0.00690    6.17520    0.01500   77.43900    4.85410    0.02980    2.72390
 5347.00000   53.57560   99.55810   -0.00510    6.17470    0.01190   78.77870    4.74090    0.03190    2.71690
 5347.50000   53.30410  100.16600    0.00180    6.17280    0.00810   76.50790    4.62770    0.03220    2.70810
 5348.00000   53.07940  100.02140    0.00450    6.17090    0.00590   71.05480    4.59740    0.03040    2.70560
 5348.50000   52.94340   98.52250    0.00300    6.16900    0.00590   68.48010    4.62790    0.02500    2.70650
 5349.00000   52.68220   98.07690   -0.00210    6.16710    0.00900   72.87590    4.68860    0.02370    2.71260
 5349.50000   52.32320   97.63130   -0.00090    6.16520    0.00960   76.66530    4.72510    0.02260    2.70850
 5350.00000   51.87760   97.18590    0.00690    6.16320    0.00600   77.57550    4.73250    0.02100    2.70270
