~Version ---------------------------------------------------
VERS.   2.0 : CWLS log ASCII Standard -VERSION 2.0
WRAP.    NO : One line per depth step
DLM . SPACE : Column Data Section Delimiter
~Well ------------------------------------------------------
STRT .F                  204.0 : START DEPTH
STOP .F                 5499.0 : STOP DEPTH
STEP .F                    0.5 : STEP
NULL .                -9999.25 : NULL VALUE
COMP .                         : COMPANY
WELL .                         : WELL
FLD  .                         : FIELD
LOC  .                         : LOCATION
PROV .                         : PROVINCE
CNTY .                         : COUNTY
STAT .                         : STATE
CTRY .                         : COUNTRY
SRVC .                         : SERVICE COMPANY
DATE .                         : DATE
UWI  .                         : UNIQUE WELL ID
API  .                         : API NUMBER
SLAT .WGS84 3.3151731759280025 : SURFACE LATITUDE
SLON .WGS84  8.949954479557988 : SURFACE LONGITUDE
DATUM.F                 3433.6 : DEPTH DATUM ELEV
~Curve Information -----------------------------------------
DEPT.F     : 
DTCO.US/F  : COMPRESSIONAL-WAVE INTERVAL TRANSIT TIME ACOUSTIC SLOWNESS
DTSM.US/F  : SHEAR-WAVE INTERVAL TRANSIT TIME DELTA-T
DPHZ.DEC   : DENSITY POROSITY LIMESTONE
HCAL.IN    : HILT CALIPER
HDRA.G/C3  : DELTA RHO HIP TOOL
HSGR.GAPI  : SPECTROSCOPY GAMMA RAY
PEFZ.B/E   : HILT PHOTOELECTRIC FACTOR
TNPH.DEC   : THERMAL NEUTRON POROSITY
RHOZ.G/C3  : HILT BULK DENSITY
~Params ----------------------------------------------------
~Other -----------------------------------------------------
~ASCII -----------------------------------------------------
# ...
 5022.00000   55.19870  102.39890   -0.08120    6.25920    0.00250   34.84850    4.07110    0.04450    2.92110
 5022.50000   56.87180  106.17010   -0.11500    6.25900    0.00180   30.45450    4.31950    0.04510    2.93060
 5023.00000   57.23570  106.15540   -0.12810    6.25890    0.00800   22.57580    4.53770    0.04390    2.92330
 5023.50000   56.24510  103.31220   -0.11890    6.25870    0.01910   20.00000    4.59020    0.04570    2.91760
 5024.00000   54.62250  101.79030   -0.11170    6.25860    0.01230   18.18180    4.44670    0.04470    2.91400
 5024.50000   51.19400   99.80710   -0.11860    6.25840   -0.00130   15.90910    4.31070    0.04000    2.91150
 5025.00000   48.08160   95.10460   -0.11700    6.27340    0.01300   14.39390    4.17480    0.02190    2.90310
 5025.50000   47.58700   92.38100   -0.11130    6.25810    0.01520   15.45450    4.03130    0.01910    2.89340
 5026.00000   48.26750   93.29290   -0.10400    6.24290    0.01820   17.42420    3.83510    0.02120    2.88710
 5026.50000   48.94740   92.39890   -0.10460    6.24270    0.02270   18.66180    3.69160    0.02420    2.88390
 5027.00000   49.31130   90.30100   -0.10250    6.24260    0.02800   20.48050    3.63100    0.03540    2.87780
 5027.50000   49.08820   90.00670   -0.09310    6.24240    0.03400   26.96970    3.54790    0.03930    2.88210
 5028.00000   48.63940   90.16840   -0.09550    6.24230    0.03170   28.03030    3.54000    0.04290    2.89060
 5028.50000   48.19060   88.22100   -0.10310    6.24210    0.02260   26.81820    3.65570    0.04380    2.89490
 5029.00000   47.83210   84.91920   -0.11000    6.24200    0.01730   20.30300    3.70520    0.03660    2.89490
 5029.50000   48.19600   85.68060   -0.11060    6.24180    0.01350   17.87880    3.64460    0.03450    2.89390
 5030.00000   49.82390   91.55860   -0.10180    6.24170    0.01960   18.33330    3.53880    0.03540    2.84540
 5030.50000   52.01220   95.63080   -0.05620    6.27170    0.02030   20.60610    3.43300    0.04320    2.72620
 5031.00000   52.89930   97.89700   -0.01450    6.28670    0.01420   23.48480    3.29700    0.06190    2.70970
 5031.50000   52.64230  101.96920    0.00250    6.30170    0.00660   23.64900    3.31930    0.07880    2.71990
 5032.00000   51.41540  104.38600    0.00340    6.33170    0.00060   19.84850    3.40950    0.07370    2.76620
 5032.50000   49.25110  102.89000   -0.03740    6.36180   -0.00400   14.67150    3.47700    0.05660    2.85820
 5033.00000   46.63520   97.93280   -0.08150    6.36160    0.00810   14.39390    3.50690    0.03380    2.86200
 5033.50000   46.77330   90.26680   -0.08330    6.36150    0.01410   15.30300    3.52160    0.03290    2.86120
 5034.00000   47.36290   88.74430   -0.08540    6.34620    0.01780   15.75760    3.57410    0.03570    2.85030
 5034.50000   48.22340   92.09060   -0.07300    6.33100    0.01710   15.90910    3.61900    0.04530    2.80390
 5035.00000   49.58050   96.46370   -0.03670    6.31570    0.01030   17.27270    3.59610    0.05620    2.67800
 5035.50000   52.51770  101.89030    0.03010    6.30040   -0.00180   21.36360    3.42710    0.07130    2.62120
 5036.00000   55.00340  106.86540    0.05310    6.30030   -0.00490   23.48480    3.30810    0.11740    2.62290
 5036.50000   54.87070  107.32580    0.03580    6.30010   -0.00180   21.81820    3.34640    0.11320    2.64610
 5037.00000   52.43540  105.77280   -0.04350    6.30000    0.01280   15.00000    3.44410    0.08720    2.91330
 5037.50000   47.45340  100.85330   -0.11610    6.28470    0.02700   11.06060    3.57950    0.05890    2.91100
 5038.00000   45.80400   94.62540   -0.11000    6.26950    0.02140    9.54550    3.65450    0.02960    2.88010
 5038.50000   45.95060   88.40140   -0.09430    6.26930    0.01240   10.49110    3.67680    0.02410    2.87370
 5039.00000   45.99060   84.49770   -0.09220    6.23900    0.00550   11.86890    3.71420    0.02170    2.87360
 5039.50000   45.99330   83.45100   -0.09160    6.22370    0.00400   12.42420    3.71390    0.02260    2.87830
 5040.00000   45.99590   84.06410   -0.09300    6.22360    0.01300   11.96970    3.70610    0.02320    2.88610
 5040.50000   45.99860   85.12650   -0.10000    6.22340    0.02060   11.66670    3.69820    0.02410    2.88610
 5041.00000   46.00130   84.98270   -0.10510    6.22330    0.02580   11.51520    3.71300    0.02620    2.87830
 5041.50000   46.04910   84.69070   -0.10270    6.22310    0.03030   13.63640    3.69770    0.02690    2.87330
 5042.00000   46.23240   85.75530   -0.09270    6.23810    0.02500   15.45450    3.65210    0.02800    2.86900
 5042.50000   46.46080   86.81760   -0.09090    6.25300    0.01970   16.81820    3.56900    0.02860    2.86780
 5043.00000   46.64400   87.12760   -0.09480    6.28310    0.01430   18.18180    3.48420    0.02860    2.86650
 5043.50000   46.91760   87.28700   -0.08540    6.29810    0.00770   19.54550    3.43270    0.02740    2.86000
 5044.00000   47.19120   87.59690   -0.07960    6.32810    0.00110   20.60610    3.55290    0.02530    2.85140
 5044.50000   47.57560   88.50880   -0.08080    6.32790   -0.00380   20.59390    3.68830    0.02320    2.85870
 5045.00000   48.30990   89.42070   -0.08600    6.32780   -0.00380   20.12620    3.70310    0.02230    2.86550
 5045.50000   49.18610   90.48370   -0.09440    6.32760    0.00000   19.39390    3.71030    0.02350    2.86950
 5046.00000   49.95620   90.94950   -0.09110    6.32750    0.00600   19.54550    3.77780    0.02530    2.86530
 5046.50000   51.04240   91.40410   -0.08740    6.32730    0.00290   21.96970    3.96590    0.02560    2.86200
 5047.00000   50.90970   91.56360   -0.09500    6.34230   -0.00010   24.39390    4.22180    0.02290    2.86880
 5047.50000   50.50600   91.39960   -0.10040    6.35720    0.00670   19.54550    4.65110    0.01440    2.94500
 5048.00000   50.10240   90.92400   -0.13230    6.35770    0.00820   13.33330    4.92210    0.00480    2.96080
 5048.50000   49.46980   90.53670   -0.14470    6.37370    0.00810    9.54550    5.08760   -0.00490    2.96580
 5049.00000   48.79850   90.24470   -0.14320    6.38700    0.01570   10.30300    4.94410   -0.00460    2.95800
 5049.50000   48.34970   89.95490   -0.13660    6.38680    0.01110   13.93940    4.68000   -0.00160    2.91860
 5050.00000   48.21630   89.78180   -0.09820    6.38670    0.00200   18.78790    4.34060    0.00870    2.85900
 5050.50000   48.21960   89.67030   -0.08640    6.38650   -0.00330   20.45450    4.29520    0.01140    2.85750
 5051.00000   48.53830   90.30050   -0.10130    6.38640   -0.00550   19.69700    4.32520    0.01260    2.89890
 5051.50000   48.95890   90.29000   -0.10730    6.38620    0.00980   20.90910    4.34020    0.01710    2.92940
 5052.00000   49.40520   90.14840   -0.13540    6.38610    0.04790   25.90910    4.25710    0.02530    2.92630
 5052.50000   49.85330   90.61100   -0.12630    6.40110    0.04640   33.78790    4.11380    0.02740    2.91260
 5053.00000   50.22460   91.82380   -0.12040    6.40090    0.04110   37.59510    4.06840    0.02590    2.91200
 5053.50000   50.86560   91.83270   -0.11980    6.40070    0.03280   34.69700    4.28700    0.01710    2.92910
 5054.00000   51.17700   91.84160   -0.13070    6.40060    0.02200   26.71580    4.74630    0.00700    2.98840
 5054.50000   51.44290   92.45240   -0.16910    6.41560    0.01920   18.11540    5.00990   -0.00490    2.99750
 5055.00000   51.58050   93.96620   -0.16670    6.41540    0.01990    8.63640    5.16050   -0.01150    2.99170
 5055.50000   51.67300   95.02850   -0.16190    6.41530    0.01160    7.57580    5.12270   -0.01250    2.98090
 5056.00000   51.62960   95.18570   -0.15950    6.41510    0.01230   10.45450    5.13010   -0.00970    2.97360
 5056.50000   51.58660   94.59440   -0.15470    6.41740    0.01310   13.93940    5.13750   -0.00700    2.97130
 5057.00000   51.45400   94.00150   -0.15560    6.42150    0.01080   13.48480    5.17500   -0.00670    2.97060
 5057.50000   51.14020   93.40860   -0.17070    6.42560    0.01750   11.06060    5.30290   -0.00940    2.97360
 5058.00000   50.55550   92.66340   -0.18470    6.42960    0.01750    6.06060    5.40830   -0.01430    3.02460
