~Version ---------------------------------------------------
VERS.   2.0 : CWLS log ASCII Standard -VERSION 2.0
WRAP.    NO : One line per depth step
DLM . SPACE : Column Data Section Delimiter
~Well ------------------------------------------------------
STRT .F                  204.0 : START DEPTH
STOP .F                 5499.0 : STOP DEPTH
STEP .F                    0.5 : STEP
NULL .                -9999.25 : NULL VALUE
COMP .                         : COMPANY
WELL .                         : WELL
FLD  .                         : FIELD
LOC  .                         : LOCATION
PROV .                         : PROVINCE
CNTY .                         : COUNTY
STAT .                         : STATE
CTRY .                         : COUNTRY
SRVC .                         : SERVICE COMPANY
DATE .                         : DATE
UWI  .                         : UNIQUE WELL ID
API  .                         : API NUMBER
SLAT .WGS84 3.3151731759280025 : SURFACE LATITUDE
SLON .WGS84  8.949954479557988 : SURFACE LONGITUDE
DATUM.F                 3433.6 : DEPTH DATUM ELEV
~Curve Information -----------------------------------------
DEPT.F     : 
DTCO.US/F  : COMPRESSIONAL-WAVE INTERVAL TRANSIT TIME ACOUSTIC SLOWNESS
DTSM.US/F  : SHEAR-WAVE INTERVAL TRANSIT TIME DELTA-T
DPHZ.DEC   : DENSITY POROSITY LIMESTONE
HCAL.IN    : HILT CALIPER
HDRA.G/C3  : DELTA RHO HIP TOOL
HSGR.GAPI  : SPECTROSCOPY GAMMA RAY
PEFZ.B/E   : HILT PHOTOELECTRIC FACTOR
TNPH.DEC   : THERMAL NEUTRON POROSITY
RHOZ.G/C3  : HILT BULK DENSITY
~Params ----------------------------------------------------
~Other -----------------------------------------------------
~ASCII -----------------------------------------------------
# ...
 4912.50000   52.34760  107.00540   -0.11410    6.41690    0.01370   21.35240    4.59000    0.02200    2.97130
 4913.00000   52.48580  102.79910   -0.14800    6.43200    0.01390   13.07000    4.95930   -0.00160    2.99160
 4913.50000   51.94720   98.59290   -0.16430    6.43200    0.01070    7.92000    5.23820   -0.00640    2.99740
 4914.00000   51.81380   98.60050   -0.16700    6.44710    0.00840    4.73970    5.30580   -0.01000    2.99460
 4914.50000   52.26860   99.11080   -0.16970    6.46220    0.00760    3.83170    5.26790   -0.01040    2.97120
 4915.00000   52.67760  100.72380   -0.16310    6.46220    0.00910    5.04570    5.22250   -0.00700    2.95060
 4915.50000   53.22200  102.08560   -0.15280    6.47730    0.01440    9.89570    5.18200    0.00380    2.93670
 4916.00000   54.48880  103.29690   -0.13950    6.47730    0.02490   15.95780    4.95070    0.01400    2.93250
 4916.50000   56.29730  104.05670   -0.13340    6.46220    0.03620   20.80770    4.78440    0.02760    2.92850
 4917.00000   58.10580  103.46220   -0.13220    6.43200    0.05130   22.93050    4.76920    0.03390    2.86340
 4917.50000   58.96630  102.86580   -0.12250    6.41690    0.06560   25.81070    4.82170    0.03950    2.85280
 4918.00000   57.88540  103.47700   -0.08360    6.41450    0.06940   28.84250    4.79130    0.06090    2.86590
 4918.50000   56.71430  104.23690   -0.08900    6.40180    0.04820   28.38950    4.57240    0.06480    2.86940
 4919.00000   55.27220  103.49180   -0.09950    6.38670    0.02110   24.45160    4.31580    0.05790    2.84900
 4919.50000   53.46040  101.99430   -0.10040    6.38670    0.00520   19.60460    4.29300    0.03650    2.81960
 4920.00000   53.81750  101.70050   -0.08810    6.38670    0.01650   18.50470    4.30040    0.03220    2.81560
 4920.50000   55.68720  104.26650   -0.06710    6.38670    0.03610   24.30460    4.39060    0.04250    2.84980
 4921.00000   56.09620  103.97290   -0.06980    6.38670    0.05540   33.54840    4.47340    0.05090    2.95460
 4921.50000   56.27880  103.52890   -0.10160    6.40180    0.06550   31.58060    4.53440    0.04460    2.95910
 4922.00000   55.24370  103.38580   -0.13510    6.40180    0.05490   23.70330    4.67550    0.03310    2.95810
 4922.50000   55.20060  105.15880   -0.14870    6.40180   -0.00540   12.49260    5.03830    0.00110    2.93860
 4923.00000   56.82920  108.66960   -0.14610    6.40180   -0.02810    9.46380    5.10600    0.00020    2.89880
 4923.50000   59.81150  111.08480   -0.12740    6.40180    0.00590   11.13200    5.15860    0.00380    2.82490
 4924.00000   62.70360  112.89810   -0.09880    6.40180    0.02620   21.28500    4.90950    0.01470    2.77940
 4924.50000   62.52570  113.20460   -0.04650    6.40180    0.03150   31.28650    4.32100    0.05940    2.76960
 4925.00000   60.67730  108.09720   -0.03900    6.41690    0.02620   32.95430    3.95130    0.09860    2.77580
 4925.50000   56.59090  106.90070   -0.03840    6.43200    0.01940   26.74400    3.66450    0.09670    2.82030
 4926.00000   49.98330  103.89840   -0.05950    6.46400    0.01260   21.59400    3.49840    0.07490    2.84520
 4926.50000   48.18010   98.48820   -0.07760    6.49520    0.00880   17.50460    3.52840    0.05140    2.84820
 4927.00000   46.96380   91.12160   -0.08210    6.53780    0.00500   14.77880    3.56590    0.02890    2.85330
 4927.50000   46.24340   81.34720   -0.08240    6.49240    0.00120   13.87120    3.58070    0.02470    2.85800
 4928.00000   45.97590   80.13280   -0.08580    6.44710    0.00280   14.78180    3.56450    0.02560    2.85800
 4928.50000   46.15910   82.26500   -0.08870    6.38670    0.00580   16.45000    3.54260    0.02680    2.85470
 4929.00000   46.79390   86.48970   -0.08590    6.34140    0.00420   17.21510    3.58010    0.02710    2.84970
 4929.50000   47.56400   90.42670   -0.08210    6.31120    0.00110   17.66520    3.61760    0.02710    2.84370
 4930.00000   48.15360   91.82760   -0.07510    6.29610   -0.00190   18.48350    3.65510    0.02770    2.83760
 4930.50000   49.91700   94.63660   -0.07390    6.29610   -0.00270   19.81690    3.71520    0.02950    2.84090
 4931.00000   52.76960   97.80420   -0.07900    6.29610    0.00110   20.09420    3.80550    0.03040    2.86550
 4931.50000   55.67510  100.82140   -0.10510    6.29610    0.00560   20.55030    4.12960    0.02860    2.88140
 4932.00000   58.78830  103.08620   -0.10710    6.29610    0.01010   23.88510    4.40090    0.02980    2.85150
 4932.50000   59.63480  106.10330   -0.07900    6.29610    0.01160   29.34110    4.64190    0.03550    2.83000
 4933.00000   59.41180  107.61560   -0.06900    6.29610    0.00410   34.94830    4.67190    0.04610    2.83830
 4933.50000   58.78240  107.92220   -0.08010    6.28100   -0.00120   33.43510    4.68680    0.04580    2.90020
 4934.00000   57.79180  104.77120   -0.10650    6.28100    0.00180   22.83050    4.82990    0.03890    2.92360
 4934.50000   56.12400  100.86590   -0.12880    6.26380    0.01700   16.61990    4.87500    0.01860    2.92760
 4935.00000   54.50140   97.71300   -0.12450    6.25080    0.02530   17.68200    4.74650    0.02580    2.90980
 4935.50000   53.10450   95.01160   -0.09610    6.25080    0.02960   21.62290    4.43710    0.04680    2.87980
 4936.00000   51.52710   92.46070   -0.09880    6.25080    0.02660   20.56380    3.89390    0.05310    2.88890
 4936.50000   49.94960   90.51170   -0.11150    6.25080    0.01600   16.92890    3.66750    0.04430    2.90020
 4937.00000   48.82360   90.06470   -0.11270    6.25080    0.00390   16.32390    3.65220    0.03070    2.86720
 4937.50000   48.51020   89.77410   -0.08370    6.25080   -0.00440   18.75010    3.65950    0.02710    2.84030
 4938.00000   48.78380   89.78180   -0.07370    6.25080   -0.00360   21.93340    3.63600    0.02950    2.84210
 4938.50000   49.47980   90.24220   -0.07730    6.25080    0.00090   25.26820    3.60510    0.03770    2.85290
 4939.00000   50.65810   91.60400   -0.09060    6.25080    0.01440   26.63330    3.61360    0.04070    2.85690
 4939.50000   52.04300   93.11630   -0.09090    6.25080    0.01670   29.06810    3.65110    0.04370    2.85490
 4940.00000   52.31650   91.46840   -0.07370    6.28100    0.01360   30.75780    3.71120    0.04460    2.83480
 4940.50000   52.59010   89.97090   -0.07000    6.31120    0.00610   30.88030    3.91890    0.04340    2.86470
 4941.00000   53.54080   91.48320   -0.08300    6.34140   -0.00350   27.21310    4.33670    0.03700    2.91240
 4941.50000   54.13040   97.51020   -0.12650    6.37160   -0.00830   17.85330    4.59290    0.01950    2.91120
 4942.00000   53.04950  101.58080   -0.12080    6.38670    0.00600   12.40030    4.65310    0.01860    2.78630
 4942.50000   50.97540  103.84550   -0.06000    6.38670    0.01510   16.03810    4.47190    0.02770    2.71130
 4943.00000   49.17220  108.06660    0.00300    6.38670    0.02410   23.76690    4.16180    0.07900    2.70350
 4943.50000   47.91080  109.57890   -0.00950    6.38670    0.03090   26.64680    3.78520    0.09710    2.74450
 4944.00000   47.32650  106.72700   -0.05510    6.37160    0.02410   23.61840    3.51210    0.09170    2.85590
 4944.50000   47.19370  102.06930   -0.08960    6.34140    0.01430   20.43810    3.49070    0.06540    2.86170
 4945.00000   47.24160   96.91220   -0.09050    6.31120    0.00820   19.83310    3.49800    0.03950    2.86170
 4945.50000   47.74730   92.06570   -0.09230    6.28100    0.01650   21.50170    3.50530    0.03890    2.85890
 4946.00000   48.81470   90.15520   -0.09350    6.25080    0.02180   23.47290    3.48250    0.03890    2.84510
 4946.50000   50.23960   90.66360   -0.08070    6.25080    0.01850   25.44410    3.45210    0.03920    2.84170
 4947.00000   51.72240   93.07880   -0.07410    6.25080    0.01120   27.11220    3.42930    0.03980    2.84130
 4947.50000   53.16980   96.54750   -0.07230    6.25080    0.00510   28.78040    3.45170    0.04520    2.84080
 4948.00000   54.48170   99.41420   -0.07740    6.26590    0.00740   29.69100    3.48920    0.05370    2.84130
 4948.50000   55.92900  101.67890   -0.08010    6.28100    0.01190   31.51070    3.48140    0.06570    2.84050
