~Version ---------------------------------------------------
VERS.   2.0 : CWLS log ASCII Standard -VERSION 2.0
WRAP.    NO : One line per depth step
DLM . SPACE : Column Data Section Delimiter
~Well ------------------------------------------------------
STRT .F                  204.0 : START DEPTH
STOP .F                 5499.0 : STOP DEPTH
STEP .F                    0.5 : STEP
NULL .                -9999.25 : NULL VALUE
COMP .                         : COMPANY
WELL .                         : WELL
FLD  .                         : FIELD
LOC  .                         : LOCATION
PROV .                         : PROVINCE
CNTY .                         : COUNTY
STAT .                         : STATE
CTRY .                         : COUNTRY
SRVC .                         : SERVICE COMPANY
DATE .                         : DATE
UWI  .                         : UNIQUE WELL ID
API  .                         : API NUMBER
SLAT .WGS84 3.3151731759280025 : SURFACE LATITUDE
SLON .WGS84  8.949954479557988 : SURFACE LONGITUDE
DATUM.F                 3433.6 : DEPTH DATUM ELEV
~Curve Information -----------------------------------------
DEPT.F     : 
DTCO.US/F  : COMPRESSIONAL-WAVE INTERVAL TRANSIT TIME ACOUSTIC SLOWNESS
DTSM.US/F  : SHEAR-WAVE INTERVAL TRANSIT TIME DELTA-T
DPHZ.DEC   : DENSITY POROSITY LIMESTONE
HCAL.IN    : HILT CALIPER
HDRA.G/C3  : DELTA RHO HIP TOOL
HSGR.GAPI  : SPECTROSCOPY GAMMA RAY
PEFZ.B/E   : HILT PHOTOELECTRIC FACTOR
TNPH.DEC   : THERMAL NEUTRON POROSITY
RHOZ.G/C3  : HILT BULK DENSITY
~Params ----------------------------------------------------
~Other -----------------------------------------------------
~ASCII -----------------------------------------------------
# ...
 5131.50000   46.68300  101.92970   -0.00890    6.17520    0.00080   43.88360    3.24190    0.09280    2.80150
 5132.00000   47.27430   98.32390   -0.05000    6.17520   -0.00070   42.06690    3.31500    0.05480    2.82110
 5132.50000   47.41250   90.20350   -0.06570    6.17520   -0.00070   42.21990    3.32860    0.04120    2.82960
 5133.00000   46.92030   85.69470   -0.06570    6.17520    0.00530   41.76680    3.35100    0.04060    2.87110
 5133.50000   46.60700   84.34630   -0.07570    6.17520    0.01130   36.16230    3.42620    0.03910    2.89040
 5134.00000   46.11480   84.65320   -0.09490    6.17520    0.01060   28.73950    3.53160    0.03150    2.88860
 5134.50000   45.89270   84.50510   -0.10460    6.17520    0.00680   25.55920    3.58420    0.02060    2.85590
 5135.00000   45.76080   83.60160   -0.08610    6.19030   -0.00150   25.71220    3.59910    0.01790    2.85040
 5135.50000   45.67400   82.82840   -0.08130    6.19030   -0.00460   25.56220    3.51600    0.01760    2.86570
 5136.00000   45.76900   82.09270   -0.07910    6.19030    0.00220   24.50310    3.44050    0.01850    2.87830
 5136.50000   45.86190   82.57750   -0.09520    6.19030    0.00450   21.17120    3.43290    0.01850    2.86870
 5137.00000   45.91060   83.18540   -0.09270    6.19030    0.00370   18.89100    3.50810    0.01820    2.86870
 5137.50000   46.01950   84.09430   -0.09090    6.19030    0.00300   17.67680    3.59080    0.01880    2.86920
 5138.00000   47.09240   85.45460   -0.09140    6.19030    0.01650   17.53930    3.62080    0.02090    2.86990
 5138.50000   48.90180   88.16940   -0.09140    6.20540    0.02180   21.02610    3.58300    0.02640    2.86110
 5139.00000   51.43360   91.93750   -0.08990    6.20540    0.02260   25.27000    3.50700    0.04000    2.83770
 5139.50000   52.61100   96.60870   -0.07810    6.20540    0.01800   40.89890    3.38390    0.05240    2.82110
 5140.00000   53.38200   97.06460   -0.05840    6.20540    0.01350   66.93950    3.31880    0.06980    2.80570
 5140.50000   53.11470   96.01860   -0.05150    6.20540    0.00900   73.60730    3.35630    0.08120    2.80170
 5141.00000   51.89930   94.21860   -0.05360    6.20540    0.00520   66.94250    3.45410    0.07790    2.81180
 5141.50000   50.18730   91.51580   -0.06470    6.20540    0.00140   55.12580    3.47660    0.06400    2.83810
 5142.00000   47.16610   89.71590   -0.07920    6.20540   -0.00010   34.21820    3.47640    0.04560    2.85240
 5142.50000   45.90550   89.27030   -0.08100    6.20540    0.00210   19.19810    3.49130    0.02690    2.86090
 5143.00000   45.95420   88.07240   -0.08280    6.20540    0.00890   18.16060    3.54390    0.01990    2.87100
 5143.50000   46.13840   84.91800   -0.09240    6.20540    0.01420   20.62000    3.62670    0.01630    2.88680
 5144.00000   46.63860   82.81710   -0.10960    6.20540    0.01490   24.83060    3.65670    0.01480    2.90060
 5144.50000   47.09360   84.38780   -0.11140    6.20540    0.01120   25.28630    3.67910    0.01420    2.91040
 5145.00000   47.72920   87.12170   -0.11230    6.20540    0.00660   25.13620    3.70160    0.01390    2.91520
 5145.50000   48.45520   89.24110   -0.11740    6.20540    0.00960   26.19870    3.73160    0.01570    2.91570
 5146.00000   48.91020   89.91540   -0.11830    6.19030    0.00870   27.71530    3.85950    0.01780    2.91570
 5146.50000   48.86830   90.07180   -0.11920    6.19030    0.00660   28.17100    4.03270    0.01990    2.91560
 5147.00000   48.31880   89.77670   -0.11920    6.17520    0.00360   26.05170    4.15310    0.02080    2.91510
 5147.50000   47.45400   87.37490   -0.11850    6.17520    0.00060   22.26530    4.10700    0.01930    2.89670
 5148.00000   46.46030   85.72540   -0.11680    6.17520    0.00660   19.99400    3.97190    0.01800    2.87490
 5148.50000   46.58130   85.88190   -0.09890    6.17520    0.00730   19.84360    3.69370    0.01780    2.86080
 5149.00000   47.03630   85.58680   -0.08770    6.17520    0.00360   22.42130    3.57980    0.02110    2.86200
 5149.50000   47.53650   84.53930   -0.08550    6.17520    0.00130   26.05910    3.56460    0.02440    2.87030
 5150.00000   47.74040   84.39330   -0.09120    6.17570    0.00510   28.93940    3.57190    0.03130    2.88090
 5150.50000   47.98810   85.77680   -0.09160    6.17840    0.00500   29.09240    3.60190    0.03160    2.89520
 5151.00000   47.86030   86.21790   -0.09460    6.18120    0.00650   27.16390    3.79590    0.02890    2.90340
 5151.50000   47.45620   85.32610   -0.10610    6.18390    0.01260   23.18670    3.94070    0.02620    2.89940
 5152.00000   47.18700   85.63600   -0.11230    6.18670    0.01860   20.15790    3.95570    0.02320    2.88150
 5152.50000   47.37040   86.99930   -0.10920    6.18950    0.02310   17.28060    3.84250    0.02140    2.87620
 5153.00000   47.59830   88.81400   -0.09780    6.20540    0.01920   17.73660    3.69910    0.02170    2.86190
 5153.50000   47.82620   88.22090   -0.09050    6.20540    0.01470   21.22290    3.62360    0.02530    2.84760
 5154.00000   48.05420   88.07710   -0.07920    6.20540    0.00860   28.42660    3.55570    0.02950    2.84580
 5154.50000   47.96360   88.84070   -0.07760    6.20540    0.00410   37.42420    3.57060    0.03410    2.86260
 5155.00000   47.63410   87.94660   -0.09550    6.19030    0.00480   35.55320    3.78900    0.02980    2.89080
 5155.50000   46.43610   85.69820   -0.11090    6.19030    0.00860   24.50320    3.89430    0.02470    2.90360
 5156.00000   45.98690   84.05170   -0.11130    6.17520    0.00780   16.33720    3.95450    0.01410    2.90480
 5156.50000   46.30510   84.96350   -0.10980    6.19030    0.00550   16.81820    3.84880    0.01170    2.90530
 5157.00000   47.30050   89.63760   -0.11290    6.19030    0.00620   20.30300    3.72060    0.01400    2.91530
 5157.50000   49.60520   94.91360   -0.12010    6.19030    0.01010   22.27270    3.63750    0.01930    2.91760
 5158.00000   52.49680   99.90660   -0.11590    6.20540    0.01540   23.78790    3.60710    0.02410    2.88540
 5158.50000   53.26650  105.08240   -0.06340    6.23560    0.03410   28.03030    3.57640    0.03590    2.82630
 5159.00000   53.13330  109.38720   -0.00390    6.25080    0.06650   36.86140    3.51990    0.07640    2.69350
 5159.50000   51.80120  107.59240    0.01270    6.26590    0.08230   52.12120    3.32790    0.10750    2.70240
 5160.00000   49.09140  104.59160    0.00140    6.26590    0.07320   53.93940    3.29010    0.11200    2.82850
 5160.50000   46.72930  101.13920   -0.04030    6.25080    0.04230   43.63640    3.35020    0.09150    2.88630
 5161.00000   46.27950   98.58980   -0.10320    6.25080    0.03250   32.42420    3.43300    0.04320    2.88990
 5161.50000   46.59830   96.19080   -0.10980    6.23560    0.02410   30.15150    3.48560    0.02960    2.86720
 5162.00000   47.36800   93.79190   -0.08300    6.23560    0.01200   42.27270    3.38750    0.03110    2.85010
 5162.50000   48.36340   91.84440   -0.07910    6.22050    0.00300   57.57580    3.31950    0.03590    2.85030
 5163.00000   48.82080   93.05720   -0.08520    6.20540    0.00280   62.50570    3.32690    0.03800    2.86690
 5163.50000   48.90970   93.66580   -0.09550    6.20540    0.01350   55.75760    3.36440    0.03680    2.88370
 5164.00000   48.95750   92.32030   -0.10340    6.20540    0.03230   43.63640    3.37940    0.03560    2.88040
 5164.50000   49.05000   92.93340   -0.08740    6.20540    0.03610   38.60680    3.37920    0.03960    2.84300
 5165.00000   49.27800   93.84520   -0.07500    6.20540    0.02590   34.44020    3.42430    0.04280    2.83510
 5165.50000   49.50590   93.10170   -0.07080    6.20540    0.01590   27.54980    3.51450    0.04620    2.83810
 5166.00000   49.86930   92.96010   -0.07600    6.19030    0.00660   22.57580    3.57490    0.04290    2.83610
 5166.50000   50.32300   93.62580   -0.07570    6.19030    0.00580   28.78790    3.55120    0.04350    2.82080
 5167.00000   50.82180   95.13140   -0.06820    6.19030    0.00500   35.15150    3.49670    0.04710    2.80540
 5167.50000   50.73370   94.04240   -0.06040    6.19030    0.00500   42.72730    3.38580    0.06430    2.80720
