~Version ---------------------------------------------------
VERS.   2.0 : CWLS log ASCII Standard -VERSION 2.0
WRAP.    NO : One line per depth step
DLM . SPACE : Column Data Section Delimiter
~Well ------------------------------------------------------
STRT .F                  204.0 : START DEPTH
STOP .F                 5499.0 : STOP DEPTH
STEP .F                    0.5 : STEP
NULL .                -9999.25 : NULL VALUE
COMP .                         : COMPANY
WELL .                         : WELL
FLD  .                         : FIELD
LOC  .                         : LOCATION
PROV .                         : PROVINCE
CNTY .                         : COUNTY
STAT .                         : STATE
CTRY .                         : COUNTRY
SRVC .                         : SERVICE COMPANY
DATE .                         : DATE
UWI  .                         : UNIQUE WELL ID
API  .                         : API NUMBER
SLAT .WGS84 3.3151731759280025 : SURFACE LATITUDE
SLON .WGS84  8.949954479557988 : SURFACE LONGITUDE
DATUM.F                 3433.6 : DEPTH DATUM ELEV
~Curve Information -----------------------------------------
DEPT.F     : 
DTCO.US/F  : COMPRESSIONAL-WAVE INTERVAL TRANSIT TIME ACOUSTIC SLOWNESS
DTSM.US/F  : SHEAR-WAVE INTERVAL TRANSIT TIME DELTA-T
DPHZ.DEC   : DENSITY POROSITY LIMESTONE
HCAL.IN    : HILT CALIPER
HDRA.G/C3  : DELTA RHO HIP TOOL
HSGR.GAPI  : SPECTROSCOPY GAMMA RAY
PEFZ.B/E   : HILT PHOTOELECTRIC FACTOR
TNPH.DEC   : THERMAL NEUTRON POROSITY
RHOZ.G/C3  : HILT BULK DENSITY
~Params ----------------------------------------------------
~Other -----------------------------------------------------
~ASCII -----------------------------------------------------
# ...
 5241.00000   47.97940   86.34010   -0.05680    6.19030    0.00230   16.96970    3.57730    0.01260    2.81740
 5241.50000   48.30560   86.19630   -0.06070    6.19030    0.00460   18.03030    3.59840    0.01770    2.83000
 5242.00000   49.45640   87.11040   -0.07160    6.19030    0.00760   21.21210    3.60570    0.01920    2.83800
 5242.50000   50.72420   89.82810   -0.07230    6.19030    0.01130   28.33330    3.60550    0.02140    2.83130
 5243.00000   52.51330   92.39530   -0.06370    6.19030    0.01510   35.45450    3.58260    0.02650    2.81570
 5243.50000   54.31380   94.05960   -0.06100    6.19030    0.02030   45.99880    3.52970    0.03440    2.81260
 5244.00000   55.04170   95.57340   -0.06010    6.19030    0.02330   57.06630    3.52940    0.05490    2.81190
 5244.50000   55.13510   97.38820   -0.06010    6.19030    0.02110   59.09090    3.52170    0.07330    2.81240
 5245.00000   54.86740   98.30000   -0.05980    6.19030    0.01730   48.78790    3.44610    0.07810    2.81260
 5245.50000   54.23840   98.78640   -0.05950    6.20540    0.01270   36.51520    3.34040    0.07810    2.81260
 5246.00000   53.47410   97.41490   -0.05440    6.20540    0.01580   26.51520    3.30250    0.06750    2.80200
 5246.50000   52.39370   96.21980   -0.04890    6.20540    0.01560   24.24240    3.34940    0.06090    2.79400
 5247.00000   51.40360   93.67040   -0.04530    6.20540    0.01120   23.93940    3.45530    0.05760    2.79830
 5247.50000   50.27810   90.19500   -0.05170    6.20540    0.00890   22.57580    3.52780    0.05280    2.80030
 5248.00000   49.42340   88.72210   -0.05110    6.20540    0.00360   17.72730    3.58790    0.04220    2.80050
 5248.50000   48.97510   89.35780   -0.05050    6.20540   -0.00400   15.30300    3.61780    0.03430    2.80230
 5249.00000   49.11360   90.39750   -0.05140    6.20540   -0.00850   16.06060    3.69300    0.03340    2.82870
 5249.50000   49.97460   91.30930   -0.07550    6.20540   -0.00100   22.42420    3.68520    0.03340    2.84730
 5250.00000   51.46750   92.52220   -0.07790    6.20540    0.00880   34.84850    3.54250    0.03740    2.85110
 5250.50000   52.62890   93.84920   -0.07190    6.20540    0.01330   56.51520    3.35220    0.04730    2.81290
 5251.00000   53.87800   95.57540   -0.04440    6.20640    0.00730   73.12760    3.29830    0.06330    2.77410
 5251.50000   54.18970   96.32820   -0.03140    6.20960    0.00350   78.78790    3.25500    0.08260    2.75750
 5252.00000   54.00500   96.61550   -0.02690    6.21290    0.00200   67.12120    3.21720    0.09530    2.75430
 5252.50000   53.51060   96.77340   -0.03080    6.21620    0.00120   46.21210    3.14920    0.09680    2.75380
 5253.00000   53.33170   97.38280   -0.02750    6.21960    0.00350   25.30300    3.11890    0.08870    2.75300
 5253.50000   53.83110   97.84170   -0.02510    6.21950    0.00650   18.03030    3.10370    0.08080    2.75220
 5254.00000   54.60080   96.79570   -0.02480    6.21930    0.00950   18.78790    3.11860    0.08050    2.74720
 5254.50000   55.35480   96.05070   -0.02080    6.21920    0.00940   21.22720    3.19380    0.08380    2.74240
 5255.00000   56.23920   95.90580   -0.01420    6.20390    0.00640   26.05940    3.27660    0.09300    2.73410
 5255.50000   57.12360   97.87140    0.01840    6.18870    0.00110   30.86620    3.35930    0.09960    2.67230
 5256.00000   58.17650  101.03910    0.03930    6.18850   -0.00190   32.57580    3.44200    0.09980    2.64410
 5256.50000   59.08160  104.80880    0.04080    6.18830   -0.00190   31.81820    3.40420    0.09290    2.64360
 5257.00000   59.98680  107.82600    0.03410    6.18820    0.00410   35.90910    3.33620    0.08930    2.64740
 5257.50000   60.84680  111.29470    0.02050    6.20320    0.00560   49.54550    3.26790    0.09020    2.66620
 5258.00000   61.43600  112.20320    0.01930    6.20300    0.00630   61.66670    3.25310    0.10350    2.67430
 5258.50000   61.61880  111.30950    0.02660    6.20290    0.01230   64.09090    3.29810    0.14450    2.67020
 5259.00000   60.98900  108.75870    0.02840    6.21780    0.01990   55.15150    3.28290    0.15870    2.66700
 5259.50000   59.09500  107.26120    0.01150    6.21770    0.02290   41.36360    3.21590    0.16110    2.66620
 5260.00000   56.88510  108.32200   -0.01990    6.21750    0.01830   31.06060    3.13640    0.14570    2.72610
 5260.50000   56.02890  110.91110   -0.02020    6.21740    0.01230   21.51520    3.07140    0.12790    2.74690
 5261.00000   57.25070  111.94880   -0.01960    6.21720    0.00620   19.84850    3.09390    0.09860    2.74660
 5261.50000   59.32970  111.93370   -0.01510    6.21710   -0.00060   23.07500    3.15400    0.09290    2.74310
 5262.00000   62.49220  110.61100   -0.00420    6.21690    0.00770   33.73960    3.20660    0.09260    2.72180
 5262.50000   63.71710  110.16510    0.02630    6.21680    0.00690   55.60610    3.22160    0.09940    2.65590
 5263.00000   63.35440  110.62580    0.04440    6.21660    0.00320   81.51520    3.20630    0.15920    2.63680
 5263.50000   62.90300  111.08470    0.04260    6.21650   -0.00140   75.75760    3.18360    0.17170    2.63780
 5264.00000   62.16990  112.14560    0.03780    6.21630   -0.00220   57.57580    3.16080    0.16290    2.64660
 5264.50000   60.58120  115.16280    0.03780    6.21610    0.00420   43.78790    3.20590    0.09410    2.65260
 5265.00000   56.44870  118.93250    0.03600    6.21600    0.01820   42.27270    3.25090    0.09110    2.65080
 5265.50000   56.05180  119.99330    0.02980    6.21580    0.04940   52.87880    3.28090    0.11040    2.65390
 5266.00000   56.46090  119.39880    0.02410    6.23080    0.07170   62.42420    3.29590    0.19800    2.66490
 5266.50000   56.82430  115.79450    0.01000    6.21550    0.06490   56.06060    3.29570    0.23270    2.68980
 5267.00000   56.32990  111.13670   -0.00660    6.21540    0.05430   46.06060    3.28050    0.20580    2.71590
 5267.50000   54.39080  103.92070   -0.01300    6.21520    0.03700   31.48130    3.30380    0.15120    2.75170
 5268.00000   51.23280   98.20950   -0.02270    6.20000    0.00830   25.82220    3.35080    0.07900    2.77050
 5268.50000   49.74520   91.44500   -0.02960    6.18470   -0.00230   21.56280    3.42320    0.04790    2.78150
 5269.00000   49.47600   87.08820   -0.03930    6.18460   -0.00310   19.24240    3.48330    0.04160    2.78960
 5269.50000   49.79480   89.50350   -0.04770    6.15420    0.00140   18.93940    3.51330    0.03980    2.79590
 5270.00000   50.70000   93.12270   -0.04920    6.15410    0.00670   20.15150    3.47550    0.04110    2.79810
 5270.50000   53.95280   97.57140   -0.04680    6.16900    0.00670   23.48480    3.36230    0.04760    2.77360
 5271.00000   56.84440  104.76900   -0.03290    6.18400    0.00440   29.69700    3.27930    0.06090    2.72270
 5271.50000   61.13550  113.08620   -0.01180    6.19890    0.00370   40.15150    3.24140    0.07690    2.71010
 5272.00000   65.87820  119.79080    0.00630    6.21390    0.00660   51.81820    3.33170    0.09530    2.70630
 5272.50000   67.23480  121.90510    0.00510    6.22890    0.01490   64.09090    3.39940    0.13790    2.71140
 5273.00000   67.05650  122.21350   -0.00380    6.21360    0.02850   64.17750    3.41430    0.17440    2.72170
 5273.50000   65.24780  121.16750   -0.00910    6.21340    0.03000   55.90910    3.38400    0.17710    2.71740
 5274.00000   63.42190  113.95150   -0.00630    6.21330    0.02020   48.45830    3.31520    0.17080    2.70680
 5274.50000   59.99630  106.88590    0.00660    6.21310    0.01190   38.68950    3.21650    0.14880    2.69330
 5275.00000   57.44190  104.33500    0.01120    6.21300    0.00350   28.91340    3.19520    0.12520    2.68890
 5275.50000   56.99990  104.94440    0.01000    6.21280   -0.00020   22.42420    3.27040    0.10320    2.70580
 5276.00000   59.21490  107.20920   -0.00630    6.21270    0.00130   21.96970    3.33640    0.08660    2.74900
 5276.50000   61.42930  112.03220   -0.02750    6.21250    0.01180   26.96970    3.42510    0.08810    2.76260
 5277.00000   63.14710  115.80190   -0.02960    6.22750    0.02310   36.36360    3.51860    0.09250    2.76260
