~Version ---------------------------------------------------
VERS.   2.0 : CWLS log ASCII Standard -VERSION 2.0
WRAP.    NO : One line per depth step
DLM . SPACE : Column Data Section Delimiter
~Well ------------------------------------------------------
STRT .F                  204.0 : START DEPTH
STOP .F                 5499.0 : STOP DEPTH
STEP .F                    0.5 : STEP
NULL .                -9999.25 : NULL VALUE
COMP .                         : COMPANY
WELL .                         : WELL
FLD  .                         : FIELD
LOC  .                         : LOCATION
PROV .                         : PROVINCE
CNTY .                         : COUNTY
STAT .                         : STATE
CTRY .                         : COUNTRY
SRVC .                         : SERVICE COMPANY
DATE .                         : DATE
UWI  .                         : UNIQUE WELL ID
API  .                         : API NUMBER
SLAT .WGS84 3.3151731759280025 : SURFACE LATITUDE
SLON .WGS84  8.949954479557988 : SURFACE LONGITUDE
DATUM.F                 3433.6 : DEPTH DATUM ELEV
~Curve Information -----------------------------------------
DEPT.F     : 
DTCO.US/F  : COMPRESSIONAL-WAVE INTERVAL TRANSIT TIME ACOUSTIC SLOWNESS
DTSM.US/F  : SHEAR-WAVE INTERVAL TRANSIT TIME DELTA-T
DPHZ.DEC   : DENSITY POROSITY LIMESTONE
HCAL.IN    : HILT CALIPER
HDRA.G/C3  : DELTA RHO HIP TOOL
HSGR.GAPI  : SPECTROSCOPY GAMMA RAY
PEFZ.B/E   : HILT PHOTOELECTRIC FACTOR
TNPH.DEC   : THERMAL NEUTRON POROSITY
RHOZ.G/C3  : HILT BULK DENSITY
~Params ----------------------------------------------------
~Other -----------------------------------------------------
~ASCII -----------------------------------------------------
# ...
 4876.00000   55.70190  107.02780   -0.11240    6.49240    0.02540   14.00850    4.84660    0.03190    2.76640
 4876.50000   55.70330  107.18960   -0.03650    6.47730    0.00050   13.26210    4.88420    0.02690    2.70960
 4877.00000   55.70440  107.20090    0.00100    6.47730    0.00580   13.41550    4.83870    0.03210    2.70150
 4877.50000   55.66040  107.21440    0.00430    6.46220    0.01410   14.02300    4.83850    0.04440    2.70110
 4878.00000   55.34550  107.22560   -0.02260    6.46220    0.01560   16.44870    4.80810    0.04620    2.72110
 4878.50000   53.08930  107.23680   -0.06770    6.46220    0.01410   19.78350    4.67970    0.04050    2.77090
 4879.00000   52.23230  105.74320   -0.10410    6.46220    0.01490   27.45890    4.17420    0.03960    2.84810
 4879.50000   53.22700  102.59410   -0.10770    6.46220    0.02570   38.72590    4.02310    0.04170    2.89910
 4880.00000   54.40190  100.04700   -0.11920    6.46220    0.05050   44.48460    3.96260    0.04770    2.91440
 4880.50000   54.94480   98.85430   -0.11980    6.46220    0.08730   43.57730    4.00770    0.05320    2.92100
 4881.00000   54.53960   98.11310   -0.12170    6.46220    0.10010   38.57880    4.12060    0.05140    2.93020
 4881.50000   52.82510   94.36210   -0.12790    6.47730    0.10380   22.50880    4.34660    0.04500    2.94810
 4882.00000   51.74270   88.65470   -0.15320    6.49240    0.09100   11.84940    4.71590    0.03580    2.96090
 4882.50000   51.33730   89.26790   -0.15420    6.50760    0.05560    6.61360    4.75340    0.00140    2.92120
 4883.00000   52.24160   92.13840   -0.14870    6.53780    0.02320    9.79720    4.63380   -0.00060    2.85210
 4883.50000   53.28110   94.40690   -0.11700    6.56800    0.01410   13.58660    4.28540    0.01120    2.80400
 4884.00000   53.86910   99.38430   -0.04270    6.59820    0.00810   20.25470    3.91570    0.02480    2.78550
 4884.50000   54.18630  105.71610   -0.04360    6.61330    0.00430   20.71040    3.84760    0.02930    2.79290
 4885.00000   54.09710  107.23220   -0.08220    6.64350   -0.00250   15.25770    4.41300    0.02300    2.87770
 4885.50000   52.83410  105.58800   -0.11790    6.67370   -0.00930    9.35010    4.85020    0.01030    2.97220
 4886.00000   50.98420  101.23500   -0.16830    6.68880   -0.01000    5.41220    5.24210   -0.00780    2.99180
 4886.50000   49.31490   97.48400   -0.16920    6.70390   -0.00930    3.59550    5.31740   -0.01390    2.99510
 4887.00000   50.03840   94.33500   -0.17070    6.71900   -0.00630    3.14240    5.10600   -0.01450    2.99530
 4887.50000   52.43230   92.38700   -0.17160    6.73410    0.00200    2.68940    5.02280   -0.01360    2.99410
 4888.00000   54.05870   93.15350   -0.16220    6.73410    0.02090    4.33890    4.96230   -0.01030    2.94610
 4888.50000   54.64890   94.06760   -0.12870    6.73410    0.04650   11.17750    4.91650   -0.00330    2.88470
 4889.00000   53.69980   94.37700   -0.10270    6.74920    0.06160   15.26990    4.77580    0.00770    2.88450
 4889.50000   53.70090   91.83270   -0.10050    6.75010    0.04580   15.72600    4.60810    0.01780    2.89480
 4890.00000   54.19860   91.09100   -0.12080    6.76440    0.02620   15.72740    4.44860    0.02660    2.90580
 4890.50000   54.92650   92.75810   -0.09210    6.77950    0.02360   16.78950    4.32020    0.02990    2.78860
 4891.00000   55.56010   99.08990   -0.03010    6.77950    0.03900   22.85160    4.22190    0.03530    2.68160
 4891.50000   56.51370  106.62550    0.00580    6.77950    0.05710   33.30770    4.19910    0.05730    2.68390
 4892.00000   57.19190  111.45240   -0.01080    6.77950    0.06090   35.12300    4.39500    0.06220    2.70390
 4892.50000   57.02250  112.51700   -0.03890    6.79460    0.03770   27.25000    4.77190    0.05550    2.73460
 4893.00000   55.01210  112.97970   -0.09230    6.79460    0.00580   15.93620    5.11860    0.03230    2.81530
 4893.50000   52.28920  110.27040   -0.14370    6.79460    0.02770   10.66580    5.23900    0.01020    2.93550
 4894.00000   51.84800  103.00340   -0.16060    6.80970    0.01560    6.34570    5.25390   -0.00220    2.98270
 4894.50000   51.53170   96.08770   -0.16540    6.80970    0.00880    4.22600    5.26880   -0.01390    2.98270
 4895.00000   51.21510   93.76200   -0.16660    6.80970    0.00580    1.80320    5.29230   -0.01910    2.98340
 4895.50000   50.81680   93.77320   -0.16760    6.80970    0.01110    1.50130    5.33740   -0.02030    3.00460
 4896.00000   50.55550   92.71120   -0.18240    6.79460    0.02010    2.10920    5.35870   -0.01930    3.02390
 4896.50000   50.51120   92.11700   -0.19490    6.77750    0.02320    3.17130    5.32820   -0.01840    3.03670
 4897.00000   50.60290   92.15200   -0.19040    6.74920    0.02470    5.59700    5.31290   -0.01670    3.03850
 4897.50000   51.01040   92.31600   -0.18220    6.73410    0.02320    9.38640    5.29010   -0.01490    2.97110
 4898.00000   51.59840   92.02340   -0.17040    6.73410    0.02240   17.87270    5.07870   -0.00790    2.92860
 4898.50000   51.96070   92.78990   -0.13510    6.71900    0.02320   23.34700    4.86740    0.00170    2.92540
 4899.00000   51.69090   93.70400   -0.13050    6.71900    0.01790   22.99050    4.75410    0.00480    2.93890
 4899.50000   51.60180   93.71530   -0.13350    6.70390    0.00660   16.66540    4.85190    0.00390    2.97440
 4900.00000   51.42230   93.72650   -0.15890    6.68880    0.00880   11.04820    5.14580   -0.01180    2.99270
 4900.50000   50.70110   94.18920   -0.17760    6.67370    0.01180    4.69860    5.25120   -0.01700    3.00080
 4901.00000   50.47620   94.80230   -0.17700    6.65860    0.01490    1.66980    5.27360   -0.01820    3.00450
 4901.50000   50.43220   95.11170   -0.17490    6.63610    0.01710    1.67130    5.28100   -0.02090    3.01230
 4902.00000   50.29810   93.16940   -0.17760    6.61260    0.01640    2.27880    5.26560   -0.01910    3.01460
 4902.50000   50.02840   91.52520   -0.18480    6.58910    0.01490    3.64400    5.25790   -0.01760    3.01310
 4903.00000   49.69050   91.83740   -0.17840    6.56560    0.00850    5.31210    5.23430   -0.01580    3.00750
 4903.50000   49.22900   91.84860   -0.16530    6.54210   -0.00460    6.98030    5.16410   -0.01280    2.96250
 4904.00000   49.04630   91.70940   -0.15510    6.51860   -0.01170    8.51490    5.00830   -0.00970    2.95100
 4904.50000   49.50520   91.56730   -0.14490    6.49240   -0.01170   10.05320    4.76680   -0.00430    2.93060
 4905.00000   50.28670   92.93570   -0.13280    6.49240   -0.00570   12.25850    4.58560    0.00020    2.89920
 4905.50000   51.43940   97.61210   -0.11560    6.49240    0.00190   18.43140    4.40440    0.01200    2.85670
 4906.00000   52.66790  105.90340   -0.08290    6.49240    0.00820   25.62440    4.28350    0.02470    2.77980
 4906.50000   54.07630  112.19820   -0.07110    6.49240    0.01530   33.05010    4.32860    0.04600    2.65530
 4907.00000   55.56890  117.00670    0.00560    6.47730    0.02460   39.86980    4.38870    0.07730    2.64120
 4907.50000   58.05460  119.12100    0.03190    6.47730    0.04220   44.26530    4.34330    0.12420    2.64000
 4908.00000   62.52680  117.47300    0.03740    6.46220    0.05610   42.14550    4.13190    0.13640    2.64780
 4908.50000   62.30370  113.26670   -0.05090    6.43200    0.05160   35.02580    3.73950    0.11980    2.73410
 4909.00000   59.55240  107.40500   -0.06470    6.41690    0.03950   29.11820    3.55800    0.05820    2.72010
 4909.50000   56.57540  107.71340   -0.03600    6.40180    0.02590   28.49680    3.51210    0.05120    2.64400
 4910.00000   55.35910  110.42960    0.03350    6.38670    0.00850   33.51520    3.47490    0.07630    2.64040
 4910.50000   56.03900  112.99540    0.03790    6.38670   -0.00050   38.51970    3.53500    0.08450    2.64470
 4911.00000   56.26740  113.90570    0.00420    6.40180   -0.00660   37.13780    3.70830    0.08690    2.66940
 4911.50000   55.32190  112.85970   -0.03240    6.40180   -0.00890   33.31130    3.93430    0.06510    2.76110
 4912.00000   52.88240  110.15830   -0.09320    6.41690    0.00540   28.15410    4.22070    0.03890    2.89660
