~Version ---------------------------------------------------
VERS.   2.0 : CWLS log ASCII Standard -VERSION 2.0
WRAP.    NO : One line per depth step
DLM . SPACE : Column Data Section Delimiter
~Well ------------------------------------------------------
STRT .F                  204.0 : START DEPTH
STOP .F                 5499.0 : STOP DEPTH
STEP .F                    0.5 : STEP
NULL .                -9999.25 : NULL VALUE
COMP .                         : COMPANY
WELL .                         : WELL
FLD  .                         : FIELD
LOC  .                         : LOCATION
PROV .                         : PROVINCE
CNTY .                         : COUNTY
STAT .                         : STATE
CTRY .                         : COUNTRY
SRVC .                         : SERVICE COMPANY
DATE .                         : DATE
UWI  .                         : UNIQUE WELL ID
API  .                         : API NUMBER
SLAT .WGS84 3.3151731759280025 : SURFACE LATITUDE
SLON .WGS84  8.949954479557988 : SURFACE LONGITUDE
DATUM.F                 3433.6 : DEPTH DATUM ELEV
~Curve Information -----------------------------------------
DEPT.F     : 
DTCO.US/F  : COMPRESSIONAL-WAVE INTERVAL TRANSIT TIME ACOUSTIC SLOWNESS
DTSM.US/F  : SHEAR-WAVE INTERVAL TRANSIT TIME DELTA-T
DPHZ.DEC   : DENSITY POROSITY LIMESTONE
HCAL.IN    : HILT CALIPER
HDRA.G/C3  : DELTA RHO HIP TOOL
HSGR.GAPI  : SPECTROSCOPY GAMMA RAY
PEFZ.B/E   : HILT PHOTOELECTRIC FACTOR
TNPH.DEC   : THERMAL NEUTRON POROSITY
RHOZ.G/C3  : HILT BULK DENSITY
~Params ----------------------------------------------------
~Other -----------------------------------------------------
~ASCII -----------------------------------------------------
# ...
 4949.00000   56.56370  102.28640   -0.06710    6.28100    0.00960   34.99700    3.48120    0.07060    2.82440
 4949.50000   56.06980   99.88790   -0.05920    6.30330    0.00660   39.39240    3.51120    0.07660    2.81790
 4950.00000   54.49230   97.33700   -0.06010    6.31120    0.00510   41.21210    3.54900    0.07690    2.81690
 4950.50000   52.35920   94.48510   -0.06800    6.28060    0.00810   37.27270    3.63680    0.06860    2.84320
 4951.00000   49.57930   91.93420   -0.09200    6.29550    0.01030   31.96970    3.81970    0.04600    2.88570
 4951.50000   47.77390   90.43670   -0.10660    6.31030    0.01100   26.66670    3.86480    0.02650    2.88530
 4952.00000   47.82170   89.84200   -0.10510    6.31000    0.00880   24.84850    3.92490    0.02170    2.87790
 4952.50000   50.03650   90.45150   -0.09700    6.31170    0.00570   26.52780    3.97750    0.01920    2.87440
 4953.00000   56.50090   93.51160   -0.10530    6.32450   -0.00270   25.68150    4.05270    0.01710    2.90060
 4953.50000   62.82500   98.67560   -0.12100    6.33930    0.00960   22.12120    4.35420    0.01350    2.95660
 4954.00000   59.62320  102.44120   -0.15250    6.35400    0.00490   18.78790    4.82300    0.01080    2.96410
 4954.50000   57.27830  104.47850   -0.15170    6.36880    0.00340   16.66670    5.11340    0.01080    2.90510
 4955.00000   59.13370  106.14130   -0.13700    6.36860    0.00340   17.87880    5.19820    0.01680    2.87060
 4955.50000   59.18160  106.75060   -0.09020    6.36830    0.00400   22.12120    4.93400    0.03580    2.85710
 4956.00000   57.65110  106.15610   -0.08030    6.38310    0.00410   22.57580    4.86590    0.04430    2.88850
 4956.50000   54.22320  103.77420   -0.10220    6.39790    0.00110   18.93940    4.91850    0.04070    2.97320
 4957.00000   51.83400  100.96590   -0.16380    6.41270   -0.00350   10.00000    5.13700    0.00990    3.01470
 4957.50000   50.57350   98.15770   -0.17990    6.39730   -0.01210    3.63640    5.29510   -0.01220    3.01340
 4958.00000   50.12560   95.22380   -0.16820    6.38190   -0.01810    1.36360    5.35530   -0.01550    3.01140
 4958.50000   49.22620   91.32000   -0.15350    6.36640   -0.02460    1.40170    5.34750   -0.01370    2.97240
 4959.00000   48.32690   89.52300   -0.14360    6.35100   -0.02990    4.41990    5.15120   -0.01090    2.95180
 4959.50000   47.55730   89.83650   -0.14120    6.33560   -0.03220   10.60610    4.92480   -0.00520    2.94330
 4960.00000   47.01880   92.45090   -0.13340    6.36560   -0.02540   15.75760    4.54750    0.00110    2.90750
 4960.50000   46.71230   95.67710   -0.12020    6.36520   -0.00960   20.90910    3.94310    0.01680    2.85780
 4961.00000   46.66450  100.35610   -0.08610    6.34980    0.00770   26.21210    3.51880    0.03620    2.77780
 4961.50000   46.62920  113.64810   -0.04730    6.33440    0.02280   33.90380    3.53370    0.05500    2.62390
 4962.00000   45.95650  124.64270   -0.00010    6.33410    0.04770   48.18180    3.59380    0.10180    2.60890
 4962.50000   44.78620  124.95030    0.05900    6.30360    0.06580   60.15150    3.64640    0.14910    2.60660
 4963.00000   44.33740  121.19930    0.03930    6.28820    0.07400   55.45450    3.66880    0.18440    2.72750
 4963.50000   44.61280  115.48960   -0.01970    6.27270    0.06500   43.93940    3.62020    0.15030    2.83290
 4964.00000   46.06110  106.92060   -0.07540    6.27250    0.03440   31.51520    3.51680    0.09440    2.82080
 4964.50000   46.51520   97.59920   -0.07000    6.27220    0.01010   22.86610    3.41200    0.05550    2.81250
 4965.00000   46.02310   89.48170   -0.06190    6.30210   -0.00600   23.96530    3.41930    0.04040    2.81470
 4965.50000   45.98060   86.93230   -0.06500    6.30180   -0.00450   25.90910    3.47190    0.03740    2.82430
 4966.00000   46.07540   86.03600   -0.07080    6.31670   -0.00370   24.24240    3.56970    0.03190    2.83960
 4966.50000   46.66590   87.70260   -0.08020    6.31630    0.00000   21.51520    3.65990    0.01950    2.86900
 4967.00000   48.15700   90.72130   -0.09330    6.33110    0.00760   19.09090    3.73510    0.01680    2.88540
 4967.50000   50.66360   93.74000   -0.10510    6.33080    0.01660   17.72730    3.84800    0.01870    2.88030
 4968.00000   53.17740   96.00620   -0.10430    6.34600    0.03170   18.93940    3.99100    0.02530    2.86300
 4968.50000   54.94500   97.06850   -0.08960    6.37730    0.03840   21.51520    4.17470    0.02800    2.85720
 4969.00000   55.17110   97.53310   -0.08360    6.43560    0.02480   23.03030    4.34910    0.02470    2.85620
 4969.50000   54.35390   97.52610   -0.09240    6.46550    0.01800   20.15150    4.69870    0.02140    2.90170
 4970.00000   51.81390   95.98150   -0.12270    6.48040    0.00370   15.30300    4.82660    0.00870    2.99120
 4970.50000   48.90700   93.35310   -0.15730    6.46490    0.00820   11.51520    4.72100    0.00320    2.99340
 4971.00000   46.38240   90.19280   -0.16450    6.44950    0.01570   11.54050    4.57010    0.00350    2.99010
 4971.50000   45.84420   87.19190   -0.15410    6.44920    0.01300   13.78790    4.25340    0.00840    2.93910
 4972.00000   45.75660   83.58910   -0.11520    6.43380   -0.00160   17.12120    3.96680    0.01380    2.87830
 4972.50000   46.12220   82.54240   -0.09370    6.43350   -0.00470   18.93940    3.76320    0.01560    2.87020
 4973.00000   46.21610   83.15550   -0.09170    6.43320   -0.00390   17.87880    3.80820    0.01620    2.87800
 4973.50000   46.21970   83.76630   -0.10090    6.43290    0.00130   16.21210    3.86080    0.01590    2.90390
 4974.00000   46.26840   84.52770   -0.11930    6.43260    0.01340   15.60610    3.91330    0.01500    2.90630
 4974.50000   46.85890   85.89100   -0.11490    6.43230    0.01560   16.66670    3.91310    0.01620    2.88280
 4975.00000   47.99110   87.40480   -0.10310    6.43200    0.00730   19.39390    3.87400    0.01770    2.85690
 4975.50000   49.07820   89.06910   -0.07760    6.43170   -0.00180   21.81820    3.81480    0.02020    2.84260
 4976.00000   50.21740   91.18490   -0.07820    6.43140   -0.00780   23.93940    3.93520    0.01980    2.84260
 4976.50000   51.88450   94.95600   -0.08920    6.43110   -0.00930   23.76240    4.22130    0.01500    2.88280
 4977.00000   53.01670   97.22220   -0.11490    6.43080   -0.00180   21.16080    4.50750    0.01320    2.92700
 4977.50000   53.92610   98.13410   -0.12920    6.43050    0.01490   19.09090    4.59030    0.01290    2.93310
 4978.00000   54.57050   99.49740   -0.12080    6.43020    0.02990   22.42420    4.45440    0.02020    2.90890
 4978.50000   55.30060  101.17370   -0.10700    6.42990    0.02760   25.60610    4.40150    0.03290    2.90110
 4979.00000   55.93770  102.85470   -0.12100    6.42960    0.01850   26.21210    4.41630    0.03370    2.90570
 4979.50000   56.38290  102.98570   -0.12950    6.42930    0.01470   23.03030    4.45390    0.03010    2.93000
 4980.00000   56.55960  102.54510   -0.13080    6.44410    0.01320   23.63640    4.35570    0.03070    2.91990
 4980.50000   55.88690  101.95200   -0.10820    6.44380    0.01020   27.27270    4.02390    0.04610    2.84480
 4981.00000   54.90970  101.05800   -0.06710    6.45860    0.00940   34.34300    3.65340    0.06940    2.82910
 4981.50000   53.66680   98.05710   -0.06240    6.47350    0.00710   40.90910    3.44610    0.07510    2.82420
 4982.00000   52.27610   94.30380   -0.06590    6.47310    0.00110   38.48480    3.37530    0.07420    2.82520
 4982.50000   49.36260   90.55050   -0.06980    6.47280   -0.00120   31.06060    3.55590    0.05610    2.83020
 4983.00000   48.22930   89.65420   -0.07560    6.47250   -0.00200   23.03030    3.85720    0.03130    2.83570
 4983.50000   48.61110   89.81580   -0.08900    6.47220    0.00100   19.54550    4.27150    0.01310    2.84780
 4984.00000   49.16140   90.12570   -0.11140    6.47190    0.00400   17.27270    4.64050    0.00260    2.88570
 4984.50000   49.73070   90.28510   -0.13320    6.47160    0.00400   15.45450    4.87390   -0.00670    2.92490
 4985.00000   50.09550   91.04650   -0.13960    6.47120    0.00320   13.18180    5.16770   -0.01370    2.94250
