~Version ---------------------------------------------------
VERS.   2.0 : CWLS log ASCII Standard -VERSION 2.0
WRAP.    NO : One line per depth step
DLM . SPACE : Column Data Section Delimiter
~Well ------------------------------------------------------
STRT .F                  204.0 : START DEPTH
STOP .F                 5499.0 : STOP DEPTH
STEP .F                    0.5 : STEP
NULL .                -9999.25 : NULL VALUE
COMP .                         : COMPANY
WELL .                         : WELL
FLD  .                         : FIELD
LOC  .                         : LOCATION
PROV .                         : PROVINCE
CNTY .                         : COUNTY
STAT .                         : STATE
CTRY .                         : COUNTRY
SRVC .                         : SERVICE COMPANY
DATE .                         : DATE
UWI  .                         : UNIQUE WELL ID
API  .                         : API NUMBER
SLAT .WGS84 3.3151731759280025 : SURFACE LATITUDE
SLON .WGS84  8.949954479557988 : SURFACE LONGITUDE
DATUM.F                 3433.6 : DEPTH DATUM ELEV
~Curve Information -----------------------------------------
DEPT.F     : 
DTCO.US/F  : COMPRESSIONAL-WAVE INTERVAL TRANSIT TIME ACOUSTIC SLOWNESS
DTSM.US/F  : SHEAR-WAVE INTERVAL TRANSIT TIME DELTA-T
DPHZ.DEC   : DENSITY POROSITY LIMESTONE
HCAL.IN    : HILT CALIPER
HDRA.G/C3  : DELTA RHO HIP TOOL
HSGR.GAPI  : SPECTROSCOPY GAMMA RAY
PEFZ.B/E   : HILT PHOTOELECTRIC FACTOR
TNPH.DEC   : THERMAL NEUTRON POROSITY
RHOZ.G/C3  : HILT BULK DENSITY
~Params ----------------------------------------------------
~Other -----------------------------------------------------
~ASCII -----------------------------------------------------
# ...
 5277.50000   64.54890  117.91620   -0.02600    6.22730    0.02610   46.81820    3.48080    0.10490    2.74930
 5278.00000   65.18260  118.37510   -0.00150    6.22720    0.02330   50.00000    3.38270    0.13820    2.65330
 5278.50000   64.73390  117.93110    0.04050    6.22700    0.00190   48.78790    3.27700    0.15330    2.63490
 5279.00000   63.69780  115.07920    0.03690    6.22690   -0.00340   43.03030    3.23120    0.15690    2.63290
 5279.50000   61.44260  111.47490    0.02840    6.21160    0.00420   33.48480    3.21640    0.14180    2.68570
 5280.00000   59.00700  108.17160   -0.00450    6.21150    0.00870   30.90910    3.23130    0.11220    2.72140
 5280.50000   58.15140  104.67930   -0.00910    6.21130    0.00540   31.52420    3.25380    0.09560    2.72410
 5281.00000   58.06280  102.73930   -0.00850    6.21120   -0.00190   36.01530    3.26870    0.08570    2.72540
 5281.50000   58.02030  101.85090   -0.00910    6.21100   -0.00490   45.92480    3.30620    0.08200    2.72660
 5282.00000   57.88720  102.18360   -0.00970    6.21090   -0.00270   71.21210    3.35880    0.07960    2.72790
 5282.50000   57.52830  102.49200   -0.01270    6.21070   -0.00050   73.03030    3.42650    0.07690    2.73040
 5283.00000   56.90720  101.89750   -0.01840    6.21060    0.00180   72.12120    3.48660    0.07480    2.73590
 5283.50000   56.27630  100.85150   -0.02660    6.19530    0.00930   62.87880    3.60710    0.07210    2.75500
 5284.00000   55.64550   99.80550   -0.05620    6.18010    0.01910   57.57580    3.78020    0.06730    2.81760
 5284.50000   54.98820   99.06050   -0.06860    6.17990    0.02210   56.21210    3.96100    0.05380    2.82520
 5285.00000   54.31910   98.46590   -0.06740    6.17980    0.03190   58.93940    4.11910    0.04490    2.80530
 5285.50000   53.93050   97.72090   -0.05140    6.16450    0.03350   60.00000    4.14910    0.03680    2.76380
 5286.00000   53.75210   97.12640   -0.01990    6.16440    0.02210   58.63640    3.98100    0.03100    2.72790
 5286.50000   53.57370   96.68240   -0.00120    6.16420    0.01140   56.66670    3.76020    0.02920    2.71450
 5287.00000   53.30510   96.23830    0.00000    6.16400    0.00470   54.38550    3.66630    0.03650    2.74750
 5287.50000   52.90100   96.24580   -0.01480    6.17900    0.01420   49.74710    3.74150    0.04070    2.77230
 5288.00000   52.45120   96.85510   -0.03790    6.19400    0.02730   44.65530    3.94480    0.04340    2.77890
 5288.50000   52.77000  100.77530   -0.03750    6.20890    0.02500   38.63640    4.06520    0.04130    2.77800
 5289.00000   54.03640  103.49150   -0.03020    6.20870    0.01290   36.36360    4.16310    0.03490    2.77480
 5289.50000   57.24400  105.00390   -0.02720    6.19350    0.01220   40.15150    4.26090    0.02890    2.75900
 5290.00000   60.36140  112.53570   -0.01990    6.17820    0.02190   56.81820    4.29090    0.03010    2.74140
 5290.50000   62.93700  114.65010    0.01480    6.17810    0.02950   82.12120    4.13250    0.06370    2.67250
 5291.00000   63.70670  113.10810    0.03140    6.17790    0.03850   91.36360    3.92400    0.11730    2.65790
 5291.50000   63.25740  110.96270    0.02720    6.17780    0.03920   88.33330    3.56690    0.15780    2.68330
 5292.00000   61.00230  108.05270    0.01360    6.17660    0.03470   63.18180    3.46890    0.18170    2.72380
 5292.50000   57.48310  107.00480   -0.01270    6.17750    0.02560   40.75760    3.54410    0.11770    2.74470
 5293.00000   56.53730  107.16460   -0.02510    6.17730    0.01660   32.57580    3.67200    0.09170    2.75120
 5293.50000   56.54240  108.52640   -0.02630    6.17720    0.00670   31.66670    3.83010    0.07660    2.75140
 5294.00000   58.42920  110.33970   -0.02600    6.19220    0.00210   40.19320    3.88270    0.07240    2.73380
 5294.50000   60.73030  113.05590   -0.01870    6.19200   -0.00080   52.40260    3.82980    0.07840    2.69510
 5295.00000   63.49850  118.48100    0.01270    6.20700    0.00370   72.87880    3.68650    0.09950    2.68100
 5295.50000   65.75890  125.26040    0.01850    6.22190    0.02030   91.96970    3.54320    0.14090    2.67880
 5296.00000   66.98010  129.63200    0.01780    6.23690    0.02400   80.45450    3.37720    0.18590    2.70270
 5296.50000   67.43380  131.14440   -0.00210    6.25180    0.01420   60.15150    3.35450    0.18440    2.72730
 5297.00000   68.47440  134.61310   -0.01270    6.26680    0.01340   51.06060    3.45230    0.16230    2.73460
 5297.50000   70.50820  141.39250   -0.01540    6.32700    0.02550   56.21210    3.47480    0.14850    2.72760
 5298.00000   73.35470  146.96800   -0.01360    6.47790    0.04580   63.63640    3.46550    0.14860    2.71950
 5298.50000   75.88510  147.72790   -0.00480    6.56850    0.06540   71.06060    3.22020    0.16860    2.71620
 5299.00000   76.97090  148.18680    0.01360    6.61360    0.07300   76.51520    3.15780    0.18200    2.70210
 5299.50000   78.14690  147.59230    0.02870    6.62850    0.07970   83.03030    3.24810    0.18800    2.64780
 5300.00000   78.78120  146.84720    0.03890    6.62840    0.10460   89.84850    3.31570    0.19430    2.64510
 5300.50000   77.38390  141.45130    0.03870    6.61210    0.16010   89.49740    3.39090    0.19920    2.64630
 5301.00000   72.23940  136.05540    0.01390    6.52590    0.20640   80.56850    3.54900    0.19690    2.66210
 5301.50000   67.09490  130.01130    0.00300    6.35650    0.17540   58.94400    3.84280    0.18170    2.70380
 5302.00000   62.53730  126.10450    0.00610    6.19030    0.09780   45.76360    4.02180    0.13610    2.70260
 5302.50000   59.74040  120.54230    0.00690    6.14500    0.07740   35.48690    4.15150    0.11100    2.70260
 5303.00000   58.88490  117.08700   -0.00390    6.14500    0.07660   30.21070    4.09100    0.10800    2.71990
 5303.50000   59.16980  115.13660   -0.01540    6.16010    0.07430   27.88970    3.94770    0.10830    2.74350
 5304.00000   59.67680  114.23960   -0.01660    6.19030    0.06000   27.73930    3.81190    0.10620    2.74150
 5304.50000   60.15620  113.19210   -0.00120    6.26590    0.04410   31.22600    3.89770    0.09830    2.71710
 5305.00000   60.11330  111.84360    0.00730    6.25080    0.03210   35.31840    4.10550    0.09620    2.70050
 5305.50000   60.02470  110.04360    0.01030    6.21960    0.02220   36.71500    4.19580    0.09740    2.69850
 5306.00000   60.07260  108.99620    0.00760    6.19030    0.01770   35.16980    4.02980    0.10600    2.69800
 5306.50000   60.11990  109.30310    0.00910    6.17520    0.01620   34.26220    3.83370    0.14370    2.70120
 5307.00000   60.03190  107.54920    0.01360    6.16010    0.01690   34.56670    3.67530    0.14480    2.69840
 5307.50000   59.31180  104.65130    0.01230    6.16010    0.01920   43.05310    3.63000    0.13970    2.69140
 5308.00000   56.62440  102.09890    0.00060    6.14500    0.02370   57.44850    3.57710    0.13150    2.69910
 5308.50000   51.55120   98.79400   -0.02600    6.12990    0.03650   56.60370    3.47070    0.11160    2.75770
 5309.00000   48.43830   93.08140   -0.07430    6.09970    0.04850   50.15220    3.38740    0.06930    2.85050
 5309.50000   47.94390   89.02410   -0.08280    6.06950    0.05680   31.24120    3.36560    0.03790    2.85350
 5310.00000   49.21020   89.33100   -0.08100    6.03930    0.05530   22.30330    3.35790    0.02730    2.85320
 5310.50000   51.87610   91.59430   -0.07160    6.03970    0.05000   20.63770    3.32760    0.02970    2.85270
 5311.00000   55.67060   96.56640   -0.07010    6.05630    0.04310   25.63960    3.32000    0.03430    2.85020
 5311.50000   59.73600  101.98990   -0.05410    6.09970    0.02980   42.15620    3.31230    0.04820    2.84590
 5312.00000   62.35680  107.41340   -0.03290    6.14500    0.00920   62.76380    3.34980    0.06640    2.73730
 5312.50000   65.06780  114.07230    0.02450    6.25080   -0.00140   75.79550    3.41750    0.11760    2.65860
 5313.00000   66.69530  122.47520    0.03200    6.25080   -0.00290   76.61810    3.40980    0.14780    2.66860
 5313.50000   68.41310  128.04920    0.02360    6.23560   -0.00060   67.91970    3.34790    0.14930    2.70000
