~Version ---------------------------------------------------
VERS.   2.0 : CWLS log ASCII Standard -VERSION 2.0
WRAP.    NO : One line per depth step
DLM . SPACE : Column Data Section Delimiter
~Well ------------------------------------------------------
STRT .F                  204.0 : START DEPTH
STOP .F                 5499.0 : STOP DEPTH
STEP .F                    0.5 : STEP
NULL .                -9999.25 : NULL VALUE
COMP .                         : COMPANY
WELL .                         : WELL
FLD  .                         : FIELD
LOC  .                         : LOCATION
PROV .                         : PROVINCE
CNTY .                         : COUNTY
STAT .                         : STATE
CTRY .                         : COUNTRY
SRVC .                         : SERVICE COMPANY
DATE .                         : DATE
UWI  .                         : UNIQUE WELL ID
API  .                         : API NUMBER
SLAT .WGS84 3.3151731759280025 : SURFACE LATITUDE
SLON .WGS84  8.949954479557988 : SURFACE LONGITUDE
DATUM.F                 3433.6 : DEPTH DATUM ELEV
~Curve Information -----------------------------------------
DEPT.F     : 
DTCO.US/F  : COMPRESSIONAL-WAVE INTERVAL TRANSIT TIME ACOUSTIC SLOWNESS
DTSM.US/F  : SHEAR-WAVE INTERVAL TRANSIT TIME DELTA-T
DPHZ.DEC   : DENSITY POROSITY LIMESTONE
HCAL.IN    : HILT CALIPER
HDRA.G/C3  : DELTA RHO HIP TOOL
HSGR.GAPI  : SPECTROSCOPY GAMMA RAY
PEFZ.B/E   : HILT PHOTOELECTRIC FACTOR
TNPH.DEC   : THERMAL NEUTRON POROSITY
RHOZ.G/C3  : HILT BULK DENSITY
~Params ----------------------------------------------------
~Other -----------------------------------------------------
~ASCII -----------------------------------------------------
# ...
 5387.00000   50.33640   93.00570   -0.00730    6.09240    0.01170   14.58480    4.59320    0.01680    2.72480
 5387.50000   50.38380   93.46160   -0.00820    6.10730    0.01010   14.76010    4.55540    0.01650    2.72950
 5388.00000   50.61130   93.61660   -0.01390    6.10690    0.01630   15.79370    4.55520    0.01830    2.74330
 5388.50000   50.88400   93.92200   -0.02390    6.10660    0.02470   17.30730    4.56260    0.02230    2.75500
 5389.00000   51.15670   94.67890   -0.03290    6.10630    0.03500   18.36640    4.57750    0.02380    2.76470
 5389.50000   50.97790   95.13490   -0.03140    6.10600    0.03640   19.12250    4.59250    0.02380    2.76620
 5390.00000   50.57340   95.59080   -0.02870    6.10570    0.03110   19.57560    4.54660    0.02230    2.76490
 5390.50000   50.48490   96.04680   -0.02690    6.09030    0.02660   20.02900    4.50930    0.01860    2.75920
 5391.00000   50.76360   96.35220   -0.02180    6.09000    0.02580   19.57260    4.51660    0.01830    2.74910
 5391.50000   51.03470   96.35670   -0.02450    6.10480    0.02810   19.11660    4.53910    0.01980    2.74680
 5392.00000   51.30900   96.51170   -0.02270    6.10450    0.02120   20.17570    4.54650    0.02110    2.73070
 5392.50000   51.53800   96.68680   -0.00850    6.11930    0.01070   24.71970    4.54600    0.02680    2.70760
 5393.00000   51.75840   98.17590   -0.00060    6.13410    0.00990   27.29390    4.49180    0.02770    2.70230
 5393.50000   51.53440   96.93280    0.00390    6.14890    0.01140   28.81420    4.46320    0.02440    2.71430
 5394.00000   51.26530   95.89930    0.00240    6.14860    0.01660   29.58170    4.56090    0.02380    2.72030
 5394.50000   51.13170   95.48060   -0.01000    6.13320    0.02340   30.31980    4.65880    0.02170    2.73900
 5395.00000   51.08790   94.88420   -0.01960    6.10270    0.03020   30.77280    4.76410    0.02020    2.74750
 5395.50000   50.95470   94.43720   -0.01930    6.10240    0.03470   30.92290    4.89960    0.01770    2.74750
 5396.00000   50.86570   95.19410   -0.01810    6.10210    0.03110   31.52710    4.97480    0.01500    2.74670
 5396.50000   51.00340   96.10150   -0.01690    6.13200    0.02330   33.64680    4.95960    0.01260    2.74590
 5397.00000   51.32120   96.85840   -0.02020    6.17710    0.02030   37.43320    4.92180    0.01170    2.74520
 5397.50000   51.68420   97.31440   -0.01780    6.17670    0.01570   41.52260    4.87640    0.01290    2.74190
 5398.00000   52.00200   97.31880   -0.01660    6.14620    0.01120   51.52110    4.83100    0.01450    2.72550
 5398.50000   52.36500   98.37670   -0.00090    6.13080    0.00740   53.03510    4.79320    0.01790    2.70440
 5399.00000   52.81820  100.03660    0.00480    6.13050    0.00280   48.94240    4.74780    0.02080    2.69890
 5399.50000   53.31660  100.34200    0.00510    6.13020    0.00430   44.24390    4.67230    0.02260    2.69760
 5400.00000   53.90530  100.64750    0.00040    6.12990    0.00960   42.27270    4.60440    0.02560    2.71900
 5400.50000   54.94630  102.30730   -0.02520    6.14080    0.01410   47.72640    4.52730    0.02890    2.75590
 5401.00000   56.25680  103.21470   -0.02690    6.15180    0.01630   59.08770    4.45080    0.03580    2.75690
 5401.50000   56.75520  103.36970   -0.02390    6.16270    0.01400   60.14720    4.36230    0.04280    2.73760
 5402.00000   57.11810  103.67510   -0.01210    6.17460    0.00980   57.72110    4.17360    0.04790    2.72250
 5402.50000   57.02910  104.58250   -0.00180    6.17450    0.00640   55.29530    4.09790    0.05220    2.71040
 5403.00000   56.98580  105.03850    0.00000    6.18950    0.00490   57.41510    4.09020    0.05400    2.71020
 5403.50000   57.03310  105.49440    0.00090    6.20440    0.00560   58.01970    4.17270    0.05280    2.71770
 5404.00000   57.39600  106.70280   -0.00270    6.20420    0.00790   56.65450    4.33060    0.05280    2.72170
 5404.50000   58.21050  108.22460   -0.00540    6.20410    0.00940   53.16820    4.37560    0.05520    2.72700
 5405.00000   59.20540  109.92820   -0.01140    6.20390    0.01090   50.12670    4.40340    0.06160    2.73110
 5405.50000   60.34470  113.50520   -0.01240    6.20380    0.01160   51.06560    4.41270    0.06870    2.73080
 5406.00000   61.54940  116.52090   -0.01080    6.20360    0.00930   56.79970    4.37470    0.08010    2.72550
 5406.50000   62.59720  118.33260   -0.00360    6.21860    0.00700   60.73760    4.35180    0.09260    2.71270
 5407.00000   62.41840  119.41250    0.01340    6.23350    0.00550   64.22100    4.29810    0.09950    2.69130
 5407.50000   62.42010  120.50200    0.02110    6.23340    0.00550   64.67440    4.19670    0.10230    2.67330
 5408.00000   63.00880  122.26440    0.02690    6.23320    0.00690   61.79380    4.12480    0.10260    2.67130
 5408.50000   64.04890  123.77520    0.01880    6.23310    0.01150   59.82260    4.13950    0.09710    2.67850
 5409.00000   65.04390  125.88790    0.01430    6.23290    0.01820   60.73020    4.15440    0.08720    2.68280
 5409.50000   66.17440  128.60260    0.01460    6.21770    0.02570   67.54690    4.14660    0.08750    2.67880
 5410.00000   68.43350  131.46780    0.01940    6.20240    0.03330   75.27270    4.04070    0.09380    2.67350
 5410.50000   70.87320  133.58050    0.02180    6.18720    0.03780   86.48320    3.98760    0.09950    2.66830
 5411.00000   71.37160  134.63980    0.01970    6.18700    0.04530   90.42140    3.97980    0.11070    2.66200
 5411.50000   71.21800  135.09710    0.02700    6.18690    0.05810   85.87410    4.03220    0.11430    2.66170
 5412.00000   70.15650  135.10300    0.02910    6.18670    0.06790   79.35750    4.12990    0.11770    2.66370
 5412.50000   68.26210  132.67360    0.02480    6.18660    0.08440   73.90150    4.22760    0.11920    2.67300
 5413.00000   65.11470  124.50500    0.01970    6.18640    0.08870   66.32420    4.34030    0.11900    2.67760
 5413.50000   60.94660  116.29530    0.02000    6.17110    0.06310   58.74700    4.49070    0.10800    2.68030
 5414.00000   56.98060  113.00510    0.01680    6.17100    0.01800   53.43460    4.82540    0.07780    2.73540
 5414.50000   57.30020  114.36680   -0.01450    6.18600    0.01650   57.40680    5.36820    0.03220    2.76860
 5415.00000   63.36080  120.54270   -0.03340    6.18580    0.02620   81.53440    5.59000    0.03070    2.76980
 5415.50000   73.22310  130.36740   -0.03220    6.20080    0.05860  115.55880    5.34100    0.03950    2.73220
 5416.00000   83.39870  139.66660    0.01340    6.23080    0.08500  134.19370    4.85840    0.06420    2.59210
 5416.50000   82.12910  146.74550    0.07200    6.29110    0.10460  123.73770    4.08190    0.10830    2.57980
 5417.00000   82.20660  153.22240    0.08020    6.36650    0.12420  106.76650    3.59940    0.13550    2.57980
 5417.50000   83.58500  161.80610    0.07410    6.44180    0.14150   92.52240    3.46340    0.16810    2.57860
 5418.00000   84.67030  165.72470    0.07560    6.53230    0.15580   86.76340    3.44060    0.22270    2.56980
 5418.50000   84.53660  167.69780    0.08200    6.54730    0.15730   83.42860    3.55330    0.25620    2.56050
 5419.00000   84.26750  168.29500    0.08740    6.46980    0.16040   81.91190    3.59820    0.25890    2.56900
 5419.50000   83.99840  168.30210    0.08620    6.50160    0.17620   81.30440    3.60000    0.25530    2.58390
 5420.00000   83.86470  168.30800    0.08050    6.60720    0.24550   80.39380    3.56740    0.25170    2.59970
 5420.50000   83.55040  168.16190    0.06630    6.62220    0.25150   79.33170    3.52190    0.25020    2.60170
 5421.00000   83.23620  167.71780    0.06150    6.63710    0.24620   78.57260    3.50660    0.24990    2.59640
 5421.50000   82.96650  166.97120    0.07010    6.66720    0.21450   77.51050    3.56880    0.24960    2.59220
 5422.00000   82.73340  165.92360    0.07260    6.71240    0.17220   76.44840    3.62650    0.24960    2.59250
 5422.50000   82.11320  164.57510    0.06660    6.75750    0.17300   75.84090    3.64890    0.24990    2.61250
 5423.00000   81.43780  162.77510    0.04970    6.77250    0.19100   75.06970    3.65610    0.24990    2.67030
