~Version ---------------------------------------------------
VERS.   2.0 : CWLS log ASCII Standard -VERSION 2.0
WRAP.    NO : One line per depth step
DLM . SPACE : Column Data Section Delimiter
~Well ------------------------------------------------------
STRT .F                  204.0 : START DEPTH
STOP .F                 5499.0 : STOP DEPTH
STEP .F                    0.5 : STEP
NULL .                -9999.25 : NULL VALUE
COMP .                         : COMPANY
WELL .                         : WELL
FLD  .                         : FIELD
LOC  .                         : LOCATION
PROV .                         : PROVINCE
CNTY .                         : COUNTY
STAT .                         : STATE
CTRY .                         : COUNTRY
SRVC .                         : SERVICE COMPANY
DATE .                         : DATE
UWI  .                         : UNIQUE WELL ID
API  .                         : API NUMBER
SLAT .WGS84 3.3151731759280025 : SURFACE LATITUDE
SLON .WGS84  8.949954479557988 : SURFACE LONGITUDE
DATUM.F                 3433.6 : DEPTH DATUM ELEV
~Curve Information -----------------------------------------
DEPT.F     : 
DTCO.US/F  : COMPRESSIONAL-WAVE INTERVAL TRANSIT TIME ACOUSTIC SLOWNESS
DTSM.US/F  : SHEAR-WAVE INTERVAL TRANSIT TIME DELTA-T
DPHZ.DEC   : DENSITY POROSITY LIMESTONE
HCAL.IN    : HILT CALIPER
HDRA.G/C3  : DELTA RHO HIP TOOL
HSGR.GAPI  : SPECTROSCOPY GAMMA RAY
PEFZ.B/E   : HILT PHOTOELECTRIC FACTOR
TNPH.DEC   : THERMAL NEUTRON POROSITY
RHOZ.G/C3  : HILT BULK DENSITY
~Params ----------------------------------------------------
~Other -----------------------------------------------------
~ASCII -----------------------------------------------------
# ...
 5350.50000   51.37910   96.96930    0.00880    6.16130   -0.00020   75.60770    4.73230    0.02020    2.70250
 5351.00000   51.33530   96.75270    0.00570    6.16360   -0.00100   70.79480    4.74070    0.01680    2.70320
 5351.50000   51.51810   96.59730    0.00330    6.17280    0.00420   67.11660    4.75460    0.01440    2.70920
 5352.00000   51.65530   96.87140   -0.00820    6.18200    0.00950   67.56970    4.79970    0.01380    2.72110
 5352.50000   51.79250   97.51030   -0.01300    6.18880    0.00870   69.08340    4.85230    0.01320    2.73050
 5353.00000   51.88460   97.51480   -0.01270    6.18850    0.00420   67.63670    4.85970    0.01290    2.73210
 5353.50000   52.02190   97.51920   -0.01180    6.18820    0.00190   63.68430    4.83690    0.01380    2.73110
 5354.00000   52.24940   97.52370   -0.01210    6.18790    0.00110   60.13910    4.79150    0.01690    2.73110
 5354.50000   52.61240   98.13010   -0.01400    6.18760    0.00860   59.53160    4.77630    0.01990    2.73380
 5355.00000   53.06560   99.03750   -0.02020    6.18730    0.01390   58.16640    4.79880    0.02230    2.74230
 5355.50000   53.47370   99.64400   -0.02870    6.18700    0.01460   56.64980    4.84380    0.02470    2.74660
 5356.00000   53.83670   99.64840   -0.02690    6.18670    0.01160   56.34570    4.88890    0.02830    2.75470
 5356.50000   54.38020  100.85680   -0.01840    6.18640    0.00930   58.31350    4.85860    0.03160    2.73930
 5357.00000   54.96890  102.06520   -0.01570    6.18610    0.00700   59.22110    4.71530    0.03400    2.73930
 5357.50000   55.37700  101.76760   -0.01780    6.18580    0.00700   58.76510    4.57950    0.03710    2.74080
 5358.00000   55.51430  102.22460   -0.02390    6.18550    0.01220   56.94540    4.55670    0.04040    2.74480
 5358.50000   55.51610  102.83110   -0.03050    6.18520    0.01230   54.97420    4.62560    0.04280    2.75940
 5359.00000   55.47270  103.28700   -0.03750    6.18490    0.02050   53.91210    4.70070    0.04550    2.76870
 5359.50000   55.38420  103.44080   -0.03470    6.16950    0.02420   53.13490    4.69940    0.04670    2.77190
 5360.00000   55.20540  102.39300   -0.03020    6.18430    0.02500   51.59550    4.63900    0.04640    2.77320
 5360.50000   54.97350  102.09630   -0.02300    6.18390    0.02420   49.51330    4.59360    0.04550    2.77160
 5361.00000   54.39340  102.25140   -0.02080    6.18360    0.02110   47.23910    4.60100    0.04160    2.76460
 5361.50000   54.35300  102.40640   -0.01600    6.18330    0.01580   44.05580    4.60850    0.03580    2.75350
 5362.00000   54.95990  102.86240   -0.00600    6.18300    0.01050   39.96340    4.59320    0.03340    2.72130
 5362.50000   55.65060  103.01730   -0.00210    6.18270    0.00370   34.81040    4.44230    0.03310    2.71550
 5363.00000   56.70650  103.17830    0.00090    6.18240   -0.00160   33.29420    4.37440    0.03590    2.71050
 5363.50000   57.61120  104.12730    0.00020    6.19730   -0.00010   34.65590    4.32150    0.04100    2.70870
 5364.00000   58.33530  105.94370   -0.00460    6.19700    0.00290   39.19990    4.24600    0.05120    2.71600
 5364.50000   58.51770  106.34590   -0.00600    6.19670    0.00290   44.19840    4.18550    0.06420    2.71500
 5365.00000   58.02290  105.59800    0.00150    6.19640   -0.00090   44.04540    4.14770    0.06940    2.70640
 5365.50000   57.16690  106.20550    0.00760    6.19610   -0.00090   41.31660    4.16260    0.06850    2.70160
 5366.00000   56.71680  107.11290    0.00600    6.19580    0.00220   37.20790    4.27660    0.05970    2.70010
 5366.50000   56.94470  109.22420   -0.00120    6.21060    0.01110   32.63760    4.41380    0.05220    2.70210
 5367.00000   58.03000  110.28210   -0.00690    6.21030    0.02240   31.91820    4.50360    0.05150    2.72170
 5367.50000   58.57360  110.28660   -0.00940    6.20990    0.02910   32.82550    4.54640    0.05730    2.72450
 5368.00000   58.12390  110.13950   -0.00690    6.20960    0.03520   35.24820    4.53110    0.06090    2.72290
 5368.50000   57.04220  108.48970   -0.00570    6.20930    0.03590   37.82250    4.55360    0.06120    2.72170
 5369.00000   55.91530  106.08630   -0.00540    6.19390    0.03210   38.27590    4.65890    0.05610    2.72220
 5369.50000   54.87870  103.98390   -0.01540    6.16340    0.03060   37.51650    4.73410    0.04400    2.72540
 5370.00000   54.78980  103.08550   -0.02050    6.14800    0.02750   36.75740    4.77920    0.03310    2.75030
 5370.50000   55.19830  102.78780   -0.01900    6.13260    0.02370   36.45290    4.79410    0.03010    2.72620
 5371.00000   56.41910  102.64180   -0.01330    6.13230    0.02140   38.26960    4.78640    0.02980    2.71560
 5371.50000   58.18160  104.60380   -0.00570    6.13200    0.02520   44.48020    4.75610    0.03570    2.71310
 5372.00000   59.40230  106.41410   -0.00210    6.13170    0.02820   54.32720    4.63540    0.04340    2.71080
 5372.50000   60.30710  108.37490   -0.00210    6.11630    0.02670   55.69420    4.46950    0.05400    2.70580
 5373.00000   60.32090  110.03480    0.00650    6.11660    0.01890   55.07580    4.38640    0.06000    2.69890
 5373.50000   59.85920  111.27980    0.00880    6.13080    0.01300   55.09720    4.32600    0.06450    2.69440
 5374.00000   59.31920  110.19420   -0.00060    6.13050    0.02510   55.53340    4.24180    0.06910    2.72080
 5374.50000   58.91470  110.04820   -0.01240    6.13020    0.02580   53.71340    4.11910    0.08110    2.73390
 5375.00000   58.87130  111.55760   -0.01450    6.12990    0.01820   45.98460    4.01780    0.09860    2.74130
 5375.50000   59.51660  113.99960   -0.01450    6.14470    0.00620   35.98310    3.82050    0.10080    2.74760
 5376.00000   61.29790  117.50700   -0.02630    6.15960    0.01070   33.10280    3.56410    0.10020    2.75340
 5376.50000   64.18210  121.36300   -0.02540    6.15920    0.02350   35.22260    3.49610    0.10050    2.75240
 5377.00000   68.31430  127.16340   -0.02450    6.18910    0.03700   39.76650    3.48840    0.10200    2.72870
 5377.50000   71.38610  133.25150   -0.00240    6.21910    0.04910   47.70420    3.49580    0.11250    2.71520
 5378.00000   72.15540  132.95500    0.00120    6.27910    0.05660   58.24840    3.52590    0.13310    2.70790
 5378.50000   70.48670  130.25060    0.00270    6.32420    0.07160   64.48200    3.51810    0.14910    2.72020
 5379.00000   66.51560  126.04840   -0.00450    6.29360    0.08520   63.39690    3.44260    0.15720    2.74930
 5379.50000   62.90570  120.03880   -0.02960    6.24800    0.08820   58.09240    3.42740    0.15140    2.78930
 5380.00000   59.02690  114.02910   -0.05290    6.21750    0.07990   50.54400    3.48000    0.12570    2.80060
 5380.50000   54.46710  109.68940   -0.05050    6.18700    0.04680   42.77250    3.57780    0.09060    2.78100
 5381.00000   53.88200  106.36000   -0.02900    6.14130    0.02120   36.87550    3.69070    0.06320    2.75510
 5381.50000   53.74790  103.55500   -0.01450    6.12590    0.01420   34.60120    3.81870    0.05940    2.73570
 5382.00000   54.24670  102.44070   -0.01240    6.11050    0.01790   32.17550    3.94070    0.05700    2.72590
 5382.50000   54.88060  102.59680   -0.01300    6.14040    0.01720   29.59830    4.09310    0.05340    2.72340
 5383.00000   55.01780  103.20320   -0.00320    6.18550    0.02010   28.38470    4.26610    0.05000    2.72440
 5383.50000   54.97400  103.96010   -0.00270    6.23050    0.03670   28.98920    4.41340    0.04700    2.72740
 5384.00000   54.79570  104.11390   -0.00790    6.20000    0.05710   28.83620    4.51120    0.04550    2.72890
 5384.50000   54.21050  101.71170   -0.01360    6.15440    0.05100   26.71350    4.56380    0.04250    2.72430
 5385.00000   53.17400   99.15790   -0.00820    6.12390    0.03740   22.16660    4.58630    0.03950    2.72280
 5385.50000   52.09220   97.50700   -0.00420    6.10840    0.02610   18.37720    4.61630    0.03460    2.72210
 5386.00000   51.10080   95.40460   -0.00480    6.09300    0.01620   16.25450    4.66130    0.02620    2.72280
 5386.50000   50.51570   93.90420   -0.00940    6.09270    0.01390   15.18940    4.63100    0.02020    2.72330
