~Version ---------------------------------------------------
VERS.   2.0 : CWLS log ASCII Standard -VERSION 2.0
WRAP.    NO : One line per depth step
DLM . SPACE : Column Data Section Delimiter
~Well ------------------------------------------------------
STRT .F                  204.0 : START DEPTH
STOP .F                 5499.0 : STOP DEPTH
STEP .F                    0.5 : STEP
NULL .                -9999.25 : NULL VALUE
COMP .                         : COMPANY
WELL .                         : WELL
FLD  .                         : FIELD
LOC  .                         : LOCATION
PROV .                         : PROVINCE
CNTY .                         : COUNTY
STAT .                         : STATE
CTRY .                         : COUNTRY
SRVC .                         : SERVICE COMPANY
DATE .                         : DATE
UWI  .                         : UNIQUE WELL ID
API  .                         : API NUMBER
SLAT .WGS84 3.3151731759280025 : SURFACE LATITUDE
SLON .WGS84  8.949954479557988 : SURFACE LONGITUDE
DATUM.F                 3433.6 : DEPTH DATUM ELEV
~Curve Information -----------------------------------------
DEPT.F     : 
DTCO.US/F  : COMPRESSIONAL-WAVE INTERVAL TRANSIT TIME ACOUSTIC SLOWNESS
DTSM.US/F  : SHEAR-WAVE INTERVAL TRANSIT TIME DELTA-T
DPHZ.DEC   : DENSITY POROSITY LIMESTONE
HCAL.IN    : HILT CALIPER
HDRA.G/C3  : DELTA RHO HIP TOOL
HSGR.GAPI  : SPECTROSCOPY GAMMA RAY
PEFZ.B/E   : HILT PHOTOELECTRIC FACTOR
TNPH.DEC   : THERMAL NEUTRON POROSITY
RHOZ.G/C3  : HILT BULK DENSITY
~Params ----------------------------------------------------
~Other -----------------------------------------------------
~ASCII -----------------------------------------------------
# ...
 5460.00000   -9999.25   -9999.25   -0.01640    5.95870    0.00720   29.96950    3.76190    0.04180    2.74480
 5460.50000   -9999.25   -9999.25   -0.01180    5.96060    0.00260   31.78620    3.82940    0.03580    2.73250
 5461.00000   -9999.25   -9999.25   -0.01120    5.97550    0.00110   33.14830    3.87430    0.03550    2.73270
 5461.50000   -9999.25   -9999.25   -0.01340    6.00560    0.00640   34.20750    3.88920    0.03730    2.73350
 5462.00000   -9999.25   -9999.25   -0.01250    6.06580    0.00560   34.77540    3.89630    0.03910    2.73160
 5462.50000   -9999.25   -9999.25    0.00170    6.09590    0.00260   -9999.25    3.89600    0.04330    2.71770
 5463.00000   -9999.25   -9999.25    0.00810    6.09580    0.00110   -9999.25    3.88060    0.04970    2.69810
 5463.50000   -9999.25   -9999.25    0.00870    6.08050   -0.00040   -9999.25    3.85020    0.05390    2.69830
 5464.00000   -9999.25   -9999.25    0.00630    6.06520   -0.00190   -9999.25    3.79710    0.05550    2.70710
 5464.50000   -9999.25   -9999.25   -0.00340    6.05000   -0.00120   -9999.25    3.69130    0.05990    2.71740
 5465.00000   -9999.25   -9999.25   -0.01700    6.04980    0.00410   -9999.25    3.67590    0.04960    2.75340
 5465.50000   -9999.25   -9999.25   -0.03300    6.06480    0.01840   -9999.25    3.69070    0.04120    2.76370
 5466.00000   -9999.25   -9999.25   -0.03330    6.09500    0.03120   -9999.25    3.69800    0.04150    2.76360
 5466.50000   -9999.25   -9999.25   -0.03150    6.11890    0.03040   -9999.25    3.57710    0.05110    2.75460
 5467.00000   -9999.25   -9999.25    0.00670    6.13650    0.02670   -9999.25    3.28110    0.09730    2.66460
 5467.50000   -9999.25   -9999.25    0.04160    6.15480    0.02970   -9999.25    3.16960    0.14500    2.64000
 5468.00000   -9999.25   -9999.25    0.04010    6.15610    0.04480   -9999.25    3.19280    0.16590    2.65210
 5468.50000   -9999.25   -9999.25    0.00320    6.07900    0.05760   -9999.25    3.55630    0.16220    2.70340
 5469.00000   -9999.25   -9999.25   -0.01790    5.98560    0.05530   -9999.25    3.94480    0.13450    2.72680
 5469.50000   -9999.25   -9999.25   -0.02010    5.92760    0.04850   -9999.25    4.19320    0.06530    2.73810
 5470.00000   -9999.25   -9999.25   -0.02670    5.97280    0.04100   -9999.25    4.41900    0.04330    2.76940
 5470.50000   -9999.25   -9999.25   -0.05180    6.03310    0.04190   -9999.25    4.42630    0.03720    2.79540
 5471.00000   -9999.25   -9999.25   -0.05270    6.04810    0.04770   -9999.25    4.38070    0.03750    2.80500
 5471.50000   -9999.25   -9999.25   -0.04210    6.00260    0.03720   -9999.25    4.34270    0.03910    2.80570
 5472.00000   -9999.25   -9999.25   -0.01710    5.98730    0.02810   -9999.25    4.32740    0.04020    2.80300
 5472.50000   -9999.25   -9999.25   -0.00800    5.95690    0.03040   -9999.25    4.43250    0.03890    2.75700
 5473.00000   -9999.25   -9999.25   -0.00680    5.94170    0.03410   -9999.25    4.48500    0.03480    2.72600
 5473.50000   -9999.25   -9999.25   -0.01220    5.95660    0.04470   -9999.25    4.52240    0.03000    2.73810
 5474.00000   -9999.25   -9999.25   -0.02510    6.07730    0.05520   -9999.25    4.52120    0.02630    2.74340
 5474.50000   -9999.25   -9999.25   -0.01530    6.10740    0.05220   -9999.25    4.39220    0.02570    2.74490
 5475.00000   -9999.25   -9999.25   -0.01680    6.08970    0.05670   -9999.25    4.41600    0.02720    2.74640
 5475.50000   -9999.25   -9999.25   -0.02240    6.03150    0.06500   -9999.25    4.61910    0.02720    2.75900
 5476.00000   -9999.25   -9999.25   -0.03410    5.97100    0.07180   -9999.25    4.75440    0.02690    2.76450
 5476.50000   -9999.25   -9999.25   -0.03460    5.95570    0.07030   -9999.25    4.88980    0.02570    2.74040
 5477.00000   -9999.25   -9999.25   -0.01530    6.00090    0.05970   -9999.25    4.96480    0.02390    2.73010
 5477.50000   -9999.25   -9999.25   -0.00920    6.06120    0.03930   -9999.25    4.99470    0.02000    2.73510
 5478.00000   -9999.25   -9999.25   -0.00950    6.07620    0.02720   -9999.25    5.04710    0.01480    2.74490
 5478.50000   -9999.25   -9999.25   -0.02190    6.07600    0.02650   -9999.25    5.11470    0.01270    2.75170
 5479.00000   -9999.25   -9999.25   -0.02430    6.07580    0.02950   -9999.25    5.12200    0.01270    2.75170
 5479.50000   -9999.25   -9999.25   -0.02160    6.06060    0.03100   -9999.25    5.07640    0.01330    2.75300
 5480.00000   -9999.25   -9999.25   -0.02500    6.03020    0.03180   -9999.25    5.07510    0.01320    2.76150
 5480.50000   -9999.25   -9999.25   -0.02980    6.01260    0.03020   -9999.25    5.10590    0.00760    2.77260
 5481.00000   -9999.25   -9999.25   -0.03250    5.99970    0.02950   -9999.25    5.09810    0.00640    2.77810
 5481.50000   -9999.25   -9999.25   -0.03770    5.99950    0.02720   -9999.25    5.04340    0.00880    2.77810
 5482.00000   -9999.25   -9999.25   -0.03950    5.99940    0.02420   -9999.25    4.78960    0.01000    2.77210
 5482.50000   -9999.25   -9999.25   -0.03950    5.99920    0.02190   -9999.25    4.62240    0.01120    2.76160
 5483.00000   -9999.25   -9999.25   -0.03130    5.99910    0.02040   -9999.25    4.65220    0.00910    2.75250
 5483.50000   -9999.25   -9999.25   -0.02440    5.99890    0.01890   -9999.25    4.84030    0.00490    2.74820
 5484.00000   -9999.25   -9999.25   -0.02430    5.99880    0.01890   -9999.25    5.06610    0.00120    2.74870
 5484.50000   -9999.25   -9999.25   -0.02010    6.05910    0.01810   -9999.25    5.12620    0.00030    2.75080
 5485.00000   -9999.25   -9999.25   -0.02470    6.08910    0.01810   -9999.25    5.02030    0.00030    2.75300
 5485.50000   -9999.25   -9999.25   -0.02710    6.07300    0.01890   -9999.25    4.96730    0.00000    2.75480
 5486.00000   -9999.25   -9999.25   -0.02920    6.04350    0.02030   -9999.25    4.93680   -0.00030    2.75330
 5486.50000   -9999.25   -9999.25   -0.02530    6.02820    0.01880   -9999.25    4.98930   -0.00060    2.75030
 5487.00000   -9999.25   -9999.25   -0.01530    5.99790    0.01280   -9999.25    5.02670   -0.00090    2.74320
 5487.50000   -9999.25   -9999.25   -0.01170    5.99770    0.01050   -9999.25    5.01130   -0.00120    2.73670
 5488.00000   -9999.25   -9999.25   -0.01810    5.96740    0.01280   -9999.25    4.96580    0.00000    2.74270
 5488.50000   -9999.25   -9999.25   -0.02080    5.95210    0.01960   -9999.25    4.94250    0.00060    2.74900
 5489.00000   -9999.25   -9999.25   -0.01620    5.92170    0.02630   -9999.25    4.95860    0.00150    2.74630
 5489.50000   -9999.25   -9999.25   -0.01530    5.90650    0.03460   -9999.25    4.98740    0.00120    2.74120
 5490.00000   -9999.25   -9999.25   -0.01630    5.87610    0.04440   -9999.25    5.00220    0.00120    2.74430
 5490.50000   -9999.25   -9999.25   -0.02860    5.86090    0.04890   -9999.25    5.05470    0.00120    2.76240
 5491.00000   -9999.25   -9999.25   -0.03170    5.83050    0.04440   -9999.25    5.06950    0.00150    2.76720
 5491.50000   -9999.25   -9999.25   -0.03140    5.81530    0.04060   -9999.25    5.06910    0.00120    2.76970
 5492.00000   -9999.25   -9999.25   -0.03440    5.81510    0.03610   -9999.25    5.00100    0.00060    2.77220
 5492.50000   -9999.25   -9999.25   -0.03740    5.84520    0.03230   -9999.25    5.00070    0.00000    2.77190
 5493.00000   -9999.25   -9999.25   -0.03550    5.87520    0.03160   -9999.25    5.00800    0.00030    2.76040
 5493.50000   -9999.25   -9999.25   -0.02810    5.84480    0.03250   -9999.25    5.00770    0.00030    2.74500
 5494.00000   -9999.25   -9999.25   -0.01780    5.79940    0.03980   -9999.25    4.99980    0.00030    2.74210
 5494.50000   -9999.25   -9999.25   -0.01630    5.75390    0.04740   -9999.25    4.99950    0.00030    2.74050
 5495.00000   -9999.25   -9999.25   -0.01660    5.72360    0.05040   -9999.25    4.98420    0.00030    2.73880
 5495.50000   -9999.25   -9999.25   -0.01330    5.70830    0.04740   -9999.25    4.88040    0.00030    2.73070
 5496.00000   -9999.25   -9999.25   -0.00960    5.81390    0.03530   -9999.25    4.74670   -0.00010    2.72320
