~Version ---------------------------------------------------
VERS.   2.0 : CWLS log ASCII Standard -VERSION 2.0
WRAP.    NO : One line per depth step
DLM . SPACE : Column Data Section Delimiter
~Well ------------------------------------------------------
STRT .F                  204.0 : START DEPTH
STOP .F                 5499.0 : STOP DEPTH
STEP .F                    0.5 : STEP
NULL .                -9999.25 : NULL VALUE
COMP .                         : COMPANY
WELL .                         : WELL
FLD  .                         : FIELD
LOC  .                         : LOCATION
PROV .                         : PROVINCE
CNTY .                         : COUNTY
STAT .                         : STATE
CTRY .                         : COUNTRY
SRVC .                         : SERVICE COMPANY
DATE .                         : DATE
UWI  .                         : UNIQUE WELL ID
API  .                         : API NUMBER
SLAT .WGS84 3.3151731759280025 : SURFACE LATITUDE
SLON .WGS84  8.949954479557988 : SURFACE LONGITUDE
DATUM.F                 3433.6 : DEPTH DATUM ELEV
~Curve Information -----------------------------------------
DEPT.F     : 
DTCO.US/F  : COMPRESSIONAL-WAVE INTERVAL TRANSIT TIME ACOUSTIC SLOWNESS
DTSM.US/F  : SHEAR-WAVE INTERVAL TRANSIT TIME DELTA-T
DPHZ.DEC   : DENSITY POROSITY LIMESTONE
HCAL.IN    : HILT CALIPER
HDRA.G/C3  : DELTA RHO HIP TOOL
HSGR.GAPI  : SPECTROSCOPY GAMMA RAY
PEFZ.B/E   : HILT PHOTOELECTRIC FACTOR
TNPH.DEC   : THERMAL NEUTRON POROSITY
RHOZ.G/C3  : HILT BULK DENSITY
~Params ----------------------------------------------------
~Other -----------------------------------------------------
~ASCII -----------------------------------------------------
# ...
 5204.50000   48.15540   87.71460   -0.08550    6.28100    0.00110   21.81820    3.49330    0.01870    2.84640
 5205.00000   48.70030   89.15140   -0.07700    6.25080   -0.00040   26.73430    3.40900    0.02440    2.80160
 5205.50000   49.06460   89.30860   -0.04170    6.23560   -0.00640   36.81820    3.40370    0.03460    2.76340
 5206.00000   49.02260   87.51390   -0.01750    6.23560   -0.00800   37.72730    3.40340    0.03830    2.74330
 5206.50000   48.48390   86.61980   -0.01660    6.22050   -0.00800   31.66670    3.39570    0.03310    2.78880
 5207.00000   47.44870   86.17730   -0.02720    6.20540   -0.00500   27.72730    3.33520    0.02500    2.82350
 5207.50000   46.95520   85.88520   -0.07820    6.20540    0.00710   28.78790    3.23700    0.02140    2.86270
 5208.00000   47.00350   85.89410   -0.09640    6.20540    0.01390   38.78790    3.19150    0.02290    2.87830
 5208.50000   47.18720   86.20400   -0.08400    6.20540    0.01540   41.66670    3.18380    0.02830    2.86750
 5209.00000   47.50640   86.81480   -0.07850    6.20210    0.01140   40.30300    3.22120    0.02920    2.83780
 5209.50000   48.14150   87.57620   -0.06970    6.19750    0.00250   34.69700    3.33410    0.02890    2.83830
 5210.00000   48.68640   89.09000   -0.07160    6.19290   -0.00130   27.42420    3.48460    0.02590    2.85210
 5210.50000   49.23130   90.15230   -0.08460    6.18830    0.00850   26.06060    3.60740    0.02650    2.85890
 5211.00000   49.14420   90.01070   -0.08850    6.18370    0.01830   29.69820    3.71770    0.03020    2.85640
 5211.50000   48.15410   89.71870   -0.08670    6.17910    0.02730   34.01910    3.70240    0.03880    2.85510
 5212.00000   47.11880   88.97160   -0.08280    6.17520    0.01830   35.15150    3.53640    0.04610    2.85690
 5212.50000   46.35450   87.60470   -0.08940    6.19030    0.01220   28.33330    3.50610    0.04190    2.89580
 5213.00000   45.86100   86.41400   -0.10940    6.20540    0.01600   17.27270    3.75450    0.02230    2.91850
 5213.50000   45.99960   85.54280   -0.11270    6.20540    0.02350   15.15150    3.90500    0.01560    2.91740
 5214.00000   46.36760   84.94970   -0.12150    6.20540    0.02360   15.75760    3.99520    0.01290    2.91540
 5214.50000   46.91740   84.65540   -0.11420    6.19030    0.01520   17.12120    3.97990    0.01410    2.90560
 5215.00000   47.51230   85.56950   -0.10880    6.19030    0.00590   19.54550    3.93440    0.01830    2.84980
 5215.50000   48.08020   87.23380   -0.07340    6.19030   -0.00690   24.69700    3.86640    0.02050    2.82170
 5216.00000   48.94400   88.89810   -0.06460    6.19030   -0.01200   30.75760    3.67020    0.02770    2.80910
 5216.50000   49.85660   90.56240   -0.05970    6.19030    0.00230   38.03030    3.50110    0.03830    2.79930
 5217.00000   50.44660   92.52760   -0.05540    6.19030    0.00680   48.34120    3.32570    0.04940    2.79550
 5217.50000   50.76580   92.23550   -0.04920    6.19030    0.00300   47.24500    3.25500    0.05670    2.79770
 5218.00000   50.45290   91.48980   -0.04770    6.19030    0.00070   43.33330    3.25480    0.05790    2.80600
 5218.50000   50.00460   91.80190   -0.05410    6.19030    0.00150   42.12120    3.28470    0.05850    2.81890
 5219.00000   49.87150   91.50980   -0.06590    6.17520    0.00220   46.06060    3.29970    0.05820    2.82590
 5219.50000   49.55940   90.16430   -0.06980    6.17520    0.00220   46.36360    3.30700    0.05640    2.81030
 5220.00000   49.11100   88.06640   -0.06440    6.16010   -0.00010   41.51520    3.33680    0.05280    2.79850
 5220.50000   48.52730   87.47150   -0.05710    6.16010   -0.00010   32.41240    3.35920    0.04610    2.79920
 5221.00000   48.43930   87.94090   -0.05200    6.15760    0.00290   25.11770    3.42680    0.03950    2.80450
 5221.50000   48.44320   88.09310   -0.05090    6.14500    0.00760   21.76930    3.49440    0.03710    2.83270
 5222.00000   48.22060   86.65240   -0.06190    6.14500    0.01720   22.72730    3.47910    0.03370    2.84600
 5222.50000   47.68200   84.80230   -0.08190    6.14500    0.02850   26.36360    3.44810    0.03250    2.84900
 5223.00000   47.54890   84.50800   -0.08100    6.14500    0.03380   30.00000    3.41840    0.03100    2.84750
 5223.50000   47.73340   84.97060   -0.07620    6.14500    0.03000   30.60610    3.41060    0.03040    2.83820
 5224.00000   48.32340   85.88250   -0.06870    6.14500    0.02320   29.39390    3.41800    0.03220    2.81430
 5224.50000   49.22950   87.99820   -0.05260    6.16010    0.01490   29.84850    3.37250    0.03370    2.79240
 5225.00000   50.81280   89.66250   -0.02720    6.17520    0.00660   34.39390    3.30440    0.03910    2.75850
 5225.50000   51.58340   90.27340   -0.01000    6.17520   -0.00020   42.12120    3.24390    0.05640    2.73360
 5226.00000   51.54140   90.43280   -0.00940    6.19030    0.00200   44.54550    3.20600    0.08200    2.73780
 5226.50000   50.95760   90.44170   -0.01870    6.19030    0.00280   43.63640    3.19830    0.08260    2.77580
 5227.00000   50.23840   90.45060   -0.04680    6.19030    0.00050   39.09090    3.22820    0.07690    2.83180
 5227.50000   49.51780   90.30680   -0.07220    6.19030   -0.00410   27.72730    3.31080    0.05910    2.83790
 5228.00000   49.34170   90.16740   -0.07580    6.19030   -0.00090   26.06060    3.34080    0.03680    2.83840
 5228.50000   50.31660   91.38020   -0.07310    6.17520    0.00570   27.87880    3.30910    0.03740    2.83610
 5229.00000   51.31790   92.74350   -0.06740    6.17520    0.00490   35.30300    3.23230    0.04670    2.83130
 5229.50000   52.18690   94.56070   -0.06160    6.17520    0.00190   41.75300    3.17430    0.05640    2.81770
 5230.00000   53.01190   95.63090   -0.05390    6.17520    0.00110   50.55100    3.18910    0.06120    2.79510
 5230.50000   53.78250   96.25030   -0.04450    6.14500    0.00110   60.30300    3.23410    0.06480    2.77580
 5231.00000   54.95950   96.86960   -0.03290    6.12990    0.00410   56.81820    3.26400    0.06920    2.74230
 5231.50000   55.63980   97.45540   -0.01300    6.12990    0.00110   48.68610    3.28640    0.07520    2.71040
 5232.00000   55.91380   97.76530    0.00510    6.16010   -0.00190   38.63640    3.31630    0.08720    2.70340
 5232.50000   55.87180   97.92470    0.00690    6.19160    0.00030   30.00000    3.33870    0.08750    2.70410
 5233.00000   55.37830   97.63260   -0.00180    6.23560    0.00780   26.66670    3.32340    0.08290    2.70510
 5233.50000   54.65910   96.43760    0.00300    6.23560    0.01010   27.60110    3.29310    0.08020    2.70490
 5234.00000   53.84960   94.64060    0.00790    6.23560    0.00920   30.01630    3.24760    0.07720    2.70450
 5234.50000   52.72410   93.29510    0.00820    6.23560    0.00700   29.24240    3.22480    0.07180    2.70860
 5235.00000   52.14030   92.10010   -0.00300    6.22050    0.00630   24.24240    3.24220    0.06000    2.71840
 5235.50000   52.05230   91.80580   -0.00690    6.20540    0.00470   18.48480    3.43530    0.04850    2.71970
 5236.00000   52.95920   94.52580   -0.00570    6.20540    0.00250   16.66670    3.67620    0.03250    2.71540
 5236.50000   54.67790   95.73860    0.00100    6.20540   -0.00360   17.42420    3.79660    0.03250    2.68850
 5237.00000   56.66750   96.34940    0.04630    6.20540   -0.00660   23.26370    3.71350    0.03370    2.62270
 5237.50000   57.03180   98.31470    0.05530    6.20540   -0.00660   33.33330    3.59270    0.04500    2.61510
 5238.00000   57.44120   99.52750    0.05320    6.20540   -0.00510   46.57670    3.43420    0.08770    2.61610
 5238.50000   57.21870   99.38120    0.04470    6.20540   -0.00290   63.63640    3.33600    0.10290    2.62080
 5239.00000   55.46110   98.15170    0.01750    6.20540   -0.00290   66.21330    3.37350    0.10050    2.63870
 5239.50000   52.98110   94.39490   -0.00570    6.20540    0.00080   52.57580    3.44110    0.07870    2.68600
 5240.00000   49.41770   89.33210   -0.03690    6.20540    0.00230   36.76450    3.53130    0.04430    2.74480
 5240.50000   47.97610   87.53510   -0.05350    6.20540    0.00230   21.85320    3.56180    0.02050    2.79630
