~Version ---------------------------------------------------
VERS.   2.0 : CWLS log ASCII Standard -VERSION 2.0
WRAP.    NO : One line per depth step
DLM . SPACE : Column Data Section Delimiter
~Well ------------------------------------------------------
STRT .F                  204.0 : START DEPTH
STOP .F                 5499.0 : STOP DEPTH
STEP .F                    0.5 : STEP
NULL .                -9999.25 : NULL VALUE
COMP .                         : COMPANY
WELL .                         : WELL
FLD  .                         : FIELD
LOC  .                         : LOCATION
PROV .                         : PROVINCE
CNTY .                         : COUNTY
STAT .                         : STATE
CTRY .                         : COUNTRY
SRVC .                         : SERVICE COMPANY
DATE .                         : DATE
UWI  .                         : UNIQUE WELL ID
API  .                         : API NUMBER
SLAT .WGS84 3.3151731759280025 : SURFACE LATITUDE
SLON .WGS84  8.949954479557988 : SURFACE LONGITUDE
DATUM.F                 3433.6 : DEPTH DATUM ELEV
~Curve Information -----------------------------------------
DEPT.F     : 
DTCO.US/F  : COMPRESSIONAL-WAVE INTERVAL TRANSIT TIME ACOUSTIC SLOWNESS
DTSM.US/F  : SHEAR-WAVE INTERVAL TRANSIT TIME DELTA-T
DPHZ.DEC   : DENSITY POROSITY LIMESTONE
HCAL.IN    : HILT CALIPER
HDRA.G/C3  : DELTA RHO HIP TOOL
HSGR.GAPI  : SPECTROSCOPY GAMMA RAY
PEFZ.B/E   : HILT PHOTOELECTRIC FACTOR
TNPH.DEC   : THERMAL NEUTRON POROSITY
RHOZ.G/C3  : HILT BULK DENSITY
~Params ----------------------------------------------------
~Other -----------------------------------------------------
~ASCII -----------------------------------------------------
# ...
 5058.50000   50.19650   92.07210   -0.17620    6.42940    0.01150    3.18180    5.38550   -0.01820    3.02560
 5059.00000   49.74730   92.23180   -0.16450    6.41420   -0.00020    3.18180    5.27990   -0.01850    3.02340
 5059.50000   49.16260   91.03860   -0.15640    6.39890   -0.01890    3.64960    5.16670   -0.01690    2.99650
 5060.00000   48.44250   88.94070   -0.15150    6.36860   -0.02710    5.53450    4.97510   -0.01340    2.90420
 5060.50000   47.72230   87.89610   -0.13310    6.36840   -0.01960    8.63640    4.78180   -0.00640    2.89820
 5061.00000   47.67940   88.05550   -0.11590    6.35320   -0.01050   10.00000    4.45030    0.00110    2.89240
 5061.50000   47.78310   88.81690   -0.10720    6.33790   -0.00070   11.06060    4.12610    0.00510    2.89080
 5062.00000   48.21430   89.87920   -0.10720    6.33780    0.00680   13.78790    3.91500    0.00840    2.88290
 5062.50000   50.03430   90.79100   -0.10450    6.33760    0.00600   17.27270    3.83190    0.01320    2.86120
 5063.00000   51.07490   92.00380   -0.08700    6.33750    0.00300   23.93940    3.82430    0.01920    2.85950
 5063.50000   51.93490   93.36710   -0.08980    6.33730    0.00440   26.06060    3.91450    0.01960    2.87960
 5064.00000   52.02680   93.82520   -0.11760    6.33710    0.00980   20.90910    4.16310    0.01550    2.97290
 5064.50000   51.26210   92.33140   -0.15960    6.33700    0.01510   12.42420    4.70550    0.00480    3.00680
 5065.00000   49.95510   91.28690   -0.17290    6.33680    0.00960    7.56120    4.93520   -0.00850    3.00830
 5065.50000   48.51260   90.24240   -0.16570    6.33670   -0.00170    7.42420    5.01410   -0.00940    3.00000
 5066.00000   47.61190   87.82680   -0.16240    6.33660    0.00660   11.81820    4.68240   -0.00910    2.98530
 5066.50000   46.84660   85.69100   -0.16140    6.32130    0.01710   15.30300    4.37330   -0.00130    2.97360
 5067.00000   46.30710   84.09900   -0.15020    6.32110    0.02160   18.48480    4.10190    0.00450    2.92760
 5067.50000   46.03840   84.56160   -0.12560    6.32100    0.02160   18.18180    4.01880    0.00570    2.91530
 5068.00000   45.95030   84.26950   -0.12720    6.32080    0.01250   15.90910    4.10160    0.00480    2.93360
 5068.50000   45.95260   83.67640   -0.12960    6.32070    0.00570   13.93940    4.22950    0.00480    2.94240
 5069.00000   46.00320   83.23160   -0.13600    6.30540    0.00570   13.03030    4.16910    0.00510    2.94170
 5069.50000   46.14380   83.54370   -0.12840    6.30530    0.01290   13.78790    4.03200    0.00670    2.93510
 5070.00000   46.41130   84.15450   -0.12540    6.30510    0.02380   14.69700    3.87850    0.00930    2.91810
 5070.50000   47.04560   85.36730   -0.12460    6.30500    0.02000   15.61330    3.80690    0.01110    2.91250
 5071.00000   48.35700   88.53650   -0.12280    6.30480    0.01240   17.02060    3.81430    0.01380    2.90620
 5071.50000   49.08160   92.90960   -0.11270    6.30470    0.00630   21.28370    3.80660    0.02050    2.87940
 5072.00000   47.68430   95.02530   -0.07360    6.30450    0.00560   31.84680    3.73110    0.03580    2.84240
 5072.50000   41.79640   97.29150   -0.05670    6.31950    0.01310   41.86550    3.70090    0.05430    2.81350
 5073.00000   41.32270  101.21310   -0.06000    6.33450    0.03950   41.77580    3.83630    0.07930    2.82080
 5073.50000   41.86720  104.83380   -0.07880    6.33430    0.06360   34.09090    4.03210    0.08220    2.89140
 5074.00000   44.39760  104.68030   -0.14100    6.33410    0.05370   16.36360    4.44640    0.06880    2.97640
 5074.50000   47.01840  102.51680   -0.16730    6.33400    0.02450    8.50970    4.94700    0.01800    3.00100
 5075.00000   48.01380   99.64380   -0.16860    6.33380   -0.00100    3.76300    5.01130   -0.01060    3.00040
 5075.50000   48.37720   94.93930   -0.16060    6.33370   -0.00740    6.51520    4.76240   -0.01370    2.99040
 5076.00000   47.25080   89.68100   -0.14510    6.31840    0.01520   10.60610    4.43830   -0.00340    2.95780
 5076.50000   46.39520   86.37920   -0.12640    6.31830    0.01970   16.36360    4.14420    0.00480    2.90930
 5077.00000   45.90080   85.03360   -0.10800    6.30300    0.01210   17.57580    3.91050    0.00810    2.88260
 5077.50000   45.63220   84.28790   -0.10530    6.30280    0.00230   16.66670    3.90280    0.00720    2.88240
 5078.00000   45.76980   84.44950   -0.11040    6.27250   -0.00070   15.15150    3.99310    0.00450    2.90450
 5078.50000   46.17840   84.60880   -0.11920    6.28740    0.00070   14.54550    4.04570    0.00380    2.92310
 5079.00000   46.85870   86.42360   -0.12680    6.30240    0.00450   14.84850    4.01540    0.00450    2.93820
 5079.50000   47.92290   89.44230   -0.13130    6.31740    0.01060   15.75760    4.00020    0.00690    2.93670
 5080.00000   49.11600   91.25700   -0.13020    6.31720    0.01520   19.51710    4.00750    0.01170    2.93360
 5080.50000   50.34130   92.46980   -0.10380    6.33220    0.01880   24.55940    3.95460    0.02350    2.87660
 5081.00000   51.20130   93.08070   -0.09420    6.31690    0.01650   25.45450    3.96200    0.02560    2.90270
 5081.50000   51.51960   93.54100   -0.09610    6.30160    0.01190   20.00000    4.02970    0.02440    2.97290
 5082.00000   51.20580   93.54990   -0.14750    6.30150    0.00890   13.63640    4.28570    0.01590    2.99400
 5082.50000   50.30500   92.48780   -0.16330    6.28620    0.00960   12.27270    4.62470    0.00600    2.99950
 5083.00000   49.67520   92.36380   -0.16120    6.28610    0.01110   16.51520    4.63210    0.00480    3.00000
 5083.50000   48.63910   91.62250   -0.15270    6.27080    0.01030   19.69700    4.51890    0.00780    2.98870
 5084.00000   47.78350   89.07300   -0.14240    6.27070    0.00800   20.15150    4.34470    0.00750    2.96850
 5084.50000   46.97310   86.97510   -0.13370    6.27050    0.00580   18.78790    4.24330    0.00840    2.94720
 5085.00000   46.11750   86.37980   -0.12710    6.27040    0.00590   18.48480    4.10400    0.01050    2.92310
 5085.50000   45.48770   87.29380   -0.12110    6.27020    0.00800   18.47640    3.99830    0.01170    2.90650
 5086.00000   45.58020   87.45320   -0.11260    6.27010    0.00570   17.53110    3.79470    0.01230    2.90500
 5086.50000   46.53050   87.76310   -0.11350    6.26990    0.01020   16.66670    3.62120    0.01320    2.90470
 5087.00000   47.53130   89.12640   -0.11300    6.26980    0.01470   17.72730    3.55330    0.01410    2.90420
 5087.50000   48.72460   91.54310   -0.11120    6.26960    0.01390   22.72730    3.50040    0.01950    2.83610
 5088.00000   49.53020   93.20730   -0.06770    6.25440    0.00180   33.33330    3.46250    0.03710    2.80490
 5088.50000   49.69970   93.36670   -0.05170    6.25420   -0.00420   55.60610    3.44730    0.05060    2.79790
 5089.00000   48.93490   93.52610   -0.05570    6.23900   -0.00120   59.09090    3.53190    0.05250    2.81950
 5089.50000   47.98910   91.87960   -0.06330    6.23880    0.00180   44.84850    3.64540    0.04730    2.84770
 5090.00000   46.00480   88.70920   -0.07890    6.23870    0.00100   25.60610    3.70310    0.02780    2.89190
 5090.50000   45.37450   88.58660   -0.10110    6.23850    0.00170   18.48480    3.71800    0.01320    2.91330
 5091.00000   45.96410   91.45700   -0.12070    6.25350    0.00470   14.83400    3.74040    0.00990    2.91780
 5091.50000   48.40430   93.42230   -0.12010    6.26840    0.01000   14.24240    3.77040    0.01170    2.91730
 5092.00000   52.28910   96.14000   -0.10750    6.26830    0.02050   19.69700    3.74770    0.01590    2.90920
 5092.50000   56.35460  100.36250   -0.07520    6.29840    0.03710   25.75760    3.69480    0.03010    2.84920
 5093.00000   58.61410  104.88610   -0.06610    6.35860    0.05820   36.21210    3.68710    0.04850    2.83460
 5093.50000   60.19650  110.46310   -0.06830    6.41890    0.05890   46.81820    3.76230    0.06480    2.85290
 5094.00000   62.77210  114.83620   -0.08880    6.40360    0.05210   45.90910    3.83070    0.07990    2.86100
 5094.50000   63.72240  117.25290   -0.08490    6.37140    0.02880   44.69700    3.67910    0.09920    2.84090
