~Version ---------------------------------------------------
VERS.   2.0 : CWLS log ASCII Standard -VERSION 2.0
WRAP.    NO : One line per depth step
DLM . SPACE : Column Data Section Delimiter
~Well ------------------------------------------------------
STRT .F                  204.0 : START DEPTH
STOP .F                 5499.0 : STOP DEPTH
STEP .F                    0.5 : STEP
NULL .                -9999.25 : NULL VALUE
COMP .                         : COMPANY
WELL .                         : WELL
FLD  .                         : FIELD
LOC  .                         : LOCATION
PROV .                         : PROVINCE
CNTY .                         : COUNTY
STAT .                         : STATE
CTRY .                         : COUNTRY
SRVC .                         : SERVICE COMPANY
DATE .                         : DATE
UWI  .                         : UNIQUE WELL ID
API  .                         : API NUMBER
SLAT .WGS84 3.3151731759280025 : SURFACE LATITUDE
SLON .WGS84  8.949954479557988 : SURFACE LONGITUDE
DATUM.F                 3433.6 : DEPTH DATUM ELEV
~Curve Information -----------------------------------------
DEPT.F     : 
DTCO.US/F  : COMPRESSIONAL-WAVE INTERVAL TRANSIT TIME ACOUSTIC SLOWNESS
DTSM.US/F  : SHEAR-WAVE INTERVAL TRANSIT TIME DELTA-T
DPHZ.DEC   : DENSITY POROSITY LIMESTONE
HCAL.IN    : HILT CALIPER
HDRA.G/C3  : DELTA RHO HIP TOOL
HSGR.GAPI  : SPECTROSCOPY GAMMA RAY
PEFZ.B/E   : HILT PHOTOELECTRIC FACTOR
TNPH.DEC   : THERMAL NEUTRON POROSITY
RHOZ.G/C3  : HILT BULK DENSITY
~Params ----------------------------------------------------
~Other -----------------------------------------------------
~ASCII -----------------------------------------------------
# ...
 5423.50000   81.16870  160.35870    0.02340    6.77230    0.22340   74.15430    3.64830    0.24690    2.67920
 5424.00000   81.30590  158.98390    0.01830    6.69670    0.22120   74.01820    3.68560    0.24230    2.67970
 5424.50000   81.48820  158.72950    0.02520    6.63610    0.20830   74.31940    3.79830    0.23030    2.66510
 5425.00000   81.17400  159.33880    0.03580    6.62080    0.18190   74.62100    3.89600    0.22720    2.64450
 5425.50000   80.49850  160.69910    0.04030    6.62180    0.14800   74.77140    3.97110    0.22820    2.63290
 5426.00000   80.68090  164.46720    0.04790    6.60540    0.12190   75.37560    3.95570    0.23360    2.62010
 5426.50000   82.48850  168.08480    0.05570    6.55990    0.08760   76.88920    3.91020    0.24430    2.60800
 5427.00000   84.75850  169.44510    0.06630    6.55980    0.07470   79.16050    3.83710    0.25210    2.59570
 5427.50000   85.57430  170.00000    0.07360    6.52940    0.05730   81.88630    3.75730    0.25720    2.59150
 5428.00000   85.42880  169.32580    0.07170    6.51420    0.07320   84.30900    3.67750    0.26860    2.59600
 5428.50000   83.53440  167.03560    0.06870    6.48380    0.10330   84.63350    3.59780    0.26980    2.60280
 5429.00000   81.45940  163.95140    0.05520    6.46860    0.10480   82.94240    3.54690    0.26290    2.60960
 5429.50000   79.51990  159.99510    0.04490    6.43820    0.09120   80.81970    3.52400    0.24320    2.62620
 5430.00000   77.39970  152.92800    0.03790    6.39270    0.08740   77.72650    3.59910    0.22060    2.66580
 5430.50000   76.00190  145.10840    0.03250    6.34730    0.08130   74.56230    3.60640    0.20340    2.68950
 5431.00000   73.61090  140.59960    0.01950    6.31690    0.06550   73.08760    3.58340    0.18110    2.69080
 5431.50000   70.99420  135.94040    0.01350    6.27140    0.04860   71.87400    3.51530    0.17440    2.69300
 5432.00000   68.60320  131.73250    0.01230    6.24070    0.02290   68.38760    3.49240    0.16720    2.70760
 5432.50000   67.55130  125.56830    0.00500    6.19560    0.01410   63.08310    3.51470    0.15990    2.73070
 5433.00000   66.77200  126.02570   -0.01040    6.16530    0.01560   55.05130    3.54450    0.13730    2.73080
 5433.50000   65.99040  126.03150   -0.01790    6.15000    0.01640   54.59570    3.50650    0.12670    2.69330
 5434.00000   65.58580  124.32260   -0.01520    6.13470    0.01110   58.83620    3.39320    0.12460    2.67750
 5434.50000   65.36140  123.48500    0.02000    6.13460    0.00880   66.86510    3.28600    0.13470    2.66540
 5435.00000   65.72480  124.24480    0.02730    6.13440    0.01780   69.13630    3.24190    0.14910    2.68270
 5435.50000   66.22320  123.94820    0.01890    6.14940    0.02610   66.10450    3.30940    0.15450    2.69710
 5436.00000   66.72160  124.55750    0.00540    6.13410    0.03280   58.98180    3.38440    0.14420    2.69560
 5436.50000   67.12970  125.46630    0.00480    6.11890    0.03210   57.31360    3.37660    0.13250    2.68580
 5437.00000   67.53770  124.71970    0.02320    6.10360    0.02980   57.97370    3.39140    0.12970    2.67150
 5437.50000   67.49440  122.01680    0.02890    6.10350    0.03050   59.63380    3.41370    0.13150    2.66690
 5438.00000   66.54750  118.86240    0.02920    6.10330    0.03280   60.49100    3.49630    0.13180    2.66620
 5438.50000   64.20260  114.28350    0.02500    6.10320    0.03700   57.45880    3.63920    0.12400    2.66700
 5439.00000   60.68290  108.92950    0.01810    6.08790    0.05460   49.42700    3.91770    0.10200    2.67620
 5439.50000   55.49280  101.57520   -0.00070    6.07270    0.05230   37.91040    4.12840    0.06660    2.70440
 5440.00000   52.46980   98.11990   -0.01000    6.05740    0.04320   19.42410    4.44460    0.03250    2.72350
 5440.50000   49.35640   96.31990   -0.00940    6.05720    0.03190   13.05890    4.58750    0.01380    2.73180
 5441.00000   48.77130   94.36940   -0.00790    6.04200    0.01830   11.08780    4.65530    0.00530    2.73740
 5441.50000   48.27640   93.32040   -0.00950    6.04180    0.01830   10.63170    4.71630    0.00130    2.73490
 5442.00000   49.22630   94.38110   -0.01080    6.05680    0.02350   10.78180    4.69470    0.00110    2.73290
 5442.50000   49.90520   95.59090   -0.01670    6.07170    0.03480   11.53780    4.49580    0.00320    2.72960
 5443.00000   51.13350   98.00460   -0.01210    6.07160    0.03490   13.65760    4.30710    0.00480    2.72580
 5443.50000   53.03840  121.29650   -0.00910    6.10170    0.03400   17.33890    4.09580    0.00750    2.72580
 5444.00000   56.00580  126.30830   -0.01270    6.13180    0.03550   23.95400    4.05030    0.01440    2.72660
 5444.50000   57.36190  109.76180   -0.01330    6.14670    0.03780   35.01640    4.01990    0.02740    2.72780
 5445.00000   57.90550  107.20790   -0.01090    6.16160    0.04000   53.49970    3.94420    0.06480    2.72910
 5445.50000   57.99750  103.60350   -0.00880    6.11600    0.03920   59.10470    3.85350    0.09500    2.72960
 5446.00000   57.41240  100.44920   -0.01210    6.05440    0.03770   54.55740    3.86070    0.12130    2.72850
 5446.50000   56.10490  100.45500   -0.00760    6.00780    0.02930   47.58620    3.93580    0.10440    2.72510
 5447.00000   55.15860  102.11630    0.00600    5.97970    0.01570   48.34230    3.99580    0.06720    2.71100
 5447.50000   54.93450  106.33580    0.02200    5.96450    0.00740   65.00740    4.01060    0.05120    2.68940
 5448.00000   55.43300  108.16790    0.02080    5.97950    0.01490   77.58170    3.99460    0.05380    2.68060
 5448.50000   56.16180  103.01270    0.01010    6.02460    0.02170   80.30790    3.87230    0.06260    2.70070
 5449.00000   56.39130  101.81900    0.00120    6.05470    0.02400   70.76060    3.51220    0.06720    2.70520
 5449.50000   56.52220  101.69420    0.00420    6.06970    0.02170   62.88030    3.35370    0.06820    2.70320
 5450.00000   56.44860  101.54960    0.00390    6.05440    0.01660   49.54550    3.24030    0.06120    2.70290
 5450.50000   -9999.25   -9999.25    0.00360    6.03910    0.01090   37.77890    3.17220    0.05210    2.70320
 5451.00000   -9999.25   -9999.25   -0.00630    6.05410    0.00580   28.82590    3.11160    0.04220    2.73520
 5451.50000   -9999.25   -9999.25   -0.02100    6.06900    0.00500   16.81330    3.06610    0.03770    2.74850
 5452.00000   -9999.25   -9999.25   -0.02360    6.06890   -0.00030   14.08460    3.04320    0.03520    2.74930
 5452.50000   -9999.25   -9999.25   -0.02240    6.08380    0.00200   13.78040    3.06560    0.03460    2.75530
 5453.00000   -9999.25   -9999.25   -0.02270    6.08370    0.00880   15.14220    3.07280    0.03610    2.76380
 5453.50000   -9999.25   -9999.25   -0.02570    6.08350    0.01400   18.17100    3.08760    0.03950    2.77110
 5454.00000   -9999.25   -9999.25   -0.03810    6.08340    0.01780   20.29080    3.12490    0.04160    2.77030
 5454.50000   -9999.25   -9999.25   -0.03510    6.08320    0.02010   21.95590    3.17740    0.04310    2.76890
 5455.00000   -9999.25   -9999.25   -0.02960    6.06800    0.02010   22.86350    3.21580    0.04580    2.76360
 5455.50000   -9999.25   -9999.25   -0.03020    6.06780    0.01930   22.86200    3.23710    0.04790    2.75830
 5456.00000   -9999.25   -9999.25   -0.02510    6.06770    0.01850   22.70900    3.22160    0.04880    2.75310
 5456.50000   -9999.25   -9999.25   -0.02000    6.06750    0.01170   22.70760    3.17610    0.05000    2.73490
 5457.00000   -9999.25   -9999.25   -0.00730    6.08250    0.00420   23.00910    3.18340    0.05210    2.72340
 5457.50000   -9999.25   -9999.25   -0.00610    6.09750    0.00340   23.31060    3.21320    0.05480    2.72370
 5458.00000   -9999.25   -9999.25   -0.00580    6.09730    0.00720   23.46070    3.29580    0.05720    2.72660
 5458.50000   -9999.25   -9999.25   -0.00760    6.09710    0.00940   23.61070    3.37840    0.05600    2.72970
 5459.00000   -9999.25   -9999.25   -0.01530    6.06680    0.01100   24.82100    3.50620    0.05390    2.73650
 5459.50000   -9999.25   -9999.25   -0.02120    6.00530    0.01090   27.54670    3.67170    0.05000    2.74360
