~Version ---------------------------------------------------
VERS.   2.0 : CWLS log ASCII Standard -VERSION 2.0
WRAP.    NO : One line per depth step
DLM . SPACE : Column Data Section Delimiter
~Well ------------------------------------------------------
STRT .F                  204.0 : START DEPTH
STOP .F                 5499.0 : STOP DEPTH
STEP .F                    0.5 : STEP
NULL .                -9999.25 : NULL VALUE
COMP .                         : COMPANY
WELL .                         : WELL
FLD  .                         : FIELD
LOC  .                         : LOCATION
PROV .                         : PROVINCE
CNTY .                         : COUNTY
STAT .                         : STATE
CTRY .                         : COUNTRY
SRVC .                         : SERVICE COMPANY
DATE .                         : DATE
UWI  .                         : UNIQUE WELL ID
API  .                         : API NUMBER
SLAT .WGS84 3.3151731759280025 : SURFACE LATITUDE
SLON .WGS84  8.949954479557988 : SURFACE LONGITUDE
DATUM.F                 3433.6 : DEPTH DATUM ELEV
~Curve Information -----------------------------------------
DEPT.F     : 
DTCO.US/F  : COMPRESSIONAL-WAVE INTERVAL TRANSIT TIME ACOUSTIC SLOWNESS
DTSM.US/F  : SHEAR-WAVE INTERVAL TRANSIT TIME DELTA-T
DPHZ.DEC   : DENSITY POROSITY LIMESTONE
HCAL.IN    : HILT CALIPER
HDRA.G/C3  : DELTA RHO HIP TOOL
HSGR.GAPI  : SPECTROSCOPY GAMMA RAY
PEFZ.B/E   : HILT PHOTOELECTRIC FACTOR
TNPH.DEC   : THERMAL NEUTRON POROSITY
RHOZ.G/C3  : HILT BULK DENSITY
~Params ----------------------------------------------------
~Other -----------------------------------------------------
~ASCII -----------------------------------------------------
# ...
 4985.50000   50.27970   92.25930   -0.14000    6.48610    0.00320    7.87880    5.35590   -0.01850    2.95080
 4986.00000   50.10270   93.77310   -0.14820    6.50090    0.00170    4.24240    5.37830   -0.02000    2.96010
 4986.50000   49.96990   94.23350   -0.15250    6.51570    0.00090    2.56310    5.35550   -0.02000    2.97370
 4987.00000   50.20010   94.09180   -0.15980    6.53060    0.00700    2.42420    5.35530   -0.02000    2.98650
 4987.50000   50.24880   93.64940   -0.17620    6.53020    0.00540    3.93940    5.36270   -0.01940    3.00690
 4988.00000   50.07180   93.49960   -0.17810    6.52990    0.00320    5.00000    5.35310   -0.01850    3.01590
 4988.50000   50.12050   92.91470   -0.17420    6.52960   -0.00210    5.45450    5.24920   -0.01730    3.01590
 4989.00000   50.48530   94.82700   -0.16730    6.51420   -0.01050    6.21210    5.09080   -0.01520    3.01060
 4989.50000   51.66270   97.90090   -0.15840    6.51390   -0.01570    7.87880    4.91730   -0.01270    3.00740
 4990.00000   53.38180   99.71570   -0.12820    6.49850   -0.01120   12.12120    4.64580    0.00510    2.91740
 4990.50000   55.10100  102.28290   -0.10870    6.49810   -0.00140   19.97150    4.27640    0.03430    2.85580
 4991.00000   56.27840  103.79670   -0.08150    6.48270    0.00460   31.66670    3.91440    0.05760    2.85230
 4991.50000   56.91400  104.55810   -0.07980    6.48240    0.00760   36.36360    3.92930    0.06450    2.85230
 4992.00000   57.00700  104.71750   -0.08770    6.48210    0.01070   35.45450    4.02710    0.06690    2.85300
 4992.50000   56.42460  104.72640   -0.08210    6.48180    0.01210   34.84850    4.07970    0.06630    2.85430
 4993.00000   55.29950  104.73530   -0.08390    6.46640    0.01200   33.78790    4.16990    0.06210    2.85730
 4993.50000   54.03900  104.29270   -0.09160    6.46610    0.00980   30.15150    4.44100    0.04250    2.87790
 4994.00000   52.86870  101.59290   -0.13880    6.45070   -0.00760   21.51520    4.87620    0.01560    2.94220
 4994.50000   51.69850   97.83950   -0.14510    6.45050   -0.02720   11.39390    5.08120   -0.00310    2.96030
 4995.00000   50.66370   94.68820   -0.14040    6.43500   -0.04310    8.93940    4.93030   -0.00550    2.96040
 4995.50000   50.12500   93.49320   -0.13680    6.41960   -0.03700   11.96970    4.58340    0.00420    2.93170
 4996.00000   49.67410   93.05060   -0.11670    6.41930   -0.01900   18.18180    4.18380    0.02080    2.90050
 4996.50000   49.59090   93.66150   -0.11060    6.40390    0.00820   21.36360    3.82190    0.02860    2.87050
 4997.00000   49.88090   94.27480   -0.08960    6.40360    0.00510   23.03030    3.63340    0.03650    2.85020
 4997.50000   50.70870   93.98030   -0.07130    6.40330   -0.00090   27.27270    3.55030    0.04400    2.82960
 4998.00000   51.56820   93.98950   -0.04660    6.41820   -0.00170   35.30880    3.50490    0.05250    2.80290
 4998.50000   52.22460   93.67130   -0.04480    6.40270   -0.00400   44.31850    3.51220    0.06750    2.78810
 4999.00000   51.95730   92.95580   -0.05230    6.40240   -0.00770   45.75760    3.58740    0.07510    2.80350
 4999.50000   51.01280   91.30940   -0.06640    6.40210   -0.00930   38.63640    3.73040    0.07150    2.82980
 5000.00000   49.39110   89.06090   -0.07580    6.40180   -0.00780   27.42420    3.82820    0.05700    2.83260
 5000.50000   48.80780   89.97280   -0.07390    6.38640   -0.00480   18.98950    3.84310    0.04580    2.81960
 5001.00000   48.85650   88.77780   -0.06850    6.38610    0.00010   15.30300    3.81910    0.04760    2.80490
 5001.50000   48.86010   87.13130   -0.04950    6.37060    0.00980   14.84850    3.75220    0.05850    2.78960
 5002.00000   48.77340   86.38550   -0.04920    6.37030    0.02000   14.24240    3.68380    0.07180    2.79010
 5002.50000   48.50610   87.29980   -0.05340    6.37010    0.01780   12.72730    3.67600    0.07330    2.79710
 5003.00000   48.10330   88.06120   -0.06880    6.36980    0.01700   10.90910    3.74350    0.06600    2.84770
 5003.50000   47.52000   87.31770   -0.08960    6.38460    0.01390   10.60610    3.75080    0.05450    2.87330
 5004.00000   46.84640   86.42370   -0.09900    6.38430    0.01010   12.57580    3.72780    0.03730    2.86650
 5004.50000   46.21790   85.68020   -0.09380    6.38400    0.00940   15.00000    3.66720    0.03130    2.86680
 5005.00000   45.81430   85.23770   -0.09050    6.44560    0.00860   17.72730    3.59910    0.02920    2.87060
 5005.50000   45.86390   84.94340   -0.09200    6.44550    0.00480   18.78790    3.52290    0.02680    2.89440
 5006.00000   46.18350   85.10510   -0.10760    6.44530    0.01910   19.39390    3.60260    0.02220    2.90600
 5006.50000   46.50310   87.97330   -0.11820    6.46030    0.02290   19.69700    3.74880    0.02070    2.90800
 5007.00000   46.55180   87.83180   -0.11190    6.46010    0.02270   21.16200    3.80140    0.02110    2.89520
 5007.50000   46.64570   84.53000   -0.08320    6.46150    0.00980   25.00000    3.76330    0.02450    2.86700
 5008.00000   48.29770   83.33500   -0.07590    6.47490    0.00520   26.36360    3.76300    0.02800    2.84160
 5008.50000   50.23750   84.84890   -0.07560    6.48990   -0.00510   22.87880    3.77780    0.03010    2.83810
 5009.00000   50.70390   88.46950   -0.07250    6.50480    0.00840   19.69700    3.80770    0.03520    2.81090
 5009.50000   50.93230   94.71020   -0.03200    6.51980    0.03210   20.45450    3.85260    0.04060    2.72550
 5010.00000   51.29620  103.84810   -0.00820    6.53480    0.08970   27.42420    3.93520    0.12700    2.72450
 5010.50000   52.02120  112.26200   -0.01090    6.56480    0.15840   36.66670    4.10820    0.13570    2.75220
 5011.00000   52.29410  118.21570   -0.10000    6.57980    0.14930   36.06060    4.48470    0.12120    2.87480
 5011.50000   51.39450  118.05440   -0.14160    6.60980    0.14030   28.18180    5.05710    0.09400    2.99620
 5012.00000   51.44230  109.74440   -0.17910    6.60970    0.07540   16.51520    5.53910    0.01590    3.02260
 5012.50000   51.62560  102.98140   -0.18150    6.59440    0.03240    9.46940    5.59910   -0.00230    3.02260
 5013.00000   52.39570  101.03400   -0.18150    6.54890    0.02110    6.89360    5.55260   -0.00800    3.02060
 5013.50000   54.06880  102.09630   -0.17930    6.53370    0.01580    6.21210    5.47390   -0.00740    3.00050
 5014.00000   56.50940  104.36260   -0.16360    6.48740    0.01500   10.15150    5.28920   -0.00560    2.92030
 5014.50000   57.95680  105.87640   -0.15090    6.45790    0.02480   19.84850    5.08540    0.01950    2.86800
 5015.00000   59.13330  106.63780   -0.12010    6.41240    0.03000   34.09090    4.83640    0.06780    2.86150
 5015.50000   59.45200  105.14190   -0.09020    6.38200    0.02920   41.06060    4.42920    0.08960    2.86770
 5016.00000   57.51340   99.28180   -0.09110    6.35160    0.02320   36.51520    4.07470    0.08280    2.88240
 5016.50000   54.41970   95.67900   -0.10220    6.33640    0.01710   30.45450    3.78810    0.05720    2.87280
 5017.00000   50.06970   93.58110   -0.10370    6.33620    0.01160   26.66670    3.68230    0.04000    2.85220
 5017.50000   47.09270   92.68710   -0.08100    6.32100    0.00500   23.63640    3.81010    0.02790    2.85520
 5018.00000   46.05700   90.28820   -0.08070    6.30570   -0.00480   20.15150    3.96050    0.01760    2.87880
 5018.50000   45.91740   86.53490   -0.09670    6.30560   -0.00630   18.18180    4.04310    0.01490    2.89820
 5019.00000   46.06240   86.09020   -0.10890    6.29030    0.00570   17.12120    3.99760    0.01520    2.88640
 5019.50000   46.42620   87.15480   -0.11030    6.27510    0.00640   16.81820    3.92950    0.01550    2.86530
 5020.00000   47.01580   88.66860   -0.10670    6.27490    0.00340   17.57580    3.86130    0.01730    2.84920
 5020.50000   48.12510   91.08540   -0.09850    6.27480    0.00410   19.48270    3.83840    0.02180    2.84920
 5021.00000   50.08640   93.65270   -0.09120    6.27460    0.00490   24.89980    3.86180    0.02970    2.85900
 5021.50000   52.30430   97.42380   -0.07910    6.27450    0.00410   32.12120    3.94330    0.03780    2.89770
