~Version ---------------------------------------------------
VERS.   2.0 : CWLS log ASCII Standard -VERSION 2.0
WRAP.    NO : One line per depth step
DLM . SPACE : Column Data Section Delimiter
~Well ------------------------------------------------------
STRT .FT                2150.0 : START DEPTH
STOP .FT                3176.0 : STOP DEPTH
STEP .FT                   0.5 : STEP
NULL .                -9999.25 : NULL VALUE
COMP .                         : COMPANY
WELL .                         : WELL
FLD  .                         : FIELD
LOC  .                         : LOCATION
PROV .                         : PROVINCE
CNTY .                         : COUNTY
STAT .                         : STATE
CTRY .                         : COUNTRY
SRVC .                         : SERVICE COMPANY
DATE .                         : DATE
UWI  .                         : UNIQUE WELL ID
API  .                         : API NUMBER
SLAT .WGS84 2.5974929084982037 : SURFACE LATITUDE
SLON .WGS84     5.748932829588 : SURFACE LONGITUDE
DATUM.F                    nan : DEPTH DATUM ELEV
~Curve Information -----------------------------------------
DEPT   .FT    : 
DTCO   .US/F  : DELTA-T COMPRESSIONAL
DTSM   .US/F  : DELTA-T SHEAR
GR_EDTC.GAPI  : GAMMA RAY
HCALR  .IN    : HRCC CALIPER CALIBRATED FROM RESISTIVITY LOG
RLA3   .OHMM  : APPARENT RESISTIVITY FROM COMPUTED FOCUSING MODE 3
RLA4   .OHMM  : APPARENT RESISTIVITY FROM COMPUTED FOCUSING MODE 4
RLA5   .OHMM  : APPARENT RESISTIVITY FROM COMPUTED FOCUSING MODE 5
SPR    .MV    : SPONTANEOUS POTENTIAL FROM RESISTIVITY LOG
~Params ----------------------------------------------------
~Other -----------------------------------------------------
~ASCII -----------------------------------------------------
# ...
 2670.00000   48.70840   84.65390   36.00080    8.09260  224.16810  403.23100  673.60010  -43.06630
 2670.50000   48.75220   84.80660   34.73140    8.09900  214.73650  234.90700  331.77030  -43.08420
 2671.00000   48.59120   84.99110   34.17360    8.10550  239.46440  325.12360  398.74330  -43.10200
 2671.50000   48.43010   85.30270   33.07280    8.11200  254.62930  407.34830  535.05460  -43.10910
 2672.00000   48.26900   85.61440   29.80000    8.11840  263.50050  291.23050  311.69800  -43.10910
 2672.50000   48.10790   85.40010   26.79370    8.12490  288.74780  306.84130  311.69800  -43.10910
 2673.00000   48.11720   85.18580   24.44200    8.13130  308.37580  331.75430  339.67690  -43.09270
 2673.50000   48.32780   85.57100   27.48380    8.13780  324.02150  354.25220  381.69220  -43.05170
 2674.00000   48.87630   86.31190   33.19630    8.14420  355.28260  410.72760  423.70740  -43.01070
 2674.50000   49.42470   87.06080   39.38520    8.15070  387.17380  415.84980  428.94150  -42.96980
 2675.00000   49.78130   87.58410   43.26090    8.15710  350.94730  415.80140  470.33600  -42.92880
 2675.50000   50.09000   88.10730   41.22400    8.16360  308.49050  336.80150  417.10360  -42.88780
 2676.00000   50.39860   88.63060   37.27880    8.17000  263.26400  292.99100  329.43130  -42.84680
 2676.50000   50.57400   88.53350   36.33060    8.17650  239.83130  251.31700  286.68930  -42.80580
 2677.00000   50.54930   88.02270   36.55460    8.18290  258.17010  276.47390  312.97660  -42.76480
 2677.50000   50.42910   87.51200   36.63090    8.18940  211.85640  254.13300  292.30240  -42.72380
 2678.00000   49.92670   87.00130   34.70950    8.19580  210.81710  214.77610  249.14690  -42.75960
 2678.50000   49.42420   86.64830   32.78800    8.20160  193.28820  210.97060  226.49890  -42.84650
 2679.00000   48.92180   86.29530   30.86660    8.20730  154.14340  175.30730  221.00290  -42.93340
 2679.50000   48.52200   85.94230   29.62890    8.21300  153.19400  168.63960  186.09470  -43.02030
 2680.00000   48.53250   85.58940   29.50170    8.21870  173.21030  389.22160  495.02130  -43.10730
 2680.50000   48.54300   85.44020   29.43630    8.22440  480.00070  493.80320  501.66620  -43.08750
 2681.00000   48.60950   85.05260   29.83820    8.23010  405.69290  490.77890  494.03500  -42.99670
 2681.50000   48.70970   84.66500   30.84280    8.23580  382.44930  398.31060  583.08790  -42.90590
 2682.00000   48.42000   84.27740   39.88470    8.23540  454.72150  574.61490  597.72050  -42.81510
 2682.50000   48.13020   84.34580   48.92660    8.23350  556.21390  586.43770  627.67390  -42.72430
 2683.00000   47.84050   84.71820   63.37810    8.23160  416.77910  501.49010  549.84960  -42.63350
 2683.50000   47.55070   85.06100   77.82970    8.22960  432.42010  470.13420  535.05460  -42.37940
 2684.00000   47.45870   85.52980   86.90250    8.22770  532.74290  675.38890  745.41500  -42.12530
 2684.50000   47.36660   85.86530   84.69220    8.22580  644.52810  671.25250  727.33430  -41.87120
 2685.00000   47.31140   85.20050   78.97620    8.22390  818.92080 1016.01760 1319.46580  -41.61710
 2685.50000   47.31140   84.53570   70.21180    8.22190  892.49680 1079.46810 1397.32690  -41.36300
 2686.00000   47.35220   83.87090   61.44740    8.22000  660.55040  768.84660 1052.83100  -41.10890
 2686.50000   47.43250   83.53350   61.92220    8.21810  644.52810 1075.02590 1253.57190  -40.85480
 2687.00000   47.51670   83.41420   66.29070    8.21620 1190.98410 1335.22330 1443.22650  -40.93080
 2687.50000   47.62680   83.45780   70.65910    8.21420  796.66180  857.36350 1257.11080  -40.51650
 2688.00000   47.73680   84.03120   74.95120    8.21390  689.56290  761.38630  874.44820  -40.10210
 2688.50000   47.84690   85.21470   77.40030    8.21390  780.80210 1016.74810 1495.50040  -39.68780
 2689.00000   48.08910   85.56330   75.82620    8.21590 1454.33790 1658.12160 2181.15340  -39.27340
 2689.50000   48.36450   85.69860   70.01070    8.21780 1815.79210 1883.93590 2092.93650  -38.85910
 2690.00000   48.67560   86.25810   63.66390    8.21970  763.95200  890.76760 1961.92140  -38.44470
 2690.50000   48.98670   87.10040   57.31700    8.22160 1012.63280 1264.03500 1529.01660  -38.03040
 2691.00000   49.04890   87.94260   55.16830    8.21870  812.20740 1104.43920 1489.53640  -37.61610
 2691.50000   48.99560   92.00650   62.03480    8.20850  253.32800  375.01970  552.28340  -36.29960
 2692.00000   48.86220   91.64760   68.90120    8.19840  237.02900  253.59360  285.20630  -36.14920
 2692.50000   48.72890   87.85220   75.74220    8.18830  187.73180  216.65100  251.56940  -35.99870
 2693.00000   48.66880   84.05690   78.46340    8.17810  203.99470  232.29770  311.89090  -35.84830
 2693.50000   48.69630   80.67070   72.83730    8.16800  159.05380  205.34030  309.58590  -35.69780
 2694.00000   48.93390   81.08750   63.46050    8.15780  120.71050  221.20430  324.30830  -35.54740
 2694.50000   49.17150   83.17130   54.08380    8.15310  290.37620  302.53600  321.68640  -35.39690
 2695.00000   49.40900   84.00480   44.70700    8.14980  270.33600  300.12520  478.53780  -35.24650
 2695.50000   49.53950   83.04160   38.67910    8.14640  501.45560  539.84710  558.92280  -34.97970
 2696.00000   49.60270   82.31550   34.86690    8.14310  504.57070  535.47900  554.87070  -34.63540
 2696.50000   49.66590   83.05310   31.60860    8.13970  414.63740  472.96720  580.66210  -34.29100
 2697.00000   49.72910   84.13400   27.54810    8.13630  514.00240  639.82670  744.74890  -33.94670
 2697.50000   49.78460   85.21500   26.43090    8.13300  338.69110  396.51340  745.93390  -33.60240
 2698.00000   49.84020   86.63700   26.79200    8.12960  342.87120  357.23890  411.38530  -33.25800
 2698.50000   49.89580   88.73910   26.52280    8.12630  190.44210  263.30900  312.45990  -32.91370
 2699.00000   50.00380   89.17890   24.81420    8.12290  197.10960  208.66490  234.12290  -32.56940
 2699.50000   50.19050   89.35610   23.14030    8.11960  173.64980  213.42560  229.73040  -32.10850
 2700.00000   50.37720   89.53330   24.38600    8.11620  149.38880  192.51860  241.27130  -31.62430
 2700.50000   50.64040   89.71060   26.51590    8.11290  223.22190  234.00020  258.13490  -31.00580
 2701.00000   51.01830   89.73300   28.61460    8.10950  215.13390  245.75260  256.52980  -30.83100
 2701.50000   51.39610   89.65220   27.44720    8.10620  185.66150  222.98980  258.08870  -30.48230
 2702.00000   51.77400   89.57140   23.65360    8.10280  143.69740  185.07450  222.72950  -30.13360
 2702.50000   51.80380   89.49060   19.18860    8.09950  148.27140  183.22840  261.53490  -29.78480
 2703.00000   51.56500   89.40980   17.81220    8.09610  164.07440  219.97360  296.54620  -29.43610
 2703.50000   51.05380   89.32900   19.46150    8.09280   91.02200  121.15260  217.46110  -29.08740
 2704.00000   50.59840   89.24820   24.21170    8.08940   85.06930   87.17900   93.72120  -28.73860
 2704.50000   50.18010   88.97570   29.73730    8.09030   84.53820   86.52710  116.16300  -28.38990
 2705.00000   49.90910   88.70310   35.26280    8.09230  153.42270  212.56140  265.37600  -28.04120
 2705.50000   49.99910   88.43060   36.30090    8.09420  277.26300  303.92570  345.76210  -27.69240
 2706.00000   50.18250   88.34460   35.93640    8.09620  323.83520  339.18860  654.06080  -27.34370
 2706.50000   50.32120   88.53820   34.38010    8.09820  582.51930  768.15570  953.20420  -26.99490
 2707.00000   50.28920   88.73180   32.39960    8.10010  183.19750  592.64030 1026.03700  -26.64620
 2707.50000   50.19920   88.92540   30.08290    8.10210   86.00850   90.07660  142.14420  -26.29750
 2708.00000   50.16920   89.11900   27.76620    8.10210   78.93180   80.80040   84.86730  -25.92200
 2708.50000   50.47980   89.31260   24.75710    8.10210   83.59200   92.91710  127.85320  -25.50630
 2709.00000   50.85640   89.50620   22.79730    8.10210  116.95160  153.54370  179.65240  -25.09060
 2709.50000   51.23290   89.69980   23.46970    8.10210  177.57310  178.86740  190.78170  -24.67490
