~Version ---------------------------------------------------
VERS.   2.0 : CWLS log ASCII Standard -VERSION 2.0
WRAP.    NO : One line per depth step
DLM . SPACE : Column Data Section Delimiter
~Well ------------------------------------------------------
STRT .FT                2150.0 : START DEPTH
STOP .FT                3176.0 : STOP DEPTH
STEP .FT                   0.5 : STEP
NULL .                -9999.25 : NULL VALUE
COMP .                         : COMPANY
WELL .                         : WELL
FLD  .                         : FIELD
LOC  .                         : LOCATION
PROV .                         : PROVINCE
CNTY .                         : COUNTY
STAT .                         : STATE
CTRY .                         : COUNTRY
SRVC .                         : SERVICE COMPANY
DATE .                         : DATE
UWI  .                         : UNIQUE WELL ID
API  .                         : API NUMBER
SLAT .WGS84 2.5974929084982037 : SURFACE LATITUDE
SLON .WGS84     5.748932829588 : SURFACE LONGITUDE
DATUM.F                    nan : DEPTH DATUM ELEV
~Curve Information -----------------------------------------
DEPT   .FT    : 
DTCO   .US/F  : DELTA-T COMPRESSIONAL
DTSM   .US/F  : DELTA-T SHEAR
GR_EDTC.GAPI  : GAMMA RAY
HCALR  .IN    : HRCC CALIPER CALIBRATED FROM RESISTIVITY LOG
RLA3   .OHMM  : APPARENT RESISTIVITY FROM COMPUTED FOCUSING MODE 3
RLA4   .OHMM  : APPARENT RESISTIVITY FROM COMPUTED FOCUSING MODE 4
RLA5   .OHMM  : APPARENT RESISTIVITY FROM COMPUTED FOCUSING MODE 5
SPR    .MV    : SPONTANEOUS POTENTIAL FROM RESISTIVITY LOG
~Params ----------------------------------------------------
~Other -----------------------------------------------------
~ASCII -----------------------------------------------------
# ...
 2630.00000   51.95180   90.07490   41.73440    8.26420   23.79070   38.58850   58.31130  -40.44510
 2630.50000   50.72930   89.77490   36.81600    8.27100   24.01560   28.44910   37.70680  -40.38970
 2631.00000   49.46240   89.47480   31.89770    8.27780   29.75410   40.29420   37.04640  -40.33430
 2631.50000   48.82030   89.17470   26.97930    8.28470   41.16370   58.11990   90.16200  -40.27880
 2632.00000   48.49450   87.69220   22.65940    8.29150   70.25800  138.47820  187.19460  -40.22340
 2632.50000   48.40880   85.91410   19.90210    8.29830  199.33140  254.16620  268.66910  -40.16790
 2633.00000   48.32300   84.86390   19.71970    8.30520  295.17040  302.47280  317.12060  -40.11250
 2633.50000   48.19270   84.94710   22.39010    8.31200  250.11790  259.89060  275.28220  -40.05710
 2634.00000   48.03270   85.20270   25.29040    8.31880  181.80890  212.11300  225.43000  -39.94580
 2634.50000   48.09670   85.57330   26.75550    8.32570  186.32560  234.68450  608.09470  -39.45610
 2635.00000   48.49680   87.53490   27.89930    8.32890  357.10900  626.60510 1227.87770  -38.73410
 2635.50000   49.08900   89.89430   29.04310    8.32680  845.17990 1299.39500 1756.01510  -38.01220
 2636.00000   50.87400   91.94860   29.08510    8.32470 1138.02250 1275.70180 1581.85980  -37.29020
 2636.50000   52.65890   92.78220   30.59530    8.32260  581.77910 1119.37600 1239.94100  -36.56820
 2637.00000   54.23670   93.61570   34.58320    8.32050  189.21400  350.50040  657.98630  -36.19340
 2637.50000   55.25030   94.44930   39.34680    8.31830   86.55050  159.14020  196.51950  -36.04990
 2638.00000   55.21030   94.67150   44.11040    8.31620   27.45380   65.14990  113.51080  -35.90640
 2638.50000   54.47360   94.89370   48.99190    8.31410   19.13480   19.93220   33.90140  -36.15110
 2639.00000   53.60290   94.38240   50.41780    8.31200   18.19800   19.44900   21.73390  -36.60670
 2639.50000   52.73210   93.38220   48.99190    8.30990   19.02360   22.71480   32.68080  -37.06230
 2640.00000   51.80960   92.21150   48.12890    8.30780   30.72480   35.87550   55.69440  -37.51790
 2640.50000   50.99790   90.92700   46.25880    8.30570   50.31980   57.92450   79.54100  -37.97350
 2641.00000   50.46870   89.64250   43.28930    8.30360   78.45990   81.21070   92.64800  -38.42910
 2641.50000   49.93940   88.82570   39.58690    8.30140   86.50750   92.95910  121.53770  -38.88470
 2642.00000   49.41020   88.12580   36.93820    8.29930   88.70060  130.17150  184.71610  -39.34030
 2642.50000   48.72460   87.42600   34.24350    8.29720  169.94660  189.34140  244.24570  -39.79590
 2643.00000   48.49640   86.72610   31.54890    8.29510  227.64960  293.06230  303.77530  -40.25150
 2643.50000   48.39760   85.92100   28.85420    8.29300  375.33930  428.11000  483.98850  -40.70710
 2644.00000   48.33120   85.11580   27.11680    8.29090  438.43590  466.50250  508.55150  -41.16270
 2644.50000   48.26480   84.31070   25.61860    8.28350  339.23600  425.99140  472.18010  -41.61830
 2645.00000   48.25180   83.63620   24.07290    8.26820  335.75060  378.68370  432.26470  -41.59690
 2645.50000   47.88200   83.48420   23.92870    8.25290  341.06010  425.49450  593.22200  -41.57560
 2646.00000   47.51220   83.33230   26.48920    8.23760  457.33550  640.00080  868.11280  -41.55420
 2646.50000   47.14240   83.07590   30.24650    8.22230  635.43610  853.49570 1143.00360  -41.94390
 2647.00000   46.77260   82.74980   33.46030    8.20700  627.68990  979.93160 1242.75420  -42.60750
 2647.50000   46.75070   82.42370   35.18150    8.19170  573.03710  626.21890  989.66470  -43.27120
 2648.00000   46.75770   82.09760   31.42050    8.17830  545.09290  699.32360  851.34380  -43.93490
 2648.50000   46.88020   81.69970   28.71150    8.16780  598.85380  712.31190  851.34380  -44.59850
 2649.00000   47.00280   81.30180   27.62790    8.15740  601.30640  702.01600  840.95820  -45.26220
 2649.50000   47.12530   81.79140   28.43160    8.14690  601.30640  665.52210  781.75830  -45.92590
 2650.00000   47.20890   82.28100   31.13420    8.13640  239.60470  466.00800  689.18670  -45.92310
 2650.50000   47.26630   82.67040   34.37430    8.12600  190.97250  204.70170  294.01070  -45.92020
 2651.00000   47.32380   82.65900   39.76500    8.11550  176.04830  181.19550  194.26100  -45.91740
 2651.50000   47.38130   82.64760   45.15560    8.10510  144.44490  157.67190  199.21430  -45.91460
 2652.00000   47.43880   82.63630   49.56220    8.09460  175.46110  222.73370  256.43330  -45.91180
 2652.50000   47.49630   81.87500   52.17460    8.08410  248.93360  296.82490  333.01440  -45.90900
 2653.00000   47.55380   81.11360   53.72310    8.07370  356.60950  412.43740  459.79480  -45.90620
 2653.50000   47.60710   80.65680   54.13710    8.06320  464.64480  528.04980  582.26350  -45.85020
 2654.00000   47.59030   81.29100   53.24850    8.05270  557.50330  643.19700  676.52340  -45.75870
 2654.50000   47.36010   81.51110   50.50760    8.04860  695.04100  756.48320  844.18840  -45.66720
 2655.00000   47.09690   80.94070   46.57250    8.04860  600.01930  793.87780  811.75320  -45.57570
 2655.50000   46.98040   80.96540   40.98370    8.04860  251.88120  344.96280  582.54490  -45.48430
 2656.00000   46.98300   81.88270   34.29250    8.04860  248.11790  328.47410  373.62730  -45.39280
 2656.50000   47.07150   82.58850   27.60120    8.04860  336.96890  355.64750  377.59830  -45.30130
 2657.00000   47.16000   82.44860   25.44840    8.04860  289.48980  328.65140  360.36690  -45.20980
 2657.50000   47.24850   82.30870   25.23810    8.04860  289.53120  294.27740  306.38480  -45.11840
 2658.00000   47.33700   82.27110   27.81650    8.04860  298.16570  400.13790  427.02100  -45.02690
 2658.50000   47.33130   82.64290   31.04540    8.04860  368.13910  381.13270  404.08190  -44.93540
 2659.00000   47.32550   83.01460   34.10540    8.04860  277.73390  289.22640  416.09350  -44.84390
 2659.50000   47.31980   83.83770   36.91200    8.04860  432.24350  477.21840  567.98470  -44.75250
 2660.00000   47.56980   84.63160   39.71870    8.04860  485.03130  624.88630  722.87980  -44.69790
 2660.50000   47.83130   84.41690   41.52560    8.04860  634.08210  772.55410  886.43350  -44.66800
 2661.00000   48.18260   84.46380   42.11360    8.04860  748.01350  782.68330  838.78080  -44.63810
 2661.50000   48.66840   85.09800   41.71650    8.04860  431.85830  618.98760  746.71270  -44.60820
 2662.00000   49.38290   85.73220   40.32190    8.04860  326.01820  352.11160  412.03550  -44.57830
 2662.50000   49.80200   86.07670   37.76030    8.04860  316.15930  321.97480  339.70250  -44.54830
 2663.00000   49.89270   85.89650   35.41400    8.04910  291.90520  306.44090  328.20920  -44.51840
 2663.50000   49.53260   85.71630   33.22530    8.05210  143.66690  252.20690  291.59480  -44.48850
 2664.00000   49.06250   85.53600   31.78880    8.05510  113.67000  119.55340  206.56940  -44.45860
 2664.50000   48.59240   85.35580   31.99810    8.05800  174.39950  240.89700  246.90300  -44.21770
 2665.00000   48.12230   85.17560   32.20750    8.06100  294.39720  386.58370  479.33760  -43.89500
 2665.50000   47.95970   84.99530   31.83210    8.06390  336.98060  419.26030  525.28880  -43.80740
 2666.00000   47.95990   84.81510   30.16740    8.06690  302.64210  350.65470  412.69280  -43.71980
 2666.50000   48.08890   84.72390   28.73300    8.06980  244.32780  275.56360  325.50910  -43.41270
 2667.00000   48.21800   84.65490   29.22100    8.07280  252.60390  261.56480  284.31330  -42.95940
 2667.50000   48.34700   84.58590   31.60090    8.07570  268.68410  278.11660  318.79530  -42.97720
 2668.00000   48.47610   84.51690   36.25880    8.07870  250.36510  260.94250  288.09420  -42.99500
 2668.50000   48.60520   84.44790   39.98520    8.08160  158.01880  203.29530  239.09640  -43.01280
 2669.00000   48.70840   84.37900   39.48850    8.08460  113.04730  129.52410  270.07830  -43.03070
 2669.50000   48.70840   84.50110   37.74470    8.08750  210.79470  356.46940  487.97560  -43.04850
