~Version ---------------------------------------------------
VERS.   2.0 : CWLS log ASCII Standard -VERSION 2.0
WRAP.    NO : One line per depth step
DLM . SPACE : Column Data Section Delimiter
~Well ------------------------------------------------------
STRT .FT                2150.0 : START DEPTH
STOP .FT                3176.0 : STOP DEPTH
STEP .FT                   0.5 : STEP
NULL .                -9999.25 : NULL VALUE
COMP .                         : COMPANY
WELL .                         : WELL
FLD  .                         : FIELD
LOC  .                         : LOCATION
PROV .                         : PROVINCE
CNTY .                         : COUNTY
STAT .                         : STATE
CTRY .                         : COUNTRY
SRVC .                         : SERVICE COMPANY
DATE .                         : DATE
UWI  .                         : UNIQUE WELL ID
API  .                         : API NUMBER
SLAT .WGS84 2.5974929084982037 : SURFACE LATITUDE
SLON .WGS84     5.748932829588 : SURFACE LONGITUDE
DATUM.F                    nan : DEPTH DATUM ELEV
~Curve Information -----------------------------------------
DEPT   .FT    : 
DTCO   .US/F  : DELTA-T COMPRESSIONAL
DTSM   .US/F  : DELTA-T SHEAR
GR_EDTC.GAPI  : GAMMA RAY
HCALR  .IN    : HRCC CALIPER CALIBRATED FROM RESISTIVITY LOG
RLA3   .OHMM  : APPARENT RESISTIVITY FROM COMPUTED FOCUSING MODE 3
RLA4   .OHMM  : APPARENT RESISTIVITY FROM COMPUTED FOCUSING MODE 4
RLA5   .OHMM  : APPARENT RESISTIVITY FROM COMPUTED FOCUSING MODE 5
SPR    .MV    : SPONTANEOUS POTENTIAL FROM RESISTIVITY LOG
~Params ----------------------------------------------------
~Other -----------------------------------------------------
~ASCII -----------------------------------------------------
# ...
 2550.00000   54.67410   99.81030   37.93210    8.12490   24.78770   26.10360   29.72440    7.68670
 2550.50000   54.88160  100.66680   37.77440    8.12600   26.95060   32.19750   38.18040    7.76690
 2551.00000   55.14380  101.38980   39.58830    8.12710   34.86580   44.74910   59.87170    7.84710
 2551.50000   55.59370  102.63160   41.40230    8.12820   36.53350   50.38400   57.70340    7.92730
 2552.00000   56.79460  105.49230   43.21620    8.12930   26.80970   35.32980   45.02190    7.26000
 2552.50000   57.96940  106.35140   44.57240    8.13040   18.15490   22.66640   32.34030    6.87900
 2553.00000   59.13770  106.71000   45.10820    8.13150    9.31440   13.58940   19.65880    6.92770
 2553.50000   59.94580  107.06850   45.64400    8.13260    9.36010   17.54230   22.24270    6.97630
 2554.00000   60.20020  107.40930   49.78700    8.13370   21.03440   23.83880   26.75020    7.02500
 2554.50000   60.45830  107.54390   54.95370    8.13480   15.56570   18.44670   20.85330    7.07360
 2555.00000   60.68200  107.99340   54.95370    8.13590    6.39900    7.11990    8.92220    7.12230
 2555.50000   61.60310  109.10760   50.43970    8.14520    6.49800    8.09880   12.27800    6.32080
 2556.00000   64.55260  116.30500   48.12220    8.15460   14.98510   19.76470   25.17590    6.22820
 2556.50000   68.99140  125.73470   57.83370    8.16390   25.12980   26.19700   37.42790    6.42130
 2557.00000   73.39010  127.95450   67.54520    8.17320   22.84490   36.17730   37.71550    6.76000
 2557.50000   75.52610  130.50470   77.25670    8.18260   12.85380   17.87060   22.38250    7.13220
 2558.00000   76.46510  133.05490   83.08360    8.19190    9.94460   13.36250   15.98930    7.61620
 2558.50000   76.34700  132.61500   81.25850    8.19040    8.04040    9.92960   11.89370    7.96060
 2559.00000   73.60530  130.20390   78.21670    8.18610    6.05530    7.39700    9.31360    8.72230
 2559.50000   70.86360  125.39740   72.94220    8.18190    6.38110    7.57030    8.08810    8.87620
 2560.00000   66.88060  120.39380   67.67700    8.17770    7.27880    7.75840    7.90830    9.52520
 2560.50000   63.20260  115.39030   62.41180    8.17340    5.87370    6.10760    7.98950    9.91450
 2561.00000   60.74500  110.37290   57.14650    8.16920    7.41620    8.55440    9.04290    9.91450
 2561.50000   58.28740  105.33490   51.88130    8.16490    9.94010   11.08030   12.74240    9.91450
 2562.00000   55.69260  101.87940   45.30800    8.16070   12.72280   14.77500   15.26460    9.91450
 2562.50000   55.61260   99.47890   38.12600    8.15650   15.03560   20.22290   26.87180    9.91450
 2563.00000   55.61260   98.06520   32.08610    8.15220   19.63980   24.58120   37.72750    9.83420
 2563.50000   55.57250   97.26510   28.68600    8.14800   18.83560   22.72450   26.55160    9.49140
 2564.00000   54.91640   96.78500   27.48400    8.14380   18.46400   21.28860   25.06370    9.38420
 2564.50000   54.53240   97.71850   26.52240    8.13950   24.35640   28.05650   31.30520    9.27710
 2565.00000   54.84350   99.27440   26.43790    8.13530   28.40980   33.81690   35.48270    9.16990
 2565.50000   55.13240   99.87140   27.92890    8.13100   17.71500   24.71620   34.62330    8.82570
 2566.00000   55.42140  100.31910   31.80920    8.12680   17.28560   18.25590   19.80560    8.32360
 2566.50000   55.79140  100.51920   37.10420    8.12260   18.71010   19.71060   39.72550    7.82150
 2567.00000   56.48570  100.59920   42.91810    8.11830   47.17310   50.28140   59.76650    7.31940
 2567.50000   57.17990  100.65260   47.48890    8.11410   35.25410   51.63570   51.15080    6.81730
 2568.00000   57.87420  100.17250   45.61750    8.10980   14.73740   16.05000   17.10020    6.31520
 2568.50000   58.46910   99.57240   37.36360    8.10560   15.86310   18.91460   22.52270    5.61890
 2569.00000   58.54110   98.97220   32.36730    8.10140   21.78790   25.45750   31.73450    4.14600
 2569.50000   57.85300   98.37210   27.37100    8.09710   28.69000   32.00050   34.65670    2.76170
 2570.00000   56.65260   97.44590   24.92890    8.09490   31.78590   34.61100   37.35610    1.73160
 2570.50000   55.45230   96.60500   24.79220    8.09410   33.52720   37.00090   40.05560    0.70140
 2571.00000   54.61570   95.76400   25.12030    8.09330   31.03500   33.95380   44.23610   -0.32870
 2571.50000   53.87010   94.92310   24.89770    8.09250   25.75390   28.39490   32.05680   -1.35880
 2572.00000   53.39180   93.93920   23.16120    8.09160   25.59660   27.28310   28.44250   -2.38900
 2572.50000   53.09180   92.38320   21.16360    8.09080   28.23600   33.81690   55.16720   -3.72790
 2573.00000   52.79170   90.82730   19.22530    8.09000   47.26350   55.12480   66.56790   -4.23550
 2573.50000   52.34300   90.24940   17.28690    8.08910   62.63910   70.98110   84.23590   -4.74310
 2574.00000   51.67140   89.91600   16.96750    8.08830   80.11000  121.58080  143.32990   -5.25070
 2574.50000   50.99990   89.58260   18.48840    8.08750  133.29010  140.34070  146.30440   -5.75830
 2575.00000   50.37110   89.50270   19.81420    8.08670   92.81600  116.42090  144.52300   -6.26590
 2575.50000   50.13110   89.71600   21.38110    8.08580  117.16440  145.00180  188.22820   -6.77350
 2576.00000   50.66580   90.52830   23.84690    8.08500   92.81600  173.94920  189.40250   -7.28110
 2576.50000   51.73870   91.37700   26.76560    8.08420  137.44110  165.21560  182.51790   -7.78870
 2577.00000   52.81170   91.98320   31.49580    8.08340  111.82540  122.97550  180.24520   -8.29630
 2577.50000   53.47180   92.51660   37.21570    8.08250   32.51460   77.40590   99.17270   -8.80390
 2578.00000   54.13200   93.09250   42.76160    8.08120   28.76040   29.72960   33.78360   -9.31150
 2578.50000   54.39200   93.30480   48.30750    8.07910   28.58470   36.62410   56.00130   -9.81910
 2579.00000   54.01190   93.51710   53.73420    8.07690   36.75840   47.38650   56.26230  -10.32670
 2579.50000   54.01190   93.72940   58.68390    8.07480   28.81730   34.23420   42.89970  -10.83430
 2580.00000   54.07920   93.94170   63.63370    8.07270   26.23220   28.83170   35.03820  -11.34190
 2580.50000   54.13400   93.99040   68.71100    8.07060   30.48840   32.80030   33.64860  -11.88180
 2581.00000   54.21650   93.25790   78.71220    8.06840   36.89050   42.03350   77.59480  -12.55080
 2581.50000   54.01870   92.33970   88.71350    8.06630   48.14730   62.45040   80.07200  -13.21980
 2582.00000   53.26100   91.42150   92.71110    8.06420   36.16240   46.35670   60.34950  -13.88580
 2582.50000   52.12660   90.50330   85.83510    8.06210   25.05000   30.88430   40.62700  -14.53970
 2583.00000   50.78680   89.58510   69.65050    8.06000   23.66610   26.13640   28.67610  -15.19360
 2583.50000   49.35620   88.66690   51.13880    8.05780   24.67520   28.63940   43.16380  -15.84750
 2584.00000   48.81610   87.74870   32.62710    8.06080   31.72640   82.53040  176.99190  -16.50140
 2584.50000   48.78680   87.28630   25.07510    8.06500  193.77750  352.19580  539.77970  -17.15530
 2585.00000   49.06410   87.12790   21.12630    8.06930  503.58710  679.35150  766.06420  -17.80920
 2585.50000   49.40010   87.00220   24.13080    8.07350  645.25770  718.89630  754.67070  -18.46310
 2586.00000   49.63140   88.34390   27.89650    8.07770  366.97990  459.40180  734.98870  -19.11700
 2586.50000   49.96570   89.11900   31.37230    8.08200  261.21210  279.12610  312.68380  -19.77090
 2587.00000   50.48870   89.51620   33.68810    8.08620  208.31700  232.87490  278.58090  -20.42480
 2587.50000   51.40340   89.88010   36.00380    8.09040  188.04790  201.93780  214.19830  -21.07870
 2588.00000   51.75140   90.11010   38.31960    8.09470  222.37440  251.40310  274.20880  -21.73260
 2588.50000   51.84110   89.70780   38.38450    8.09890  276.75840  300.86830  372.02860  -22.38650
 2589.00000   51.69960   89.30560   37.40550    8.10310  175.66990  252.92660  315.83230  -23.04040
 2589.50000   51.22220   89.06630   35.30050    8.10740   35.67160  146.78720  192.30040  -23.69430
