~Version ---------------------------------------------------
VERS.   2.0 : CWLS log ASCII Standard -VERSION 2.0
WRAP.    NO : One line per depth step
DLM . SPACE : Column Data Section Delimiter
~Well ------------------------------------------------------
STRT .FT                2150.0 : START DEPTH
STOP .FT                3176.0 : STOP DEPTH
STEP .FT                   0.5 : STEP
NULL .                -9999.25 : NULL VALUE
COMP .                         : COMPANY
WELL .                         : WELL
FLD  .                         : FIELD
LOC  .                         : LOCATION
PROV .                         : PROVINCE
CNTY .                         : COUNTY
STAT .                         : STATE
CTRY .                         : COUNTRY
SRVC .                         : SERVICE COMPANY
DATE .                         : DATE
UWI  .                         : UNIQUE WELL ID
API  .                         : API NUMBER
SLAT .WGS84 2.5974929084982037 : SURFACE LATITUDE
SLON .WGS84     5.748932829588 : SURFACE LONGITUDE
DATUM.F                    nan : DEPTH DATUM ELEV
~Curve Information -----------------------------------------
DEPT   .FT    : 
DTCO   .US/F  : DELTA-T COMPRESSIONAL
DTSM   .US/F  : DELTA-T SHEAR
GR_EDTC.GAPI  : GAMMA RAY
HCALR  .IN    : HRCC CALIPER CALIBRATED FROM RESISTIVITY LOG
RLA3   .OHMM  : APPARENT RESISTIVITY FROM COMPUTED FOCUSING MODE 3
RLA4   .OHMM  : APPARENT RESISTIVITY FROM COMPUTED FOCUSING MODE 4
RLA5   .OHMM  : APPARENT RESISTIVITY FROM COMPUTED FOCUSING MODE 5
SPR    .MV    : SPONTANEOUS POTENTIAL FROM RESISTIVITY LOG
~Params ----------------------------------------------------
~Other -----------------------------------------------------
~ASCII -----------------------------------------------------
# ...
 2870.00000   57.50080  100.66410   21.19060    8.16780   25.59570   36.69930   46.44810   -4.65360
 2870.50000   57.40630  101.32060   24.30880    8.16590    9.47250   23.18930   42.42870   -3.76830
 2871.00000   56.53680  101.65670   27.42700    8.16410    8.63760    9.88300   12.14430   -2.99960
 2871.50000   55.75190  100.60270   29.43630    8.16220    9.50760   10.31460   12.18840   -2.53840
 2872.00000   54.96710   98.29540   32.60690    8.16030   11.14850   11.95480   12.98160   -1.81080
 2872.50000   54.18220   95.98810   37.51950    8.15840   14.33580   15.01970   22.60390   -1.52010
 2873.00000   53.64360   94.46120   42.75790    8.15660   18.55400   20.22180   43.11030   -1.52010
 2873.50000   53.20910   94.19480   43.51860    8.15470   32.67450   42.18260   46.91700   -1.52010
 2874.00000   52.75960   94.19820   41.59530    8.15280   29.79330   32.87650   36.59200   -1.27170
 2874.50000   52.45740   94.19900   39.67200    8.15090   29.24810   32.25630   37.79720   -1.53640
 2875.00000   52.37610   94.19900   43.64340    8.14900   34.33120   38.32600   46.06420   -1.61840
 2875.50000   52.35620   94.19900   47.80640    8.14720   40.97680   46.42960   66.42470   -1.70040
 2876.00000   52.57190   94.28150   51.28620    8.14530   51.30560   69.00950   78.88190   -1.78240
 2876.50000   52.77250   94.65860   51.06820    8.14340   93.90530  157.05450  368.43680   -1.86440
 2877.00000   53.13930   95.03560   49.46860    8.14200  302.12690  524.64070  953.17580   -1.94630
 2877.50000   53.63000   95.41270   47.86910    8.14140  656.50450  928.84240 1279.74070   -2.02830
 2878.00000   54.12070   96.39740   46.26950    8.14080  546.05880  646.99330 1281.29680   -2.11030
 2878.50000   54.73040   97.38200   43.68800    8.14020  193.01540  396.05520  696.79170   -2.19230
 2879.00000   55.51860   98.36670   39.63350    8.13960   63.75310  106.30000  310.68410   -2.27420
 2879.50000   56.00680   99.26660   36.09890    8.13900   44.72790   59.49610   93.13800   -2.38840
 2880.00000   56.37960   99.82730   34.87190    8.13840   22.83440   31.63510   53.56970   -2.55070
 2880.50000   56.46710  100.38800   35.57390    8.13780   18.30470   18.59610   27.06310   -2.71310
 2881.00000   56.17960   99.93880   35.83120    8.13720   13.86480   15.87240   20.14930   -2.87550
 2881.50000   55.57750   99.18560   34.42740    8.13660   11.14190   13.20790   15.59940   -2.99940
 2882.00000   54.78410   98.43240   32.40730    8.13600   10.87230   12.72440   15.95760   -3.09780
 2882.50000   54.23640   97.87350   31.08400    8.13540   12.53820   16.18760   18.51040   -3.90580
 2883.00000   53.68870   97.36310   33.23850    8.13480   16.10960   20.59260   22.10170   -4.14900
 2883.50000   53.54090   96.85280   35.96010    8.13420   23.00540   27.26440   35.68090   -4.15770
 2884.00000   53.60420   96.34240   38.08990    8.13360   33.26530   40.95840   56.13330   -4.48360
 2884.50000   53.74170   95.83210   39.33170    8.13300   54.87650   70.55310   82.18240   -4.14550
 2885.00000   53.83690   95.32180   40.57360    8.13240   66.54810   74.62900   88.81210   -4.34630
 2885.50000   53.88440   95.31480   41.81550    8.13180   27.67540   50.44400   64.52700   -3.84420
 2886.00000   53.94790   95.76740   41.97390    8.13120   28.36920   30.88850   42.92910   -3.28540
 2886.50000   54.07530   96.46050   41.15330    8.13060   30.71560   39.16620   45.87900   -2.71240
 2887.00000   54.34020   97.23070   38.86810    8.13000   31.98630   35.50970   38.92590   -2.13930
 2887.50000   54.74020   98.03940   36.03300    8.12940   32.09030   37.99490   41.14400   -1.56630
 2888.00000   55.34280   98.61920   34.64880    8.12880   37.18730   44.98360   49.60010   -1.32460
 2888.50000   55.94550   99.19900   34.42270    8.12810   36.08850   48.38550   52.92800   -1.16580
 2889.00000   56.34340   99.90190   34.19670    8.12740   28.57410   34.64620   48.62630   -1.00690
 2889.50000   56.74130  101.80560   33.42570    8.12670   16.45320   26.37120   32.65940   -0.84800
 2890.00000   56.74350  101.80560   31.83730    8.12600   10.36400   13.44360   24.59770   -0.68920
 2890.50000   56.45680  101.23070   31.73630    8.12530    8.18120    9.09150   10.42450   -0.53030
 2891.00000   55.91290  100.11930   32.52940    8.12460    8.13120    9.35310   11.58850    0.17690
 2891.50000   55.22450   98.84610   33.32260    8.12390   10.71610   13.17640   16.11380    0.49630
 2892.00000   54.43970   97.46480   35.39350    8.12320   10.14220   11.13060   12.70790    0.55720
 2892.50000   53.65490   96.08360   37.46450    8.12250   10.01680   12.02910   12.94610    0.61800
 2893.00000   53.03810   95.20990   39.11840    8.12190   11.80680   13.29760   18.36180    0.67890
 2893.50000   52.50470   94.46310   37.39610    8.12120   13.45070   20.20710   47.88550    0.73980
 2894.00000   52.55970   93.71620   32.84510    8.12050   20.60470   43.19580   69.87230    0.80060
 2894.50000   52.69470   92.96940   28.29420    8.11980   37.00900   64.11150   71.10350    0.86150
 2895.00000   52.53470   92.22250   26.43210    8.11910   53.13020   69.75860   88.91970    0.92230
 2895.50000   52.26800   92.30180   26.63430    8.11840   41.76830   51.90190   75.75770    0.98320
 2896.00000   52.00120   92.35890   27.75510    8.11770   31.43950   38.95380   42.85270    1.04410
 2896.50000   51.73450   92.07320   28.87580    8.11700   29.96150   33.32310   39.27160    1.10490
 2897.00000   51.83450   91.78740   31.68290    8.11630   28.41920   31.57900   35.95220    1.16580
 2897.50000   51.98660   92.29140   41.23500    8.11560   28.65750   33.37140   63.12800    1.22670
 2898.00000   52.33460   93.32200   50.78720    8.11380   29.84860   93.20120  100.86610    1.01080
 2898.50000   52.76070   94.11810   52.69160    8.11170   73.09150   88.66180   95.25500    0.99060
 2899.00000   52.87480   93.86180   50.16480    8.10950   63.78780   78.31070   88.79190    0.97050
 2899.50000   52.53730   93.28650   47.63810    8.10740   53.45840   66.25450   83.91100    0.57160
 2900.00000   52.19980   92.71120   45.11130    8.10520   43.12910   54.19830   60.34570   -0.39540
 2900.50000   51.86240   92.13590   44.20410    8.10310   36.40490   42.14200   49.02250   -1.36230
 2901.00000   51.52490   91.56050   43.70170    8.10100   35.27340   37.71380   44.88390   -2.32930
 2901.50000   51.27860   91.19040   40.35020    8.09880   37.47530   48.19350   63.49020   -3.29630
 2902.00000   51.16890   90.56900   37.54250    8.09670   60.36780   77.48920   97.67320   -4.26330
 2902.50000   51.05920   89.94770   38.06230    8.09460   78.19400  100.95280  121.98900   -5.23030
 2903.00000   51.03240   89.32630   41.64580    8.09240   65.26030   79.11120  100.08460   -6.02050
 2903.50000   50.72310   89.27650   47.06310    8.09030   51.52510   56.70710   67.28450   -6.10370
 2904.00000   50.33620   89.35230   60.63550    8.08820   53.45670   61.12970   68.53410   -6.18860
 2904.50000   49.94920   89.74520   71.22890    8.08600   63.62450   69.55340   76.06650   -6.27600
 2905.00000   49.56220   89.94890   71.83160    8.08390   75.05340   83.66160  106.91180   -6.39860
 2905.50000   49.52720   90.15260   70.82700    8.08170   91.52650  101.55940  143.70230   -6.54450
 2906.00000   49.73020   90.35630   67.81310    8.07960   96.91970  119.11950  165.96060   -6.69050
 2906.50000   50.10180   90.56000   67.28640    8.07750   71.32030   87.74350  134.17300   -6.74630
 2907.00000   50.44780   90.76370   68.98350    8.07530   72.20050   93.28290  129.09750   -6.44190
 2907.50000   51.10150   91.06760   70.67630    8.07350  108.22410  144.95550  191.82650   -6.13740
 2908.00000   51.83220   91.52190   69.20390    8.07170  136.27930  196.62810  234.30290   -5.83300
 2908.50000   52.56280   91.97620   66.15540    8.06990  179.07670  233.41380  275.22460   -5.52850
 2909.00000   53.29340   93.58620   63.10210    8.06810  201.10710  242.66440  335.64580   -5.22410
 2909.50000   53.88760   95.19630   60.04870    8.06630  112.80420  157.38250  245.91090   -4.91960
