~Version ---------------------------------------------------
VERS.   2.0 : CWLS log ASCII Standard -VERSION 2.0
WRAP.    NO : One line per depth step
DLM . SPACE : Column Data Section Delimiter
~Well ------------------------------------------------------
STRT .FT                2150.0 : START DEPTH
STOP .FT                3176.0 : STOP DEPTH
STEP .FT                   0.5 : STEP
NULL .                -9999.25 : NULL VALUE
COMP .                         : COMPANY
WELL .                         : WELL
FLD  .                         : FIELD
LOC  .                         : LOCATION
PROV .                         : PROVINCE
CNTY .                         : COUNTY
STAT .                         : STATE
CTRY .                         : COUNTRY
SRVC .                         : SERVICE COMPANY
DATE .                         : DATE
UWI  .                         : UNIQUE WELL ID
API  .                         : API NUMBER
SLAT .WGS84 2.5974929084982037 : SURFACE LATITUDE
SLON .WGS84     5.748932829588 : SURFACE LONGITUDE
DATUM.F                    nan : DEPTH DATUM ELEV
~Curve Information -----------------------------------------
DEPT   .FT    : 
DTCO   .US/F  : DELTA-T COMPRESSIONAL
DTSM   .US/F  : DELTA-T SHEAR
GR_EDTC.GAPI  : GAMMA RAY
HCALR  .IN    : HRCC CALIPER CALIBRATED FROM RESISTIVITY LOG
RLA3   .OHMM  : APPARENT RESISTIVITY FROM COMPUTED FOCUSING MODE 3
RLA4   .OHMM  : APPARENT RESISTIVITY FROM COMPUTED FOCUSING MODE 4
RLA5   .OHMM  : APPARENT RESISTIVITY FROM COMPUTED FOCUSING MODE 5
SPR    .MV    : SPONTANEOUS POTENTIAL FROM RESISTIVITY LOG
~Params ----------------------------------------------------
~Other -----------------------------------------------------
~ASCII -----------------------------------------------------
# ...
 2830.00000   50.71320   90.54040   51.99910    8.07260   87.46250  107.90160  136.06110  -11.84160
 2830.50000   50.57610   90.09710   58.73790    8.07440  105.98430  112.47760  126.46530  -12.17920
 2831.00000   50.43910   89.74150   65.26230    8.07630   70.71880   90.20790  103.09350  -11.93820
 2831.50000   50.47420   89.38590   71.78660    8.07810   62.88880   73.18090   87.44480  -11.67880
 2832.00000   50.67170   89.77710   71.77280    8.08000   83.23670   87.72470  113.10270  -11.25370
 2832.50000   50.86910   90.35500   67.57420    8.08180  114.54320  160.11530  167.64790  -11.13720
 2833.00000   51.06650   90.93300   62.32840    8.08370  145.84980  273.98170  612.12960  -11.02070
 2833.50000   51.35110   91.48030   57.08270    8.08550  314.22580  620.00920  694.21970  -10.87550
 2834.00000   51.98460   91.89310   51.83690    8.08730  122.06010  236.15950  242.32490  -10.45900
 2834.50000   52.54070   92.30590   46.17900    8.08920   78.92990   87.98280  163.05980  -10.11930
 2835.00000   52.98080   92.71870   40.41800    8.09100   82.82720  100.68870  112.15850   -9.76810
 2835.50000   53.42090   93.18220   34.65700    8.09290  103.17930  144.89650  248.35110   -9.76310
 2836.00000   53.73290   93.37620   30.89290    8.09470  104.04990  138.46450  184.77110   -9.26880
 2836.50000   53.77730   93.61870   30.12410    8.09660   62.57170   75.60950  115.83030   -8.65210
 2837.00000   53.70800   93.71570   29.35520    8.09840   32.60180   49.97800   66.25950   -8.03550
 2837.50000   53.63880   93.84920   28.58640    8.10030   30.02430   32.69410   34.17700   -7.41890
 2838.00000   53.62740   93.72610   27.81760    8.10210   27.96230   30.22720   32.73900   -6.80220
 2838.50000   53.63990   93.41830   27.04870    8.10210   30.54040   46.45860   57.02670   -6.55560
 2839.00000   53.65240   93.11050   26.27990    8.10210   56.65540   65.22630   72.24960   -6.55560
 2839.50000   53.78250   93.07940   25.51100    8.10210   72.13260   75.46300   80.24130   -6.31460
 2840.00000   53.86500   93.11740   26.66810    8.10210   53.82330   67.53990   84.82320   -5.98160
 2840.50000   53.74550   93.15540   28.05940    8.10210   20.33090   39.80590   55.27860   -5.77000
 2841.00000   53.16600   93.18580   29.45070    8.10210   17.23270   19.32210   21.58160   -5.86050
 2841.50000   52.58650   93.18820   32.16330    8.10210   17.76930   21.20970   27.97400   -5.95100
 2842.00000   52.00700   92.69010   35.29710    8.10210   21.58800   25.63430   37.74050   -6.04150
 2842.50000   51.93130   92.19210   38.43100    8.10210   25.40680   31.98330   36.48780   -6.55530
 2843.00000   51.81350   91.69400   39.78490    8.10210   32.29700   39.27950   55.03820   -6.85830
 2843.50000   51.68520   91.19600   40.63460    8.10210   42.12630   56.27410   63.23450   -7.16130
 2844.00000   51.55690   90.89510   44.44760    8.10210   47.19710   55.14910   56.97910   -7.46420
 2844.50000   51.33210   90.59420   55.87980    8.10210   53.96860   59.67800   73.35370   -7.76720
 2845.00000   51.30240   90.29340   69.21680    8.10210   65.03150   76.61430   99.46840   -8.07020
 2845.50000   51.31780   89.99250   81.18430    8.10210   76.82430   99.42560  127.81210   -8.37320
 2846.00000   51.26800   89.69160   77.17860    8.10210   89.71160  117.48330  132.97510   -8.67620
 2846.50000   51.18500   89.90150   69.67390    8.10210  102.59890  122.53560  132.98500   -8.97920
 2847.00000   51.27770   90.16340   64.65220    8.10210  114.30550  125.08470  137.98670   -9.28220
 2847.50000   51.41440   90.42530   62.90220    8.10210  116.80450  140.16440  154.11850   -9.76880
 2848.00000   51.55110   90.68720   59.11000    8.10440   88.45420  148.56480  259.19520  -10.26740
 2848.50000   51.68780   90.94930   50.24490    8.10670   69.99320   98.71600  131.16170  -10.29760
 2849.00000   51.93190   91.31780   41.37990    8.10900   59.72860   75.87520   92.33830  -10.32790
 2849.50000   52.36130   91.93090   35.41460    8.11140   51.20280   59.78630   67.16410  -10.16170
 2850.00000   52.88790   92.70140   39.34170    8.11370   45.25150   50.19180   52.70410   -9.99560
 2850.50000   53.41450   94.18120   44.93750    8.11600   43.67510   47.79200   50.81630   -9.82940
 2851.00000   54.31470   95.17540   49.15690    8.11830   45.31250   56.12150   69.14210   -9.66330
 2851.50000   55.21490   96.32720   52.47220    8.12060   63.22960   99.08350  105.42770   -9.49710
 2852.00000   56.47140   97.47890   49.40940    8.12290  107.38900  155.18050  228.84690   -9.33100
 2852.50000   57.39040   98.63070   42.86860    8.12520  199.28280  609.41650  710.43410   -9.16480
 2853.00000   57.61540   99.78240   36.32780    8.12750  345.60800  361.65280  606.83540   -8.99860
 2853.50000   57.33040   99.78240   29.78700    8.12980   97.26080  121.81810  300.25970   -8.56840
 2854.00000   56.61320   99.64920   24.70770    8.13210   55.88890   73.42320   95.30910   -8.07220
 2854.50000   55.53300   98.10720   22.90570    8.13440   22.53210   44.30010   42.79600   -7.78640
 2855.00000   54.45270   96.56510   23.23980    8.13670   12.26830   15.17700   20.41620   -7.81630
 2855.50000   53.37250   95.02310   24.93680    8.13910   12.61220   15.45800   30.41300   -7.84610
 2856.00000   52.38420   93.96160   26.19580    8.14140   30.22690   69.05230  116.44240   -7.87600
 2856.50000   51.65010   93.02020   27.33420    8.13780  106.29580  141.54160  172.46860   -7.90590
 2857.00000   51.43400   92.07880   29.51340    8.13040  134.19830  163.67830  178.93380   -8.16200
 2857.50000   51.47900   91.46400   33.25350    8.13560  149.37430  212.07000  333.87430   -8.48340
 2858.00000   51.52410   91.33900   42.54640    8.14400  196.66860  295.50480  553.18310   -9.00190
 2858.50000   51.37740   91.21390   51.83930    8.15230  464.73970  494.69870  553.18310   -9.54970
 2859.00000   51.19400   91.08890   59.11390    8.16070  227.63630  385.11980  444.13940  -10.09740
 2859.50000   50.80390   90.96390   61.89830    8.16910   96.07420  150.49480  280.41590  -10.64520
 2860.00000   50.72890   90.83880   57.87530    8.17010   86.64830   92.27200  103.02250  -11.57590
 2860.50000   50.68170   90.71380   50.36080    8.17110   58.21450   84.68580   92.47630  -12.19790
 2861.00000   50.62810   90.68200   42.84620    8.17210   54.80290   66.00480   69.69630  -12.23100
 2861.50000   50.57460   90.65030   35.33160    8.17310   55.61720   61.99370  111.42640  -12.26410
 2862.00000   50.47150   90.61850   30.94870    8.17410   67.10700  109.47310  227.61060  -12.29720
 2862.50000   50.35610   90.58670   28.10370    8.17520  154.56910  187.63160  555.60660  -12.12870
 2863.00000   50.23380   90.98040   27.08930    8.17620  144.93930  174.72290  570.65940  -11.82580
 2863.50000   50.25380   91.38050   27.50290    8.17720  114.13620  155.71850  228.38960  -11.52290
 2864.00000   50.56080   91.38050   29.27980    8.17820  440.29050  853.95640 1579.11360  -11.22000
 2864.50000   51.05590   91.38050   33.22840    8.17920  729.47750 1058.46010 1579.11360  -10.91700
 2865.00000   51.54040   91.41390   37.77910    8.18020  493.60120  668.15050 1013.78250  -10.61410
 2865.50000   52.01780   92.14750   42.01990    8.18120  247.42010  329.40460  448.45140  -10.31120
 2866.00000   52.68230   93.73120   42.01990    8.18230   70.47360  161.44640  363.57440  -10.00830
 2866.50000   53.62750   94.23850   39.49920    8.18100   70.78350   83.01310  150.03680   -9.70540
 2867.00000   54.45470   94.47660   35.13710    8.17910   85.75780  141.54160  188.83870   -9.30000
 2867.50000   55.10490   94.71470   30.77490    8.17720   63.49500   86.64850  139.38940   -8.93030
 2868.00000   55.75500   96.09280   27.88480    8.17530   49.56120   63.55860   83.89490   -8.39350
 2868.50000   56.29510   97.47090   25.59480    8.17350   26.15240   46.44090   62.44670   -7.00260
 2869.00000   56.83520   98.98220   23.83110    8.17160   15.92270   18.69660   21.31120   -6.30720
 2869.50000   57.37540   99.72970   22.21060    8.16970   15.68000   21.50700   31.35030   -5.56810
