~Version ---------------------------------------------------
VERS.   2.0 : CWLS log ASCII Standard -VERSION 2.0
WRAP.    NO : One line per depth step
DLM . SPACE : Column Data Section Delimiter
~Well ------------------------------------------------------
STRT .FT                2150.0 : START DEPTH
STOP .FT                3176.0 : STOP DEPTH
STEP .FT                   0.5 : STEP
NULL .                -9999.25 : NULL VALUE
COMP .                         : COMPANY
WELL .                         : WELL
FLD  .                         : FIELD
LOC  .                         : LOCATION
PROV .                         : PROVINCE
CNTY .                         : COUNTY
STAT .                         : STATE
CTRY .                         : COUNTRY
SRVC .                         : SERVICE COMPANY
DATE .                         : DATE
UWI  .                         : UNIQUE WELL ID
API  .                         : API NUMBER
SLAT .WGS84 2.5974929084982037 : SURFACE LATITUDE
SLON .WGS84     5.748932829588 : SURFACE LONGITUDE
DATUM.F                    nan : DEPTH DATUM ELEV
~Curve Information -----------------------------------------
DEPT   .FT    : 
DTCO   .US/F  : DELTA-T COMPRESSIONAL
DTSM   .US/F  : DELTA-T SHEAR
GR_EDTC.GAPI  : GAMMA RAY
HCALR  .IN    : HRCC CALIPER CALIBRATED FROM RESISTIVITY LOG
RLA3   .OHMM  : APPARENT RESISTIVITY FROM COMPUTED FOCUSING MODE 3
RLA4   .OHMM  : APPARENT RESISTIVITY FROM COMPUTED FOCUSING MODE 4
RLA5   .OHMM  : APPARENT RESISTIVITY FROM COMPUTED FOCUSING MODE 5
SPR    .MV    : SPONTANEOUS POTENTIAL FROM RESISTIVITY LOG
~Params ----------------------------------------------------
~Other -----------------------------------------------------
~ASCII -----------------------------------------------------
# ...
 2430.00000   63.56810  103.85220   58.01720    8.01190    9.50900   10.51190   29.58460   25.42750
 2430.50000   64.71500  106.51850   61.05810    8.01470   10.36720   12.25590   13.22650   25.40490
 2431.00000   66.14870  109.16140   60.53570    8.01750   13.58290   14.27050   15.39960   25.38230
 2431.50000   68.14910  112.13180   64.40520    8.02040   14.41720   15.51550   17.74050   25.35970
 2432.00000   69.37990  113.49140   71.52510    8.02320   15.08090   17.28540   18.67690   25.33710
 2432.50000   69.43990  113.72010   80.81210    8.02600   11.64420   13.94960   15.25750   25.31450
 2433.00000   67.27690  112.78640   83.44830    8.02890    9.36370   10.13160   10.96340   25.29190
 2433.50000   65.11400  111.45280   86.08450    8.03170    8.53500    9.64590   10.86590   25.07750
 2434.00000   62.53840  108.78560   87.00560    8.03460   10.54990   11.52600   12.24580   25.19810
 2434.50000   60.23130  106.11840   84.82880    8.03740    9.83520   10.19510   11.29300   24.85050
 2435.00000   59.46770  104.34020   72.58130    8.04020    7.53580    8.58380    9.33190   24.71930
 2435.50000   59.71780  103.98450   60.33390    8.04310    7.07590    8.90590   17.18630   24.47500
 2436.00000   61.73720  109.25240   48.08650    8.04590   13.45540   21.47410   27.44610   24.47500
 2436.50000   64.73490  114.52020   48.68440    8.04870   25.54780   31.52830   36.92370   24.47500
 2437.00000   68.86980  117.26160   57.87790    8.05160   17.55940   24.37880   35.05870   24.47500
 2437.50000   70.16010  120.52150   68.97860    8.05740   11.06300   13.95230   21.24740   24.47500
 2438.00000   70.84160  123.78140   74.72740    8.06770    8.70510    9.35780   10.35870   24.53240
 2438.50000   70.91020  126.56720   79.13830    8.07800    8.49920    8.92190    9.24640   24.81930
 2439.00000   70.97770  127.45630   83.50170    8.08830    8.29320    8.82430    9.33190   24.89060
 2439.50000   72.05930  128.34540   87.67560    8.09860    8.08730    8.77770    9.16160   24.90790
 2440.00000   74.25690  132.85820   84.31690    8.10890    7.99630    8.72890    9.17160   25.07000
 2440.50000   76.77690  137.90000   78.72710    8.12210    8.07830    8.68980    9.18820   25.44930
 2441.00000   79.06870  141.43410   74.25720    8.13740    8.12760    8.63660    9.20480   25.82860
 2441.50000   81.24440  144.56150   77.36430    8.15260    7.13380    7.90440    9.21810   26.23240
 2442.00000   82.49800  145.46160   85.12210    8.16780    3.77530    5.03130    7.47680   26.40590
 2442.50000   81.87120  144.66150   91.99880    8.18300    3.41140    3.74690    4.55590   26.77110
 2443.00000   79.21730  141.32740   93.15630    8.19820    3.34650    3.58930    3.87820   27.13620
 2443.50000   74.66440  131.32540   89.55490    8.19930    3.35630    3.72400    4.01370   27.13620
 2444.00000   68.20710  122.32360   84.52950    8.17930    4.40810    5.10600    5.56320   27.11220
 2444.50000   63.50210  115.82220   72.96250    8.16060    5.58620    6.48800    7.90630   26.99220
 2445.00000   60.81800  109.32090   61.39560    8.14400    7.22500    8.86820   12.13490   26.87220
 2445.50000   59.32890  102.76410   49.82860    8.12730   10.76080   12.74560   15.61780   26.75220
 2446.00000   58.66120   99.94360   46.86350    8.11070   12.70600   14.46590   16.86040   26.63220
 2446.50000   59.19330  100.21030   43.82800    8.09410   12.67370   14.11500   15.99720   26.51220
 2447.00000   61.10970  102.57820   45.73370    8.08740   12.30860   13.09940   14.98490   26.39210
 2447.50000   62.65400  105.31760   52.34920    8.08740   11.72930   12.39650   14.58370   26.27210
 2448.00000   64.57440  109.54270   61.85680    8.08740   11.26660   11.75110   14.25520   26.15210
 2448.50000   65.54120  111.55160   71.36450    8.08740   10.13650   11.13850   13.23550   25.91560
 2449.00000   66.16130  113.00640   78.97230    8.08740    8.78200   10.08860   11.17380   25.52950
 2449.50000   66.37470  114.48970   78.97780    8.08740    8.87290    9.56750   11.15070   25.52950
 2450.00000   66.57480  115.54710   74.88640    8.08740    9.68450    9.90500   11.73360   25.42190
 2450.50000   66.93680  116.85240   70.79500    8.08740    9.85180   10.30380   12.30190   24.88360
 2451.00000   68.50030  119.14920   67.35550    8.08740    9.85370   10.51190   12.30190   24.82470
 2451.50000   70.06390  121.44600   65.98220    8.08740    9.52790   10.67450   11.38700   24.88550
 2452.00000   72.76720  124.33900   66.42690    8.08740   10.00540   11.54380   13.01100   24.94640
 2452.50000   75.81520  130.65320   69.13200    8.08740   12.06870   13.11230   15.34520   25.00730
 2453.00000   76.37410  132.98380   74.23370    8.08740    9.68600   11.53040   13.33280   25.06810
 2453.50000   75.29710  132.06070   78.72890    8.08740    5.51830    8.18250   10.21200   25.12900
 2454.00000   71.84910  128.11770   81.50400    8.07760    4.60190    4.81960    5.40300   25.18990
 2454.50000   67.33430  124.30790   81.75710    8.07750    4.80370    5.25220    5.74520   25.25070
 2455.00000   63.08300  118.95520   75.51020    8.07740    3.38510    4.04100    4.95300   25.31160
 2455.50000   59.88540  113.21670   66.22300    8.07730    3.26270    3.46690    3.83960   25.37240
 2456.00000   56.68780  107.47830   37.64700    8.07720    8.45630    7.37880   11.43740   25.43330
 2456.50000   56.73050  105.19230   37.03470    8.07710   17.01120   22.13130   23.93940   25.49420
 2457.00000   57.91640  103.73520   42.99880    8.07700   29.57420   48.49330   56.75330   25.55500
 2457.50000   59.15670  102.53560   55.06040    8.07690   27.16230   28.79220   38.34580   25.82040
 2458.00000   59.02600  101.50770   70.35830    8.07680   24.44830   30.22350   34.72490   26.04370
 2458.50000   58.40450  100.47990   71.53670    8.07670   11.64950   15.69040   27.73290   26.14810
 2459.00000   57.91410   99.45200   59.14150    8.07660    7.22690    8.17230   10.23230   26.25250
 2459.50000   57.42360   98.42410   46.74630    8.07650    9.36520   13.33790   17.58670   26.35690
 2460.00000   55.46190   97.39620   37.90970    8.07640    9.91400    9.63110   19.25930   26.22090
 2460.50000   55.18720   96.85180   31.44560    8.07630    7.49950    8.06690    9.39600   25.92470
 2461.00000   54.91240   97.45190   30.24000    8.07620    6.73750    7.04590    7.38320   25.62850
 2461.50000   55.31250   98.31870   28.83350    8.07610    6.89330    7.13120    7.96230   25.33230
 2462.00000   57.44020  100.81930   32.24930    8.07600    9.43540    9.44960   11.31650   25.03610
 2462.50000   59.74970  103.77820   41.29120    8.07590   13.53220   13.09330   17.87220   24.49480
 2463.00000   61.93380  106.73710   51.74590    8.07580   17.62890   19.40390   27.62800   24.33670
 2463.50000   64.03430  110.78790   61.12050    8.07570   17.03670   25.72210   30.10390   24.28960
 2464.00000   65.63460  114.39610   68.87520    8.07560   11.33970   13.99710   22.23760   24.24260
 2464.50000   66.49870  116.24820   72.88860    8.07550    9.97560   10.42230   11.24070   24.19550
 2465.00000   66.75880  117.38910   75.82550    8.07550    9.69470   10.16720   10.71920   24.14850
 2465.50000   66.88820  117.65600   78.26240    8.07540    9.45490   10.04070   10.32910   24.10140
 2466.00000   66.55480  116.79870   78.66430    8.07530    9.40940    9.91580   10.32700   24.05440
 2466.50000   66.17750  115.94140   76.09240    8.07530    9.35020    9.55500   10.04680   24.00730
 2467.00000   65.68350  114.72210   72.87750    8.07530    9.34770    9.59720   10.10320   23.47430
 2467.50000   64.92780  112.05490   71.95420    8.07530    9.46100   10.05500   10.90840   22.61740
 2468.00000   64.51440  112.45500   71.85490    8.07530    9.63610   10.21620   11.12430   21.76050
 2468.50000   65.12250  114.29530   68.26610    8.07530    9.58550   10.08940   10.50830   20.90350
 2469.00000   66.91480  116.69580   62.84680    8.07530    9.55220   10.08940   10.89840   20.04660
 2469.50000   69.31530  119.58970   57.74710    8.07530    9.96500   11.33400   13.07160   19.72580
