~Version ---------------------------------------------------
VERS.   2.0 : CWLS log ASCII Standard -VERSION 2.0
WRAP.    NO : One line per depth step
DLM . SPACE : Column Data Section Delimiter
~Well ------------------------------------------------------
STRT .FT                2150.0 : START DEPTH
STOP .FT                3176.0 : STOP DEPTH
STEP .FT                   0.5 : STEP
NULL .                -9999.25 : NULL VALUE
COMP .                         : COMPANY
WELL .                         : WELL
FLD  .                         : FIELD
LOC  .                         : LOCATION
PROV .                         : PROVINCE
CNTY .                         : COUNTY
STAT .                         : STATE
CTRY .                         : COUNTRY
SRVC .                         : SERVICE COMPANY
DATE .                         : DATE
UWI  .                         : UNIQUE WELL ID
API  .                         : API NUMBER
SLAT .WGS84 2.5974929084982037 : SURFACE LATITUDE
SLON .WGS84     5.748932829588 : SURFACE LONGITUDE
DATUM.F                    nan : DEPTH DATUM ELEV
~Curve Information -----------------------------------------
DEPT   .FT    : 
DTCO   .US/F  : DELTA-T COMPRESSIONAL
DTSM   .US/F  : DELTA-T SHEAR
GR_EDTC.GAPI  : GAMMA RAY
HCALR  .IN    : HRCC CALIPER CALIBRATED FROM RESISTIVITY LOG
RLA3   .OHMM  : APPARENT RESISTIVITY FROM COMPUTED FOCUSING MODE 3
RLA4   .OHMM  : APPARENT RESISTIVITY FROM COMPUTED FOCUSING MODE 4
RLA5   .OHMM  : APPARENT RESISTIVITY FROM COMPUTED FOCUSING MODE 5
SPR    .MV    : SPONTANEOUS POTENTIAL FROM RESISTIVITY LOG
~Params ----------------------------------------------------
~Other -----------------------------------------------------
~ASCII -----------------------------------------------------
# ...
 2270.00000   56.14310  102.07280   40.53690    8.04820   14.11720   15.07910   15.38490   23.12510
 2270.50000   55.77390  102.27290   42.09430    8.04800   14.23310   15.45200   16.62240   23.11850
 2271.00000   56.16870  103.55350   41.08970    8.04780   14.76830   15.89860   16.46090   23.11190
 2271.50000   57.54290  104.75480   40.18550    8.04760   15.46720   16.77620   17.47710   23.10540
 2272.00000   58.91710  105.95610   40.28600    8.04740   17.01050   20.43000   23.34050   23.09880
 2272.50000   60.13640  107.15730   46.95310    8.04720   20.78460   26.34090   27.76510   23.09220
 2273.00000   60.48650  108.35860   53.62030    8.04710   16.86100   21.57980   24.53790   23.08560
 2273.50000   60.66190  109.07940   55.75740    8.04690   13.61930   16.29200   17.31310   23.07910
 2274.00000   60.46640  108.42530   51.44340    8.04670   12.16970   13.48770   14.78200   23.72400
 2274.50000   59.89470  107.11270   45.29830    8.04650   10.49280   11.71490   12.09940   23.62910
 2275.00000   59.81470  106.72110   38.65160    8.04630   11.09170   12.10280   13.70910   23.30860
 2275.50000   60.29810  107.38790   33.60510    8.04610   13.66480   14.26350   15.07480   22.98810
 2276.00000   60.78160  110.16180   38.89060    8.04610   13.55390   14.12800   14.70400   22.94290
 2276.50000   61.14640  113.65580   45.41380    8.04610   12.58020   13.22460   13.98350   23.30600
 2277.00000   61.45500  113.67400   49.52860    8.04610   11.01240   12.00470   12.90160   23.60950
 2277.50000   61.52170  112.43140   49.52860    8.04610   10.83450   11.15620   11.42900   23.85520
 2278.00000   60.57480  111.18870   46.22770    8.04610   10.70300   10.88700   11.24430   23.67220
 2278.50000   59.82040  109.94610   41.89340    8.04610   10.83000   11.02080   11.29030   23.51020
 2279.00000   59.40120  108.70340   42.25510    8.04610   11.14770   12.46330   13.42190   23.52720
 2279.50000   59.13450  107.19400   42.85780    8.04610   13.06130   14.12800   18.13950   23.54420
 2280.00000   59.16570  105.61780   42.93150    8.04610   17.76540   19.48840   20.45860   23.62240
 2280.50000   59.25460  104.36730   42.09430    8.04610   16.07320   18.77660   19.43240   23.70060
 2281.00000   58.94340  103.33380   41.69250    8.05560   18.68190   21.04040   22.08740   23.77880
 2281.50000   57.58760  102.30030   41.97950    8.05480   14.62960   18.27140   20.58790   23.85700
 2282.00000   56.23170  101.26680   42.69710    8.05400   12.23070   13.38100   15.33100   23.93520
 2282.50000   54.87590   99.34430   41.89340    8.05310   11.43670   12.24550   12.53310   23.63590
 2283.00000   53.83720   99.27060   37.87940    8.05230   11.26570   12.18130   12.42860   23.33660
 2283.50000   53.45710  100.23650   33.86550    8.05150   12.94890   16.12440   29.21090   23.03740
 2284.00000   55.36910  101.20240   29.85150    8.05060   25.74340   55.86200   70.84780   22.45340
 2284.50000   56.65400  102.16830   31.84620    8.04980   69.24360   75.26440   84.27980   22.15270
 2285.00000   57.65420  103.13420   38.14840    8.04900   82.95420  102.15590  115.28650   22.16740
 2285.50000   58.08060  104.32070   44.45060    8.04810   60.55630  140.67250  145.40470   22.28890
 2286.00000   56.95560  102.22030   44.78650    8.04730   13.37390   24.79850   56.73150   22.50750
 2286.50000   55.30560   98.96960   36.70900    8.04650    8.23020   10.34700   11.57950   22.50650
 2287.00000   53.65560   97.18600   27.76800    8.04560   11.08550   12.04720   38.78070   22.50550
 2287.50000   52.50060   95.69240   22.40340    8.04480   55.83540   68.71390   78.23810   22.48710
 2288.00000   52.08800   93.89200   22.40340    8.04400   44.05540   52.23200   62.33080   22.39960
 2288.50000   52.00550   92.35170   22.20250    8.04310   30.16860   34.29440   36.35760   22.31210
 2289.00000   51.96400   92.05170   21.19780    8.04230   31.51580   36.11960   42.80920   22.22460
 2289.50000   51.89470   92.82950   20.19320    8.04150   39.06420   47.95070   57.23320   22.13710
 2290.00000   51.76650   92.85180   20.19460    8.04070   35.34790   52.91680   62.87350   22.04960
 2290.50000   51.54970   91.18470   20.86670    8.03980   35.28490   41.06170   51.47870   21.96210
 2291.00000   51.33300   90.31790   21.59040    8.03900   35.62980   38.31250   40.60010   21.87460
 2291.50000   51.09300   90.58450   22.52080    8.03820   35.97470   39.43480   42.30900   21.78710
 2292.00000   51.09300   91.37260   23.45120    8.03730   41.56670   44.06040   56.53020   21.69960
 2292.50000   51.19700   92.16070   23.68580    8.03650   49.27650   59.36940   62.87570   21.61210
 2293.00000   51.63750   92.94880   22.34230    8.03570   44.64550   48.42710   51.30740   21.52460
 2293.50000   52.76000   93.73680   22.63610    8.03480   46.95190   51.45560   58.10080   21.43710
 2294.00000   53.88240   94.99340   25.44370    8.03400   49.94700   65.78700   76.56270   21.34960
 2294.50000   55.00490   96.56230   30.22420    8.03320   38.25280   45.03970   46.58430   21.26210
 2295.00000   55.63930   98.13120   35.00480    8.03230   37.06610   42.06420   53.97290   21.17460
 2295.50000   55.94850   99.42260   38.29030    8.03150   23.42640   35.64700   45.34190   21.08710
 2296.00000   56.10060   99.60450   40.57900    8.03070   21.06830   22.12080   27.23610   20.99960
 2296.50000   55.93390   99.51970   41.05190    8.02980   19.89440   20.91730   21.43900   20.97110
 2297.00000   55.00300   98.25280   41.07090    8.02900   18.78040   19.71380   20.64780   20.98190
 2297.50000   54.07200   96.98580   42.69800    8.02910   17.77650   18.51030   19.27200   20.99270
 2298.00000   53.14110   95.65220   44.37720    8.03050   15.86510   17.10810   17.50630   21.00350
 2298.50000   52.21010   94.31860   44.38130    8.03200   14.82200   15.79300   16.33180   21.01440
 2299.00000   51.27920   93.41010   38.69460    8.03340   17.24860   18.65000   43.00930   21.02520
 2299.50000   50.93290   92.78500   32.08690    8.03480   36.51770   54.05540   83.12310   21.03600
 2300.00000   51.07990   92.15980   25.47930    8.03630   43.34170   59.20720   73.42710   20.83590
 2300.50000   51.41450   91.84410   20.19320    8.03770   50.01700   53.46600   55.11140   21.03490
 2301.00000   51.74910   92.14050   20.19320    8.03920   50.63250   53.02900   58.34740   21.03490
 2301.50000   52.08380   92.58500   20.60290    8.04060   45.17160   49.82130   61.02300   21.03490
 2302.00000   52.41840   93.25190   21.62060    8.04210   31.04710   37.07200   51.71150   21.03490
 2302.50000   52.75300   94.36320   22.63830    8.04350   33.95950   35.56060   37.88000   21.03490
 2303.00000   53.57640   96.66190   23.65600    8.04490   34.51770   37.14060   40.76220   21.03490
 2303.50000   56.22970  101.04380   24.99750    8.04640   32.80390   34.50240   36.66350   21.03490
 2304.00000   59.84930  104.50530   27.10850    8.04730   32.87010   35.36010   43.33170   21.03490
 2304.50000   61.73500  107.73670   33.05260    8.04730   34.94250   39.03700   44.22390   21.03490
 2305.00000   61.52580  110.45520   41.39880    8.04730   20.32580   24.91800   34.88190   21.03490
 2305.50000   60.67950  109.84180   49.74500    8.04740   18.81630   19.57920   21.14840   21.03490
 2306.00000   59.83310  107.30800   54.75280    8.04740    9.66320   14.01170   18.41360   21.03490
 2306.50000   58.17710  104.77420   48.83660    8.04740    8.63470   10.45730   11.67630   21.03490
 2307.00000   55.98130  102.87080   41.44130    8.04750   10.37220   12.83840   31.92880   21.03490
 2307.50000   54.29360  101.91320   33.95680    8.04750   24.41120   51.68490   92.10220   21.03490
 2308.00000   55.17370  100.95560   32.44980    8.04760   30.37460   34.22470   77.67600   21.03490
 2308.50000   55.87140  100.57250   30.54100    8.04760   19.27330   20.47300   26.03500   21.03490
 2309.00000   56.30080  101.31340   27.02480    8.04760   19.35050   23.86980   32.90400   21.03490
 2309.50000   56.73010  102.08550   26.02010    8.04770   38.84840   41.86660   45.13460   21.03490
