~Version ---------------------------------------------------
VERS.   2.0 : CWLS log ASCII Standard -VERSION 2.0
WRAP.    NO : One line per depth step
DLM . SPACE : Column Data Section Delimiter
~Well ------------------------------------------------------
STRT .FT                2150.0 : START DEPTH
STOP .FT                3176.0 : STOP DEPTH
STEP .FT                   0.5 : STEP
NULL .                -9999.25 : NULL VALUE
COMP .                         : COMPANY
WELL .                         : WELL
FLD  .                         : FIELD
LOC  .                         : LOCATION
PROV .                         : PROVINCE
CNTY .                         : COUNTY
STAT .                         : STATE
CTRY .                         : COUNTRY
SRVC .                         : SERVICE COMPANY
DATE .                         : DATE
UWI  .                         : UNIQUE WELL ID
API  .                         : API NUMBER
SLAT .WGS84 2.5974929084982037 : SURFACE LATITUDE
SLON .WGS84     5.748932829588 : SURFACE LONGITUDE
DATUM.F                    nan : DEPTH DATUM ELEV
~Curve Information -----------------------------------------
DEPT   .FT    : 
DTCO   .US/F  : DELTA-T COMPRESSIONAL
DTSM   .US/F  : DELTA-T SHEAR
GR_EDTC.GAPI  : GAMMA RAY
HCALR  .IN    : HRCC CALIPER CALIBRATED FROM RESISTIVITY LOG
RLA3   .OHMM  : APPARENT RESISTIVITY FROM COMPUTED FOCUSING MODE 3
RLA4   .OHMM  : APPARENT RESISTIVITY FROM COMPUTED FOCUSING MODE 4
RLA5   .OHMM  : APPARENT RESISTIVITY FROM COMPUTED FOCUSING MODE 5
SPR    .MV    : SPONTANEOUS POTENTIAL FROM RESISTIVITY LOG
~Params ----------------------------------------------------
~Other -----------------------------------------------------
~ASCII -----------------------------------------------------
 2150.00000   -9999.25   -9999.25   31.04270   -9999.25   -9999.25   -9999.25   -9999.25   -9999.25
 2150.50000   -9999.25   -9999.25   28.83000   -9999.25   -9999.25   -9999.25   -9999.25   -9999.25
 2151.00000   -9999.25   -9999.25   25.56410   -9999.25   -9999.25   -9999.25   -9999.25   -9999.25
 2151.50000   -9999.25   -9999.25   22.29820   -9999.25   -9999.25   -9999.25   -9999.25   -9999.25
 2152.00000   -9999.25   -9999.25   21.79340   -9999.25   -9999.25   -9999.25   -9999.25   -9999.25
 2152.50000   -9999.25   -9999.25   25.35540   -9999.25   -9999.25   -9999.25   -9999.25   -9999.25
 2153.00000   -9999.25   -9999.25   33.22040   -9999.25   -9999.25   -9999.25   -9999.25   -9999.25
 2153.50000   -9999.25   -9999.25   39.82870   -9999.25   -9999.25   -9999.25   -9999.25   -9999.25
 2154.00000   -9999.25   -9999.25   46.43700   -9999.25   -9999.25   -9999.25   -9999.25   -9999.25
 2154.50000   -9999.25   -9999.25   50.97660   -9999.25   -9999.25   -9999.25   -9999.25   -9999.25
 2155.00000   -9999.25   -9999.25   52.41320   -9999.25   -9999.25   -9999.25   -9999.25   -9999.25
 2155.50000   -9999.25   -9999.25   45.73330   -9999.25   -9999.25   -9999.25   -9999.25   -9999.25
 2156.00000   -9999.25   -9999.25   37.38320   -9999.25   -9999.25   -9999.25   -9999.25   -9999.25
 2156.50000   -9999.25   -9999.25   29.72470   -9999.25   -9999.25   -9999.25   -9999.25   -9999.25
 2157.00000   -9999.25   -9999.25   24.83270   -9999.25   -9999.25   -9999.25   -9999.25   -9999.25
 2157.50000   -9999.25   -9999.25   19.59650   -9999.25   -9999.25   -9999.25   -9999.25   -9999.25
 2158.00000   -9999.25   -9999.25   16.42100   -9999.25   -9999.25   -9999.25   -9999.25   -9999.25
 2158.50000   -9999.25   -9999.25   17.46330   -9999.25   -9999.25   -9999.25   -9999.25   -9999.25
 2159.00000   -9999.25   -9999.25   22.67830   -9999.25   -9999.25   -9999.25   -9999.25   -9999.25
 2159.50000   -9999.25   -9999.25   27.89340   -9999.25   -9999.25   -9999.25   -9999.25   -9999.25
 2160.00000   57.76640  101.68570   33.10840   -9999.25   -9999.25   -9999.25   -9999.25   -9999.25
 2160.50000   57.48110  101.76460   37.68360   -9999.25   -9999.25   -9999.25   -9999.25   -9999.25
 2161.00000   57.19590  101.84350   37.10890   -9999.25   -9999.25   -9999.25   -9999.25   -9999.25
 2161.50000   56.91060  101.92240   35.19130   -9999.25   -9999.25   -9999.25   -9999.25   -9999.25
 2162.00000   56.62540  102.00130   33.27380   -9999.25   -9999.25   -9999.25   -9999.25   -9999.25
 2162.50000   56.34010  101.28560   31.35620   -9999.25   -9999.25   -9999.25   -9999.25   -9999.25
 2163.00000   56.05490  100.37120   29.43860   -9999.25   -9999.25   -9999.25   -9999.25   -9999.25
 2163.50000   55.68730   99.45680   27.52110   -9999.25   -9999.25   -9999.25   -9999.25   -9999.25
 2164.00000   55.29910   98.54240   25.60350   -9999.25   -9999.25   -9999.25   -9999.25   -9999.25
 2164.50000   54.91090   97.74390   23.68590   -9999.25   -9999.25   -9999.25   -9999.25   -9999.25
 2165.00000   54.75530   97.40850   22.92530   -9999.25   -9999.25   -9999.25   -9999.25   -9999.25
 2165.50000   54.79470   97.07310   24.14360   -9999.25   -9999.25   -9999.25   -9999.25   -9999.25
 2166.00000   54.93160   96.80490   26.46630   -9999.25   -9999.25   -9999.25   -9999.25   -9999.25
 2166.50000   55.06850   97.51380   28.78900   -9999.25   -9999.25   -9999.25   -9999.25   -9999.25
 2167.00000   55.20540   98.40090   28.60080   -9999.25   -9999.25   -9999.25   -9999.25   -9999.25
 2167.50000   55.31250   98.09880   27.32680   -9999.25   -9999.25   -9999.25   -9999.25   -9999.25
 2168.00000   55.15550   97.57930   24.58990   -9999.25   -9999.25   -9999.25   -9999.25   -9999.25
 2168.50000   54.86420   97.05540   20.49930   -9999.25   -9999.25   -9999.25   -9999.25   -9999.25
 2169.00000   54.57280   96.53150   16.40880   -9999.25   -9999.25   -9999.25   -9999.25   -9999.25
 2169.50000   54.28150   96.00770   15.80110   -9999.25   -9999.25   -9999.25   -9999.25   -9999.25
 2170.00000   53.99020   95.48390   16.85070    8.22940   17.21030   17.85210   18.07130   23.62590
 2170.50000   53.65850   94.96040   17.27960    8.23360   19.35250   21.36250   22.12460   23.47310
 2171.00000   53.62290   94.43700   16.47590    8.21560   21.95540   23.24260   25.41710   23.41750
 2171.50000   53.75390   93.91360   14.80150    8.20850   23.71350   25.30780   28.62220   23.41750
 2172.00000   53.92660   93.79640   14.46660    8.21450   22.40920   23.11730   27.95590   23.41750
 2172.50000   54.09930   94.85750   14.46660    8.24030   19.59000   19.97860   22.45760   23.25510
 2173.00000   54.45840   96.18590   16.07400    8.24050   20.25370   20.82990   23.46070   22.95190
 2173.50000   55.06240   97.51420   18.48510    8.25430   23.52140   23.88350   28.72280   22.64860
 2174.00000   56.14910   99.03030   21.49900    8.25370   23.31390   29.26590   32.79780   22.18220
 2174.50000   57.20230  100.82810   24.06080    8.25990   17.84350   20.70170   23.94870   21.44070
 2175.00000   57.79400  102.17060   26.50960    8.26080   20.61210   22.72680   23.39620   21.51970
 2175.50000   57.76890  102.83010   28.95840    8.27350   18.18950   20.26160   21.81260   21.59870
 2176.00000   57.75330  103.48970   29.67950    8.28620   14.57290   15.70160   15.85710   21.67770
 2176.50000   57.87080  104.33610   28.93330    8.29890   10.95640   12.13270   13.13540   21.75670
 2177.00000   58.40540  105.46280   26.17050    8.31850   10.67730   10.99790   11.37700   21.83570
 2177.50000   59.97300  107.09180   24.51290    8.33970   11.15120   11.54450   13.22560   21.91470
 2178.00000   61.79880  109.47440   25.11570    8.35340   23.70160   46.09790   46.85650   21.99370
 2178.50000   62.92960  111.85710   28.74350    8.35570   18.13300   48.10700   50.30840   22.07270
 2179.00000   64.01070  113.18360   32.37130    8.35800    8.63590   12.56320   19.97110   22.15170
 2179.50000   64.30880  114.35350   35.99920    8.36030    8.56280   10.67020   11.09140   22.23070
 2180.00000   63.31810  114.89680   38.17590    8.36260    9.61790   10.66690   11.01070   22.30970
 2180.50000   62.78300  115.44010   38.07540    8.36970   10.96590   11.42220   12.05040   22.38870
 2181.00000   64.23450  117.97020   37.25730    8.37990   11.94580   12.38230   12.69920   22.46770
 2181.50000   66.04890  122.14010   35.96570    8.39020   11.99470   12.50840   12.82910   22.54670
 2182.00000   71.04980  130.88260   37.69360    8.40050   11.26930   12.32770   12.83090   22.62570
 2182.50000   76.05080  140.66220   41.83270    8.41590   11.10080   12.19180   12.39220   22.70470
 2183.00000   79.16820  151.41420   51.59770    8.43880   17.47540   20.00780   27.43550   22.76890
 2183.50000   81.81470  159.83240   64.55740    8.46180   26.66380   27.54740   28.00020   22.77400
 2184.00000   83.65630  164.35550   74.74430    8.47020    5.72420    6.77530   16.68440   23.08270
 2184.50000   84.29080  166.28180   75.54800    8.45660    4.95320    5.68930    5.89390   23.46740
 2185.00000   84.92520  167.01380   71.93140    8.44300    5.32230    7.52140    8.97030   23.85200
 2185.50000   85.55970  166.93370   72.83560    8.44200    8.76380    9.39260    9.66430   24.23670
 2186.00000   86.19410  166.80030   78.49500    8.46320    6.87640    7.14390    8.16530   24.47850
 2186.50000   86.38770  165.26680   86.42040    8.49290    6.56170    6.82090    7.00390   24.62510
 2187.00000   84.48900  161.76620   88.40730    8.51960    7.20650    7.53700    7.85050   24.77170
 2187.50000   80.67980  158.26550   88.20640    8.51050    6.63370    7.21520    7.91480   24.91830
 2188.00000   76.87070  147.59680   85.26780    8.48470    6.17260    6.56170    6.83460   25.06490
 2188.50000   70.92560  138.61730   80.62140    8.45900    6.71130    7.08390    7.79290   25.21150
 2189.00000   67.09520  132.45120   73.82010    8.43320    7.44540    7.81860    8.34550   25.35810
 2189.50000   64.72530  127.40250   65.58210    8.40750    7.26550    7.62250    7.81860   25.50470
