~Version ---------------------------------------------------
VERS.   2.0 : CWLS log ASCII Standard -VERSION 2.0
WRAP.    NO : One line per depth step
DLM . SPACE : Column Data Section Delimiter
~Well ------------------------------------------------------
STRT .FT                2150.0 : START DEPTH
STOP .FT                3176.0 : STOP DEPTH
STEP .FT                   0.5 : STEP
NULL .                -9999.25 : NULL VALUE
COMP .                         : COMPANY
WELL .                         : WELL
FLD  .                         : FIELD
LOC  .                         : LOCATION
PROV .                         : PROVINCE
CNTY .                         : COUNTY
STAT .                         : STATE
CTRY .                         : COUNTRY
SRVC .                         : SERVICE COMPANY
DATE .                         : DATE
UWI  .                         : UNIQUE WELL ID
API  .                         : API NUMBER
SLAT .WGS84 2.5974929084982037 : SURFACE LATITUDE
SLON .WGS84     5.748932829588 : SURFACE LONGITUDE
DATUM.F                    nan : DEPTH DATUM ELEV
~Curve Information -----------------------------------------
DEPT   .FT    : 
DTCO   .US/F  : DELTA-T COMPRESSIONAL
DTSM   .US/F  : DELTA-T SHEAR
GR_EDTC.GAPI  : GAMMA RAY
HCALR  .IN    : HRCC CALIPER CALIBRATED FROM RESISTIVITY LOG
RLA3   .OHMM  : APPARENT RESISTIVITY FROM COMPUTED FOCUSING MODE 3
RLA4   .OHMM  : APPARENT RESISTIVITY FROM COMPUTED FOCUSING MODE 4
RLA5   .OHMM  : APPARENT RESISTIVITY FROM COMPUTED FOCUSING MODE 5
SPR    .MV    : SPONTANEOUS POTENTIAL FROM RESISTIVITY LOG
~Params ----------------------------------------------------
~Other -----------------------------------------------------
~ASCII -----------------------------------------------------
# ...
 2750.00000   53.99740   93.88050   18.19600    8.21750   57.20700   59.60180   63.57100  -31.15010
 2750.50000   53.73420   93.67090   19.16430    8.22240   51.73660   57.02960   63.38120  -31.30100
 2751.00000   53.37290   93.46130   19.56980    8.22730   32.95360   54.39210   57.01970  -31.45120
 2751.50000   52.92590   93.19530   20.43980    8.23220   33.27170   38.58790   43.49220  -31.76310
 2752.00000   52.35050   92.84460   22.29000    8.23710   44.42970   55.03370   72.78840  -32.06700
 2752.50000   52.06870   92.49400   24.87290    8.24200   47.36600   54.22720   86.77840  -32.23560
 2753.00000   51.98270   92.30710   27.45580    8.24690   45.66700   49.66530   53.02470  -32.46830
 2753.50000   51.89670   92.16120   29.91490    8.25180   46.20960   51.63010   55.14180  -32.59510
 2754.00000   51.70210   92.01530   32.37410    8.25670   50.71330   62.78660   79.38410  -32.54260
 2754.50000   51.50290   91.86940   39.05700    8.26160   71.28770   82.72250  330.77340  -32.49010
 2755.00000   51.54100   91.72350   43.89700    8.26650   89.14100  198.88170  493.58420  -32.43760
 2755.50000   51.57910   91.99000   43.65420    8.27160  104.90050  124.02460  223.72050  -32.38500
 2756.00000   52.09370   92.53140   41.60690    8.27800  128.48820  217.64900  345.78350  -32.33250
 2756.50000   52.63660   93.07280   37.63700    8.28450  281.55080  483.18140  783.03090  -32.28000
 2757.00000   53.17940   93.28930   34.36160    8.29090  205.15300  251.73720  453.86570  -32.22750
 2757.50000   53.61800   93.28930   31.90750    8.29730  121.69280  148.41910  189.26620  -32.17500
 2758.00000   53.78790   93.15070   32.90030    8.30370   84.30290   90.14800  109.45180  -31.70470
 2758.50000   53.71080   93.02510   37.89030    8.31010   43.08820   66.47780   77.95860  -31.35990
 2759.00000   53.08650   92.89950   41.50570    8.31650   30.55030   33.43350   46.20200  -31.35160
 2759.50000   52.46230   92.77400   44.74440    8.32290   17.80200   24.77680   32.95400  -30.94400
 2760.00000   51.77630   92.57090   43.16610    8.32930   19.59640   22.89210   27.48290  -30.55880
 2760.50000   50.84320   92.05800   39.91920    8.33570   24.66400   27.87090   33.13050  -30.23020
 2761.00000   49.91010   91.79310   37.18020    8.34210   28.01220   31.38140   35.93670  -30.12840
 2761.50000   49.67030   91.49200   35.10250    8.34850   30.19290   43.25960   84.62130  -30.02670
 2762.00000   49.94400   91.19090   33.63500    8.35180   68.23320   78.55600  165.27380  -29.92490
 2762.50000   50.51110   91.45990   35.07290    8.35040  100.42580  171.29080  218.97680  -29.82310
 2763.00000   51.61170   91.99510   38.91220    8.34910  118.16650  166.11090  208.01340  -29.72130
 2763.50000   53.49730   92.66390   48.12030    8.34780  118.50700  152.45390  179.75420  -29.61950
 2764.00000   55.57930   95.17910   57.32830    8.34650  118.57510  139.17240  151.49490  -29.51770
 2764.50000   57.72230   97.69440   64.99740    8.34520  110.89180  125.89100  139.87300  -29.41590
 2765.00000   59.88060  100.42690   63.72630    8.34380  101.28770  107.12330  126.78440  -29.39090
 2765.50000   61.91190  103.48510   58.63900    8.34250   49.13930   78.67640  115.66370  -28.89040
 2766.00000   62.28290  103.98840   50.27310    8.34120   33.23390   37.96490   41.05930  -28.39000
 2766.50000   61.41160  104.02470   41.90730    8.33990   28.15640   30.16420   35.03080  -27.88650
 2767.00000   59.84410  102.74570   35.09680    8.33860   15.98420   20.70530   26.87090  -27.37860
 2767.50000   58.08900  100.87710   29.72510    8.33720   15.55620   17.12900   19.97090  -26.95260
 2768.00000   55.31130   99.00860   25.92840    8.33590   15.84550   20.77660   22.74300  -26.95260
 2768.50000   53.52900   97.14000   24.71370    8.33090   21.27410   23.30730   25.39200  -26.95260
 2769.00000   52.47710   95.54350   26.07810    8.31090   23.70390   25.81370   34.28190  -26.95260
 2769.50000   51.60890   94.35490   27.81450    8.29100   27.87670   47.95740  137.56940  -27.26370
 2770.00000   51.56020   93.16630   29.60160    8.27100   61.56980  147.28700  197.31830  -27.67890
 2770.50000   51.56760   91.97770   29.73910    8.25110  139.45450  162.21660  187.92620  -27.93950
 2771.00000   51.56160   90.78920   29.49250    8.23120  118.23260  137.38200  154.82210  -28.24470
 2771.50000   51.52570   90.36080   28.64800    8.21120   93.50900  115.14940  123.02380  -28.23970
 2772.00000   51.38400   90.43920   29.19730    8.19130   50.00100   61.86540  106.08400  -27.68450
 2772.50000   51.24230   90.51760   30.10510    8.17130   48.52860   50.21850   55.74680  -27.51040
 2773.00000   51.12900   90.47370   32.44670    8.15140   47.05620   49.30910   66.52420  -27.33630
 2773.50000   51.00450   89.94030   34.78830    8.13150   53.84780   85.68590  106.87450  -27.16220
 2774.00000   50.84890   89.38010   37.66910    8.11510   66.47370   81.59170  103.02350  -26.98810
 2774.50000   50.58220   89.26910   44.42620    8.11310   39.16750   54.14720   73.90580  -26.81400
 2775.00000   50.31540   88.89120   51.18330    8.11110   32.56760   35.42250   39.07750  -26.63990
 2775.50000   50.03420   88.44670   57.94040    8.10910   33.85820   35.42720   40.54930  -26.23830
 2776.00000   49.74320   88.00210   54.17590    8.10710   37.45510   43.43460   61.68190  -26.52520
 2776.50000   49.59150   87.97990   45.05800    8.10510   50.07440   57.68960   66.06830  -26.63990
 2777.00000   49.64860   88.04660   35.49290    8.10310   56.17500   63.88630   81.11410  -27.04160
 2777.50000   50.17100   88.58010   30.61570    8.10110   66.01160   81.16750   92.33000  -27.52370
 2778.00000   50.69330   89.24690   26.40740    8.09910   54.72100   62.23430   71.80430  -27.92530
 2778.50000   51.21560   89.91370   25.03660    8.09710   57.16820   66.71610   68.79430  -28.24670
 2779.00000   51.67310   90.35180   25.61820    8.09510   66.13070   69.65550   75.78070  -28.56800
 2779.50000   51.91580   90.58040   28.23220    8.09310   71.38780   86.34700  106.00680  -28.64840
 2780.00000   51.68940   90.24760   30.84620    8.09110   61.82810   73.34250  105.09180  -28.82050
 2780.50000   51.10650   89.63100   29.98000    8.08910   47.15560   57.11840   66.76400  -29.05010
 2781.00000   50.36640   88.92110   28.01900    8.08780   47.25310   51.52290   56.57360  -29.05010
 2781.50000   49.75190   88.21130   26.05810    8.08670   51.07010   53.20750   72.44940  -29.45180
 2782.00000   49.13750   87.50150   25.67030    8.08560   55.74750   81.21460  110.23650  -29.25090
 2782.50000   48.68880   86.79160   27.66420    8.08450   95.47610  113.89980  122.77160  -29.05010
 2783.00000   48.48880   86.08180   31.51490    8.08340  123.53300  135.85430  312.41480  -29.05360
 2783.50000   48.36380   85.50710   36.00000    8.08230  182.92810  258.99170  756.64060  -29.05710
 2784.00000   48.53880   85.47290   40.48510    8.08110  236.68390  827.33110  939.13160  -29.55480
 2784.50000   48.63880   85.43870   42.03410    8.08000  683.97450  733.65040  814.65540  -30.17480
 2785.00000   48.62630   85.40460   39.35380    8.07890  478.34500  566.73450  629.56830  -30.75720
 2785.50000   48.61380   85.37040   36.20490    8.07780  298.68220  399.81870  444.48130  -31.25930
 2786.00000   48.60130   85.33620   33.05610    8.07670  241.22540  283.00070  289.56730  -31.93670
 2786.50000   48.58880   85.30200   29.90730    8.07560  205.31400  228.01900  258.99170  -32.29770
 2787.00000   48.61280   85.26780   27.30170    8.07440  184.05260  205.77360  245.08110  -32.50320
 2787.50000   48.66120   85.45470   29.35400    8.07330  238.13880  244.38360  252.71580  -32.70880
 2788.00000   48.70950   85.97340   33.59140    8.07220  250.11790  255.83450  291.00680  -32.91430
 2788.50000   48.80130   86.49200   44.06950    8.07110  399.43110  401.73100  470.97270  -33.11990
 2789.00000   48.98230   87.01060   55.29240    8.07000  471.05600  493.18080  524.38160  -33.32540
 2789.50000   49.16320   87.18100   59.40830    8.06890  494.92540  558.36560  622.64550  -33.53100
