~Version ---------------------------------------------------
VERS.   2.0 : CWLS log ASCII Standard -VERSION 2.0
WRAP.    NO : One line per depth step
DLM . SPACE : Column Data Section Delimiter
~Well ------------------------------------------------------
STRT .FT                2150.0 : START DEPTH
STOP .FT                3176.0 : STOP DEPTH
STEP .FT                   0.5 : STEP
NULL .                -9999.25 : NULL VALUE
COMP .                         : COMPANY
WELL .                         : WELL
FLD  .                         : FIELD
LOC  .                         : LOCATION
PROV .                         : PROVINCE
CNTY .                         : COUNTY
STAT .                         : STATE
CTRY .                         : COUNTRY
SRVC .                         : SERVICE COMPANY
DATE .                         : DATE
UWI  .                         : UNIQUE WELL ID
API  .                         : API NUMBER
SLAT .WGS84 2.5974929084982037 : SURFACE LATITUDE
SLON .WGS84     5.748932829588 : SURFACE LONGITUDE
DATUM.F                    nan : DEPTH DATUM ELEV
~Curve Information -----------------------------------------
DEPT   .FT    : 
DTCO   .US/F  : DELTA-T COMPRESSIONAL
DTSM   .US/F  : DELTA-T SHEAR
GR_EDTC.GAPI  : GAMMA RAY
HCALR  .IN    : HRCC CALIPER CALIBRATED FROM RESISTIVITY LOG
RLA3   .OHMM  : APPARENT RESISTIVITY FROM COMPUTED FOCUSING MODE 3
RLA4   .OHMM  : APPARENT RESISTIVITY FROM COMPUTED FOCUSING MODE 4
RLA5   .OHMM  : APPARENT RESISTIVITY FROM COMPUTED FOCUSING MODE 5
SPR    .MV    : SPONTANEOUS POTENTIAL FROM RESISTIVITY LOG
~Params ----------------------------------------------------
~Other -----------------------------------------------------
~ASCII -----------------------------------------------------
# ...
 3070.00000   49.93530   89.07550   42.25500    7.97490   42.56220   45.92290   52.44360  -16.29810
 3070.50000   49.43520   88.26650   51.19610    7.97490   44.24710   64.87050  106.04510  -16.35390
 3071.00000   48.94510   88.34280   60.13720    7.97490   80.60500  130.21990  190.41360  -16.40970
 3071.50000   49.03090   88.87610   69.07830    7.97490  137.51870  178.66100  190.41360  -16.46550
 3072.00000   49.53520   89.29720   74.44290    7.97490  109.24860  115.35320  151.37800  -16.52130
 3072.50000   50.16870   89.71840   67.84890    7.97490  115.08790  130.53830  134.18310  -16.57710
 3073.00000   50.80220   90.13950   61.36450    7.97490  132.90450  151.36850  162.92890  -16.81410
 3073.50000   51.43560   90.78760   54.88010    7.97490  148.03410  172.19870  180.17640  -17.02990
 3074.00000   51.94570   91.41000   48.39570    7.97490  117.72710  142.86050  166.21430  -17.12430
 3074.50000   51.97570   91.41000   43.29620    7.97490   49.20660   89.24890  123.64690  -17.36460
 3075.00000   51.87070   91.05430   40.27420    7.97490   38.49100   47.42320   74.17210  -17.36460
 3075.50000   51.69570   90.54310   37.25220    7.97490   37.35730   40.92880   47.82970  -17.36460
 3076.00000   51.55560   90.27650   34.23030    7.98420   40.82660   55.63660   66.49200  -17.36460
 3076.50000   51.31890   90.80040   31.20830    7.98420   75.80500   84.58210  102.41460  -17.36460
 3077.00000   51.06050   91.41000   28.18630    7.98420   66.39040   84.84450  109.13070  -17.36460
 3077.50000   50.80220   91.81010   25.03320    7.98420   39.05690   46.13490   65.55880  -17.01940
 3078.00000   50.58340   91.35280   22.95230    7.98420   45.10240   79.67090   97.87210  -16.35940
 3078.50000   50.37340   90.78130   22.00130    7.98420   75.80500  145.19800  166.50180  -15.60370
 3079.00000   50.22250   90.20970   25.00360    7.98420  128.03890  191.43880  202.47060  -15.21600
 3079.50000   50.30830   90.38750   30.20390    7.98420  130.92720  141.26350  174.73180  -14.82830
 3080.00000   50.46940   90.66170   41.89300    7.98420  135.84070  165.38770  210.92870  -14.44060
 3080.50000   50.81370   90.92100   52.54200    7.98420  138.02050  185.67220  224.74910  -14.05290
 3081.00000   51.35920   91.18030   51.93930    7.98420  127.20710  139.96830  175.80450  -13.56580
 3081.50000   51.97220   91.43970   46.83240    7.98420  115.74130  177.02310  208.78430  -13.07880
 3082.00000   52.85470   92.36250   41.72550    7.98420  104.03890  114.84270  198.77510  -12.59190
 3082.50000   53.73720   93.79130   39.25380    7.98420   99.31840  112.21190  131.73400  -12.10500
 3083.00000   54.61980   94.69060   38.53880    7.98420   97.50560  139.32530  157.40910  -11.61810
 3083.50000   55.30640   95.54420   37.82380    7.98420   40.30500   54.20380  115.25590  -11.13120
 3084.00000   55.25100   95.49080   36.89880    7.98420   25.81190   28.43580   39.53930  -10.64430
 3084.50000   54.82400   95.42410   34.54770    7.98420   16.69500   21.26220   27.07210  -10.15740
 3085.00000   54.39700   95.14410   32.19670    7.98420   13.43110   14.92150   19.81170   -9.76790
 3085.50000   53.89180   94.60010   29.84570    7.99500   13.08230   13.57360   14.18070   -9.52690
 3086.00000   53.33450   94.05620   27.49470    7.99500   13.81730   14.39390   16.19370   -9.35440
 3086.50000   52.77730   93.51220   26.75660    7.99500   15.82920   18.15010   33.09000   -9.33490
 3087.00000   52.22000   92.96820   26.86370    7.99500   24.73050   35.58350   42.22170   -9.31530
 3087.50000   51.75070   92.42420   29.28490    7.99500   40.52260   45.36260   60.55310   -9.29570
 3088.00000   51.41310   91.88030   33.05220    7.99500   49.15970   61.47490   94.55850   -9.27610
 3088.50000   51.25560   91.33630   36.33400    7.99500   81.99320   99.39050  117.22760   -9.76790
 3089.00000   51.53060   90.87650   35.62410    7.99500   98.71010  110.33110  137.81560   -9.76790
 3089.50000   51.62760   90.87650   33.01200    7.99500   98.22600  188.23390  201.23240   -9.76790
 3090.00000   51.64740   90.87650   31.44480    7.99500   92.76420  104.39930  200.00000   -9.44700
 3090.50000   51.66720   90.85080   32.28870    7.99500   90.57950  114.46230  135.00870   -8.92520
 3091.00000   51.67520   90.79020   34.39840    7.99500   74.19300  106.32520  160.33560   -8.82390
 3091.50000   51.67950   90.99820   35.66430    7.99500   48.72440   57.59920   92.13870   -8.72260
 3092.00000   51.70090   92.28050   33.49430    7.99500   38.89360   55.04950   58.57300   -8.37310
 3092.50000   51.94520   93.56270   30.78180    7.99500   51.40410   62.01900   72.53140   -7.85810
 3093.00000   52.91740   95.18700   29.94700    7.99500   61.64220   75.60520   88.16230   -7.34310
 3093.50000   54.13770   97.03930   29.58170    7.99500   76.31160   83.21310   96.90850   -7.43410
 3094.00000   55.35790   97.47650   29.43560    7.99500   78.42180   86.83560  103.19690   -7.52520
 3094.50000   56.16110   97.14310   29.23460    7.99500   68.09630   84.46910   98.71010   -7.61620
 3095.00000   56.46410   96.80970   28.83280    7.99570   35.50760   61.91710   85.18470   -7.70720
 3095.50000   56.38610   96.59050   25.81890    7.99750   23.40090   35.70330   52.29170   -7.79820
 3096.00000   55.93600   96.34290   23.32760    7.99920   18.64510   21.43730   28.20730   -7.88930
 3096.50000   55.03590   95.82990   22.92660    8.00100   16.38690   17.64150   19.62810   -7.98030
 3097.00000   54.13570   95.31700   23.92030    8.00270   15.96800   16.66120   17.36590   -8.07130
 3097.50000   53.23550   94.60910   24.91390    8.00450   16.99670   19.22560   22.59400   -8.16230
 3098.00000   52.79900   93.94230   24.70980    8.00630   19.47450   22.79670   24.64320   -8.16230
 3098.50000   52.36260   93.27550   23.89560    8.00800   24.97710   33.18350   44.49660   -8.16230
 3099.00000   52.22390   92.64400   23.20690    8.00980   39.53930   47.74150   57.49790   -8.16230
 3099.50000   52.15530   92.39850   23.76340    8.01160   53.59020   61.71570   65.79750   -8.16230
 3100.00000   52.15550   92.15300   24.53630    8.01330   61.37520  117.67870  139.21880   -8.24270
 3100.50000   52.29560   91.90760   25.25630    8.01510   76.27140   78.83520   85.70970   -8.44350
 3101.00000   52.43560   92.00940   24.79990    8.01680   57.50390   64.76800   71.95830   -8.51150
 3101.50000   52.57560   92.34280   23.50830    8.01860   59.16280   62.04370   96.74330   -8.38030
 3102.00000   52.62560   92.47610   22.78430    8.02040   62.28190  105.85170  116.22460   -8.24900
 3102.50000   52.51560   92.27610   21.96440    8.02920   78.64980   88.57050  109.13070   -8.11780
 3103.00000   52.26810   91.54270   21.80040    8.06640   63.77350   75.18700   89.84780   -7.98650
 3103.50000   51.87420   91.27600   21.80040    8.09320   33.09000   51.63880   66.97400   -7.85530
 3104.00000   51.37540   91.87610   23.48090    8.10430   27.35450   31.67360   36.73070   -7.72340
 3104.50000   51.33040   92.47610   25.58150    8.11550   30.73950   45.23750   53.30750   -7.76670
 3105.00000   51.40540   92.56510   27.68200    8.03900   67.45740   96.97640  139.29570   -7.92820
 3105.50000   51.97980   92.60950   29.78260    8.00560  110.24570  157.30210  167.89910   -8.08970
 3106.00000   52.54780   92.60950   31.24390    8.00090  141.80700  163.94490  173.65920   -8.25110
 3106.50000   53.11570   92.60950   29.65660    7.99630  112.33130  136.36340  185.79320   -8.41260
 3107.00000   53.38120   92.60950   26.74320    7.99160   65.84150   77.79960   89.60310   -8.57410
 3107.50000   53.64660   92.52950   24.34780    7.98700   44.98800   51.21070   61.53330   -8.73560
 3108.00000   53.80590   92.28570   24.02490    7.98240   47.34690   49.28300   59.66200   -8.89710
 3108.50000   53.58250   92.66680   23.70200    7.97770   49.75590   63.14560   72.15250   -9.05860
 3109.00000   53.21570   92.56100   23.06760    7.97310   75.34070   81.03970   85.97370   -9.22000
 3109.50000   52.77170   91.77300   21.38920    7.96840   78.64980   80.66730   84.87780   -9.38150
