~Version ---------------------------------------------------
VERS.   2.0 : CWLS log ASCII Standard -VERSION 2.0
WRAP.    NO : One line per depth step
DLM . SPACE : Column Data Section Delimiter
~Well ------------------------------------------------------
STRT .FT                2150.0 : START DEPTH
STOP .FT                3176.0 : STOP DEPTH
STEP .FT                   0.5 : STEP
NULL .                -9999.25 : NULL VALUE
COMP .                         : COMPANY
WELL .                         : WELL
FLD  .                         : FIELD
LOC  .                         : LOCATION
PROV .                         : PROVINCE
CNTY .                         : COUNTY
STAT .                         : STATE
CTRY .                         : COUNTRY
SRVC .                         : SERVICE COMPANY
DATE .                         : DATE
UWI  .                         : UNIQUE WELL ID
API  .                         : API NUMBER
SLAT .WGS84 2.5974929084982037 : SURFACE LATITUDE
SLON .WGS84     5.748932829588 : SURFACE LONGITUDE
DATUM.F                    nan : DEPTH DATUM ELEV
~Curve Information -----------------------------------------
DEPT   .FT    : 
DTCO   .US/F  : DELTA-T COMPRESSIONAL
DTSM   .US/F  : DELTA-T SHEAR
GR_EDTC.GAPI  : GAMMA RAY
HCALR  .IN    : HRCC CALIPER CALIBRATED FROM RESISTIVITY LOG
RLA3   .OHMM  : APPARENT RESISTIVITY FROM COMPUTED FOCUSING MODE 3
RLA4   .OHMM  : APPARENT RESISTIVITY FROM COMPUTED FOCUSING MODE 4
RLA5   .OHMM  : APPARENT RESISTIVITY FROM COMPUTED FOCUSING MODE 5
SPR    .MV    : SPONTANEOUS POTENTIAL FROM RESISTIVITY LOG
~Params ----------------------------------------------------
~Other -----------------------------------------------------
~ASCII -----------------------------------------------------
# ...
 2350.00000   54.62680   95.08540   39.16200    7.95480   20.59690   34.63310   84.53260   22.53760
 2350.50000   54.39510   94.71880   40.11200    7.95480   12.88960   13.86270   35.95060   22.37330
 2351.00000   53.96430   96.01310   37.03610    7.95480   12.96890   13.94800   15.53820   22.37010
 2351.50000   53.53350   97.30750   32.35500    7.95480   15.73880   21.04650   47.67780   22.36690
 2352.00000   53.69350   98.60190   27.67390    7.95480   24.63170   31.09150   56.56050   22.36620
 2352.50000   54.49360   99.11960   26.34590    7.95480   26.79030   31.66950   44.83500   22.36620
 2353.00000   55.29380   99.11960   27.25350    7.95480   38.89820   57.10070  100.07410   22.36620
 2353.50000   56.09390   99.23400   30.20930    7.95480   17.78590   40.05680   64.13660   22.36620
 2354.00000   56.11620   99.80550   36.23760    7.95480   20.17740   25.23320   45.57190   22.36620
 2354.50000   55.87170  100.37700   37.44470    7.95480   20.47200   45.62270   59.47890   22.36620
 2355.00000   55.62720  100.94860   34.78390    7.95480    8.89540   10.75520   42.13610   22.36620
 2355.50000   55.38270  101.52010   30.40280    7.95480    8.92130   10.32400   13.91900   22.36620
 2356.00000   55.33380  103.07600   26.40050    7.95480   14.64420   29.34760   42.56830   22.36620
 2356.50000   56.43400  104.63190   26.40200    7.95480   41.35060   52.54280   64.18000   22.36620
 2357.00000   58.90450  106.85450   28.85780    7.95480   15.86780   47.85610   67.12030   22.24860
 2357.50000   61.45500  109.52170   32.33340    7.95480   12.62190   19.38720   20.94510   22.05250
 2358.00000   63.33540  111.18870   39.88780    7.95480   10.38550   13.44350   17.32970   21.74720
 2358.50000   63.36200  111.35530   47.44230    7.95480   17.28560   21.00490   24.51520   22.14640
 2359.00000   63.09530  109.63290   54.99680    7.95480   10.78070   19.72060   24.97010   22.13660
 2359.50000   61.45500  107.43810   61.16930    7.98370    7.33620   12.72930   15.74320   22.32800
 2360.00000   58.65450  105.24340   56.36560    7.98240    6.71480    8.27650   11.00500   22.36620
 2360.50000   56.67050  103.04870   47.01980    7.98100   10.81280   16.60810   18.84710   22.36620
 2361.00000   56.05480  100.85390   37.67390    7.97970   17.39600   28.20550   28.53010   22.36620
 2361.50000   56.29920  100.47930   27.22570    7.97830   23.56210   39.80290   44.17630   23.49100
 2362.00000   57.11810  101.09510   25.21640    7.97700   38.58240   46.34190   52.85300   23.63430
 2362.50000   57.93710  102.37110   29.17450    7.97560   16.32690   33.19850   46.57980   23.71300
 2363.00000   58.13940  103.13670   33.13260    7.97430   14.38910   16.76920   19.00140   23.97300
 2363.50000   57.41880  103.09640   35.71490    7.97300   15.08980   17.61360   19.98630   24.37470
 2364.00000   56.63860  102.87710   32.98870    7.97160    9.30950   14.19060   17.76650   24.34750
 2364.50000   56.21920  102.87990   29.33160    7.97030    8.82320    9.35790   10.56550   24.40310
 2365.00000   56.59310  104.30550   25.67460    7.96890   10.13630   10.38750   11.85030   24.45870
 2365.50000   58.44740  106.53120   23.91830    7.96760   11.62180   12.45010   13.45630   24.51430
 2366.00000   62.12530  109.62360   26.13930    7.96620   13.21540   14.51260   15.06220   24.56990
 2366.50000   66.20160  113.29390   32.86830    7.96490   14.50680   16.06380   18.98200   24.62550
 2367.00000   68.81710  116.67540   42.50730    7.96350   11.52350   12.95720   16.47300   24.68110
 2367.50000   69.43440  117.56780   56.60020    7.96220   10.23600   11.04000   12.22000   24.73660
 2368.00000   66.69510  115.93690   68.07140    7.96080    9.11920    9.46630   10.77890   24.79220
 2368.50000   62.95210  113.43930   75.85020    7.95950    8.00250    8.40800    9.33790   24.66970
 2369.00000   59.20340  110.49420   75.85020    7.95810    6.89820    7.34980    7.93740   24.54710
 2369.50000   55.42500  105.75980   64.59820    7.95680    6.47290    6.88410    7.53320   24.42460
 2370.00000   52.41200  101.02530   49.91490    7.95540    7.48440   11.47220   21.85390   24.30200
 2370.50000   50.15220   96.29080   35.23170    7.95410   14.56610   53.87670  109.00990   24.17950
 2371.00000   49.95210   92.73880   24.47270    7.95270   86.64600  106.45880  121.19640   24.37470
 2371.50000   50.57510   92.11650   20.19300    7.95140   70.58670   77.83620  119.71840   24.37470
 2372.00000   51.63250   93.49860   21.49330    7.95000   69.95550  127.42640  166.55350   24.37470
 2372.50000   52.66130   95.13530   26.13400    7.94870  112.69850  151.07120  178.01870   24.77640
 2373.00000   53.23280   96.27420   30.77470    7.94730   20.18130   49.93950  102.72680   24.80570
 2373.50000   53.49950   96.66650   35.41540    7.94600   13.15500   17.31940   23.78170   24.83510
 2374.00000   53.58490   97.05870   37.09680    7.94460   13.37320   15.29370   16.40710   24.86440
 2374.50000   53.71290   97.45100   34.50060    7.94330   16.48760   22.84320   27.19730   24.37470
 2375.00000   54.31310   97.87210   32.24850    7.94190   24.94550   28.78600   30.98810   24.37470
 2375.50000   55.23330   98.29330   31.84240    7.94060   20.24740   23.78270   28.13750   24.17380
 2376.00000   55.63330   98.71440   34.63810    7.93920   21.46670   26.51980   33.78310   24.23760
 2376.50000   56.03340   99.23800   37.54440    7.93790   20.36090   32.84860   40.71570   24.30130
 2377.00000   56.43350  100.17160   40.64140    7.93940   13.13390   21.31880   32.40690   24.36500
 2377.50000   56.83360  101.10510   40.33870    7.94160    9.19030   13.28640   12.50350   24.15490
 2378.00000   56.93360  102.00650   36.83610    7.94390    9.11560    9.95060   11.18620   23.76220
 2378.50000   56.73220  102.11320   33.33350    7.94610   12.90360   14.35410   18.15960   23.36940
 2379.00000   56.42990  102.21990   30.93450    7.94840   18.03000   21.17620   22.75870   22.97670
 2379.50000   56.24850  102.32660   32.41070    7.95060   19.45430   21.48400   22.89160   22.58400
 2380.00000   56.27850  102.43330   33.09660    7.95290   11.92910   15.03940   21.93200   22.19120
 2380.50000   56.39850  102.51870   32.03960    7.95510   12.37490   14.38580   18.39060   21.79850
 2381.00000   57.48870  103.31880   28.84200    7.95740   19.28210   24.19500   30.73450   21.64740
 2381.50000   59.69920  106.83960   28.63490    7.95960   25.28670   27.08990   32.47300   21.85880
 2382.00000   62.49980  110.04020   31.83060    7.96180   17.64150   22.72850   23.77460   22.07030
 2382.50000   64.89780  113.03510   40.40610    7.96410   17.49830   18.38710   19.97440   22.28170
 2383.00000   65.37040  115.52880   51.14890    7.96630   12.58600   16.17410   18.53150   22.70490
 2383.50000   65.20530  116.56600   61.89180    7.96860    9.34370   12.30440   13.28470   23.26950
 2384.00000   64.22260  117.18830   72.63460    7.97080    6.60640    8.54700   11.00440   23.74020
 2384.50000   62.75980  116.10660   68.05350    7.97310    6.71610    7.36510    9.73070   23.83580
 2385.00000   61.13680  112.69860   56.60070    7.97530    8.95860   10.58060   12.08590   23.93150
 2385.50000   59.29550  109.88690   47.76970    7.97760   10.21760   11.25070   12.28460   23.93010
 2386.00000   57.71020  107.96980   44.70590    7.97980   13.42020   22.10990   26.93690   23.78320
 2386.50000   56.54850  106.05270   44.20360    7.98180   19.29940   30.24040   38.38120   23.63630
 2387.00000   56.48850  104.54580   42.77200    7.98260    8.71600   16.69310   17.15950   23.48940
 2387.50000   57.88380  105.11920   36.11640    7.98340    8.82320   10.29470   36.18200   23.34250
 2388.00000   60.77190  110.78700   34.17170    7.98420   36.89080   53.41140   57.45630   23.19560
 2388.50000   64.70410  115.81260   38.76430    7.98500   43.42320   53.19240   57.80770   23.04870
 2389.00000   65.57440  115.27910   47.19740    7.98580   15.13810   28.23990   39.66350   22.90180
 2389.50000   63.53600  114.27520   56.59070    7.98660   14.62560   16.27080   20.44640   22.75490
