~Version ---------------------------------------------------
VERS.   2.0 : CWLS log ASCII Standard -VERSION 2.0
WRAP.    NO : One line per depth step
DLM . SPACE : Column Data Section Delimiter
~Well ------------------------------------------------------
STRT .FT                2150.0 : START DEPTH
STOP .FT                3176.0 : STOP DEPTH
STEP .FT                   0.5 : STEP
NULL .                -9999.25 : NULL VALUE
COMP .                         : COMPANY
WELL .                         : WELL
FLD  .                         : FIELD
LOC  .                         : LOCATION
PROV .                         : PROVINCE
CNTY .                         : COUNTY
STAT .                         : STATE
CTRY .                         : COUNTRY
SRVC .                         : SERVICE COMPANY
DATE .                         : DATE
UWI  .                         : UNIQUE WELL ID
API  .                         : API NUMBER
SLAT .WGS84 2.5974929084982037 : SURFACE LATITUDE
SLON .WGS84     5.748932829588 : SURFACE LONGITUDE
DATUM.F                    nan : DEPTH DATUM ELEV
~Curve Information -----------------------------------------
DEPT   .FT    : 
DTCO   .US/F  : DELTA-T COMPRESSIONAL
DTSM   .US/F  : DELTA-T SHEAR
GR_EDTC.GAPI  : GAMMA RAY
HCALR  .IN    : HRCC CALIPER CALIBRATED FROM RESISTIVITY LOG
RLA3   .OHMM  : APPARENT RESISTIVITY FROM COMPUTED FOCUSING MODE 3
RLA4   .OHMM  : APPARENT RESISTIVITY FROM COMPUTED FOCUSING MODE 4
RLA5   .OHMM  : APPARENT RESISTIVITY FROM COMPUTED FOCUSING MODE 5
SPR    .MV    : SPONTANEOUS POTENTIAL FROM RESISTIVITY LOG
~Params ----------------------------------------------------
~Other -----------------------------------------------------
~ASCII -----------------------------------------------------
# ...
 3150.00000   50.61700   90.04640   18.66210    7.90130   85.09000  124.57410  149.40390  -26.22010
 3150.50000   50.74500   90.05360   18.66120    7.90130   87.47390  103.44220  112.64130  -26.32970
 3151.00000   51.06690   90.06090   18.66030    7.90130  114.79520  129.83470  154.27680  -26.63970
 3151.50000   51.50330   90.06810   18.65930    7.90130  142.11650  177.43240  215.32380  -27.56000
 3152.00000   52.09190   90.07530   18.65840    7.90130  185.15570  260.80440  359.49920  -28.14490
 3152.50000   52.90880   90.08250   18.65750    7.90130   66.52320   98.86680  350.77610  -28.12890
 3153.00000   53.41550   90.08970   18.65660    7.90130   57.32130   60.94130   68.01810  -28.07910
 3153.50000   53.42550   90.09690   18.65570    7.90130   48.11930   50.50000   51.76500  -28.12090
 3154.00000   53.43550   90.10410   18.65470    7.90130   38.91740   40.05880   44.72870  -28.16270
 3154.50000   53.44550   90.11130   18.65380    7.90130   30.83400   33.14490   38.46830  -28.20460
 3155.00000   53.02540   90.11860   18.65290    7.90130   30.83400   31.09580   31.40720  -28.24640
 3155.50000   52.63430   90.12580   18.65200    7.90130   31.40720   32.63730   35.27480  -28.24640
 3156.00000   52.24310   90.13300   18.65110    7.90130   33.53660   35.13200   37.07060  -28.24640
 3156.50000   51.85200   90.14020   18.65010    7.90130   34.60860   35.53840   36.76840  -28.24640
 3157.00000   51.46080   90.15450   18.64920    7.90130   35.51090   36.70260   38.44380  -28.24640
 3157.50000   51.06970   90.17600   18.64830    7.90130   39.18510   41.39610   43.22130  -28.24640
 3158.00000   50.67500   90.19750   18.64740    7.90130   43.90030   49.84590   59.47870  -28.24640
 3158.50000   50.32490   90.21900   18.64650    7.90130   56.28100   58.21950   64.02680  -28.24640
 3159.00000   50.17490   90.24050   18.64550    7.90130   62.26760   66.39460   71.07190  -28.24640
 3159.50000   50.02480   90.26200   18.55520    7.90130   68.88130   78.73050   95.54760  -28.24640
 3160.00000   49.87480   90.27490   18.31990    7.90130   84.90170   93.16010  102.71430  -28.24640
 3160.50000   -9999.25   -9999.25   -9999.25    7.90130   96.88330  117.61510  191.87080  -28.24640
 3161.00000   -9999.25   -9999.25   -9999.25    7.90130  154.94540  250.63190  322.80780  -28.24640
 3161.50000   -9999.25   -9999.25   -9999.25    7.90130  264.35010  319.32890  376.56740  -28.24640
 3162.00000   -9999.25   -9999.25   -9999.25    7.90130  343.47200  416.17650  571.62880  -28.24640
 3162.50000   -9999.25   -9999.25   -9999.25    7.90130  487.60210  670.74770  732.25380  -28.24640
 3163.00000   -9999.25   -9999.25   -9999.25    7.90130  552.30280  547.65690  703.60920  -28.24640
 3163.50000   -9999.25   -9999.25   -9999.25    7.90130  128.80090  233.53400  441.87620  -28.24640
 3164.00000   -9999.25   -9999.25   -9999.25    7.90130  106.42050  124.93130  163.53640  -28.24640
 3164.50000   -9999.25   -9999.25   -9999.25    7.90130   93.56060  102.82720  136.08940  -28.48440
 3165.00000   -9999.25   -9999.25   -9999.25    7.90130  116.30010  132.80150  145.58750  -28.48440
 3165.50000   -9999.25   -9999.25   -9999.25    7.90130  129.53400  135.53920  146.47070  -28.48440
 3166.00000   -9999.25   -9999.25   -9999.25    7.90130   98.61260  114.57720  143.77740  -28.58370
 3166.50000   -9999.25   -9999.25   -9999.25    7.90130   65.07790   78.60740   92.87710  -28.61130
 3167.00000   -9999.25   -9999.25   -9999.25    7.90130   64.67010   68.87290   75.40690  -28.61130
 3167.50000   -9999.25   -9999.25   -9999.25    7.90130   68.33660   71.39560   72.66680  -28.61130
 3168.00000   -9999.25   -9999.25   -9999.25    7.89390   64.25540   66.92460   73.10570  -28.61130
 3168.50000   -9999.25   -9999.25   -9999.25    7.88830   68.73940  103.32170  131.60660  -28.61130
 3169.00000   -9999.25   -9999.25   -9999.25    7.88270  128.17750  133.18340  146.35860  -28.61130
 3169.50000   -9999.25   -9999.25   -9999.25    7.86690  137.61950  159.85790  171.69940  -28.61130
 3170.00000   -9999.25   -9999.25   -9999.25    7.83430   99.99040  128.56310  168.50730  -28.61130
 3170.50000   -9999.25   -9999.25   -9999.25    7.70080   52.36580   60.21110   94.52970  -28.61130
 3171.00000   -9999.25   -9999.25   -9999.25    4.40660   46.10100   48.40050   55.05930  -28.61130
 3171.50000   -9999.25   -9999.25   -9999.25    3.38200   49.55160   53.96050   61.31750  -28.61130
 3172.00000   -9999.25   -9999.25   -9999.25    3.38270   56.71210   61.95240   70.31790  -28.61130
 3172.50000   -9999.25   -9999.25   -9999.25    3.38270   63.08390   72.10070   77.27850  -28.61130
 3173.00000   -9999.25   -9999.25   -9999.25    3.38270   77.06230  107.30010  120.68140  -28.61130
 3173.50000   -9999.25   -9999.25   -9999.25    3.38270   71.56260   82.35400  104.26860  -27.80990
 3174.00000   -9999.25   -9999.25   -9999.25    3.38270   62.49590   65.19400   71.10490  -27.63600
 3174.50000   -9999.25   -9999.25   -9999.25    3.38270   76.20360   89.64200  138.01740  -27.67450
 3175.00000   -9999.25   -9999.25   -9999.25    3.38270  125.05500  145.92840  164.39680  -27.96180
 3175.50000   -9999.25   -9999.25   -9999.25    3.38270  206.83300  245.57800  453.27850  -27.92990
 3176.00000   -9999.25   -9999.25   -9999.25    3.38270  494.76550  704.89890   -9999.25  -27.40460
