~Version ---------------------------------------------------
VERS.   2.0 : CWLS log ASCII Standard -VERSION 2.0
WRAP.    NO : One line per depth step
DLM . SPACE : Column Data Section Delimiter
~Well ------------------------------------------------------
STRT .FT                2150.0 : START DEPTH
STOP .FT                3176.0 : STOP DEPTH
STEP .FT                   0.5 : STEP
NULL .                -9999.25 : NULL VALUE
COMP .                         : COMPANY
WELL .                         : WELL
FLD  .                         : FIELD
LOC  .                         : LOCATION
PROV .                         : PROVINCE
CNTY .                         : COUNTY
STAT .                         : STATE
CTRY .                         : COUNTRY
SRVC .                         : SERVICE COMPANY
DATE .                         : DATE
UWI  .                         : UNIQUE WELL ID
API  .                         : API NUMBER
SLAT .WGS84 2.5974929084982037 : SURFACE LATITUDE
SLON .WGS84     5.748932829588 : SURFACE LONGITUDE
DATUM.F                    nan : DEPTH DATUM ELEV
~Curve Information -----------------------------------------
DEPT   .FT    : 
DTCO   .US/F  : DELTA-T COMPRESSIONAL
DTSM   .US/F  : DELTA-T SHEAR
GR_EDTC.GAPI  : GAMMA RAY
HCALR  .IN    : HRCC CALIPER CALIBRATED FROM RESISTIVITY LOG
RLA3   .OHMM  : APPARENT RESISTIVITY FROM COMPUTED FOCUSING MODE 3
RLA4   .OHMM  : APPARENT RESISTIVITY FROM COMPUTED FOCUSING MODE 4
RLA5   .OHMM  : APPARENT RESISTIVITY FROM COMPUTED FOCUSING MODE 5
SPR    .MV    : SPONTANEOUS POTENTIAL FROM RESISTIVITY LOG
~Params ----------------------------------------------------
~Other -----------------------------------------------------
~ASCII -----------------------------------------------------
# ...
 2470.00000   71.89580  122.58990   62.65850    8.07530   11.77110   14.21430   15.62970   19.76240
 2470.50000   72.19570  124.29650   79.87520    8.07530   14.89500   15.89150   17.01480   19.79900
 2471.00000   70.90880  123.62680   97.09180    8.07530   12.16330   11.47670   16.15190   19.83560
 2471.50000   68.39160  121.55230  104.17930    8.07530    5.78400    7.74190    9.06660   19.87220
 2472.00000   65.87440  118.43780   94.53700    8.07530    5.37460    6.40480    7.10050   19.90880
 2472.50000   63.07380  112.72600   75.73470    8.07530    6.75070    7.65130    8.58260   19.94540
 2473.00000   60.27330  107.01430   59.95080    8.07760    9.31640   10.76510   11.74400   19.98200
 2473.50000   57.47270  101.30250   50.43200    8.07890   11.45270   12.21670   12.88070   20.01860
 2474.00000   55.41510   97.87550   46.37050    8.08030   12.16330   12.73260   13.20600   20.05520
 2474.50000   54.43200   99.03130   42.40620    8.08160   12.87390   13.49280   13.81050   20.09180
 2475.00000   55.55230  100.18720   36.93660    8.08300   13.81290   14.69850   21.06750   20.12850
 2475.50000   58.14680  101.34300   33.05210    8.08430   18.01810   29.25740   48.02570   20.16510
 2476.00000   60.67070  105.33080   36.89210    8.08570   37.74590   59.73210   91.02090   20.59890
 2476.50000   63.19450  109.31860   47.49700    8.08700   75.57190   81.62460   92.72630   20.59890
 2477.00000   65.15820  113.30640   58.10190    8.08840   52.07440   71.10270   85.99510   20.63840
 2477.50000   66.74860  117.29420   68.70680    8.08970   15.35980   35.08320   64.55310   20.93580
 2478.00000   69.07260  121.28200   73.75250    8.09110   10.40290   12.00340   19.02150   21.23320
 2478.50000   71.88560  125.26980   69.26520    8.09240    9.85740   10.69560   11.84430   21.53070
 2479.00000   74.84880  129.25760   72.74790    8.09380   14.40660   17.09240   20.86250   21.82810
 2479.50000   77.43680  133.79180   82.84240    8.09520   12.10260   19.59510   21.78300   22.26640
 2480.00000   78.35700  133.82540   99.15780    8.09650    6.32910    7.27240   13.61760   22.79870
 2480.50000   76.93400  131.25870   99.15780    8.09790    5.84770    5.97510    6.94150   23.33100
 2481.00000   74.41920  126.59110   95.54110    8.09920    4.06980    5.56490    6.22260   23.53360
 2481.50000   69.15530  122.35020   86.49940    8.10060    3.95180    4.21060    5.33710   23.42510
 2482.00000   67.04370  118.21600   80.43850    8.09850    6.43870    8.23680   11.20420   23.31660
 2482.50000   65.15450  115.63650   74.37770    8.09410    7.15580    9.76520   11.33600   23.20810
 2483.00000   64.15430  113.57520   68.56660    8.08980    6.67190    7.09620    9.56400   23.09960
 2483.50000   63.78280  112.40160   64.72380    8.08540    8.04600   13.17000   20.08320   22.97450
 2484.00000   63.65420  112.32150   62.58900    8.08100   17.04170   20.27900   23.01300   22.83840
 2484.50000   63.71420  112.92170   69.27520    8.07670   21.55700   23.21030   24.26990   22.70220
 2485.00000   64.55880  113.52180   75.96140    8.07230   19.34460   22.92740   24.69710   22.56600
 2485.50000   65.23450  113.28470   80.33360    8.06800   10.57600   13.85740   23.58530   22.42990
 2486.00000   64.69040  112.98820   70.50520    8.06360    8.77900    9.41190   10.80050   22.69140
 2486.50000   63.88830  112.32150   60.05720    8.05920    7.42870    8.53120   10.48670   22.95290
 2487.00000   63.05580  111.52140   56.51090    8.05490    7.89910   14.20180   21.56260   23.21450
 2487.50000   61.74050  110.14320   59.51880    8.05050   16.25240   22.86190   35.80740   23.36610
 2488.00000   60.87360  108.58740   60.11420    8.04620    4.31450    5.15630   24.99200   23.07800
 2488.50000   60.99360  108.98740   54.41790    8.04530    5.07310    8.42710    9.12420   22.78990
 2489.00000   61.56520  110.32110   47.72030    8.04990   10.21310   12.39160   15.77980   22.50190
 2489.50000   63.61130  112.37470   43.70170    8.05440   13.98330   16.35610   19.59130   22.21380
 2490.00000   66.69660  115.84170   48.71740    8.05890   18.89070   21.36390   22.79550   22.02080
 2490.50000   70.00630  119.76670   57.57900    8.06340   11.20930   15.09150   21.95980   22.20810
 2491.00000   73.31600  124.37870   66.44070    8.06790   10.23250   11.41570   12.45390   22.39540
 2491.50000   76.06850  128.99080   75.30240    8.07240    9.30480    9.98440   10.81360   22.58270
 2492.00000   76.17660  129.74090   84.16400    8.07690    8.49520    8.86810    9.57890   22.77000
 2492.50000   75.26840  129.52430   90.11990    8.09170    7.24190    8.22330    8.61600   22.95730
 2493.00000   72.45290  126.29510   92.53120    8.10900    4.85790    5.55060    6.72130   23.14460
 2493.50000   68.53780  121.57980   92.53120    8.12640    4.23190    4.39580    4.43950   23.33190
 2494.00000   63.86070  116.86450   87.77960    8.13330    4.17100    4.25390    4.38500   23.57880
 2494.50000   61.06480  111.45390   81.84020    8.13330    5.22110    6.35390    7.77320   24.06420
 2495.00000   59.45020  105.86940   75.90070    8.09470    7.32360    8.90230   14.25520   24.39260
 2495.50000   57.83560  100.28490   70.66260    8.04180    8.98630   11.24640   11.85690   24.48560
 2496.00000   56.52580   97.65100   66.47640    8.03870    8.98630   12.71580   15.49270   24.57860
 2496.50000   55.73230   96.98410   60.11340    8.05150   14.86610   17.39180   19.25470   24.32330
 2497.00000   55.55230   96.65070   52.29920    8.05660   18.33370   19.79650   20.69920   24.08720
 2497.50000   55.83230   96.81740   44.48510    8.05660   19.82090   24.37880   27.16270   24.01080
 2498.00000   55.91230   96.98410   36.67090    8.05660   24.34210   31.71360   42.44940   23.50860
 2498.50000   55.93640   97.25080   31.23390    8.05660   35.76040   43.38940   53.50420   23.04560
 2499.00000   55.97640   97.91770   27.34670    8.05660   41.96750   47.61510   55.03530   22.84510
 2499.50000   56.01640   99.25140   27.18660    8.05660   36.62010   39.33750   48.97490   22.77190
 2500.00000   56.40740  101.25180   28.09790    8.05660   29.45660   34.35020   37.15120   22.71620
 2500.50000   57.03250  102.34530   30.03350    8.05660   28.50450   30.13010   31.64100   22.55130
 2501.00000   59.65530  108.20560   34.38980    8.05660   26.34920   27.06110   30.52400   22.38640
 2501.50000   62.43370  115.64770   39.31150    8.05660   24.55870   26.78590   29.09990   22.22150
 2502.00000   65.83440  116.41270   47.72750    8.05660   23.70900   26.73090   29.06060   22.05650
 2502.50000   66.59460  115.42200   61.07480    8.05660   26.15660   30.59720   35.58810   21.89160
 2503.00000   66.15440  113.82420   79.36400    8.05660   11.65830   20.12220   26.42440   21.72670
 2503.50000   62.88520  111.68730   91.12070    8.05660    6.81680    9.52670   13.60970   21.56180
 2504.00000   59.54170  109.55040   90.91980    8.04700    6.78200    7.18360    8.00390   21.39690
 2504.50000   57.65670  107.41360   74.97950    8.04780    7.76690   12.12190   17.03350   21.23200
 2505.00000   57.44060  106.01060   59.03920    8.04860   17.52110   21.54440   28.21180   21.06710
 2505.50000   58.87290  106.01060   43.09900    8.04930   24.81480   29.85470   70.59260   20.90220
 2506.00000   61.67350  109.34460   50.82520    8.05010   35.42790   83.18610  120.77410   20.73720
 2506.50000   63.28880  112.67860   70.89440    8.05090   59.55430  124.88950  159.02070   20.57230
 2507.00000   64.11400  113.01030   94.50550    8.05160   10.94450   12.56590  125.15660   20.40740
 2507.50000   64.07400  113.15430   99.04570    8.05240    5.84610    8.49430   22.63770   20.24250
 2508.00000   62.68180  111.52060   92.15040    8.05320    5.29960    6.20190    8.87400   20.11600
 2508.50000   61.00140  108.18650   80.62220    8.05390   10.25140   14.92280   19.60040   20.14330
 2509.00000   59.99320  106.18600   73.38880    8.05470   12.69670   14.55130   17.52120   20.17060
 2509.50000   60.45730  106.88620   65.55260    8.05550   10.73770   11.11360   12.75250   20.19790
