~Version ---------------------------------------------------
VERS.   2.0 : CWLS log ASCII Standard -VERSION 2.0
WRAP.    NO : One line per depth step
DLM . SPACE : Column Data Section Delimiter
~Well ------------------------------------------------------
STRT .FT                2150.0 : START DEPTH
STOP .FT                3176.0 : STOP DEPTH
STEP .FT                   0.5 : STEP
NULL .                -9999.25 : NULL VALUE
COMP .                         : COMPANY
WELL .                         : WELL
FLD  .                         : FIELD
LOC  .                         : LOCATION
PROV .                         : PROVINCE
CNTY .                         : COUNTY
STAT .                         : STATE
CTRY .                         : COUNTRY
SRVC .                         : SERVICE COMPANY
DATE .                         : DATE
UWI  .                         : UNIQUE WELL ID
API  .                         : API NUMBER
SLAT .WGS84 2.5974929084982037 : SURFACE LATITUDE
SLON .WGS84     5.748932829588 : SURFACE LONGITUDE
DATUM.F                    nan : DEPTH DATUM ELEV
~Curve Information -----------------------------------------
DEPT   .FT    : 
DTCO   .US/F  : DELTA-T COMPRESSIONAL
DTSM   .US/F  : DELTA-T SHEAR
GR_EDTC.GAPI  : GAMMA RAY
HCALR  .IN    : HRCC CALIPER CALIBRATED FROM RESISTIVITY LOG
RLA3   .OHMM  : APPARENT RESISTIVITY FROM COMPUTED FOCUSING MODE 3
RLA4   .OHMM  : APPARENT RESISTIVITY FROM COMPUTED FOCUSING MODE 4
RLA5   .OHMM  : APPARENT RESISTIVITY FROM COMPUTED FOCUSING MODE 5
SPR    .MV    : SPONTANEOUS POTENTIAL FROM RESISTIVITY LOG
~Params ----------------------------------------------------
~Other -----------------------------------------------------
~ASCII -----------------------------------------------------
# ...
 2950.00000   52.29270   92.53200   40.39490    8.15970   70.23600   84.54710   98.44410  -15.27100
 2950.50000   52.29880   92.57110   30.48630    8.15850   75.61990   85.99560   92.02020  -15.07020
 2951.00000   52.30480   92.61030   23.05670    8.15730   76.75610   80.87890   94.30620  -15.04560
 2951.50000   52.32210   92.64950   21.64800    8.15620   77.02440   89.21960  103.39520  -15.13850
 2952.00000   52.34230   92.72180   20.23930    8.15170   71.99880   77.39450   86.20740  -15.23140
 2952.50000   52.36240   92.92680   18.83060    8.14520   63.84560   66.66330   76.22830  -15.32430
 2953.00000   52.38260   93.13180   17.42190    8.13860   53.30750   60.70750   67.62210  -15.41720
 2953.50000   52.46890   93.33680   16.38640    8.13200   54.97290   59.52050   71.24670  -15.51010
 2954.00000   52.81950   93.54180   15.91050    8.12540   60.41300   74.67950   81.64730  -15.60300
 2954.50000   53.09020   93.44490   15.43460    8.11880   66.88940   73.54350   79.91480  -15.69590
 2955.00000   53.18080   93.14680   14.95870    8.11220   66.88940   71.21880   76.55310  -15.78880
 2955.50000   53.18120   92.84870   14.34970    8.10560   56.60180   63.66100   71.55830  -15.88180
 2956.00000   52.89060   92.55070   13.26140    8.09910   45.44370   50.01200   60.26520  -15.97470
 2956.50000   52.38790   92.43190   14.85210    8.09250   37.40040   43.22780   45.38900  -16.06760
 2957.00000   51.88520   92.11470   15.54120    8.08590   34.62130   37.11120   40.25430  -16.16050
 2957.50000   51.38240   91.31640   16.00480    8.07930   33.03660   35.66130   38.27640  -16.20570
 2958.00000   50.87970   90.69780   16.69490    8.07690   35.34260   44.80630   54.96760  -16.23910
 2958.50000   50.52090   90.34890   18.29050    8.08070   50.53410   70.09700   86.89000  -16.27240
 2959.00000   50.19800   90.00000   19.88620    8.08450   80.10250   97.55490  119.58170  -16.30580
 2959.50000   49.93980   89.65110   21.48180    8.08840  106.78590  118.28240  127.77900  -16.33910
 2960.00000   49.93980   89.64180   24.21210    8.09220  115.39000  129.70660  140.50740  -16.37250
 2960.50000   49.99820   89.85880   27.46720    8.09600  117.61010  149.81990  161.44440  -16.40580
 2961.00000   50.01870   90.07590   31.08390    8.09980  114.19070  122.65750  142.56960  -16.43910
 2961.50000   50.03910   90.28460   35.32070    8.10190   97.09400  116.14750  120.53180  -16.11050
 2962.00000   50.05960   90.48070   40.48750    8.10120   98.67110  118.87880  150.04830  -15.68840
 2962.50000   50.08010   90.67680   55.20560    8.10050  100.24820  113.45420  145.33740  -14.61630
 2963.00000   50.23420   90.87290   69.92380    8.09980  100.73400  108.02960  127.41650  -13.85000
 2963.50000   50.85430   91.27300   69.52190    8.09920   94.88680  102.60490  125.81930  -13.08360
 2964.00000   51.59200   91.95550   65.24210    8.09850   95.47000  110.59240  137.94540  -12.31720
 2964.50000   52.60140   93.36750   53.42990    8.09780  103.39520  120.34730  154.04920  -11.55080
 2965.00000   54.01830   94.77960   51.83520    8.09710  104.67120  121.08670  128.94500  -10.71290
 2965.50000   55.21530   96.19170   50.02310    8.09640   98.44410  104.46500  123.52510   -9.76780
 2966.00000   56.54890   98.25230   47.05840    8.09580   77.99250   87.26430  100.40440   -8.82270
 2966.50000   57.73580  100.47500   40.66550    8.09510   50.79360   71.98100   90.12780   -7.87750
 2967.00000   57.98340  101.31960   36.12100    8.09440   14.43290   35.01470   71.01110   -6.93240
 2967.50000   57.85580  101.67520   31.57650    8.09370    9.63420   13.07710   20.14670   -6.25310
 2968.00000   57.14660  101.36860   27.03200    8.09310    7.57930    8.45160   10.38980   -5.49990
 2968.50000   56.43730  101.16850   24.04660    8.09240    6.99840    7.62410    8.47290   -4.74670
 2969.00000   55.57530  100.68200   25.70060    8.09170    8.61780    9.93580   10.70520   -3.99620
 2969.50000   54.62510   99.04930   27.97650    8.09100   10.61410   12.06040   12.93750   -3.25610
 2970.00000   53.69540   97.41670   36.32940    8.09030   12.21590   18.33300   34.76870   -2.51600
 2970.50000   53.14770   95.78400   43.07390    8.08970   29.76520   34.26700   65.73740   -1.77600
 2971.00000   52.60010   94.15140   48.36610    8.08900   27.99410   29.94100   36.48110   -1.18390
 2971.50000   52.37240   93.72560   48.84480    8.08430   16.72210   50.24430   46.05740   -1.07270
 2972.00000   52.38960   93.70710   47.25510    8.07680  164.80330  249.53210  338.64870   -0.88720
 2972.50000   52.43690   93.47420   45.72110    8.06940   74.68760  140.04380  259.06930   -0.70180
 2973.00000   52.52930   93.08250   44.89280    8.06190   57.84910   72.75360   77.21880   -0.51640
 2973.50000   52.56210   93.13060   44.23740    8.05450   41.01060   48.72280   61.07230   -0.33090
 2974.00000   52.58840   93.47190   41.60090    8.04790   35.39720   46.56660   64.78400   -0.14550
 2974.50000   52.65080   93.81310   38.89100    8.04450   39.28750   58.79030   80.92450    0.03990
 2975.00000   52.74890   94.15430   37.66320    8.04120   49.52450   67.51960  106.43910    0.22540
 2975.50000   53.01840   94.33420   38.05830    8.03780   54.73050   71.01140  100.99280    0.41080
 2976.00000   53.23370   94.10390   38.67130    8.03450   61.00950   65.92890   97.34340    0.24950
 2976.50000   53.23370   93.87350   39.39320    8.03110   21.39440   41.28930   74.82880   -0.30750
 2977.00000   52.74960   93.65360   40.11510    8.02780   21.75500   24.45420   26.84510   -1.01370
 2977.50000   52.14030   93.01690   40.83700    8.02450   23.94160   26.55580   27.17660   -1.81940
 2978.00000   51.59460   92.41530   40.58440    8.02100   24.04410   26.22980   36.25790   -2.62500
 2978.50000   50.91400   91.81360   39.63620    8.01700   22.58540   25.68410   32.91600   -3.43070
 2979.00000   50.54030   91.21200   38.80380    8.01300   24.01410   29.03670   32.07190   -4.23640
 2979.50000   50.42080   90.61040   39.36440    8.00900   37.36340   61.79410  119.63160   -5.04200
 2980.00000   50.60370   90.00870   38.10090    8.00500  160.80840  177.34800  199.52380   -5.84770
 2980.50000   50.83210   89.40710   34.31750    8.00100  151.24020  170.93940  179.46940   -6.65340
 2981.00000   51.01470   89.14440   30.73150    7.99700  143.11700  149.35830  156.40470   -7.45900
 2981.50000   50.98470   88.88170   27.56330    7.99300  119.66180  127.89150  141.08400   -8.26470
 2982.00000   50.52910   88.61900   25.16460    7.98900   87.77380  102.70480  119.91780   -9.07040
 2982.50000   50.03450   88.35630   24.77370    7.98500   82.69490   86.17730   91.95180   -9.87600
 2983.00000   49.54000   88.09370   24.78550    7.98100   84.31830   87.05690   94.58020  -10.68170
 2983.50000   49.04540   87.83100   25.63530    7.97700   89.30980   95.83350  106.11040  -11.48740
 2984.00000   48.55090   87.33550   26.84470    7.97300   96.54670  105.94250  121.19090  -12.23770
 2984.50000   48.10410   86.49090   29.49270    7.96900  111.82960  118.76260  132.77090  -12.76680
 2985.00000   47.79980   85.64640   33.50740    7.96500  127.48850  132.85150  142.27760  -13.29590
 2985.50000   47.77830   85.04430   36.40840    7.96100  135.03300  153.20030  193.47100  -13.82490
 2986.00000   47.87530   84.80620   45.54460    7.95700  175.13060  327.46580  549.44930  -14.35400
 2986.50000   48.12850   84.56800   62.27200    7.95300  528.85490  632.56860  770.96970  -14.88310
 2987.00000   48.38170   84.97280   75.63580    7.94890  693.44110  842.33640  942.25350  -15.83240
 2987.50000   48.59330   85.80630   89.00030    7.94490  244.03920  493.33240  808.13480  -16.45750
 2988.00000   48.63900   86.63980   84.25400    7.94090  217.19320  225.27980  236.14220  -17.57600
 2988.50000   48.68470   87.47340   72.38040    7.93690  223.95710  236.61210  314.10010  -18.52200
 2989.00000   48.73030   87.96680   60.50670    7.93290  218.52820  242.48810  285.74880  -18.65750
 2989.50000   48.77600   87.92340   52.87470    7.92970  182.47590  194.88290  208.07130  -18.79300
