~Version ---------------------------------------------------
VERS.   2.0 : CWLS log ASCII Standard -VERSION 2.0
WRAP.    NO : One line per depth step
DLM . SPACE : Column Data Section Delimiter
~Well ------------------------------------------------------
STRT .FT                2150.0 : START DEPTH
STOP .FT                3176.0 : STOP DEPTH
STEP .FT                   0.5 : STEP
NULL .                -9999.25 : NULL VALUE
COMP .                         : COMPANY
WELL .                         : WELL
FLD  .                         : FIELD
LOC  .                         : LOCATION
PROV .                         : PROVINCE
CNTY .                         : COUNTY
STAT .                         : STATE
CTRY .                         : COUNTRY
SRVC .                         : SERVICE COMPANY
DATE .                         : DATE
UWI  .                         : UNIQUE WELL ID
API  .                         : API NUMBER
SLAT .WGS84 2.5974929084982037 : SURFACE LATITUDE
SLON .WGS84     5.748932829588 : SURFACE LONGITUDE
DATUM.F                    nan : DEPTH DATUM ELEV
~Curve Information -----------------------------------------
DEPT   .FT    : 
DTCO   .US/F  : DELTA-T COMPRESSIONAL
DTSM   .US/F  : DELTA-T SHEAR
GR_EDTC.GAPI  : GAMMA RAY
HCALR  .IN    : HRCC CALIPER CALIBRATED FROM RESISTIVITY LOG
RLA3   .OHMM  : APPARENT RESISTIVITY FROM COMPUTED FOCUSING MODE 3
RLA4   .OHMM  : APPARENT RESISTIVITY FROM COMPUTED FOCUSING MODE 4
RLA5   .OHMM  : APPARENT RESISTIVITY FROM COMPUTED FOCUSING MODE 5
SPR    .MV    : SPONTANEOUS POTENTIAL FROM RESISTIVITY LOG
~Params ----------------------------------------------------
~Other -----------------------------------------------------
~ASCII -----------------------------------------------------
# ...
 2230.00000   51.55060   93.64660   32.01890    8.10820   13.62060   17.69260   20.08750   21.39290
 2230.50000   51.30690   95.02550   30.87080    8.10780   17.97050   20.36370   34.96660   21.35020
 2231.00000   52.67770   98.06310   29.72260    8.10740   28.36670   32.14440   33.02730   21.30750
 2231.50000   54.96230  100.47830   29.13420    8.10700   28.71580   30.11520   33.84490   21.26480
 2232.00000   57.24700  102.47870   29.43560    8.10660   35.06340   41.89490   52.77520   21.22210
 2232.50000   59.53160  103.92350   34.72660    8.10620   35.49490   40.71640   41.66440   21.17940
 2233.00000   60.22860  104.34590   44.43800    8.10580   39.94820   46.38880   50.46170   21.13670
 2233.50000   60.18860  104.01240   54.14950    8.10540   22.71750   32.12640   42.69580   21.09400
 2234.00000   58.45490  103.67900   56.15870    8.10500    9.00240   10.69880   12.48750   21.05130
 2234.50000   56.72130  103.34550   50.35520    8.10460    9.45570   12.74820   13.66070   21.71220
 2235.00000   54.94760  103.19350   43.35210    8.10420   13.29590   16.58030   17.20400   22.37980
 2235.50000   55.20180  103.08690   36.34890    8.10380   16.55310   17.37690   17.80220   22.36980
 2236.00000   56.67260  102.98020   29.11520    8.10340   17.55760   19.21030   22.03740   22.36590
 2236.50000   58.14350  102.87350   29.03370    8.10300   22.03810   25.80290   27.42210   22.36590
 2237.00000   59.61440  102.76690   35.66430    8.10260   27.32390   33.76710   38.30410   22.17060
 2237.50000   60.36230  102.01210   43.70130    8.10220   23.14160   28.52430   33.53320   22.28780
 2238.00000   59.20720  100.78960   50.33190    8.11470   14.11770   14.88380   19.17590   22.36590
 2238.50000   57.30540   99.41150   50.53280    8.13050   11.36430   11.94340   13.64480   22.36590
 2239.00000   54.76390   98.47790   46.97790    8.14620   10.82330   11.32700   11.84310   22.36590
 2239.50000   53.36330   98.34470   43.42310    8.15570   10.95710   13.88740   16.54870   22.24360
 2240.00000   53.30730  101.48120   36.56840    8.16510   16.31710   20.36830   23.56230   21.74330
 2240.50000   54.76070  105.40190   24.76410    8.17690   22.67660   25.93320   27.03600   21.79200
 2241.00000   57.18790  109.32250   21.80040    8.18880   26.74620   31.28310   35.95800   21.84070
 2241.50000   60.58850  113.24320   29.02030    8.20060   34.52500   43.68720   48.35920   21.88940
 2242.00000   63.33360  117.16380   40.00430    8.21240   22.96520   32.70810   46.24680   21.93810
 2242.50000   65.09520  118.68580   50.98820    8.22420   12.25570   14.90480   23.14540   21.98680
 2243.00000   65.75950  118.37470   59.77540    8.23600   11.07920   13.32270   15.31720   22.03550
 2243.50000   65.73320  118.06350   59.77540    8.25660   12.44790   17.76630   20.81990   22.08410
 2244.00000   66.49090  118.03680   57.47910    8.27720   12.31720   13.30620   16.74550   22.13280
 2244.50000   68.27010  119.14820   50.01610    8.29780   12.04230   13.32410   14.14400   21.99480
 2245.00000   70.60410  126.53980   47.31800    8.31840   13.55840   14.75110   15.57640   21.54760
 2245.50000   72.96460  135.57860   50.05050    8.33900   16.20570   17.19060   17.96240   21.54760
 2246.00000   76.18710  145.32870   61.18560    8.35960   14.33010   17.00430   18.36750   21.54760
 2246.50000   77.67610  145.86220   70.52490    8.38020   10.61390   13.00460   14.68020   21.54760
 2247.00000   77.55610  144.52860   75.79920    8.39670    8.26460    9.72560   10.92240   21.54760
 2247.50000   75.41000  143.19490   77.25590    8.39670    6.57730    7.52780    8.72180   22.01030
 2248.00000   73.26400  134.39320   69.05900    8.39670    5.88290    6.52190    6.77720   22.04880
 2248.50000   71.11800  132.80960   60.86220    8.39670    6.47400    7.49220    9.21430   22.08740
 2249.00000   69.67030  131.89280   54.14950    8.39670    9.24310   11.56290   12.38830   22.12600
 2249.50000   70.39130  133.35240   53.33290    8.39670   10.27650   11.56580   12.14360   22.16450
 2250.00000   71.99360  136.75160   52.51630    8.39670   10.10330   12.31120   13.45060   22.20310
 2250.50000   74.67350  141.75620   52.58080    8.39040   12.48410   13.34520   13.60420   22.24170
 2251.00000   78.07190  149.16910   57.41260    8.38410   12.96020   13.31810   13.72710   22.28020
 2251.50000   81.47030  151.79100   63.52210    8.37790   11.01520   12.40210   13.23330   22.31880
 2252.00000   82.30840  152.64550   69.63160    8.37160    8.52140    9.95870   10.72350   22.35740
 2252.50000   81.43410  147.51680   75.74110    8.36530    7.37960    8.02870    8.44520   22.39590
 2253.00000   78.15160  138.17950   78.18490    8.35900    6.81130    7.24590    7.72890   22.43450
 2253.50000   72.25660  128.10950   73.99090    8.34070    6.31210    6.65190    6.82950   22.47310
 2254.00000   66.36160  114.46980   65.20040    8.31430    6.42540    6.72140    7.09930   22.51160
 2254.50000   60.46650  107.86550   55.61770    8.28790    7.08830    7.54860    7.83590   22.55020
 2255.00000   55.21420  103.24310   42.86670    8.26160    7.57180    9.08210   11.10790   22.58880
 2255.50000   53.17850   98.62070   30.11560    8.23520   11.96630   28.34400   49.83690   22.62730
 2256.00000   52.18720   94.13820   20.94650    8.20880   40.77560   73.49300   76.83750   22.66590
 2256.50000   52.43250   92.00800   19.11300    8.18250   36.53780   42.41530   56.16630   23.16920
 2257.00000   52.71200   91.42280   18.73630    8.15220   28.20290   31.07010   32.82990   23.16290
 2257.50000   52.67100   92.55430   18.09440    8.14790   23.81860   27.89200   29.47270   23.15650
 2258.00000   52.22970   93.68570   16.86660    8.14360   22.09340   24.88140   25.38600   23.15010
 2258.50000   52.31000   93.30280   16.70000    8.13930   23.66430   24.78040   27.69530   23.16920
 2259.00000   52.61900   93.01580   17.24090    8.13490   29.86170   33.49350   34.78270   23.16920
 2259.50000   52.89360   93.01330   17.78190    8.13060   26.91690   32.46170   33.45890   23.16920
 2260.00000   53.16830   93.30330   18.31980    8.12630   28.14570   30.43790   31.75790   23.16920
 2260.50000   53.57320   94.03160   18.85760    8.12190   28.67030   30.49930   39.08720   23.16920
 2261.00000   54.20600   94.76000   19.39550    8.11750   29.74060   32.42110   33.07770   23.16920
 2261.50000   54.86070   95.34270   21.82150    8.11320   19.08100   31.50910   33.48430   23.16920
 2262.00000   55.25350   95.60930   24.24740    8.10880   14.65340   17.73000   22.66920   23.16920
 2262.50000   54.76150   95.26870   26.67340    8.10440   12.58220   14.07060   15.59830   23.16920
 2263.00000   54.14650   94.92820   30.76500    8.10010   10.48730   10.75490   12.08320   23.16920
 2263.50000   53.35370   94.58760   34.08830    8.09570   10.65950   11.11090   12.00120   23.16920
 2264.00000   52.67550   94.85140   34.09310    8.09130   12.21630   13.14350   13.96930   23.16920
 2264.50000   52.13290   95.49920   30.52700    8.08700   14.72800   20.21590   35.22730   23.16920
 2265.00000   52.41380   96.30900   23.61530    8.08260   36.60420   40.28450   42.74990   22.84790
 2265.50000   53.61810   96.67100   21.23070    8.07820   26.21390   34.96850   37.53870   22.73490
 2266.00000   54.82230   98.60470   26.36710    8.07390   26.21390   32.55230   35.30420   22.69410
 2266.50000   56.02660  100.77180   31.50350    8.06950   38.43700   47.20160   56.61930   23.04640
 2267.00000   57.23090  102.47210   34.44780    8.06510   15.19080   29.66290   53.69830   23.16670
 2267.50000   57.63140  101.87200   37.39200    8.06080   11.04690   13.59210   14.21720   23.16350
 2268.00000   57.51810  102.56450   40.36910    8.05640   12.31330   13.84330   15.07730   22.83110
 2268.50000   57.42600  103.25690   40.20490    8.05200   14.88460   16.46320   18.03080   23.14480
 2269.00000   57.37400  103.67240   39.26180    8.04850   16.47950   18.71090   19.74920   23.13830
 2269.50000   56.75860  102.87260   38.97940    8.04830   14.34920   15.32670   17.27770   23.13170
