~Version ---------------------------------------------------
VERS.   2.0 : CWLS log ASCII Standard -VERSION 2.0
WRAP.    NO : One line per depth step
DLM . SPACE : Column Data Section Delimiter
~Well ------------------------------------------------------
STRT .FT                2150.0 : START DEPTH
STOP .FT                3176.0 : STOP DEPTH
STEP .FT                   0.5 : STEP
NULL .                -9999.25 : NULL VALUE
COMP .                         : COMPANY
WELL .                         : WELL
FLD  .                         : FIELD
LOC  .                         : LOCATION
PROV .                         : PROVINCE
CNTY .                         : COUNTY
STAT .                         : STATE
CTRY .                         : COUNTRY
SRVC .                         : SERVICE COMPANY
DATE .                         : DATE
UWI  .                         : UNIQUE WELL ID
API  .                         : API NUMBER
SLAT .WGS84 2.5974929084982037 : SURFACE LATITUDE
SLON .WGS84     5.748932829588 : SURFACE LONGITUDE
DATUM.F                    nan : DEPTH DATUM ELEV
~Curve Information -----------------------------------------
DEPT   .FT    : 
DTCO   .US/F  : DELTA-T COMPRESSIONAL
DTSM   .US/F  : DELTA-T SHEAR
GR_EDTC.GAPI  : GAMMA RAY
HCALR  .IN    : HRCC CALIPER CALIBRATED FROM RESISTIVITY LOG
RLA3   .OHMM  : APPARENT RESISTIVITY FROM COMPUTED FOCUSING MODE 3
RLA4   .OHMM  : APPARENT RESISTIVITY FROM COMPUTED FOCUSING MODE 4
RLA5   .OHMM  : APPARENT RESISTIVITY FROM COMPUTED FOCUSING MODE 5
SPR    .MV    : SPONTANEOUS POTENTIAL FROM RESISTIVITY LOG
~Params ----------------------------------------------------
~Other -----------------------------------------------------
~ASCII -----------------------------------------------------
# ...
 3030.00000   51.00160   90.40460   22.62590    7.83150   66.83900   87.54540  131.31020  -16.04600
 3030.50000   50.97690   90.52570   22.61500    7.82870   65.21710   67.25080   69.20660  -15.85470
 3031.00000   50.95220   90.62470   22.60410    7.82710   69.42510   71.61840   84.55870  -15.66340
 3031.50000   50.93300   90.62680   24.08930    7.82610   81.07110   89.19940   97.75110  -15.47200
 3032.00000   50.89820   90.62680   25.91940    7.82520   89.74900   95.43280  100.32730  -15.28070
 3032.50000   50.86350   90.52240   26.39530    7.82420   81.85210   89.19940   95.52050  -15.08930
 3033.00000   50.82870   90.21420   26.87110    7.82320   83.84650   89.74900   96.62660  -14.89800
 3033.50000   50.78050   89.90610   27.34700    7.82230   91.29690   98.40790  107.18470  -14.70660
 3034.00000   50.67490   89.59800   27.47660    7.82130   98.74730  109.23500  128.14390  -14.51530
 3034.50000   50.56930   89.54130   26.25430    7.82040   96.02000  107.38880  118.78850  -14.32390
 3035.00000   50.46360   89.65230   25.31660    7.81940   90.91350   97.69640  110.68710  -14.13260
 3035.50000   50.45010   89.76330   25.48400    7.81850   88.65390   96.26980  117.58770  -13.94130
 3036.00000   50.45970   89.10350   27.38330    7.81750   88.65390   94.59820  101.47560  -13.74990
 3036.50000   50.46920   88.44490   28.51130    7.81650   98.47460  102.62740  135.43450  -13.55860
 3037.00000   50.47870   88.66710   27.83320    7.81560  103.99910  113.20830  137.52000  -13.36720
 3037.50000   50.44650   89.03860   27.27560    7.81460   97.20700  106.77560  115.47680  -13.40450
 3038.00000   50.35160   88.60220   28.19030    7.81120   99.62350  112.35990  125.68600  -13.44180
 3038.50000   50.25680   88.36630   31.66900    7.80600  105.93260  116.15280  127.51600  -13.47910
 3039.00000   50.16190   88.48530   34.87580    7.80090   84.92390   97.68800  107.90210  -13.51630
 3039.50000   49.99450   88.61960   38.05240    7.79570   87.57830   92.26740  122.85930  -13.55360
 3040.00000   49.71820   88.53520   41.22890    7.79060  112.66860  127.76810  137.09760  -13.59090
 3040.50000   49.44190   87.79570   44.40540    7.78540   83.91880  101.91670  129.77030  -13.62820
 3041.00000   49.16560   86.88640   44.20360    7.78030   83.93220   89.24710  101.54920  -13.66550
 3041.50000   48.93890   85.85180   40.59080    7.77510   90.91720  107.82080  117.05270  -13.70280
 3042.00000   48.91030   84.20700   36.97800    7.77000  117.52130  145.43630  177.76640  -13.74000
 3042.50000   48.88180   82.47330   34.50900    7.76480  164.29950  192.88130  221.46590  -13.77730
 3043.00000   48.85320   84.20700   38.58780    7.75980  218.78810  255.07070  345.26990  -13.79760
 3043.50000   48.82460   86.16300   44.68090    7.75550  271.23990  426.44320  640.54460  -13.81360
 3044.00000   48.77960   86.67420   51.59230    7.75120  462.69550  621.20310  715.38700  -13.91640
 3044.50000   48.76460   86.34080   53.16480    7.74690  241.42430  279.74130  683.24910  -14.20800
 3045.00000   48.76460   86.00740   47.97970    7.74260  242.56090  266.73550  324.15860  -14.26180
 3045.50000   48.82090   85.80740   42.79280    7.73820  292.06900  331.47820  348.95650  -14.31560
 3046.00000   48.88460   86.77420   37.60580    7.73390  303.04590  330.79270  374.50450  -14.56690
 3046.50000   48.94640   87.14090   33.03220    7.72960  276.41740  300.81680  318.62480  -14.57660
 3047.00000   49.00820   86.44750   32.14810    7.72530  223.86130  265.05260  285.78300  -14.58620
 3047.50000   49.06990   86.07400   33.15270    7.72100  193.74360  196.07200  214.97200  -14.34710
 3048.00000   49.09470   86.56310   35.16200    7.71660  196.42260  217.14570  230.71180  -13.58390
 3048.50000   49.09470   87.27430   37.57310    7.71230  135.71240  186.63440  209.45410  -13.38310
 3049.00000   49.19670   87.27430   41.59160    7.70800  130.02260  166.70700  187.88230  -13.68440
 3049.50000   49.45170   87.78940   45.61010    7.69370  164.17580  237.59910  252.08310  -14.18650
 3050.00000   49.69400   88.30450   52.21100    7.89460  160.89110  245.61750  292.26850  -14.64830
 3050.50000   49.87540   88.81960   56.87140    7.97490  158.29360  163.82100  200.86990  -14.57150
 3051.00000   49.88940   89.18270   54.75820    7.97490  158.29360  162.59970  167.83100  -14.49480
 3051.50000   49.99390   89.31780   49.46070    7.97490  155.98460  157.65960  166.87980  -14.41800
 3052.00000   50.23400   89.45280   44.16310    7.97490  102.40480  109.18940  114.35960  -14.34120
 3052.50000   50.47420   89.50680   38.86560    7.97490  102.40680  110.48100  144.71420  -14.26440
 3053.00000   50.71430   89.07860   33.56810    7.97490  132.49780  229.59900  246.57710  -14.18760
 3053.50000   50.94530   88.55120   28.27050    7.97490  196.20320  210.38170  234.40180  -14.23330
 3054.00000   51.13950   88.93180   25.41300    7.97490  144.66970  153.27790  174.25540  -14.27890
 3054.50000   51.33370   89.89370   23.76760    7.97490  137.06210  145.60210  150.71370  -14.32460
 3055.00000   51.52790   90.70580   24.16090    7.97490  101.88380  124.76450  153.55910  -14.37020
 3055.50000   51.52550   90.27740   26.33660    7.97490   86.77460   97.03500  117.06510  -14.41590
 3056.00000   51.40590   89.42110   28.79100    7.97490   75.52610   80.89100   99.31200  -14.46150
 3056.50000   51.18670   88.82790   33.03470    7.97490   54.10850   59.36860   74.53580  -14.50720
 3057.00000   50.84990   88.62920   37.72570    7.97490   61.29100   76.70930  116.48350  -14.55280
 3057.50000   50.43460   88.62190   40.54450    7.97490   93.59460  115.32850  122.34190  -14.58150
 3058.00000   50.00060   88.81320   37.64730    7.97490   80.70940  102.14400  116.24080  -14.54230
 3058.50000   49.61900   89.00460   30.89310    7.97490   74.44340   75.41420   85.73500  -14.50320
 3059.00000   49.55620   89.19590   24.12640    7.97490   73.98260   75.06810   76.28660  -14.46400
 3059.50000   49.73660   89.38720   22.18870    7.97490   74.66650   81.96610  107.66140  -14.42490
 3060.00000   49.96270   89.57860   20.25100    7.97490  104.07410  128.28350  149.64360  -14.52770
 3060.50000   50.18880   89.76990   18.31330    7.97490  141.71130  163.31730  175.96790  -14.64180
 3061.00000   50.41490   89.80820   16.37560    7.97490  156.46210  168.11740  182.77620  -14.99100
 3061.50000   50.53490   89.80820   14.96910    7.97490   76.35560  132.47190  151.88570  -14.99600
 3062.00000   50.46420   89.86150   14.96910    7.97490   71.82550   77.98350   97.98950  -15.48670
 3062.50000   50.26060   90.07480   15.66830    7.97490   79.75340   83.57170   93.47360  -15.51110
 3063.00000   50.05700   90.07480   16.91410    7.97490   75.26170  107.17990  121.82620  -15.53550
 3063.50000   49.93480   90.20830   18.15980    7.97490   63.59410   70.85590   93.32570  -15.79450
 3064.00000   49.93480   90.44160   19.40560    7.97490   63.76800   66.75240   73.45940  -15.79510
 3064.50000   50.05480   90.40820   20.65130    7.97490   63.62530   67.70760   71.71940  -15.79560
 3065.00000   50.40230   90.07480   23.67730    7.97490   66.66790   73.17150   90.15210  -15.79620
 3065.50000   50.74970   90.20820   29.37380    7.97490   73.09590  103.91250  126.60340  -15.79680
 3066.00000   51.09720   90.87510   35.68420    7.97490   77.50360  152.75140  175.51200  -15.79730
 3066.50000   51.40510   91.37040   43.29990    7.97490  108.02690  172.58200  189.94270  -15.79790
 3067.00000   51.79090   91.67510   43.50080    7.97490   66.58080   86.98940  141.53230  -15.79850
 3067.50000   52.04280   91.30180   40.51480    7.97490   63.35050   67.67640   74.76800  -15.79900
 3068.00000   51.85790   91.12400   36.64020    7.97490   53.55790   64.49660   69.20130  -15.79960
 3068.50000   51.48970   90.94610   34.70990    7.97490   53.04680   59.00920   66.25320  -15.80020
 3069.00000   51.08060   90.87500   35.85720    7.97490   64.18690   70.75670   82.27000  -15.80070
 3069.50000   50.50790   90.34160   37.62060    7.97490   58.31410   77.60760   85.16020  -15.80130
