~Version ---------------------------------------------------
VERS.   2.0 : CWLS log ASCII Standard -VERSION 2.0
WRAP.    NO : One line per depth step
DLM . SPACE : Column Data Section Delimiter
~Well ------------------------------------------------------
STRT .FT                144.0 : START DEPTH
STOP .FT              12340.0 : STOP DEPTH
STEP .FT                  0.5 : STEP
NULL .               -9999.25 : NULL VALUE
COMP .                        : COMPANY
WELL .                        : WELL
FLD  .                        : FIELD
LOC  .                        : LOCATION
PROV .                        : PROVINCE
CNTY .                        : COUNTY
STAT .                        : STATE
CTRY .                        : COUNTRY
SRVC .                        : SERVICE COMPANY
DATE .                        : DATE
UWI  .                        : UNIQUE WELL ID
API  .                        : API NUMBER
SLAT .WGS84 2.285069702591997 : SURFACE LATITUDE
SLON .WGS84 8.141602013994003 : SURFACE LONGITUDE
DATUM.F                   nan : DEPTH DATUM ELEV
~Curve Information -----------------------------------------
DEPT   .FT    : 
DPHZ_LS.DEC   : HGRD STANDARD RESOLUTION DENSITY POROSITY
DTSM   .US/F  : DELTA-T SHEAR
HCALD  .IN    : HRCC CALIPER CALIBRATED FROM DENSITY LOG
HSGRD  .GAPI  : HNGS STANDARD GAMMA RAY FROM DENSITY LOG
PEFZ   .B/E   : HRDD STANDARD RESOLUTION FORMATION PHOTOELECTRIC FACTOR
RHOZ   .G/C3  : HRDD STANDARD RESOLUTION FORMATION DENSITY
RLA1   .OHMM  : APPARENT RESISTIVITY FROM COMPUTED FOCUSING MODE 1
RLA4   .OHMM  : APPARENT RESISTIVITY FROM COMPUTED FOCUSING MODE 4
RLA5   .OHMM  : APPARENT RESISTIVITY FROM COMPUTED FOCUSING MODE 5
TNPH_LS.DEC   : THERMAL NEUTRON POROSITY [LIMESTONE]
~Params ----------------------------------------------------
~Other -----------------------------------------------------
~ASCII -----------------------------------------------------
# ...
 7073.00000    0.22080  140.68210    9.44880   53.90520    2.25540    2.36280    2.51680    2.31470    2.18940    0.19170
 7073.50000    0.21430  140.14400    9.44830   58.28850    2.25310    2.37070    2.94330    2.72040    2.60520    0.18510
 7074.00000    0.20850  139.19380    9.44250   57.27230    2.26250    2.37260    2.61510    2.37980    2.30510    0.18100
 7074.50000    0.20960  139.01580    9.46350   55.45610    2.25470    2.36840    2.60960    2.36450    2.32830    0.19410
 7075.00000    0.21240  139.08080    9.47790   53.18900    2.25650    2.36360    2.65860    2.38240    2.33310    0.18840
 7075.50000    0.21630  139.45320    9.50310   52.62670    2.25830    2.35990    2.42340    2.26630    2.21940    0.19510
 7076.00000    0.21810  139.87180    9.53340   53.00200    2.25720    2.35940    2.25030    2.10830    2.05150    0.21010
 7076.50000    0.21740  140.68610    9.56370   51.05730    2.25160    2.36050    1.94750    1.86410    1.74650    0.22450
 7077.00000    0.21760  142.11290    9.60010   50.76260    2.25270    2.36050    1.71190    1.62000    1.50000    0.22450
 7077.50000    0.21780  143.41410    9.64620   48.42340    2.25830    2.35610    1.47620    1.37580    1.29260    0.22290
 7078.00000    0.22300  144.70030    9.68380   47.22270    2.26610    2.34710    1.86040    1.50880    1.31680    0.22090
 7078.50000    0.23060  145.32760    9.67890   44.98480    2.28490    2.33120    2.19950    2.09470    1.93190    0.21440
 7079.00000    0.23830  146.10000    9.67400   45.40710    2.26680    2.32160    2.11950    2.13660    1.98230    0.20850
 7079.50000    0.24050  146.02310    9.66910   47.15340    2.26250    2.32770    1.79360    1.70290    1.61870    0.20780
 7080.00000    0.22910  145.31990    9.66690   48.87960    2.28570    2.34510    1.42280    1.34920    1.32130    0.20480
 7080.50000    0.22400  143.72890    9.66540   50.60060    2.29960    2.35480    1.42950    1.32940    1.28490    0.20700
 7081.00000    0.21890  142.61250    9.64470   52.30370    2.29960    2.36100    1.63160    1.38300    1.30490    0.20090
 7081.50000    0.21330  141.33160    9.60910   56.05520    2.29960    2.38040    2.12750    1.87830    1.63810    0.21420
 7082.00000    0.19590  140.96990    9.57340   58.89150    2.30330    2.40920    2.62350    2.33200    2.13210    0.21340
 7082.50000    0.18070  138.64220    9.48070   60.69640    2.32840    2.42630    2.78650    2.59140    2.43600    0.19780
 7083.00000    0.17360  137.41760    9.33880   60.83060    2.36530    2.43000    2.71010    2.38700    2.18980    0.18030
 7083.50000    0.17560  134.98010    9.29470   59.13710    2.37850    2.42400    2.85190    2.56590    2.46630    0.16590
 7084.00000    0.18040  133.94300    9.29940   57.44450    2.37910    2.41740    2.81250    2.51560    2.30750    0.16090
 7084.50000    0.18330  133.04970    9.30410   55.51170    2.37980    2.41200    2.58730    2.23410    2.08720    0.15760
 7085.00000    0.18680  133.55850    9.30890   57.45980    2.39390    2.40810    2.85170    2.47910    2.35950    0.16950
 7085.50000    0.18780  135.88960    9.30980   60.99580    2.41710    2.40350    3.07140    2.74490    2.63170    0.17460
 7086.00000    0.19170  136.81650    9.32380   63.03790    2.41550    2.39930    3.28810    3.09650    2.76440    0.17790
 7086.50000    0.19350  137.80330    9.34080   63.64750    2.42010    2.39560    3.43280    3.18950    2.83840    0.17960
 7087.00000    0.19620  138.99100    9.38290   60.20910    2.39310    2.39000    2.57810    2.13490    1.95580    0.20330
 7087.50000    0.19830  140.30930    9.45040   56.48380    2.36600    2.37940    1.66590    1.30980    1.24960    0.22010
 7088.00000    0.20830  140.92480    9.50920   52.35340    2.36590    2.35900    1.49040    1.36780    1.31020    0.22800
 7088.50000    0.22440  143.19300    9.56010   49.57290    2.37370    2.34130    1.57560    1.51290    1.44220    0.22530
 7089.00000    0.23430  144.70010    9.55380   47.43630    2.37990    2.33000    1.65800    1.51920    1.43170    0.21740
 7089.50000    0.23790  146.28510    9.55130   47.69000    2.35340    2.32520    1.66570    1.59620    1.55620    0.21780
 7090.00000    0.23990  147.32290    9.55130   45.87420    2.28520    2.32120    1.61250    1.51920    1.41840    0.22310
 7090.50000    0.24140  147.91800    9.55130   48.20650    2.21930    2.31850    1.94810    1.76670    1.61190    0.23420
 7091.00000    0.23940  148.51310    9.55130   47.52940    2.17430    2.32340    2.31460    2.12860    2.02940    0.23240
 7091.50000    0.23660  148.84170    9.55460   47.54060    2.15470    2.32980    2.24060    2.12600    1.87200    0.21860
 7092.00000    0.23670  149.58950    9.53370   47.68530    2.15450    2.32720    1.90910    1.59570    1.47050    0.20600
 7092.50000    0.23740  150.33730    9.50330   48.66140    2.18970    2.31990    1.35810    1.27750    1.14580    0.20480
 7093.00000    0.24580  150.79920    9.39980   48.97880    2.24690    2.29950    1.95990    1.64470    1.51820    0.21780
 7093.50000    0.25740  151.20330    9.27330   50.07280    2.30420    2.28250    2.39020    2.31180    2.26400    0.22680
 7094.00000    0.27000  151.69090    9.20550   51.66890    2.37810    2.27370    2.36800    2.33470    2.28640    0.23160
 7094.50000    0.26890  149.67180    8.99530   54.60070    2.47630    2.29360    2.40490    2.34610    2.29760    0.22360
 7095.00000    0.24370  148.45940    8.77570   55.70840    2.51970    2.33760    2.64630    2.62180    2.47420    0.20780
 7095.50000    0.21900  146.99150    8.81580   52.48150    2.51670    2.37250    2.46380    2.37980    2.21910    0.19250
 7096.00000    0.20170  145.79030    9.11900   48.71100    2.45840    2.38450    2.23940    2.18470    2.09870    0.17880
 7096.50000    0.20170  144.06570    9.23350   45.53760    2.39500    2.38840    2.07660    1.89990    1.74730    0.18870
 7097.00000    0.19540  143.16520    9.27970   44.47720    2.37390    2.38760    1.98500    1.70610    1.49850    0.19510
 7097.50000    0.20360  141.68570    9.28430   45.30290    2.37170    2.37240    1.96650    1.83360    1.74870    0.20040
 7098.00000    0.21360  141.43250    9.30240   49.20560    2.36950    2.35730    2.18280    1.93390    1.93510    0.20790
 7098.50000    0.22260  139.39860    9.29560   52.57910    2.36720    2.35200    2.42220    2.32190    2.19380    0.20280
 7099.00000    0.21150  139.40420    9.29110   54.97410    2.36500    2.37860    2.39970    2.16550    2.06930    0.19360
 7099.50000    0.19520  139.48770    9.28670   53.81410    2.36280    2.40240    1.99360    1.92410    1.77550    0.18270
 7100.00000    0.18780  139.75180    9.27080   51.74870    2.36050    2.40810    1.90030    1.80420    1.75910    0.18280
 7100.50000    0.19480  139.91280    9.26840   49.56300    2.35830    2.38940    1.81710    1.55560    1.46600    0.18890
 7101.00000    0.20880  139.97970    9.27690   49.60030    2.32160    2.36660    2.10530    1.84490    1.59700    0.19910
 7101.50000    0.22050  138.71120    9.25870   49.63010    2.28720    2.35300    2.45560    2.25360    2.11070    0.20900
 7102.00000    0.22290  137.68070    9.24430   49.16060    2.28250    2.35500    2.47850    2.24250    2.06310    0.20170
 7102.50000    0.21620  136.78480    9.23680   48.22160    2.31070    2.38500    2.30140    1.98500    1.85760    0.19140
 7103.00000    0.18720  132.80600    9.22930   51.23970    2.35990    2.43370    2.17690    2.01150    1.95730    0.17860
 7103.50000    0.15430  131.00750    9.16040   58.08080    2.42760    2.49620    3.05300    2.87110    2.81170    0.16450
 7104.00000    0.12150  130.35000    9.08330   68.67770    2.46860    2.52630    3.25760    2.97210    2.91070    0.15040
 7104.50000    0.11300  129.45010    9.08600   69.95200    2.50960    2.53080    3.55740    3.32990    3.22260    0.13630
 7105.00000    0.12450  127.06390    9.08490   70.08610    2.55070    2.50940    3.26840    3.11300    2.93110    0.13670
 7105.50000    0.14100  126.04770    9.08040   66.75500    2.52880    2.47350    2.90710    2.60090    2.56670    0.14760
