~Version ---------------------------------------------------
VERS.   2.0 : CWLS log ASCII Standard -VERSION 2.0
WRAP.    NO : One line per depth step
DLM . SPACE : Column Data Section Delimiter
~Well ------------------------------------------------------
STRT .FT                144.0 : START DEPTH
STOP .FT              12340.0 : STOP DEPTH
STEP .FT                  0.5 : STEP
NULL .               -9999.25 : NULL VALUE
COMP .                        : COMPANY
WELL .                        : WELL
FLD  .                        : FIELD
LOC  .                        : LOCATION
PROV .                        : PROVINCE
CNTY .                        : COUNTY
STAT .                        : STATE
CTRY .                        : COUNTRY
SRVC .                        : SERVICE COMPANY
DATE .                        : DATE
UWI  .                        : UNIQUE WELL ID
API  .                        : API NUMBER
SLAT .WGS84 2.285069702591997 : SURFACE LATITUDE
SLON .WGS84 8.141602013994003 : SURFACE LONGITUDE
DATUM.F                   nan : DEPTH DATUM ELEV
~Curve Information -----------------------------------------
DEPT   .FT    : 
DPHZ_LS.DEC   : HGRD STANDARD RESOLUTION DENSITY POROSITY
DTSM   .US/F  : DELTA-T SHEAR
HCALD  .IN    : HRCC CALIPER CALIBRATED FROM DENSITY LOG
HSGRD  .GAPI  : HNGS STANDARD GAMMA RAY FROM DENSITY LOG
PEFZ   .B/E   : HRDD STANDARD RESOLUTION FORMATION PHOTOELECTRIC FACTOR
RHOZ   .G/C3  : HRDD STANDARD RESOLUTION FORMATION DENSITY
RLA1   .OHMM  : APPARENT RESISTIVITY FROM COMPUTED FOCUSING MODE 1
RLA4   .OHMM  : APPARENT RESISTIVITY FROM COMPUTED FOCUSING MODE 4
RLA5   .OHMM  : APPARENT RESISTIVITY FROM COMPUTED FOCUSING MODE 5
TNPH_LS.DEC   : THERMAL NEUTRON POROSITY [LIMESTONE]
~Params ----------------------------------------------------
~Other -----------------------------------------------------
~ASCII -----------------------------------------------------
# ...
 5160.00000   -9999.25   -9999.25   -9999.25   11.88800   -9999.25   -9999.25   -9999.25   -9999.25   -9999.25    0.03000
 5160.50000   -9999.25   -9999.25   -9999.25   11.48090   -9999.25   -9999.25   -9999.25   -9999.25   -9999.25    0.02740
 5161.00000   -9999.25   -9999.25   -9999.25   11.06430   -9999.25   -9999.25   -9999.25   -9999.25   -9999.25    0.02700
 5161.50000   -9999.25   -9999.25   -9999.25   10.76150   -9999.25   -9999.25   -9999.25   -9999.25   -9999.25    0.02710
 5162.00000   -9999.25   -9999.25   -9999.25    9.94970   -9999.25   -9999.25   -9999.25   -9999.25   -9999.25    0.02730
 5162.50000   -9999.25   -9999.25   -9999.25   10.38710   -9999.25   -9999.25   -9999.25   -9999.25   -9999.25    0.02760
 5163.00000   -9999.25   -9999.25   -9999.25   11.66390   -9999.25   -9999.25   -9999.25   -9999.25   -9999.25    0.02940
 5163.50000   -9999.25   -9999.25   -9999.25   11.88430   -9999.25   -9999.25   -9999.25   -9999.25   -9999.25    0.03230
 5164.00000   -9999.25   -9999.25   -9999.25   12.70820   -9999.25   -9999.25   -9999.25   -9999.25   -9999.25    0.03410
 5164.50000   -9999.25   -9999.25   -9999.25   12.94270   -9999.25   -9999.25   -9999.25   -9999.25   -9999.25    0.03580
 5165.00000   -9999.25   -9999.25   -9999.25   13.49090   -9999.25   -9999.25   -9999.25   -9999.25   -9999.25    0.03750
 5165.50000   -9999.25   -9999.25   -9999.25   12.33820   -9999.25   -9999.25   -9999.25   -9999.25   -9999.25    0.03850
 5166.00000   -9999.25   -9999.25   -9999.25   12.59360   -9999.25   -9999.25   -9999.25   -9999.25   -9999.25    0.03990
 5166.50000   -9999.25   -9999.25   -9999.25   13.07770   -9999.25   -9999.25   -9999.25   -9999.25   -9999.25    0.03970
 5167.00000   -9999.25   -9999.25   -9999.25   13.90470   -9999.25   -9999.25   -9999.25   -9999.25   -9999.25    0.03930
 5167.50000   -9999.25   -9999.25   -9999.25   14.11580   -9999.25   -9999.25   -9999.25   -9999.25   -9999.25    0.03850
 5168.00000   -9999.25   -9999.25   -9999.25   14.88740   -9999.25   -9999.25   -9999.25   -9999.25   -9999.25    0.03990
 5168.50000   -9999.25   -9999.25   -9999.25   14.88490   -9999.25   -9999.25   -9999.25   -9999.25   -9999.25    0.04270
 5169.00000   -9999.25   -9999.25   -9999.25   14.73700   -9999.25   -9999.25   -9999.25   -9999.25   -9999.25    0.04270
 5169.50000   -9999.25   -9999.25   -9999.25   14.17800   -9999.25   -9999.25   -9999.25   -9999.25   -9999.25    0.04240
 5170.00000   -9999.25   -9999.25   -9999.25   14.06490   -9999.25   -9999.25   -9999.25   -9999.25   -9999.25    0.04200
 5170.50000   -9999.25   -9999.25   -9999.25   13.28060   -9999.25   -9999.25   -9999.25   -9999.25   -9999.25    0.04130
 5171.00000   -9999.25   -9999.25   -9999.25   12.36170   -9999.25   -9999.25   -9999.25   -9999.25   -9999.25    0.03900
 5171.50000   -9999.25   -9999.25   -9999.25   11.14250   -9999.25   -9999.25   -9999.25   -9999.25   -9999.25    0.03570
 5172.00000   -9999.25   -9999.25   -9999.25   11.37040   -9999.25   -9999.25   -9999.25   -9999.25   -9999.25    0.03650
 5172.50000   -9999.25   -9999.25   -9999.25   12.28320   -9999.25   -9999.25   -9999.25   -9999.25   -9999.25    0.03760
 5173.00000   -9999.25   -9999.25   -9999.25   13.77260   -9999.25   -9999.25   -9999.25   -9999.25   -9999.25    0.03860
 5173.50000   -9999.25   -9999.25   -9999.25   14.29780   -9999.25   -9999.25   -9999.25   -9999.25   -9999.25    0.03970
 5174.00000   -9999.25   -9999.25   -9999.25   14.12790   -9999.25   -9999.25   -9999.25   -9999.25   -9999.25    0.04110
 5174.50000   -9999.25   -9999.25   -9999.25   12.96770   -9999.25   -9999.25   -9999.25   -9999.25   -9999.25    0.04090
 5175.00000   -9999.25   -9999.25   -9999.25   12.78310   -9999.25   -9999.25   -9999.25   -9999.25   -9999.25    0.04000
 5175.50000   -9999.25   -9999.25   -9999.25   12.87720   -9999.25   -9999.25   -9999.25   -9999.25   -9999.25    0.03950
 5176.00000   -9999.25   -9999.25   -9999.25   12.87720   -9999.25   -9999.25   -9999.25   -9999.25   -9999.25    0.04130
 5176.50000   -9999.25   -9999.25   -9999.25   12.87720   -9999.25   -9999.25   -9999.25   -9999.25   -9999.25    0.03730
 5177.00000   -0.00180   91.95210    8.85150   12.48250    9.99800   -9999.25   -9999.25   -9999.25   -9999.25    0.04660
 5177.50000   -0.00150   91.80140    8.85710   11.90330   10.00470    2.35130   -9999.25   -9999.25   -9999.25    0.04600
 5178.00000   -0.00120   92.16740    8.86270   11.39320   10.00470    2.35230   -9999.25   -9999.25   -9999.25    0.04350
 5178.50000   -0.00080   92.98690    8.89510   10.52840    9.89090    2.35380   -9999.25   -9999.25   -9999.25    0.04410
 5179.00000   -0.00050   93.45040    8.95060   10.72480    8.75000    2.78400   -9999.25   -9999.25   -9999.25    0.04680
 5179.50000   -0.00020   93.84080    9.13650   11.75610    7.13990    2.99670   -9999.25   -9999.25   -9999.25    0.05490
 5180.00000    0.01210   94.15100    9.32230   14.11210    5.84100    2.87430    6.09590    3.63610    5.34310    0.04780
 5180.50000    0.03620   94.46360    9.47250   15.09150    5.09740    2.67100    9.78080    7.05810    5.51050    0.03500
 5181.00000    0.04880   95.68130    9.67590   15.69610    5.06870    2.64780   73.44470   67.48320   12.28700    0.02430
 5181.50000    0.01540   97.86110    9.80210   15.38580    5.12890    2.68380  137.75740  165.34630  191.63140    0.01550
 5182.00000    0.01840   95.13720    9.88890   16.12620    5.19800    2.67930  142.31130  850.50900  650.37350    0.01270
 5182.50000    0.01290   91.88370    9.98480   15.67770    5.21060    2.69420  138.85920 1682.49670 2018.00160    0.01000
 5183.00000    0.00330   94.84930   10.00470   14.88670    5.21330    2.71020  132.14360 7318.45160 6344.08260    0.00790
 5183.50000   -0.00480   90.93900   10.00130   13.97050    5.23290    2.72240  123.47330 16936.81930 12748.84100    0.00710
 5184.00000   -0.01540   88.68660   10.03170   14.30780    5.24080    2.74190  107.94450 46008.23050 21480.04160    0.00760
 5184.50000   -0.02530   93.50940   10.09590   13.69110    5.24200    2.74410   89.68840 75359.57190 24682.96290    0.00770
 5185.00000   -0.01720   88.68660   10.16010   12.78170    5.22400    2.73340   73.86420 34600.51540 22799.84810    0.00610
 5185.50000   -0.01070   95.97100   10.25330   11.71790    5.20600    2.71420   60.24250 47929.94120 21646.95630    0.00610
 5186.00000   -0.00250   95.96340   10.86910   11.47330    5.18800    2.73670   58.05050 71704.27910 22383.68130    0.00700
 5186.50000   -0.04210   95.62300   11.33860   10.92860    5.14240    2.79780   54.91130 65967.15740 19547.69160    0.00790
 5187.00000   -0.09640   94.39170   11.47650   11.48280    5.09170    2.85610   49.85510 16281.03070 18321.55090    0.00950
 5187.50000   -0.10030   94.31630   11.72450   11.33770    5.14150    2.91380   42.00640 17265.01000 13768.16820    0.01010
 5188.00000   -0.10030   94.17450   11.72480   12.04820    5.21260    2.94330   41.11530 26127.68640 18292.94380    0.01010
 5188.50000   -0.10040   94.34630   11.74930   11.74740    5.26940    2.93450   39.37610 46930.57270 33763.18940    0.01030
 5189.00000   -0.10040   94.61460   11.77990   11.28560    5.26200    2.93640   37.31290 58051.11760 54096.68980    0.01110
 5189.50000   -0.10040   93.05730   11.81050    9.70990    5.25300    2.95520   34.16300 60094.24010 83361.48230    0.01170
 5190.00000   -0.10040   93.05730   11.81910    9.61200    5.26750    2.95480   35.01490 58128.77910 54769.50770    0.01210
 5190.50000   -0.10040  101.02910   11.80490    9.41830    5.32200    2.94750   36.56230 57968.90220 54264.36090    0.01360
 5191.00000   -0.10040  113.01820   11.79470    9.41830    5.37660    2.94280   36.78860 85394.24400 63175.57230    0.01490
 5191.50000   -0.10040  112.21440   11.80240    8.73540    5.41550    2.93820   36.78860 97163.86930 64799.52680    0.01630
 5192.00000   -0.10040  111.53390   11.81020    8.94230    5.42920    2.93350   36.25810 89764.12470 64957.28230    0.01820
 5192.50000   -0.10040  111.08110   11.81480    9.27350    5.43530    2.92890   35.86340 95690.70990 61254.02220    0.01650
