~Version ---------------------------------------------------
VERS.   2.0 : CWLS log ASCII Standard -VERSION 2.0
WRAP.    NO : One line per depth step
DLM . SPACE : Column Data Section Delimiter
~Well ------------------------------------------------------
STRT .FT                144.0 : START DEPTH
STOP .FT              12340.0 : STOP DEPTH
STEP .FT                  0.5 : STEP
NULL .               -9999.25 : NULL VALUE
COMP .                        : COMPANY
WELL .                        : WELL
FLD  .                        : FIELD
LOC  .                        : LOCATION
PROV .                        : PROVINCE
CNTY .                        : COUNTY
STAT .                        : STATE
CTRY .                        : COUNTRY
SRVC .                        : SERVICE COMPANY
DATE .                        : DATE
UWI  .                        : UNIQUE WELL ID
API  .                        : API NUMBER
SLAT .WGS84 2.285069702591997 : SURFACE LATITUDE
SLON .WGS84 8.141602013994003 : SURFACE LONGITUDE
DATUM.F                   nan : DEPTH DATUM ELEV
~Curve Information -----------------------------------------
DEPT   .FT    : 
DPHZ_LS.DEC   : HGRD STANDARD RESOLUTION DENSITY POROSITY
DTSM   .US/F  : DELTA-T SHEAR
HCALD  .IN    : HRCC CALIPER CALIBRATED FROM DENSITY LOG
HSGRD  .GAPI  : HNGS STANDARD GAMMA RAY FROM DENSITY LOG
PEFZ   .B/E   : HRDD STANDARD RESOLUTION FORMATION PHOTOELECTRIC FACTOR
RHOZ   .G/C3  : HRDD STANDARD RESOLUTION FORMATION DENSITY
RLA1   .OHMM  : APPARENT RESISTIVITY FROM COMPUTED FOCUSING MODE 1
RLA4   .OHMM  : APPARENT RESISTIVITY FROM COMPUTED FOCUSING MODE 4
RLA5   .OHMM  : APPARENT RESISTIVITY FROM COMPUTED FOCUSING MODE 5
TNPH_LS.DEC   : THERMAL NEUTRON POROSITY [LIMESTONE]
~Params ----------------------------------------------------
~Other -----------------------------------------------------
~ASCII -----------------------------------------------------
# ...
 5621.00000    0.22860  146.17340    9.73170   42.93250    2.48760    2.34160    1.90630    1.88450    1.53700    0.20440
 5621.50000    0.22890  147.18260    9.77890   43.36940    2.44120    2.34270    1.94190    1.65530    1.50880    0.19990
 5622.00000    0.22660  147.60400    9.77940   43.49750    2.40570    2.34080    2.37700    2.28770    1.79370    0.20010
 5622.50000    0.22990  146.82910    9.74560   45.11940    2.37030    2.33180    3.32380    2.79360    2.55690    0.18770
 5623.00000    0.23470  146.22240    9.74350   46.85620    2.33580    2.32820    3.19540    2.73890    2.52720    0.19460
 5623.50000    0.23470  145.15820    9.74140   51.39440    2.29280    2.34280    2.83810    2.59400    2.26700    0.20400
 5624.00000    0.22470  143.52840    9.72550   51.61590    2.28520    2.36190    2.87910    2.63270    2.34940    0.20300
 5624.50000    0.21180  141.94020    9.65440   51.64220    2.30830    2.37630    3.25550    2.78320    2.67170    0.19810
 5625.00000    0.20500  140.76440    9.57790   51.66850    2.31710    2.38470    3.32380    2.90620    2.68000    0.19300
 5625.50000    0.19880  140.17870    9.54680   52.79450    2.33920    2.39510    3.26490    2.82130    2.64710    0.18540
 5626.00000    0.19380  137.48810    9.49840   55.05920    2.38060    2.40510    3.16560    2.72720    2.60650    0.17780
 5626.50000    0.18960  135.96230    9.45010   57.45780    2.43480    2.39860    3.10730    2.68830    2.56660    0.17320
 5627.00000    0.19260  134.31740    9.41580   54.61780    2.48570    2.40170    3.31370    2.76400    2.51940    0.17280
 5627.50000    0.19140  134.59990    9.31810   49.48110    2.49110    2.40290    4.44360    3.96770    3.57020    0.17340
 5628.00000    0.19290  134.69170    9.29270   45.03590    2.48520    2.39110    4.81510    3.98740    3.71550    0.17430
 5628.50000    0.20070  135.00330    9.25870   44.65780    2.47940    2.37930    4.02340    3.44710    3.21860    0.17500
 5629.00000    0.20700  135.75920    9.22460   44.49420    2.47350    2.37220    3.64920    3.03840    2.91310    0.17720
 5629.50000    0.21080  136.67760    9.17730   45.28310    2.46770    2.35980    3.84960    3.20810    3.03840    0.17970
 5630.00000    0.21510  137.63690    9.11540   46.26960    2.48130    2.32620    4.09760    3.28840    3.23560    0.18320
 5630.50000    0.23230  138.36510    8.96170   47.25610    2.53320    2.31980    3.88980    3.27220    3.12750    0.19200
 5631.00000    0.24100  138.13740    8.76700   49.40740    2.58280    2.32250    4.03180    3.43790    3.26880    0.20210
 5631.50000    0.23730  137.04410    8.64140   51.29050    2.59080    2.33920    4.11330    3.52400    3.45240    0.20300
 5632.00000    0.22740  136.74200    8.65190   52.82280    2.54570    2.35590    4.05650    3.59430    3.32680    0.19050
 5632.50000    0.21440  136.34460    8.54120   53.15810    2.48290    2.38630    4.47110    3.70250    3.52650    0.17900
 5633.00000    0.20050  134.97250    8.73550   51.11250    2.43210    2.40780    4.58340    3.93430    3.71810    0.17070
 5633.50000    0.18130  133.40860    8.94760   49.28150    2.41700    2.42060    4.77940    4.02700    3.81110    0.16430
 5634.00000    0.17910  132.29850    9.08960   49.06690    2.40200    2.42300    4.66910    3.92870    3.71610    0.16090
 5634.50000    0.17790  131.33370    9.12390   50.64970    2.39000    2.43270    4.58050    3.72560    3.51700    0.15740
 5635.00000    0.17360  131.42310    9.12100   52.21920    2.39860    2.44470    4.63030    3.68420    3.56070    0.15380
 5635.50000    0.16390  131.71250    9.10090   51.95090    2.39150    2.45190    4.14310    3.64110    3.29110    0.15030
 5636.00000    0.16050  132.00200    9.09380   50.47540    2.39840    2.44660    4.14880    3.37070    3.18600    0.14960
 5636.50000    0.16880  132.29450    9.06110   50.00590    2.42010    2.42680    4.19470    3.52400    3.25320    0.15060
 5637.00000    0.18230  132.38600    9.05190   50.40830    2.40000    2.40010    4.10910    3.33890    3.09630    0.15990
 5637.50000    0.19680  131.81220    9.04980   51.51010    2.34370    2.37340    3.72140    3.04180    2.80710    0.17310
 5638.00000    0.21040  131.09390    9.04770   54.70070    2.35210    2.36810    3.69790    3.00440    2.78120    0.18380
 5638.50000    0.20960  130.46700    9.04560   59.73090    2.42350    2.39200    3.81260    3.07960    2.86840    0.18140
 5639.00000    0.18990  129.69740    9.04520   64.64370    2.52470    2.43180    4.97300    4.11100    3.52820    0.16680
 5639.50000    0.16040  127.37160    9.04810   67.30970    2.63030    2.46040    6.04300    5.20630    4.71390    0.15260
 5640.00000    0.14500  125.68590    9.05100   67.30970    2.67750    2.47420    6.15520    5.17430    4.97060    0.14590
 5640.50000    0.14540  123.56400    9.04860   63.96620    2.61340    2.47460    5.09040    4.73300    4.32560    0.14360
 5641.00000    0.14720  121.26150    9.02470   60.26110    2.56070    2.47250    4.90970    4.24100    3.99180    0.14030
 5641.50000    0.14020  118.54030    9.00080   57.24010    2.51050    2.49220    4.68310    4.06650    3.77600    0.13710
 5642.00000    0.12990  117.50950    8.98030   58.57840    2.51750    2.50670    4.28850    3.85850    3.35780    0.13390
 5642.50000    0.11600  116.70420    8.99700   58.96150    2.56770    2.53000    5.00150    4.47580    4.15540    0.13080
 5643.00000    0.10120  115.99680    8.99700   59.24350    2.64230    2.55440    5.86780    5.41760    5.06600    0.12860
 5643.50000    0.09150  116.05600    8.99700   61.65110    2.74480    2.56780    6.54840    6.12930    5.52100    0.13140
 5644.00000    0.08320  116.35240    8.99700   69.47700    2.87590    2.58050    9.44720    7.87030    6.70740    0.13480
 5644.50000    0.07760  116.71830    8.99690   77.80690    3.02610    2.58840   11.22480   10.46300    9.37370    0.14310
 5645.00000    0.07220  117.48940    8.99690   86.81320    3.08970    2.59200   11.55810   11.20080   10.72870    0.15050
 5645.50000    0.07570  118.45040    8.99690   94.32320    3.12810    2.57870   11.13760   10.66070   10.30410    0.15790
 5646.00000    0.09090  118.89020    9.00720   97.78900    3.14370    2.55860   11.45150   10.92740   10.69320    0.16540
 5646.50000    0.10590  120.19840    9.04500  104.16880    3.10530    2.53240   11.24130   10.13250    9.17340    0.17090
 5647.00000    0.12000  121.54930    9.05720  104.92840    3.04740    2.50980    9.38300    8.61980    8.37790    0.17560
 5647.50000    0.13100  122.13960    9.06940  100.30040    2.91790    2.49360    8.20340    6.87580    5.19070    0.17660
 5648.00000    0.14410  122.62520    9.08170   73.81870    2.82970    2.47580    4.28850    3.12980    2.93130    0.17660
 5648.50000    0.15000  123.69580    9.09020   59.13600    2.75860    2.47030    3.30840    3.09950    2.90430    0.15330
 5649.00000    0.14740  124.16250    9.09350   51.65060    2.68100    2.47370    4.23050    3.61000    3.32640    0.12060
 5649.50000    0.15130  124.38190    9.08740   51.18930    2.60330    2.46530    4.83740    4.42340    3.95530    0.12140
 5650.00000    0.16150  124.60130    9.11510   51.95090    2.51280    2.44450    3.72640    3.28840    3.16660    0.12320
 5650.50000    0.16880  125.28360    9.12230   52.21920    2.45090    2.43640    3.53010    3.40620    3.28030    0.14030
 5651.00000    0.16450  125.89910    9.12950   51.76640    2.38420    2.44830    3.76670    3.61210    3.49560    0.14780
 5651.50000    0.15710  126.61140    9.13680   52.01790    2.36380    2.46020    3.62970    3.50660    3.38930    0.14940
 5652.00000    0.15560  127.50620    9.10200   53.62760    2.39880    2.45990    3.61290    3.50660    3.31680    0.15240
 5652.50000    0.16060  128.44540    9.17200   55.03610    2.44920    2.45100    3.59620    3.45500    3.34770    0.15260
 5653.00000    0.16300  128.74230    9.18240   55.37140    2.49760    2.44700    3.37290    3.27870    3.09890    0.15470
 5653.50000    0.16480  129.03910    9.19080   55.10310    2.50530    2.43820    3.32510    3.24000    3.12780    0.15970
