~Version ---------------------------------------------------
VERS.   2.0 : CWLS log ASCII Standard -VERSION 2.0
WRAP.    NO : One line per depth step
DLM . SPACE : Column Data Section Delimiter
~Well ------------------------------------------------------
STRT .FT                144.0 : START DEPTH
STOP .FT              12340.0 : STOP DEPTH
STEP .FT                  0.5 : STEP
NULL .               -9999.25 : NULL VALUE
COMP .                        : COMPANY
WELL .                        : WELL
FLD  .                        : FIELD
LOC  .                        : LOCATION
PROV .                        : PROVINCE
CNTY .                        : COUNTY
STAT .                        : STATE
CTRY .                        : COUNTRY
SRVC .                        : SERVICE COMPANY
DATE .                        : DATE
UWI  .                        : UNIQUE WELL ID
API  .                        : API NUMBER
SLAT .WGS84 2.285069702591997 : SURFACE LATITUDE
SLON .WGS84 8.141602013994003 : SURFACE LONGITUDE
DATUM.F                   nan : DEPTH DATUM ELEV
~Curve Information -----------------------------------------
DEPT   .FT    : 
DPHZ_LS.DEC   : HGRD STANDARD RESOLUTION DENSITY POROSITY
DTSM   .US/F  : DELTA-T SHEAR
HCALD  .IN    : HRCC CALIPER CALIBRATED FROM DENSITY LOG
HSGRD  .GAPI  : HNGS STANDARD GAMMA RAY FROM DENSITY LOG
PEFZ   .B/E   : HRDD STANDARD RESOLUTION FORMATION PHOTOELECTRIC FACTOR
RHOZ   .G/C3  : HRDD STANDARD RESOLUTION FORMATION DENSITY
RLA1   .OHMM  : APPARENT RESISTIVITY FROM COMPUTED FOCUSING MODE 1
RLA4   .OHMM  : APPARENT RESISTIVITY FROM COMPUTED FOCUSING MODE 4
RLA5   .OHMM  : APPARENT RESISTIVITY FROM COMPUTED FOCUSING MODE 5
TNPH_LS.DEC   : THERMAL NEUTRON POROSITY [LIMESTONE]
~Params ----------------------------------------------------
~Other -----------------------------------------------------
~ASCII -----------------------------------------------------
# ...
 8954.00000    0.08150  102.69050    8.86550   52.21310    2.78210    2.58300   14.07120   15.11280   16.13620    0.06850
 8954.50000    0.07930  102.67380    8.86500   49.49680    2.83880    2.57810   13.55930   14.18040   16.08630    0.05960
 8955.00000    0.08320  103.15140    8.86440   52.76640    2.82520    2.57280   13.04490   14.04090   13.82670    0.06060
 8955.50000    0.08630  104.41570    8.85710   57.44450    2.75180    2.56890   12.47440   12.17100   11.24900    0.06740
 8956.00000    0.08720  103.92840    8.87420   58.75230    2.72000    2.57070   13.54150   15.73110   10.93420    0.07470
 8956.50000    0.08300  104.30100    8.84180   53.52100    2.67930    2.57630   14.26820   14.13540   12.36200    0.07140
 8957.00000    0.08170  104.87300    8.83780   53.43710    2.65230    2.57630   11.21730   10.43810    9.84410    0.06990
 8957.50000    0.08580  105.06840    8.84650   53.92340    2.62700    2.56960   12.01420   10.80560   10.75310    0.07490
 8958.00000    0.09050  105.37250    8.85510   58.11520    2.62120    2.56200   12.82600   11.69460   10.75870    0.08000
 8958.50000    0.09510  105.83970    8.86370   58.34990    2.63000    2.55680   12.70770   11.44280   10.27920    0.08540
 8959.00000    0.09540  106.17130    8.86520   56.97470    2.63880    2.55750   13.18750   13.98510   12.43670    0.08560
 8959.50000    0.09410  106.15690    8.85300   54.29110    2.64750    2.56450   15.89540   16.75580   14.48280    0.07880
 8960.00000    0.08510  105.93920    8.86730   52.38700    2.65630    2.57640   18.16860   18.84930   21.90160    0.07510
 8960.50000    0.07810  104.93440    8.85210   53.56400    2.66940    2.58670   20.44180   21.41900   25.72460    0.07310
 8961.00000    0.07260  104.52640    8.83950   55.45250    2.69980    2.59420   22.15730   23.82550   25.25230    0.06800
 8961.50000    0.06980  103.65030    8.82690   56.23720    2.79440    2.61080   23.53280   26.82560   35.35980    0.06170
 8962.00000    0.06110  103.06850    8.82970   53.26940    2.94330    2.62000   40.01430   51.47740   60.09780    0.05430
 8962.50000    0.04810  101.96720    8.83100   47.01530    3.06600    2.63860   55.49390   66.59660   70.57540    0.03460
 8963.00000    0.03930  100.74870    8.82690   41.04610    3.12430    2.64910   62.26000   63.38570   65.98910    0.02390
 8963.50000    0.03610  100.53480    8.82690   38.43040    3.12120    2.65010   59.44130   62.76210   70.41110    0.02430
 8964.00000    0.03930  100.07750    8.82690   43.86300    3.10130    2.64490   58.08020   56.04770   51.70120    0.02990
 8964.50000    0.04320   99.37620    8.82690   48.37010    3.08140    2.63970   55.96690   52.53320   58.70470    0.03660
 8965.00000    0.04360   99.12540    8.82690   51.40830    3.07290    2.64420   56.22680   53.58230   51.22430    0.03900
 8965.50000    0.04030   99.78030    8.82690   47.78660    3.11410    2.65100   78.07760   74.63570   58.31960    0.03590
 8966.00000    0.03440  100.26310    8.82690   42.95760    3.17370    2.65640   99.14140  115.31110   95.26770    0.03080
 8966.50000    0.03440   99.71290    8.82690   46.23980    3.22690    2.64980  121.32420  129.13550  132.62440    0.03200
 8967.00000    0.03810  100.48010    8.82600   51.71010    3.21730    2.63870  114.04090  117.95960  117.01890    0.04400
 8967.50000    0.04670  100.31260    8.82160   59.75840    3.14370    2.62870   94.42400   87.11040   72.84400    0.06030
 8968.00000    0.05250  101.73460    8.81720   64.21170    3.01450    2.62460   74.80720   67.92660   62.80690    0.07390
 8968.50000    0.05310  102.49790    8.81280   67.85100    2.92310    2.62160  123.81440   73.87930   71.50650    0.08130
 8969.00000    0.05580  103.27310    8.80080   69.69040    2.90160    2.61660  210.93240  260.99770  118.85640    0.08200
 8969.50000    0.06040  104.28460    8.78780   71.89780    2.93300    2.61030  298.05040  406.21720  338.54890    0.08550
 8970.00000    0.06450  105.53980    8.78710   84.00380    2.96430    2.60450  305.03530  455.33340  426.03400    0.09320
 8970.50000    0.06570  106.94390    8.78630   95.37200    3.01340    2.59910  305.03530  495.38980  583.40040    0.10740
 8971.00000    0.06980  108.24150    8.78550  100.20090    3.10170    2.58840  304.23330  675.77200  778.46260    0.11560
 8971.50000    0.07910  109.06850    8.78470  115.69410    3.21740    2.57770  303.23080 1053.04010 1352.45350    0.12560
 8972.00000    0.08510  109.60120    8.78400  115.59350    3.34670    2.57130  302.22840 1222.20560 1142.12480    0.13970
 8972.50000    0.07820  110.19900    8.78130  111.23400    3.45450    2.58760  301.22590 1054.84130 1089.48940    0.14900
 8973.00000    0.06380  110.27370    8.77470   99.89930    3.41990    2.61010  300.82490 1113.76260 1177.71850    0.13530
 8973.50000    0.06170  110.45610    8.77540   94.86890    3.26190    2.60830  298.05040 1164.41620 1267.51570    0.12920
 8974.00000    0.06650  108.90900    8.77620   95.76000    3.03170    2.60030  295.03100  908.16300  986.80640    0.12060
 8974.50000    0.07110  108.45100    8.76940   97.48460    2.93770    2.59440  288.53940  475.88060  602.11260    0.09940
 8975.00000    0.06760  107.83560    8.76220   98.69190    2.88890    2.59960  274.20310  394.32630  429.71700    0.09580
 8975.50000    0.06070  107.27700    8.77670   96.61270    2.88620    2.61740  276.75570  466.72640  493.68680    0.09990
 8976.00000    0.05300  106.53890    8.78890   89.93940    2.93630    2.62550  283.85230  495.24090  527.22940    0.10360
 8976.50000    0.04760  105.99980    8.78760   75.05010    2.98910    2.63310  292.57780  608.56910  670.03530    0.08510
 8977.00000    0.04630  105.56940    8.78630   63.38010    3.09760    2.62910  293.93650  742.68490  792.61450    0.06930
 8977.50000    0.05110  105.22610    8.78500   65.19090    3.17130    2.62090  293.93650  710.37630  780.46560    0.05960
 8978.00000    0.05860  104.74110    8.78600   71.18690    3.17330    2.61280  295.30140  560.36430  571.31660    0.06500
 8978.50000    0.06390  104.57470    8.78430   76.45850    3.12120    2.60400  295.30140  538.64120  550.52910    0.07410
 8979.00000    0.06680  104.57800    8.77660   72.63560    3.06900    2.60110  295.30140  463.46510  484.22850    0.08320
 8979.50000    0.06750  104.69630    8.77800   72.93740    3.04660    2.59880  295.30140  394.53760  423.40910    0.08760
 8980.00000    0.06910  104.98630    8.76850   79.77850    2.98730    2.59700  221.18420  290.95710  369.72150    0.09090
 8980.50000    0.06930  105.18910    8.75900   84.30560    2.94640    2.60040  172.04470  208.92760  264.63360    0.09420
 8981.00000    0.06550  105.58690    8.78580   83.73550    2.91220    2.60500  138.12920  154.28000  158.56260    0.09440
 8981.50000    0.06280  106.26680    8.79670   80.98570    2.89080    2.60950  108.41070  139.76040  134.88110    0.08870
 8982.00000    0.06130  106.59050    8.80320   78.53100    2.84400    2.61080   86.88810   88.57560   65.74190    0.08570
 8982.50000    0.06020  106.77560    8.82450   77.26340    2.80540    2.61480   65.36560   53.31790   49.79460    0.08680
 8983.00000    0.05560  106.58860    8.82550   74.84890    2.77230    2.62190   50.77820   48.77990   47.10180    0.08320
 8983.50000    0.05090  106.00450    8.82650   73.23930    2.77170    2.62900   48.78550   46.88930   46.07040    0.07510
 8984.00000    0.04650  105.53390    8.82550   68.12520    2.76340    2.63430   50.35120   46.42800   44.14370    0.06700
 8984.50000    0.04630  105.37370    8.82390   61.66990    2.75320    2.63330   55.03100   54.51520   62.88050    0.06200
 8985.00000    0.04960  104.96000    8.81680   58.43040    2.74300    2.62190   54.18100   61.15710   70.81090    0.06320
 8985.50000    0.06010  104.77050    8.82590   58.04810    2.72940    2.60950   43.13960   40.90100   41.28230    0.06610
 8986.00000    0.06730  104.94820    8.82500   61.08640    2.66190    2.59720   32.09830   28.60550   27.00030    0.06910
 8986.50000    0.07130  105.02710    8.82420   65.89520    2.61290    2.59470   31.55890   30.50380   29.91260    0.07200
