~Version ---------------------------------------------------
VERS.   2.0 : CWLS log ASCII Standard -VERSION 2.0
WRAP.    NO : One line per depth step
DLM . SPACE : Column Data Section Delimiter
~Well ------------------------------------------------------
STRT .FT                144.0 : START DEPTH
STOP .FT              12340.0 : STOP DEPTH
STEP .FT                  0.5 : STEP
NULL .               -9999.25 : NULL VALUE
COMP .                        : COMPANY
WELL .                        : WELL
FLD  .                        : FIELD
LOC  .                        : LOCATION
PROV .                        : PROVINCE
CNTY .                        : COUNTY
STAT .                        : STATE
CTRY .                        : COUNTRY
SRVC .                        : SERVICE COMPANY
DATE .                        : DATE
UWI  .                        : UNIQUE WELL ID
API  .                        : API NUMBER
SLAT .WGS84 2.285069702591997 : SURFACE LATITUDE
SLON .WGS84 8.141602013994003 : SURFACE LONGITUDE
DATUM.F                   nan : DEPTH DATUM ELEV
~Curve Information -----------------------------------------
DEPT   .FT    : 
DPHZ_LS.DEC   : HGRD STANDARD RESOLUTION DENSITY POROSITY
DTSM   .US/F  : DELTA-T SHEAR
HCALD  .IN    : HRCC CALIPER CALIBRATED FROM DENSITY LOG
HSGRD  .GAPI  : HNGS STANDARD GAMMA RAY FROM DENSITY LOG
PEFZ   .B/E   : HRDD STANDARD RESOLUTION FORMATION PHOTOELECTRIC FACTOR
RHOZ   .G/C3  : HRDD STANDARD RESOLUTION FORMATION DENSITY
RLA1   .OHMM  : APPARENT RESISTIVITY FROM COMPUTED FOCUSING MODE 1
RLA4   .OHMM  : APPARENT RESISTIVITY FROM COMPUTED FOCUSING MODE 4
RLA5   .OHMM  : APPARENT RESISTIVITY FROM COMPUTED FOCUSING MODE 5
TNPH_LS.DEC   : THERMAL NEUTRON POROSITY [LIMESTONE]
~Params ----------------------------------------------------
~Other -----------------------------------------------------
~ASCII -----------------------------------------------------
# ...
 6578.00000    0.08600  110.40530    8.99490   57.78520    2.81410    2.57910   11.89720    8.07430    5.04800    0.10420
 6578.50000    0.07280  108.38610    8.97870   59.07660    2.93820    2.60120   20.29830   20.61000   13.15450    0.08790
 6579.00000    0.05670  106.35950    8.97820   60.55030    3.19530    2.62340   27.47060   33.30970   24.44040    0.07970
 6579.50000    0.04600  104.01800    8.89610   57.44790    3.43570    2.64010   23.88190   28.60890   22.95470    0.07870
 6580.00000    0.03820  102.91190    8.91840   53.55450    3.72940    2.65690   21.99320   44.38050   57.35290    0.07790
 6580.50000    0.02550  102.55300    8.89600   47.25000    3.85150    2.67540   72.23740   85.18230   87.43590    0.07610
 6581.00000    0.01240  103.29850    8.84750   42.14530    3.94820    2.69500   84.24240   89.94140   92.30810    0.06790
 6581.50000    0.00300  104.28810    8.84390   38.06160    4.04490    2.71080   83.20470   90.55150   94.45540    0.05750
 6582.00000   -0.00100  107.02890    8.84040   38.46400    4.02990    2.70740   60.31560   73.08040   84.89480    0.05520
 6582.50000    0.00450  110.62490    8.83680   45.47940    3.92150    2.70180   58.12100   62.70280   69.81930    0.06160
 6583.00000    0.00460  112.87240    8.82860   70.63430    3.54480    2.69770   62.88380   72.36440   74.23330    0.07280
 6583.50000    0.00740  114.12550    8.81030   99.69510    3.20340    2.69070   49.51080   39.79690   51.08450    0.08830
 6584.00000    0.01840  115.77670    8.82720  130.26070    2.82900    2.66320   21.79840   15.25690   25.14780    0.12080
 6584.50000    0.03950  117.44530    8.82690  156.05370    2.74780    2.63240   16.03160   15.40900   14.97970    0.18290
 6585.00000    0.06540  117.70010    8.82690  159.75780    2.71130    2.60160   15.81030   15.40850   15.02600    0.18810
 6585.50000    0.06680  116.68730    8.82690  154.52650    2.73540    2.59680   16.40730   15.56160   14.03890    0.18250
 6586.00000    0.04780  115.15770    8.82380  130.07680    2.82660    2.64690   18.50760   17.17820   16.79360    0.18250
 6586.50000    0.02320  111.15500    8.81060  105.62710    2.92600    2.67770   28.34400   29.73080   24.16940    0.16130
 6587.00000    0.01000  108.15540    8.81580   65.19270    3.07250    2.69250   26.26070   24.64070   23.22620    0.11600
 6587.50000    0.00890  104.94700    8.81910   50.07470    3.15720    2.69360   23.82020   25.25700   21.25230    0.10530
 6588.00000    0.00990  102.62350    8.82230   45.72790    3.26620    2.69350   15.72450   19.15370   13.89170    0.10490
 6588.50000    0.00920   98.83900    8.82560   41.07300    3.42100    2.69530   14.27820   15.48480   13.73870    0.10980
 6589.00000    0.00700   97.23740    8.82150   38.63170    3.59990    2.69960   20.00040   29.00050   17.16030    0.09820
 6589.50000    0.00430   96.04250    8.83000   34.40630    3.81920    2.70510   54.76220   76.64390   29.10060    0.08040
 6590.00000    0.00130   95.61190    8.81910   30.03890    4.02440    2.71860  107.32540  126.91390   65.77210    0.06300
 6590.50000   -0.01010   94.43730    8.82190   26.68340    4.18130    2.73250  130.88910  138.93920  127.94330    0.04560
 6591.00000   -0.01830   93.02530    8.82470   26.82500    4.20350    2.74600  133.81560  136.89460  130.33650    0.03780
 6591.50000   -0.02210   91.46910    8.82740   27.34220    4.20640    2.74600  106.23660  126.80660  121.77460    0.03620
 6592.00000   -0.01820   94.20980    8.83020   27.85930    4.20920    2.73270   77.82050   84.34510   96.69970    0.03860
 6592.50000   -0.00890  101.31740    8.83280   28.64010    4.15510    2.72140   66.17160   82.28630   84.84280    0.04610
 6593.00000   -0.00290  106.07530    8.83530   34.81070    3.94030    2.69130   39.35050   53.02000   62.23120    0.05460
 6593.50000    0.04990  107.78800    8.83780   39.15140    3.67540    2.59800   14.14980   15.32320   20.00980    0.08030
 6594.00000    0.11310  110.57200    8.86290   43.49210    3.51390    2.47720    8.90110    8.55770    8.18170    0.11010
 6594.50000    0.18320  114.06750    8.96370   55.77630    3.50830    2.37170    9.28010    7.95720    7.20430    0.16040
 6595.00000    0.25910  115.35870    9.41310   69.74440    3.92500    2.26610    6.37630    5.73480    4.39770    0.20060
 6595.50000    0.25540  115.65830    9.77030   79.95490    3.98750    2.29650   14.54530    7.95630    5.75350    0.16990
 6596.00000    0.18560  117.23510    8.95130   75.26740    3.75760    2.51320   15.40560   14.73820   14.28720    0.13090
 6596.50000    0.11260  118.28620    8.95870   66.25500    3.27780    2.56570   15.37690   14.59320   14.06840    0.09750
 6597.00000    0.06810  117.19750    8.96530   60.03130    2.87280    2.59760   13.35080   11.34290   10.07800    0.09200
 6597.50000    0.07120  117.97180    8.97180   63.51450    2.72340    2.58850    8.98390    8.68560    8.39910    0.10370
 6598.00000    0.08010  115.01410    8.98530   65.30740    2.62800    2.56690    8.38080    8.22610    7.57000    0.11400
 6598.50000    0.09650  114.76640    9.00350   64.51970    2.54270    2.54520    7.31330    6.85180    5.80810    0.12280
 6599.00000    0.11170  116.05790    9.01630   60.77510    2.46750    2.51590    5.30130    5.02770    3.78570    0.13200
 6599.50000    0.12540  117.34940    9.04650   57.95720    2.41010    2.49730    3.81270    3.53340    3.44770    0.13700
 6600.00000    0.13950  119.56230    9.07490   55.64370    2.38640    2.47090    3.70810    3.48140    3.39540    0.14280
 6600.50000    0.15310  123.67290    9.10340   54.50910    2.36270    2.45750    3.84820    3.45370    3.31030    0.14860
 6601.00000    0.15970  125.30750    9.13600   53.62160    2.33900    2.44600    3.22820    2.96780    2.77980    0.15440
 6601.50000    0.16680  127.11410    9.16160   52.51490    2.31100    2.43290    2.79520    2.73940    2.67670    0.16110
 6602.00000    0.18010  135.64440    9.21370   51.55420    2.29530    2.41150    2.90230    2.79730    2.71000    0.17020
 6602.50000    0.19320  136.86850    9.27660   51.36800    2.29720    2.39500    3.01030    2.88530    2.65410    0.17920
 6603.00000    0.20070  137.80440    9.39350   51.00590    2.29920    2.37980    2.71740    2.09260    2.04600    0.18880
 6603.50000    0.20640  139.38610    9.51030   50.42410    2.30080    2.36670    2.07800    2.05160    2.02080    0.19920
 6604.00000    0.21710  146.11670    9.60190   49.28250    2.32400    2.35360    2.19930    2.12090    2.06860    0.20960
 6604.50000    0.22680  148.24340    9.68740   49.55080    2.34570    2.34050    2.30100    2.24250    2.13640    0.20660
 6605.00000    0.23050  149.53010    9.72520   50.08730    2.36990    2.33780    2.13230    1.97350    1.83470    0.20600
 6605.50000    0.22780  150.99950    9.74000   50.33320    2.35730    2.34520    1.65600    1.60890    1.50990    0.21060
 6606.00000    0.22830  151.79020    9.75480   50.28850    2.35850    2.34520    1.61800    1.39540    1.34010    0.21720
 6606.50000    0.23400  152.23810    9.76960   50.22660    2.40200    2.33300    1.61800    1.43160    1.38450    0.22210
 6607.00000    0.24090  152.03210    9.77260   50.14920    2.44560    2.32080    1.59570    1.50480    1.47930    0.22490
 6607.50000    0.24260  151.04740    9.77260   50.08730    2.48420    2.31770    1.61060    1.56330    1.50230    0.22800
 6608.00000    0.23550  147.88260    9.76420   50.08730    2.47230    2.32760    1.47480    1.41490    1.29930    0.23470
 6608.50000    0.22910  146.52730    9.77900   50.48970    2.46040    2.34420    1.85070    1.69830    1.47450    0.24130
 6609.00000    0.22200  146.74260    9.79380   50.88100    2.46030    2.36140    2.07800    1.97210    1.89920    0.22990
 6609.50000    0.20580  146.78570    9.78110   51.16040    2.45740    2.38150    2.59700    2.09620    2.02640    0.20350
 6610.00000    0.19120  144.92700    9.73510   52.46080    2.41580    2.40150    2.95510    2.64700    2.38680    0.16830
 6610.50000    0.18680  144.47480    9.65240   53.50490    2.36680    2.40960    2.27910    2.15110    1.91090    0.17120
