~Version ---------------------------------------------------
VERS.   2.0 : CWLS log ASCII Standard -VERSION 2.0
WRAP.    NO : One line per depth step
DLM . SPACE : Column Data Section Delimiter
~Well ------------------------------------------------------
STRT .FT                144.0 : START DEPTH
STOP .FT              12340.0 : STOP DEPTH
STEP .FT                  0.5 : STEP
NULL .               -9999.25 : NULL VALUE
COMP .                        : COMPANY
WELL .                        : WELL
FLD  .                        : FIELD
LOC  .                        : LOCATION
PROV .                        : PROVINCE
CNTY .                        : COUNTY
STAT .                        : STATE
CTRY .                        : COUNTRY
SRVC .                        : SERVICE COMPANY
DATE .                        : DATE
UWI  .                        : UNIQUE WELL ID
API  .                        : API NUMBER
SLAT .WGS84 2.285069702591997 : SURFACE LATITUDE
SLON .WGS84 8.141602013994003 : SURFACE LONGITUDE
DATUM.F                   nan : DEPTH DATUM ELEV
~Curve Information -----------------------------------------
DEPT   .FT    : 
DPHZ_LS.DEC   : HGRD STANDARD RESOLUTION DENSITY POROSITY
DTSM   .US/F  : DELTA-T SHEAR
HCALD  .IN    : HRCC CALIPER CALIBRATED FROM DENSITY LOG
HSGRD  .GAPI  : HNGS STANDARD GAMMA RAY FROM DENSITY LOG
PEFZ   .B/E   : HRDD STANDARD RESOLUTION FORMATION PHOTOELECTRIC FACTOR
RHOZ   .G/C3  : HRDD STANDARD RESOLUTION FORMATION DENSITY
RLA1   .OHMM  : APPARENT RESISTIVITY FROM COMPUTED FOCUSING MODE 1
RLA4   .OHMM  : APPARENT RESISTIVITY FROM COMPUTED FOCUSING MODE 4
RLA5   .OHMM  : APPARENT RESISTIVITY FROM COMPUTED FOCUSING MODE 5
TNPH_LS.DEC   : THERMAL NEUTRON POROSITY [LIMESTONE]
~Params ----------------------------------------------------
~Other -----------------------------------------------------
~ASCII -----------------------------------------------------
# ...
 7997.00000    0.12670  114.30860    8.81040  160.51210    3.32130    2.50060  269.84040  352.81390  423.58090    0.13590
 7997.50000    0.12920  104.06520    8.81020  159.80350    3.37630    2.50280  207.72350  236.08220  339.65300    0.13570
 7998.00000    0.10710  102.50120    8.81010  128.04200    3.34910    2.54330  194.13550  159.01880  198.31580    0.11550
 7998.50000    0.08410  102.58830    8.81000  100.00830    3.26880    2.58040  213.09550  189.19970  200.16340    0.09370
 7999.00000    0.07300  100.59270    8.80980   57.86250    3.22930    2.59450  221.13730  167.23220  181.48560    0.08040
 7999.50000    0.07060   99.60930    8.80980   52.57230    3.34580    2.59840  218.08990  172.26420  168.40110    0.07470
 8000.00000    0.06510   98.56840    8.81250   56.77310    3.54910    2.60230  233.19610  190.14610  177.48010    0.07190
 8000.50000    0.05670   97.31130    8.81580   60.16110    3.80110    2.62410  290.77800  281.03320  358.76930    0.06720
 8001.00000    0.03850   96.29000    8.81910   56.94170    4.08710    2.64600  343.11480  654.98710  896.11430    0.06020
 8001.50000    0.02350   95.96670    8.82230   49.97490    4.30480    2.67320  365.76200 1213.97470 1464.85270    0.04780
 8002.00000    0.01620   95.17100    8.82560   44.06440    4.44210    2.67960  367.62720 1650.62220 1851.76970    0.03640
 8002.50000    0.01400   94.13530    8.82690   41.24750    4.55180    2.68690  362.48620 1302.06700 1389.54460    0.03750
 8003.00000    0.01190   93.31040    8.82690   43.50110    4.45320    2.68970  370.89470 1111.70770 1210.26590    0.03910
 8003.50000    0.01510   92.72340    8.81780   47.28380    4.34310    2.68300  336.45700  678.21290  810.81780    0.03890
 8004.00000    0.02400   92.28430    8.80270   49.19520    4.25180    2.67140  358.92650  845.01800 1049.07610    0.03670
 8004.50000    0.02990   91.84530    8.78760   44.94970    4.27350    2.66090  399.15930 2029.61490 2011.31430    0.03390
 8005.00000    0.02860   91.43290    8.78190   40.74450    4.35580    2.66860  402.78800 4201.24410 4953.50710    0.03130
 8005.50000    0.02660   91.20460    8.78250   38.03740    4.51620    2.66660  389.84910 3115.48300 3863.56130    0.02870
 8006.00000    0.02930   91.25430    8.79660   35.65940    4.85340    2.66330  357.00620 1971.18000 2536.31580    0.02610
 8006.50000    0.02710   91.57870    8.82690   34.04430    4.91910    2.66190  328.31350 1322.58310 2005.15120    0.02350
 8007.00000    0.02040   92.46140    8.80810   33.40040    4.90400    2.67790  316.30860  773.98020  857.60720    0.02200
 8007.50000    0.01220   93.20630    8.80740   34.40650    4.76910    2.69540  321.44450  962.60740 1141.44950    0.02600
 8008.00000    0.00630   93.68870    8.80680   39.70490    4.59570    2.70120  311.85980 1071.96920 1192.77610    0.03210
 8008.50000    0.00740   95.14780    8.82690   45.57350    4.46140    2.69840  290.80240  690.46320  788.36980    0.03820
 8009.00000    0.01380   96.48450    8.82690   48.18920    4.41470    2.68340  290.73690  907.70760 1031.72060    0.04330
 8009.50000    0.02280   97.66000    8.83400   45.07050    4.41750    2.66730  303.05280 1182.73710 1244.89630    0.04640
 8010.00000    0.03450   99.67450    8.82920   48.89340    4.39420    2.64870  285.26160 1188.40800 1244.72760    0.05000
 8010.50000    0.04460  102.54820    8.84080   71.96030    4.37090    2.62010  276.15870 1212.13030 1235.50580    0.06210
 8011.00000    0.06910  107.73760    8.85240   99.58860    4.23860    2.58180  247.37890  845.28560  816.51850    0.09770
 8011.50000    0.09800  112.52520    8.86400  135.79960    3.88460    2.52050  172.08570  295.63640   52.79360    0.13340
 8012.00000    0.15120  113.48500    8.87560  147.86730    3.34450    2.45410   96.79240   54.90860   39.59570    0.16900
 8012.50000    0.18270  113.77740    8.88160  149.57210    2.79950    2.39590   51.37790   42.10460   34.12570    0.19960
 8013.00000    0.20460  114.03970    8.97410  154.49710    2.45680    2.36030   63.58160   49.05190   41.83240    0.20910
 8013.50000    0.21740  114.31530    9.13910  190.91050    2.31050    2.36030   59.03890   44.43590   37.72860    0.21620
 8014.00000    0.21150  114.77230    9.27390  200.06020    2.45730    2.36760  179.62580   77.67000  505.98520    0.22330
 8014.50000    0.19850  114.97240    8.98780  200.21030    2.72060    2.40230  268.58780 1384.65980 1955.34370    0.23040
 8015.00000    0.17710  115.21160    8.78860  199.97660    2.98060    2.43700  273.61170 1494.80780 1744.53560    0.23120
 8015.50000    0.15900  115.43400    8.78870  199.74290    3.17960    2.47200  274.88230 1218.13110 1244.70420    0.22230
 8016.00000    0.14090  115.61470    8.79350  199.50920    3.23320    2.50720  233.68020  343.76810  998.91320    0.20710
 8016.50000    0.11480  115.56450    8.79950  199.27550    3.15260    2.54240  192.47820  282.71280  418.92970    0.19190
 8017.00000    0.09220  108.50130    8.80550  174.24230    3.12840    2.57760  151.27610  221.65750  166.66970    0.13250
 8017.50000    0.07490  106.24060    8.80650  103.84780    3.11830    2.60730  134.05260  160.60220  164.43560    0.08280
 8018.00000    0.05870  103.21130    8.82230   70.84440    3.10810    2.63230  127.98370  172.95750  244.30660    0.05000
 8018.50000    0.04660  101.12710    8.82960   49.26060    3.19390    2.64340  118.29040  147.24260  145.57860    0.02940
 8019.00000    0.03660   99.03950    8.84490   41.15660    3.29080    2.65340  108.32280   94.64640  113.82780    0.02370
 8019.50000    0.03490   97.29960    8.84170   44.57270    3.34310    2.64020   91.01610  101.92890  117.67810    0.03130
 8020.00000    0.04670   97.92340    8.83840   52.91740    3.32890    2.62480   76.94200   97.97750   65.52780    0.03910
 8020.50000    0.06080   96.22330    8.84590   55.33370    3.20460    2.60560   65.07810   53.35650   77.78800    0.04970
 8021.00000    0.06480   96.63350    8.85770   50.88490    3.08010    2.60900   64.78270   75.78840   93.64350    0.04870
 8021.50000    0.06140   97.36750    8.86320   46.02350    2.99700    2.61230   67.86000   70.72820   86.13680    0.03990
 8022.00000    0.06520   97.97090    8.86830   43.45660    2.94450    2.60680   45.68890   58.59950   64.23200    0.03380
 8022.50000    0.07550   98.49540    8.87780   44.86870    2.89210    2.58560   23.51730   13.31470   30.10090    0.04010
 8023.00000    0.08520   98.85930    8.89290   46.45310    2.91490    2.56880   16.27470   14.06040   26.46570    0.04680
 8023.50000    0.08590   99.33840    8.90810   48.60910    2.93740    2.57230   29.48870   35.42570   43.16060    0.05100
 8024.00000    0.07520   99.71290    8.88740   48.61060    2.89140    2.59180   22.77460   28.95860   35.49740    0.04640
 8024.50000    0.06740  100.22650    8.90670   49.21770    2.83820    2.60440   19.46580   23.62960   25.13750    0.04250
 8025.00000    0.06440  100.79900    8.90570   50.22120    2.80670    2.60760   20.08300   24.46350   25.00030    0.04850
 8025.50000    0.06750  101.51270    8.91120   54.04620    2.77840    2.60020   20.08500   29.37380   33.78530    0.05530
 8026.00000    0.07840  102.74040    8.92620   59.99540    2.74980    2.57130   16.73610   22.52160   27.46260    0.06600
 8026.50000    0.08670  100.22520    8.94120   65.53250    2.70100    2.56140   12.07030   17.69520   18.61150    0.07760
 8027.00000    0.09140  102.85390    8.94500   68.73340    2.66880    2.56280   11.85020   16.64800   17.60410    0.08260
 8027.50000    0.08900  103.56150    8.94600   67.96350    2.64080    2.56930   12.29920   17.15100   17.23460    0.08630
 8028.00000    0.08420  104.03460    8.94520   64.81280    2.61280    2.57330   11.35570   14.65880   14.39000    0.08770
 8028.50000    0.08400  104.37830    8.94690   66.49090    2.58280    2.57580   10.81870   13.80370   12.85530    0.09380
 8029.00000    0.08210  104.51850    8.95100   68.03500    2.59070    2.58060   10.70770   12.98200   11.79070    0.09860
 8029.50000    0.07900  104.15570    8.95510   66.28600    2.61280    2.58940    9.71680   12.14310   11.53220    0.10100
