~Version ---------------------------------------------------
VERS.   2.0 : CWLS log ASCII Standard -VERSION 2.0
WRAP.    NO : One line per depth step
DLM . SPACE : Column Data Section Delimiter
~Well ------------------------------------------------------
STRT .FT                144.0 : START DEPTH
STOP .FT              12340.0 : STOP DEPTH
STEP .FT                  0.5 : STEP
NULL .               -9999.25 : NULL VALUE
COMP .                        : COMPANY
WELL .                        : WELL
FLD  .                        : FIELD
LOC  .                        : LOCATION
PROV .                        : PROVINCE
CNTY .                        : COUNTY
STAT .                        : STATE
CTRY .                        : COUNTRY
SRVC .                        : SERVICE COMPANY
DATE .                        : DATE
UWI  .                        : UNIQUE WELL ID
API  .                        : API NUMBER
SLAT .WGS84 2.285069702591997 : SURFACE LATITUDE
SLON .WGS84 8.141602013994003 : SURFACE LONGITUDE
DATUM.F                   nan : DEPTH DATUM ELEV
~Curve Information -----------------------------------------
DEPT   .FT    : 
DPHZ_LS.DEC   : HGRD STANDARD RESOLUTION DENSITY POROSITY
DTSM   .US/F  : DELTA-T SHEAR
HCALD  .IN    : HRCC CALIPER CALIBRATED FROM DENSITY LOG
HSGRD  .GAPI  : HNGS STANDARD GAMMA RAY FROM DENSITY LOG
PEFZ   .B/E   : HRDD STANDARD RESOLUTION FORMATION PHOTOELECTRIC FACTOR
RHOZ   .G/C3  : HRDD STANDARD RESOLUTION FORMATION DENSITY
RLA1   .OHMM  : APPARENT RESISTIVITY FROM COMPUTED FOCUSING MODE 1
RLA4   .OHMM  : APPARENT RESISTIVITY FROM COMPUTED FOCUSING MODE 4
RLA5   .OHMM  : APPARENT RESISTIVITY FROM COMPUTED FOCUSING MODE 5
TNPH_LS.DEC   : THERMAL NEUTRON POROSITY [LIMESTONE]
~Params ----------------------------------------------------
~Other -----------------------------------------------------
~ASCII -----------------------------------------------------
# ...
 10372.00000    0.15780  129.13500    8.71820  104.75400    3.19920    2.46020  122.58070  125.64660  131.81090    0.20080
 10372.50000    0.15220  128.97810    8.69790  111.90630    3.13970    2.46550  142.35770  152.01790  180.66870    0.20040
 10373.00000    0.14990  129.04690    8.71030  115.78870    3.08030    2.46630  110.90760  142.70190  151.82700    0.20030
 10373.50000    0.15230  129.29540    8.72270  117.19620    3.02050    2.46710  101.29320  105.22210  108.80170    0.20080
 10374.00000    0.14940  128.77280    8.71700  116.39020    2.98120    2.47360   98.50370  100.90560  103.59130    0.20120
 10374.50000    0.14380  128.25030    8.70390  110.45360    2.99300    2.48380   99.23650  105.57710  108.75100    0.20180
 10375.00000    0.13660  128.02460    8.70330  105.22680    3.02680    2.48770  114.24540  117.03110  121.63930    0.20240
 10375.50000    0.13910  127.52820    8.70970  100.00000    3.07490    2.47960   78.28050   90.81180  103.23990    0.20240
 10376.00000    0.14530  127.10290    8.71230   93.50110    3.13480    2.46780   83.97470   88.09490   90.70330    0.20230
 10376.50000    0.15350  126.38680    8.71680   89.52540    3.22770    2.45820   97.74340  104.48740  111.21730    0.20230
 10377.00000    0.15710  125.59370    8.71950   88.86970    3.27700    2.45620  108.46850  110.67260  113.64880    0.20230
 10377.50000    0.15700  125.00510    8.70880   93.41890    3.16400    2.45880  108.06720  110.05300  112.25270    0.20220
 10378.00000    0.15450  124.25830    8.70350   99.71990    3.05090    2.45980  108.06720  109.34230  129.44480    0.20270
 10378.50000    0.15590  123.53500    8.70210  109.64930    3.01860    2.46380  121.46010  153.10930  160.61950    0.20250
 10379.00000    0.15030  122.84050    8.70070  109.44760    3.07380    2.47900  136.49040  158.89060  166.17080    0.19850
 10379.50000    0.13770  122.17290    8.69930  100.39290    3.12740    2.49670  144.82940  177.02880  188.58940    0.19570
 10380.00000    0.13110  123.48210    8.69780   84.93800    3.09950    2.50090  136.81430  157.99910  176.90040    0.19270
 10380.50000    0.13440  122.95380    8.69640   80.48270    2.92300    2.48890  100.34610  121.07490  134.35290    0.19190
 10381.00000    0.14460  122.57210    8.68840   81.61450    2.81380    2.47350   91.94750  115.08680  127.40740    0.19190
 10381.50000    0.14540  122.65970    8.68940   84.72820    2.76440    2.47540   85.24630  103.11060  106.18220    0.19200
 10382.00000    0.13770  122.74730    8.69040   88.12860    2.75240    2.48820   86.84090  106.34470  108.50360    0.19220
 10382.50000    0.12690  122.83490    8.69140   91.34790    2.74050    2.51010   84.93100  104.07050  100.45070    0.19350
 10383.00000    0.11780  123.14410    8.69640   97.58530    2.72850    2.52160   69.41090   79.95880   81.54120    0.19470
 10383.50000    0.11360  122.47800    8.70730   97.68590    2.80520    2.52610   64.79790   66.09130   75.33670    0.19640
 10384.00000    0.11520  121.98190    8.71120   97.08230    2.92510    2.51890   75.54580   96.62150  103.20500    0.20200
 10384.50000    0.12230  121.36910    8.69900   92.18620    3.05980    2.50750  105.29940  111.38760  119.03800    0.20170
 10385.00000    0.13030  120.87880    8.70620   84.62760    3.21310    2.49820  109.27550  115.23730  120.14610    0.19770
 10385.50000    0.13030  120.20650    8.71340   75.77450    3.36650    2.50850  115.95170  119.58860  152.13080    0.19420
 10386.00000    0.12520  118.30520    8.70690   65.09040    3.62780    2.52990  120.33000  253.13970  305.35460    0.18670
 10386.50000    0.10490  118.29750    8.69130   55.80130    3.91340    2.55720  295.06070  302.06780  307.24760    0.16920
 10387.00000    0.09550  117.93210    8.69900   51.40830    4.09540    2.55720  295.06070  303.00130  317.86670    0.14650
 10387.50000    0.10020  118.28050    8.70660   52.93750    4.04290    2.53120  301.69560  285.73240  319.83440    0.13940
 10388.00000    0.11940  118.65450    8.71420   59.95960    3.82580    2.50930  260.78970  167.78990  230.84640    0.15750
 10388.50000    0.13110  119.34490    8.69610   67.80670    3.67050    2.49940  204.43480  118.85180  186.28790    0.18030
 10389.00000    0.13170  119.86560    8.69610   69.41630    3.57030    2.49900  263.48990  207.27070  200.91970    0.18210
 10389.50000    0.12730  120.48230    8.69140   69.21510    3.47020    2.49860  284.32480  229.46690  205.89620    0.18320
 10390.00000    0.13620  120.55220    8.70610   72.35460    3.48470    2.48610  246.77650  184.95870  201.24170    0.18210
 10390.50000    0.14140  120.23550    8.70090   76.46240    3.50860    2.47410  186.34310  145.27700  186.28790    0.18100
 10391.00000    0.14540  121.29710    8.69560   70.68140    3.57000    2.47910  262.06080  241.36550  192.72640    0.18060
 10391.50000    0.14380  122.61250    8.69450   64.39680    3.56090    2.48150  342.21390  336.55340  304.41380    0.18080
 10392.00000    0.14580  123.37150    8.69250   63.39390    3.41900    2.46130  333.44940  313.62980  299.74790    0.18200
 10392.50000    0.15920  123.36260    8.69130   72.30340    3.19750    2.44660  280.02160  279.38710  283.53800    0.18360
 10393.00000    0.16780  123.35370    8.69870   80.17300    3.02380    2.43190  203.35160  229.95290  244.37950    0.19570
 10393.50000    0.17130  123.46480    8.70720   84.79030    2.86200    2.43250  155.39610  171.11630  188.94170    0.19830
 10394.00000    0.16130  124.05620    8.71580   88.16460    2.82650    2.46610  143.75970  141.56940  174.05060    0.20450
 10394.50000    0.13770  124.51040    8.69820   89.67810    2.78690    2.49960  103.12580   72.95750   63.00270    0.21060
 10395.00000    0.11730  124.93030    8.71300   92.90730    2.78630    2.53310   64.08140   60.32800   53.64400    0.21160
 10395.50000    0.10620  125.16070    8.72740   94.72270    2.87080    2.53980   52.14130   49.68580   42.95230    0.21040
 10396.00000    0.10950  124.96130    8.72660   91.50930    2.99650    2.52750   37.71820   43.55700   37.26690    0.20850
 10396.50000    0.11730  124.95250    8.71900   82.75520    3.11300    2.51250  119.26150  181.54270  270.70140    0.20680
 10397.00000    0.12490  125.05770    8.71150   75.50920    3.17710    2.49840  223.45340  256.45420  268.20470    0.20580
 10397.50000    0.13620  125.05610    8.70310   74.90910    3.16720    2.48500  211.10880  250.96980  256.85600    0.20710
 10398.00000    0.14100  125.09650    8.69600   77.66580    3.08300    2.48350  199.19920  231.16150  249.81430    0.20760
 10398.50000    0.13710  125.32150    8.69200   83.19560    2.98970    2.49080  136.51330  207.87320  192.93160    0.20420
 10399.00000    0.12810  124.54410    8.69950   87.40510    2.96180    2.50660   50.22930   95.36530  102.00850    0.20830
 10399.50000    0.12100  124.62410    8.70700   90.02590    3.01310    2.51670   46.41850   57.34720   68.07000    0.21390
 10400.00000    0.12210  124.39610    8.70480   87.31610    3.15970    2.51200   79.41760   88.62830   91.45660    0.21940
 10400.50000    0.12710  124.23550    8.70070   81.68500    3.35400    2.50160   87.47430   91.39610  101.67380    0.22390
 10401.00000    0.13140  124.28540    8.69590   81.07690    3.47050    2.49700  110.68070  110.89340  146.23740    0.20660
 10401.50000    0.13370  124.72250    8.70270   84.09050    3.46700    2.49500  106.40070  125.50510  153.74660    0.20310
 10402.00000    0.13300  123.41670    8.68100   89.69800    3.20140    2.49770   79.40030   91.18090  104.74740    0.19960
 10402.50000    0.13010  124.45830    8.68460   94.05880    3.06450    2.50450   66.92250   75.97890   84.09040    0.19620
 10403.00000    0.12410  125.04380    8.68940   95.74400    2.87080    2.51130   60.78920   64.12720   72.78200    0.19690
 10403.50000    0.12430  125.10850    8.69410   94.73340    2.77720    2.50920   52.99250   59.07760   64.51360    0.20450
 10404.00000    0.13320  124.60610    8.70340   90.85710    2.73980    2.49210   89.67640   92.36910  109.99920    0.20700
 10404.50000    0.14570  123.85260    8.70580   84.56650    2.69890    2.47500   91.67800  108.02300  116.49670    0.20170
