~Version ---------------------------------------------------
VERS.   2.0 : CWLS log ASCII Standard -VERSION 2.0
WRAP.    NO : One line per depth step
DLM . SPACE : Column Data Section Delimiter
~Well ------------------------------------------------------
STRT .FT                144.0 : START DEPTH
STOP .FT              12340.0 : STOP DEPTH
STEP .FT                  0.5 : STEP
NULL .               -9999.25 : NULL VALUE
COMP .                        : COMPANY
WELL .                        : WELL
FLD  .                        : FIELD
LOC  .                        : LOCATION
PROV .                        : PROVINCE
CNTY .                        : COUNTY
STAT .                        : STATE
CTRY .                        : COUNTRY
SRVC .                        : SERVICE COMPANY
DATE .                        : DATE
UWI  .                        : UNIQUE WELL ID
API  .                        : API NUMBER
SLAT .WGS84 2.285069702591997 : SURFACE LATITUDE
SLON .WGS84 8.141602013994003 : SURFACE LONGITUDE
DATUM.F                   nan : DEPTH DATUM ELEV
~Curve Information -----------------------------------------
DEPT   .FT    : 
DPHZ_LS.DEC   : HGRD STANDARD RESOLUTION DENSITY POROSITY
DTSM   .US/F  : DELTA-T SHEAR
HCALD  .IN    : HRCC CALIPER CALIBRATED FROM DENSITY LOG
HSGRD  .GAPI  : HNGS STANDARD GAMMA RAY FROM DENSITY LOG
PEFZ   .B/E   : HRDD STANDARD RESOLUTION FORMATION PHOTOELECTRIC FACTOR
RHOZ   .G/C3  : HRDD STANDARD RESOLUTION FORMATION DENSITY
RLA1   .OHMM  : APPARENT RESISTIVITY FROM COMPUTED FOCUSING MODE 1
RLA4   .OHMM  : APPARENT RESISTIVITY FROM COMPUTED FOCUSING MODE 4
RLA5   .OHMM  : APPARENT RESISTIVITY FROM COMPUTED FOCUSING MODE 5
TNPH_LS.DEC   : THERMAL NEUTRON POROSITY [LIMESTONE]
~Params ----------------------------------------------------
~Other -----------------------------------------------------
~ASCII -----------------------------------------------------
# ...
 9911.00000    0.01770   89.99620    8.65190   21.02310    4.17150    2.67870  410.18870 1763.65960 1885.42300    0.01110
 9911.50000    0.02010   89.10800    8.65400   20.31730    4.16670    2.68100  417.82120 1951.22270 1971.39540    0.01270
 9912.00000    0.01580   89.50360    8.65360   19.51300    4.09750    2.68420  427.17880 2324.37630 2393.76660    0.01250
 9912.50000    0.01580   90.25780    8.65510   17.65080    4.05100    2.68820  443.26180 2294.83570 2437.51290    0.01150
 9913.00000    0.01130   89.20550    8.64560   17.15230    3.98580    2.69500  458.25220 2424.72930 2489.58920    0.01070
 9913.50000    0.00760   89.95720    8.64530   16.92780    3.92070    2.69650  468.51560 2431.32060 2483.32270    0.00980
 9914.00000    0.00500   89.90830    8.64500   16.39030    3.89670    2.69170  479.00770 2498.50330 2549.11560    0.00930
 9914.50000    0.01020   89.86610    8.64480   15.18210    3.90390    2.68450  489.74360 2722.87640 2779.83550    0.00980
 9915.00000    0.01580   89.63080    8.64450   16.01100    3.90790    2.67820  510.07710 2719.66660 2899.89270    0.01090
 9915.50000    0.02140   89.51410    8.64420   19.11930    3.90890    2.67280  519.57780 2411.06030 2573.02600    0.01230
 9916.00000    0.02290   89.88150    8.64900   22.71810    3.90820    2.66840  531.92900 2144.03300 2246.15930    0.01340
 9916.50000    0.02450   90.73680    8.65110   22.71680    3.91450    2.66320  553.28150 2143.08400 2243.41790    0.01450
 9917.00000    0.02860   91.81260    8.65050   21.96070    3.91830    2.65550  585.22500 2339.72810 2526.08910    0.01570
 9917.50000    0.03380   92.02860    8.65360   21.30530    3.87310    2.64550  613.69360 2415.14290 2678.63020    0.01690
 9918.00000    0.03970   90.37220    8.64150   22.88460    3.78350    2.63800  589.14660 1981.46820 2002.84610    0.01790
 9918.50000    0.04630   91.11510    8.64320   25.32630    3.69400    2.63170  606.83930 1963.28330 2290.38950    0.01890
 9919.00000    0.04790   91.69450    8.64350   27.36570    3.55350    2.62240  595.66290 1765.03030 1857.24300    0.02020
 9919.50000    0.05360   91.75480    8.64380   28.94500    3.33810    2.60860  584.68520 1367.88610 1497.35770    0.02210
 9920.00000    0.06670   91.81520    8.64410   28.47070    3.11680    2.59350  584.65030 1380.59360 1778.83100    0.02730
 9920.50000    0.07860   91.73380    8.64440   25.95560    3.11970    2.57900  602.26300 1903.57420 2187.71780    0.03590
 9921.00000    0.08500   92.03460    8.64470   24.07770    3.15320    2.56850  632.01030 1636.09010 1951.68110    0.04230
 9921.50000    0.08860   91.34660    8.64500   25.47270    3.11190    2.56010  685.71720 1243.15800 1396.16120    0.04810
 9922.00000    0.09280   92.49240    8.64530   28.16890    3.05290    2.56040  701.15320  867.36460 1052.85770    0.05400
 9922.50000    0.09040   92.33900    8.64560   31.69000    2.99400    2.57280  658.36140  634.01610  668.88000    0.06090
 9923.00000    0.08240   92.10540    8.64590   30.65880    3.02520    2.58510  693.43820  886.13760  916.30540    0.06280
 9923.50000    0.07420   91.87190    8.64620   27.00640    3.13790    2.59770  978.10420 1286.56350 1493.02380    0.05310
 9924.00000    0.06630   91.88690    8.66730   22.59100    3.31980    2.61080 1311.15320 1686.98930 1876.50230    0.04050
 9924.50000    0.05800   91.87070    8.65340   19.91940    3.51170    2.63010 1552.02480 1945.18210 2669.29240    0.03290
 9925.00000    0.05050   91.58140    8.65290   18.51100    3.66130    2.63010 1722.50570 1933.81190 3051.88660    0.02800
 9925.50000    0.05120   92.14400    8.65400   18.43050    3.69490    2.62190 1804.02010 1916.43160 3119.29760    0.02730
 9926.00000    0.05600   91.94800    8.65520   18.41040    3.69970    2.61640 1770.91000 1886.04790 3148.78570    0.02740
 9926.50000    0.05730   91.57600    8.65090   18.20920    3.70450    2.61640 1700.19180 1874.43400 3110.99900    0.02760
 9927.00000    0.05200   91.70990    8.64770   18.26950    3.66720    2.63550 1656.66860 1862.89210 2967.25440    0.02600
 9927.50000    0.04660   91.72790    8.65350   18.42040    3.62150    2.63270 1614.26190 1868.66740 2806.74180    0.02620
 9928.00000    0.04800   92.12690    8.64350   18.61160    3.62250    2.62640 1572.94470 1915.38820 2725.77560    0.02730
 9928.50000    0.05110   91.13940    8.65040   18.87320    3.68990    2.62020 1578.79390 1951.20160 2855.37830    0.02800
 9929.00000    0.05620   90.78780    8.65740   18.81280    3.78000    2.61770 1614.28770 1951.20290 3029.06280    0.02740
 9929.50000    0.05480   91.18090    8.65950   18.00800    3.85910    2.62630 1638.39710 1903.61620 2958.32210    0.02660
 9930.00000    0.05070   91.65980    8.64240   18.58920    3.84470    2.63960 1644.48460 1862.91130 2840.05310    0.02590
 9930.50000    0.04430   91.28570    8.64700   19.03640    3.78350    2.64490 1590.55140 1868.67950 2946.61470    0.02560
 9931.00000    0.04160   90.48140    8.65590   20.02000    3.69260    2.64100 1449.86680 1886.06430 3026.86130    0.02510
 9931.50000    0.04490   90.51410    8.65140   20.87520    3.60180    2.63620 1330.66400 1933.21310 3108.86650    0.02460
 9932.00000    0.04740   91.34410    8.64580   21.62970    3.54580    2.63140 1182.54980 1969.35700 3132.35170    0.02420
 9932.50000    0.04880   90.90240    8.66440   22.06560    3.45400    2.62450 1083.83220 1889.80760 2696.47300    0.02610
 9933.00000    0.05260   91.22760    8.65850   22.23330    3.36850    2.61350  946.80820 1790.37090 2717.78540    0.02950
 9933.50000    0.06230   91.80160    8.65050   22.93750    3.33930    2.60150  872.59240 1690.93430 2997.86320    0.03080
 9934.00000    0.06940   92.47030    8.65670   22.42540    3.35160    2.59970  828.54320 1631.26780 2891.07160    0.03080
 9934.50000    0.06780   93.13890    8.66090   21.64800    3.40830    2.60450  795.43770 1661.76400 3052.50400    0.03000
 9935.00000    0.06490   93.91760    8.66510   21.02610    3.45820    2.59770  769.32980 1682.40350 3033.15690    0.03080
 9935.50000    0.07160   94.86120    8.66930   24.64780    3.51920    2.58130  744.07790 1317.97920 2253.95780    0.03870
 9936.00000    0.08690   95.96540    8.67350   30.04010    3.54790    2.55550  701.22650  727.85720 1305.63180    0.05250
 9936.50000    0.10260   97.31090    8.67770   39.61260    3.57650    2.52630  698.61610  254.97010  503.69340    0.07580
 9937.00000    0.11470   98.49730    8.68190   47.38420    3.60510    2.52040  696.01350  409.80910  355.15400    0.09910
 9937.50000    0.11760   98.98260    8.68610   47.68600    3.69750    2.52500  641.50040 1172.19350 1158.99730    0.11060
 9938.00000    0.10790   99.05490    8.68380   42.65580    3.82690    2.55730  636.74560 1734.87990 1959.24650    0.08750
 9938.50000    0.09510   98.37440    8.65590   34.10450    3.92570    2.57420  636.72980 1969.34760 2363.74140    0.06270
 9939.00000    0.07920   97.53110    8.64590   28.96850    3.95710    2.59120  633.68560 1969.34760 2506.12760    0.04380
 9939.50000    0.07060   96.29100    8.64650   26.45590    3.89260    2.59990  631.99210 1969.34760 3011.52980    0.03690
 9940.00000    0.06620   94.61870    8.64710   25.44290    3.79020    2.60630  618.07150 1969.34760 3359.18400    0.03140
 9940.50000    0.06450   93.21250    8.64760   24.42990    3.66970    2.61110  600.13360 1969.34760 3038.10200    0.03010
 9941.00000    0.05800   92.43960    8.64820   23.20920    3.52930    2.61970  578.41130 1969.34760 2714.34690    0.02880
 9941.50000    0.05320   91.84710    8.64870   22.14810    3.39880    2.62170  567.91140 1969.34760 2968.73840    0.02960
 9942.00000    0.05720   91.69930    8.64930   22.79480    3.30810    2.60640  563.81890 1969.34760 2968.76460    0.03340
 9942.50000    0.06900   92.54230    8.65940   23.73550    3.22680    2.58600  563.93000 1969.34760 2382.79750    0.03800
 9943.00000    0.08480   92.97800    8.66110   26.88810    3.16450    2.56360  553.69180 1953.86880 1950.42390    0.04250
 9943.50000    0.09690   93.27220    8.67050   31.14120    3.12050    2.54840  529.70550 1489.10290 1101.31830    0.05300
