~Version ---------------------------------------------------
VERS.   2.0 : CWLS log ASCII Standard -VERSION 2.0
WRAP.    NO : One line per depth step
DLM . SPACE : Column Data Section Delimiter
~Well ------------------------------------------------------
STRT .FT                144.0 : START DEPTH
STOP .FT              12340.0 : STOP DEPTH
STEP .FT                  0.5 : STEP
NULL .               -9999.25 : NULL VALUE
COMP .                        : COMPANY
WELL .                        : WELL
FLD  .                        : FIELD
LOC  .                        : LOCATION
PROV .                        : PROVINCE
CNTY .                        : COUNTY
STAT .                        : STATE
CTRY .                        : COUNTRY
SRVC .                        : SERVICE COMPANY
DATE .                        : DATE
UWI  .                        : UNIQUE WELL ID
API  .                        : API NUMBER
SLAT .WGS84 2.285069702591997 : SURFACE LATITUDE
SLON .WGS84 8.141602013994003 : SURFACE LONGITUDE
DATUM.F                   nan : DEPTH DATUM ELEV
~Curve Information -----------------------------------------
DEPT   .FT    : 
DPHZ_LS.DEC   : HGRD STANDARD RESOLUTION DENSITY POROSITY
DTSM   .US/F  : DELTA-T SHEAR
HCALD  .IN    : HRCC CALIPER CALIBRATED FROM DENSITY LOG
HSGRD  .GAPI  : HNGS STANDARD GAMMA RAY FROM DENSITY LOG
PEFZ   .B/E   : HRDD STANDARD RESOLUTION FORMATION PHOTOELECTRIC FACTOR
RHOZ   .G/C3  : HRDD STANDARD RESOLUTION FORMATION DENSITY
RLA1   .OHMM  : APPARENT RESISTIVITY FROM COMPUTED FOCUSING MODE 1
RLA4   .OHMM  : APPARENT RESISTIVITY FROM COMPUTED FOCUSING MODE 4
RLA5   .OHMM  : APPARENT RESISTIVITY FROM COMPUTED FOCUSING MODE 5
TNPH_LS.DEC   : THERMAL NEUTRON POROSITY [LIMESTONE]
~Params ----------------------------------------------------
~Other -----------------------------------------------------
~ASCII -----------------------------------------------------
# ...
 12286.00000    0.08160   -9999.25    8.63730   -9999.25    2.97430    2.57160    7.04110    7.52210    7.42380    0.16010
 12286.50000    0.08700   -9999.25    8.63980   -9999.25    3.07740    2.56090    7.22610    7.46020    7.89660    0.16780
 12287.00000    0.09780   -9999.25    8.64230   -9999.25    3.18050    2.55260    7.36120    7.81250    8.39950    0.17040
 12287.50000    0.09210   -9999.25    8.64480   -9999.25    3.25150    2.58180    8.18330    8.87680    9.82390    0.16940
 12288.00000    0.05220   -9999.25    8.63170   -9999.25    3.29850    2.65080    9.16830   10.00270   10.36150    0.16110
 12288.50000    0.01050   -9999.25    8.60560   -9999.25    3.33960    2.71980    9.57580   10.90580   11.40210    0.11840
 12289.00000   -0.00510   -9999.25    8.60250   -9999.25    3.38060    2.72250   15.92310   24.97620   26.73140    0.09340
 12289.50000    0.00570   -9999.25    8.59900   -9999.25    3.31300    2.69910   28.03780   56.17880   58.37410    0.07330
 12290.00000    0.02720   -9999.25    8.61910   -9999.25    3.15650    2.66800   27.21910    9.26420    7.02250    0.07450
 12290.50000    0.03810   -9999.25    8.62650   -9999.25    3.02050    2.63690    7.55430    7.14440    6.95750    0.08060
 12291.00000    0.05840   -9999.25    8.63400   -9999.25    3.01530    2.60580    8.14290    7.59180    7.44560    0.09110
 12291.50000    0.07910   -9999.25    8.63500   -9999.25    3.02220    2.57470   12.21910    9.49760    8.68540    0.10410
 12292.00000    0.09500   -9999.25    8.61970   -9999.25    2.98650    2.55730   11.63720    9.03300    7.51490    0.11790
 12292.50000    0.09660   -9999.25    8.61060   -9999.25    2.92040    2.55520    9.33530    8.86640    8.37200    0.13210
 12293.00000    0.09530   -9999.25    8.61910   -9999.25    2.84280    2.55990    9.23420    8.32140    7.74970    0.14210
 12293.50000    0.09110   -9999.25    8.62770   -9999.25    2.76530    2.56580    7.53700    7.01180    6.57860    0.14390
 12294.00000    0.08670   -9999.25    8.63680   -9999.25    2.76200    2.57020    6.73310    6.27620    5.84580    0.14350
 12294.50000    0.08580   -9999.25    8.61130   -9999.25    2.80940    2.57240    5.80560    5.54510    5.40540    0.13990
 12295.00000    0.08350   -9999.25    8.63260   -9999.25    2.83220    2.57370    5.51200    5.59650    5.28450    0.13800
 12295.50000    0.08520   -9999.25    8.63660   -9999.25    2.86240    2.57570    5.59940    5.80750    5.48560    0.14000
 12296.00000    0.07890   -9999.25    8.62560   -9999.25    2.90220    2.58230    5.68300    5.86130    5.62060    0.14060
 12296.50000    0.07450   -9999.25    8.61460   -9999.25    2.99720    2.59090    5.76660    5.87930    5.70790    0.13880
 12297.00000    0.06990   -9999.25    8.60570   -9999.25    3.05170    2.59360    5.80460    5.78900    5.68870    0.12850
 12297.50000    0.07340   -9999.25    8.61460   -9999.25    3.12000    2.58640    5.82600    5.73550    5.65690    0.12270
 12298.00000    0.07990   -9999.25    8.60370   -9999.25    3.17960    2.57810    5.82580    5.73530    5.62500    0.12490
 12298.50000    0.08220   -9999.25    8.60520   -9999.25    3.23360    2.57810    5.80410    5.73510    5.59320    0.12740
 12299.00000    0.07870   -9999.25    8.60680   -9999.25    3.28770    2.58150    5.82540    5.71720    5.56770    0.13230
 12299.50000    0.07740   -9999.25    8.60840   -9999.25    3.33210    2.58440    6.00530    5.78800    5.68910    0.13190
 12300.00000    0.07940   -9999.25    8.60990   -9999.25    3.26500    2.58090    7.33300    7.53230    6.84440    0.13070
 12300.50000    0.08500   -9999.25    8.61150   -9999.25    3.13150    2.57030    7.95120    8.15320    7.70120    0.13350
 12301.00000    0.09040   -9999.25    8.61720   -9999.25    2.94460    2.56010    7.97600    8.19550    7.71470    0.14390
 12301.50000    0.09650   -9999.25    8.63170   -9999.25    2.83810    2.55400   -9999.25   -9999.25   -9999.25    0.15000
 12302.00000    0.09610   -9999.25    8.63220   -9999.25    2.76730    2.55730   -9999.25   -9999.25   -9999.25    0.14630
 12302.50000    0.09240   -9999.25    8.63280   -9999.25    2.75790    2.56130   -9999.25   -9999.25   -9999.25    0.14250
 12303.00000    0.09030   -9999.25    8.63330   -9999.25    2.83050    2.56520   -9999.25   -9999.25   -9999.25    0.14220
 12303.50000    0.08710   -9999.25    8.64580   -9999.25    2.90300    2.57730   -9999.25   -9999.25   -9999.25    0.14950
 12304.00000    0.07380   -9999.25    8.62060   -9999.25    2.94570    2.60050   -9999.25   -9999.25   -9999.25    0.14910
 12304.50000    0.05790   -9999.25    8.60830   -9999.25    3.02940    2.62190   -9999.25   -9999.25   -9999.25    0.13850
 12305.00000    0.04460   -9999.25    8.60810   -9999.25    3.06430    2.64290   -9999.25   -9999.25   -9999.25    0.11840
 12305.50000    0.03600   -9999.25    8.60780   -9999.25    3.08300    2.65040   -9999.25   -9999.25   -9999.25    0.10600
 12306.00000    0.04130   -9999.25    8.59950   -9999.25    3.02190    2.64290   -9999.25   -9999.25   -9999.25    0.10600
 12306.50000    0.04320   -9999.25    8.60430   -9999.25    2.92740    2.63450   -9999.25   -9999.25   -9999.25    0.11770
 12307.00000    0.05330   -9999.25    8.62470   -9999.25    2.85590    2.62240   -9999.25   -9999.25   -9999.25    0.11980
 12307.50000    0.06620   -9999.25    8.61760   -9999.25    2.84430    2.59750   -9999.25   -9999.25   -9999.25    0.11920
 12308.00000    0.08300   -9999.25    8.61760   -9999.25    2.82770    2.57260   -9999.25   -9999.25   -9999.25    0.12340
 12308.50000    0.10250   -9999.25    8.61760   -9999.25    2.73870    2.54590   -9999.25   -9999.25   -9999.25    0.13450
 12309.00000    0.11160   -9999.25    8.62320   -9999.25    2.64960    2.53270   -9999.25   -9999.25   -9999.25    0.13920
 12309.50000    0.11800   -9999.25    8.63830   -9999.25    2.64400    2.52020   -9999.25   -9999.25   -9999.25    0.13920
 12310.00000    0.12150   -9999.25    8.64870   -9999.25    2.63610    2.51420   -9999.25   -9999.25   -9999.25    0.14040
 12310.50000    0.12270   -9999.25    8.64020   -9999.25    2.62430    2.51080   -9999.25   -9999.25   -9999.25    0.14190
 12311.00000    0.12450   -9999.25    8.63170   -9999.25    2.60710    2.50920   -9999.25   -9999.25   -9999.25    0.14340
 12311.50000    0.12430   -9999.25    8.62320   -9999.25    2.58370    2.51050   -9999.25   -9999.25   -9999.25    0.14740
 12312.00000    0.12250   -9999.25    8.62280   -9999.25    2.57390    2.51390   -9999.25   -9999.25   -9999.25    0.15470
 12312.50000    0.11920   -9999.25    8.64380   -9999.25    2.58080    2.51740   -9999.25   -9999.25   -9999.25    0.14990
 12313.00000    0.11880   -9999.25    8.63350   -9999.25    2.64070    2.52130   -9999.25   -9999.25   -9999.25    0.14060
 12313.50000    0.11350   -9999.25    8.63310   -9999.25    2.75310    2.52600   -9999.25   -9999.25   -9999.25    0.13960
 12314.00000    0.10880   -9999.25    8.64200   -9999.25    3.08480    2.53590   -9999.25   -9999.25   -9999.25    0.13840
 12314.50000    0.10130   -9999.25    8.65090   -9999.25    3.45450    2.54660   -9999.25   -9999.25   -9999.25    0.13580
 12315.00000    0.08930   -9999.25    8.64190   -9999.25    3.85980    2.56690   -9999.25   -9999.25   -9999.25    0.12880
 12315.50000    0.07090   -9999.25    8.60860   -9999.25    3.98750    2.58910   -9999.25   -9999.25   -9999.25    0.12130
 12316.00000    0.06470   -9999.25    8.60210   -9999.25    3.81320    2.60300   -9999.25   -9999.25   -9999.25    0.11510
 12316.50000    0.06700   -9999.25    8.60290   -9999.25    3.54440    2.59880   -9999.25   -9999.25   -9999.25    0.11470
 12317.00000    0.07410   -9999.25    8.60360   -9999.25    3.24510    2.58820   -9999.25   -9999.25   -9999.25    0.12980
 12317.50000    0.06860   -9999.25    8.60430   -9999.25    2.99490    2.59370   -9999.25   -9999.25   -9999.25    0.12930
 12318.00000    0.06280   -9999.25    8.62810   -9999.25    2.74470    2.60670   -9999.25   -9999.25   -9999.25    0.13330
 12318.50000    0.06380   -9999.25    8.64340   -9999.25    2.65700    2.60700   -9999.25   -9999.25   -9999.25    0.13620
