~Version ---------------------------------------------------
VERS.   2.0 : CWLS log ASCII Standard -VERSION 2.0
WRAP.    NO : One line per depth step
DLM . SPACE : Column Data Section Delimiter
~Well ------------------------------------------------------
STRT .FT                144.0 : START DEPTH
STOP .FT              12340.0 : STOP DEPTH
STEP .FT                  0.5 : STEP
NULL .               -9999.25 : NULL VALUE
COMP .                        : COMPANY
WELL .                        : WELL
FLD  .                        : FIELD
LOC  .                        : LOCATION
PROV .                        : PROVINCE
CNTY .                        : COUNTY
STAT .                        : STATE
CTRY .                        : COUNTRY
SRVC .                        : SERVICE COMPANY
DATE .                        : DATE
UWI  .                        : UNIQUE WELL ID
API  .                        : API NUMBER
SLAT .WGS84 2.285069702591997 : SURFACE LATITUDE
SLON .WGS84 8.141602013994003 : SURFACE LONGITUDE
DATUM.F                   nan : DEPTH DATUM ELEV
~Curve Information -----------------------------------------
DEPT   .FT    : 
DPHZ_LS.DEC   : HGRD STANDARD RESOLUTION DENSITY POROSITY
DTSM   .US/F  : DELTA-T SHEAR
HCALD  .IN    : HRCC CALIPER CALIBRATED FROM DENSITY LOG
HSGRD  .GAPI  : HNGS STANDARD GAMMA RAY FROM DENSITY LOG
PEFZ   .B/E   : HRDD STANDARD RESOLUTION FORMATION PHOTOELECTRIC FACTOR
RHOZ   .G/C3  : HRDD STANDARD RESOLUTION FORMATION DENSITY
RLA1   .OHMM  : APPARENT RESISTIVITY FROM COMPUTED FOCUSING MODE 1
RLA4   .OHMM  : APPARENT RESISTIVITY FROM COMPUTED FOCUSING MODE 4
RLA5   .OHMM  : APPARENT RESISTIVITY FROM COMPUTED FOCUSING MODE 5
TNPH_LS.DEC   : THERMAL NEUTRON POROSITY [LIMESTONE]
~Params ----------------------------------------------------
~Other -----------------------------------------------------
~ASCII -----------------------------------------------------
# ...
 8492.00000    0.09970  103.51450    8.83710   35.49160    2.68870    2.55360    8.52620    7.37660    6.99470    0.06420
 8492.50000    0.09710  102.73600    8.83070   35.62870    2.68140    2.55720    7.94160    7.09060    6.71440    0.06240
 8493.00000    0.09300  102.18330    8.82430   36.73840    2.65700    2.56130   11.93910    9.67460    8.77100    0.05440
 8493.50000    0.09180  101.66190    8.82170   37.19410    2.65130    2.56590   12.10620   11.08440   10.27010    0.04900
 8494.00000    0.08730  101.08490    8.81820   37.44890    2.64560    2.57330   10.19840    9.12310    8.59340    0.04530
 8494.50000    0.08040  100.26230    8.81120   36.74730    2.68860    2.58660   10.82970    9.07810    8.63550    0.04240
 8495.00000    0.07200   99.77330    8.81820   37.05240    2.74870    2.59710   18.06310   18.48430   14.39970    0.03820
 8495.50000    0.06450   99.54770    8.82640   34.43970    2.78160    2.60410   18.92080   17.50600   15.44170    0.03410
 8496.00000    0.06410   98.71890    8.82340   34.34180    2.79780    2.60810   15.83830   15.25280   14.98870    0.03080
 8496.50000    0.06180   98.65480    8.82030   34.68010    2.77190    2.60990   18.96910   17.13320   16.71840    0.03040
 8497.00000    0.06230   97.63330    8.81730   34.85080    2.77660    2.60760   24.78670   21.07310   20.34180    0.03000
 8497.50000    0.06550   97.60610    8.82210   32.94230    2.78040    2.59930   30.43770   37.49410   23.31220    0.03160
 8498.00000    0.07350   97.70070    8.81620   32.84500    2.75220    2.58710   25.42020   25.28090   20.23740    0.03260
 8498.50000    0.08100   96.78260    8.81330   34.96040    2.72400    2.57400   19.84700   16.76330   14.87170    0.03710
 8499.00000    0.08330   97.54480    8.81520   36.19080    2.66860    2.57370   14.27370   11.83210   10.31470    0.04150
 8499.50000    0.07790   99.56460    8.82320   38.95360    2.57260    2.58060   11.03490   10.07090    9.80220    0.04600
 8500.00000    0.07350   99.55320    8.82320   40.27820    2.48780    2.58940   10.58420   10.12080    9.57780    0.05050
 8500.50000    0.07640   99.01330    8.82320   40.84490    2.49110    2.58940   10.63330   10.44100    9.97010    0.05490
 8501.00000    0.08450   99.58310    8.82220   38.93350    2.54470    2.57910   10.93310   10.63350   10.41080    0.05940
 8501.50000    0.08690   99.95690    8.81760   37.77650    2.59860    2.56870   11.55810   10.89950   10.57280    0.05940
 8502.00000    0.08420  100.17340    8.82550   36.72020    2.63730    2.57430   12.50530   11.94450   11.48040    0.05210
 8502.50000    0.07980   99.48300    8.82360   35.11050    2.68200    2.58140   12.68030   11.62280   11.28130    0.04470
 8503.00000    0.07520   99.81200    8.84030   34.30570    2.75860    2.58860   21.17590   12.33290   13.05970    0.04380
 8503.50000    0.07270  100.14100    8.83360   33.09850    2.84990    2.59570   36.10420   24.39170   20.89660    0.04260
 8504.00000    0.07390  100.76950    8.83800   33.63500    2.91530    2.58610   31.22180   20.60500   16.64070    0.04150
 8504.50000    0.08350  101.61540    8.84700   34.50690    2.82100    2.56340   21.15980   11.73810    9.15370    0.04410
 8505.00000    0.09640  102.66550    8.85310   40.04010    2.70130    2.54290   11.09780    7.16980    6.94040    0.05400
 8505.50000    0.10770  103.70070    8.85080   43.14200    2.62300    2.53470    7.02410    6.68240    6.15810    0.06390
 8506.00000    0.10740  103.19640    8.84840   45.99010    2.58080    2.53570    8.17350    6.95190    6.29270    0.07390
 8506.50000    0.09750  103.08430    8.85050   47.38410    2.60630    2.55120   10.67730   11.22080    9.30080    0.07630
 8507.00000    0.08430  103.82220    8.84260   45.08460    2.65500    2.57540   12.77930   13.54690   11.70730    0.07310
 8507.50000    0.08170  105.05290    8.83800   42.52160    2.74280    2.58030   11.66570   10.63350    9.66690    0.06810
 8508.00000    0.08920  105.02780    8.83240   40.84490    2.72400    2.57990   11.71990    9.68290    9.22660    0.06850
 8508.50000    0.10610  105.53440    8.82510   41.24730    2.70510    2.55140    9.64400    7.49360    6.97970    0.07130
 8509.00000    0.11450  106.95260    8.83580   49.19500    2.64130    2.51410    8.12770    7.19650    6.82630    0.08570
 8509.50000    0.12070  106.31450    8.84640   55.56660    2.60350    2.51390    8.83460    7.81660    7.18650    0.09580
 8510.00000    0.11620  103.70960    8.85710   56.53910    2.72650    2.53350    9.60290    7.82730    9.25780    0.09140
 8510.50000    0.10320  103.64990    8.85490   50.96560    2.87600    2.55760   10.15290    8.97470    6.94640    0.07990
 8511.00000    0.08950  102.88050    8.84200   43.66180    2.99710    2.57690   14.91250   10.85200   11.96310    0.06850
 8511.50000    0.07510  101.80570    8.82070   37.72620    3.04350    2.58910   12.33270   10.58110    9.25780    0.05010
 8512.00000    0.07030  100.69800    8.81960   35.83990    3.11360    2.60470   22.43000   12.80050    9.43100    0.03200
 8512.50000    0.05540   98.46790    8.81860   34.95960    3.18370    2.62770   47.24200   41.65830   17.67910    0.02130
 8513.00000    0.04030   96.96570    8.81760   34.60750    3.25390    2.65060   72.05390   84.51120   52.50520    0.01480
 8513.50000    0.02980   95.28300    8.81650   35.31170    3.28140    2.66000   66.57710   84.48240   60.17100    0.01210
 8514.00000    0.03770   94.25690    8.81550   35.43250    3.29930    2.65010   54.06410   48.00330   45.70960    0.01190
 8514.50000    0.04170   93.29790    8.81440   35.11050    3.31740    2.64210   70.81120   69.63610   55.33890    0.01170
 8515.00000    0.04320   92.67850    8.80730   33.80270    3.34670    2.64040   91.74510  109.56950   77.99200    0.01170
 8515.50000    0.04260   91.93630    8.81000   34.57400    3.31000    2.63840  100.58350  101.37700   92.15060    0.01170
 8516.00000    0.04720   92.04780    8.81260   36.04950    3.19700    2.63160   87.33410   80.89560   70.40530    0.01410
 8516.50000    0.05260   92.44040    8.80680   39.03410    3.07290    2.62490   69.38750   47.29690   46.58830    0.01700
 8517.00000    0.05310   92.97160    8.81600   39.77180    2.98240    2.62260   48.30940   43.48600   34.93870    0.02010
 8517.50000    0.05520   93.90030    8.81580   39.83890    2.92640    2.62030   40.81490   34.83940   29.61210    0.02140
 8518.00000    0.05620   93.42740    8.81550   38.19570    2.91970    2.62330   30.46440   27.32770   25.18360    0.02230
 8518.50000    0.05030   94.44250    8.81520   35.18600    3.06580    2.63660   32.48630   27.73580   29.08250    0.02070
 8519.00000    0.03820   94.72000    8.81500   32.99790    3.14250    2.64790   46.37450   38.93980   38.43950    0.01910
 8519.50000    0.03880   95.76530    8.81470   33.50090    3.13420    2.64780   57.98190   53.01440   31.61810    0.01930
 8520.00000    0.05460   96.14490    8.81440   35.42910    2.99040    2.61530   29.44240   13.02180   12.76480    0.02700
 8520.50000    0.06780   96.71560    8.81420   38.63170    2.80180    2.59310   14.44050   12.34110   12.00010    0.03240
 8521.00000    0.07750   98.30050    8.81390   38.53110    2.71120    2.58420   13.22020   11.41080   10.89960    0.03910
 8521.50000    0.07100   98.69970    8.81140   38.02810    2.66080    2.59760   12.44990   10.79240   10.09420    0.03910
 8522.00000    0.06790   99.10040    8.81910   36.72020    2.61050    2.60090   16.22220   13.94570   12.18280    0.03840
 8522.50000    0.07310   99.94110    8.82680   36.79210    2.63570    2.59500   17.07270   15.40440   14.57040    0.04070
 8523.00000    0.09030  100.30070    8.82220   36.92140    2.64510    2.56510   12.27560   11.33910   10.84020    0.04800
 8523.50000    0.10510  100.52010    8.85410   35.81480    2.62700    2.53530   12.31510   11.91350   10.31470    0.05240
 8524.00000    0.10520  101.36940    8.84130   35.31180    2.60700    2.54430   12.50530   11.73810   10.18030    0.05460
 8524.50000    0.09770  102.61350    8.84700   33.90330    2.65210    2.55640   11.99460   11.39520    9.97010    0.05560
