~Version ---------------------------------------------------
VERS.   2.0 : CWLS log ASCII Standard -VERSION 2.0
WRAP.    NO : One line per depth step
DLM . SPACE : Column Data Section Delimiter
~Well ------------------------------------------------------
STRT .FT                144.0 : START DEPTH
STOP .FT              12340.0 : STOP DEPTH
STEP .FT                  0.5 : STEP
NULL .               -9999.25 : NULL VALUE
COMP .                        : COMPANY
WELL .                        : WELL
FLD  .                        : FIELD
LOC  .                        : LOCATION
PROV .                        : PROVINCE
CNTY .                        : COUNTY
STAT .                        : STATE
CTRY .                        : COUNTRY
SRVC .                        : SERVICE COMPANY
DATE .                        : DATE
UWI  .                        : UNIQUE WELL ID
API  .                        : API NUMBER
SLAT .WGS84 2.285069702591997 : SURFACE LATITUDE
SLON .WGS84 8.141602013994003 : SURFACE LONGITUDE
DATUM.F                   nan : DEPTH DATUM ELEV
~Curve Information -----------------------------------------
DEPT   .FT    : 
DPHZ_LS.DEC   : HGRD STANDARD RESOLUTION DENSITY POROSITY
DTSM   .US/F  : DELTA-T SHEAR
HCALD  .IN    : HRCC CALIPER CALIBRATED FROM DENSITY LOG
HSGRD  .GAPI  : HNGS STANDARD GAMMA RAY FROM DENSITY LOG
PEFZ   .B/E   : HRDD STANDARD RESOLUTION FORMATION PHOTOELECTRIC FACTOR
RHOZ   .G/C3  : HRDD STANDARD RESOLUTION FORMATION DENSITY
RLA1   .OHMM  : APPARENT RESISTIVITY FROM COMPUTED FOCUSING MODE 1
RLA4   .OHMM  : APPARENT RESISTIVITY FROM COMPUTED FOCUSING MODE 4
RLA5   .OHMM  : APPARENT RESISTIVITY FROM COMPUTED FOCUSING MODE 5
TNPH_LS.DEC   : THERMAL NEUTRON POROSITY [LIMESTONE]
~Params ----------------------------------------------------
~Other -----------------------------------------------------
~ASCII -----------------------------------------------------
# ...
 9449.00000    0.07550  103.50460    8.77670   65.77380    2.45940    2.58250   12.91830   11.92660   11.55970    0.07540
 9449.50000    0.08050  103.51320    8.77620   64.08320    2.46490    2.57720   12.48470   12.02070   11.57660    0.07580
 9450.00000    0.08260  103.11480    8.76830   64.93920    2.46140    2.57690   12.32630   11.80850   10.90100    0.07700
 9450.50000    0.07960  103.45430    8.78000   66.27630    2.44700    2.57740   14.77600   13.22440   11.77620    0.07840
 9451.00000    0.08270  103.64230    8.77630   65.20830    2.44560    2.57170   13.05220   12.47820   11.67280    0.07970
 9451.50000    0.08780  103.97100    8.77610   61.52870    2.47660    2.56440    9.16880    9.75050   10.97370    0.07910
 9452.00000    0.09290  103.62400    8.78490   58.91180    2.52780    2.56200    9.94740   10.33980   10.86740    0.07650
 9452.50000    0.09010  103.42650    8.79360   58.02090    2.56670    2.56890    9.63740    9.99380   10.32180    0.07350
 9453.00000    0.08530  103.14910    8.80230   60.26010    2.54820    2.57580    8.45280    9.04870    9.45660    0.07610
 9453.50000    0.08010  103.03890    8.79190   63.43580    2.49860    2.58170    7.97900    8.64400    9.75390    0.08080
 9454.00000    0.07720  103.54550    8.76870   65.43920    2.49920    2.58560   10.60210   11.55380   12.43140    0.08290
 9454.50000    0.07670  103.02540    8.78950   66.56750    2.49290    2.58600   12.27640   13.07560   14.57340    0.08060
 9455.00000    0.07630  102.43260    8.78740   66.76530    2.48670    2.58630   10.96810   11.66340   13.24260    0.07850
 9455.50000    0.07620  102.90100    8.77960   65.65550    2.48040    2.58640   11.24200   11.95530   13.06520    0.07830
 9456.00000    0.07510  102.42880    8.77770   63.22440    2.47410    2.58820   11.29440   11.52490   11.73370    0.08290
 9456.50000    0.07620  101.91510    8.78470   61.25500    2.48040    2.58570   11.08680   10.59850   10.21640    0.07970
 9457.00000    0.07840  101.39110    8.78260   60.01100    2.50180    2.58420   11.24200   10.59850    9.99790    0.07700
 9457.50000    0.07640  100.66220    8.77900   59.71290    2.60140    2.58420   11.89630   12.23380   11.70440    0.07240
 9458.00000    0.06690   99.32290    8.77100   58.15060    2.78410    2.59850   12.74000   17.42650   16.88730    0.06250
 9458.50000    0.05290   99.13580    8.77220   54.51580    3.01670    2.63430   23.34220   38.06140   45.27370    0.04750
 9459.00000    0.03660   98.46660    8.77340   47.68650    3.40850    2.67020  110.87410  111.95110  146.41080    0.03310
 9459.50000    0.02390   97.60930    8.76770   41.82320    3.51050    2.67770  216.04630  236.96050  246.75460    0.02040
 9460.00000    0.02360   97.43530    8.76720   40.09050    3.42480    2.67770  216.04630  207.57280  201.19570    0.02010
 9460.50000    0.03400   97.26130    8.77320   48.93610    3.21440    2.65560  145.76960  102.80770   47.08310    0.02570
 9461.00000    0.04860   97.56630    8.77080   58.93480    2.93410    2.62800   35.63280   37.64820   22.06410    0.03710
 9461.50000    0.05670   98.39980    8.77070   65.46300    2.74720    2.61520   28.54850   25.16700   18.98120    0.05160
 9462.00000    0.05980   98.86410    8.77440   64.25100    2.60790    2.61260   24.48340   23.51380   20.59650    0.06620
 9462.50000    0.06080   99.31030    8.77550   63.99110    2.59110    2.60970   26.73630   25.32310   20.91710    0.07590
 9463.00000    0.06290  100.17470    8.78140   66.41910    2.58250    2.60200   23.81220   23.21410   22.87700    0.08420
 9463.50000    0.07000  100.40280    8.77770   67.02620    2.57400    2.59070   23.05230   20.68520   18.25910    0.08730
 9464.00000    0.07950  101.05170    8.78390   66.33890    2.54640    2.58010   19.91700   18.31720   15.84080    0.08800
 9464.50000    0.08280  102.03470    8.77800   64.81990    2.49540    2.57240   17.29680   16.58610   15.21730    0.08680
 9465.00000    0.08790  101.57230    8.77760   65.22580    2.48040    2.56500   16.51370   16.13140   15.31160    0.08550
 9465.50000    0.09160  101.36830    8.77730   64.54840    2.50630    2.56040   16.73160   16.66930   15.88980    0.08460
 9466.00000    0.09410  101.37410    8.76910   66.26970    2.54890    2.55910   18.58230   17.88890   16.59200    0.08520
 9466.50000    0.09280  101.74490    8.78210   68.55350    2.56950    2.56260   20.15420   19.10850   18.07010    0.08630
 9467.00000    0.08950  101.93740    8.78340   72.30160    2.57350    2.56780   20.91520   20.27390   19.72480    0.08700
 9467.50000    0.08570  102.08070    8.78310   76.26770    2.57750    2.57360   21.40530   20.71690   19.67620    0.08780
 9468.00000    0.08310  101.68840    8.77090   81.69030    2.60400    2.58550   23.88860   21.69930   21.61240    0.08720
 9468.50000    0.07530  101.29600    8.77010   85.79480    2.61900    2.60030   29.34780   28.11390   26.02580    0.08320
 9469.00000    0.06470  100.97920    8.76930   86.45990    2.63100    2.61140   29.74260   28.34990   27.79110    0.07770
 9469.50000    0.05960  100.63310    8.76860   80.39060    2.63100    2.61480   23.99500   21.88290   19.48270    0.07550
 9470.00000    0.06000  100.39020    8.76780   70.41480    2.67030    2.60990   21.10990   20.78110   19.30300    0.07140
 9470.50000    0.06350  100.27810    8.76700   61.26770    2.70960    2.60440   26.86050   24.57200   22.89720    0.06580
 9471.00000    0.06540  100.27780    8.76770   59.86100    2.70320    2.59810   26.86050   26.19830   22.43770    0.06860
 9471.50000    0.07030  100.35810    8.77050   60.15970    2.65780    2.59040   17.87710   15.25910   14.43890    0.07440
 9472.00000    0.07860  100.68480    8.77330   62.31200    2.59510    2.58220   15.62070   15.35370   14.39430    0.08020
 9472.50000    0.08000  100.86520    8.77610   63.06850    2.56540    2.58480   20.15170   17.53440   17.15620    0.08600
 9473.00000    0.07670  101.69060    8.77480   66.08990    2.57150    2.59040   25.02810   24.14970   21.76770    0.08580
 9473.50000    0.07240  102.07090    8.76090   73.64200    2.57760    2.59640   40.14140   30.71070   26.37920    0.09110
 9474.00000    0.06900  102.69890    8.76290   86.21410    2.63000    2.59840   72.72190   75.50230   44.37440    0.09660
 9474.50000    0.06930  103.32690    8.75390   96.24760    2.71340    2.59780  124.87800  129.72760  125.94320    0.10350
 9475.00000    0.07050  103.24770    8.74490  107.71290    2.76820    2.59720  142.91190  182.80990  185.71920    0.11060
 9475.50000    0.06880  102.87560    8.73580  119.24040    2.78830    2.59820  151.92500  183.37660  183.84940    0.11890
 9476.00000    0.06760  102.91210    8.73780  122.43460    2.78390    2.59760  142.38370  151.88570  160.12920    0.12990
 9476.50000    0.06860  102.72050    8.72840  112.67600    2.74480    2.59560  143.70920  128.54590  144.12110    0.11970
 9477.00000    0.07180  102.32350    8.73080   99.69810    2.72090    2.59250   82.86090   61.44610   58.32280    0.10320
 9477.50000    0.07390  101.76450    8.73430   71.32810    2.71150    2.59140   63.29180   61.52590   57.78490    0.08520
 9478.00000    0.07380  101.30480    8.74620   66.29790    2.76960    2.59640   71.10320   68.03340   62.03940    0.07550
 9478.50000    0.07000  101.12970    8.74950   75.19130    2.96430    2.60740  138.00040  117.55600   83.09860    0.07670
 9479.00000    0.06350  100.69330    8.73640   80.08060    3.19510    2.61900  287.18770  202.23090  130.77010    0.08860
 9479.50000    0.05660  100.46330    8.72830   75.69860    3.29840    2.61940  378.44930  365.14940  248.28440    0.09120
 9480.00000    0.05930  100.52690    8.73850   70.72410    3.17510    2.60790  351.41040  256.38680  177.98450    0.08220
 9480.50000    0.06610  100.67860    8.74860   71.52900    2.85980    2.59650  144.86580  119.28180  105.29610    0.07570
 9481.00000    0.07110  100.44960    8.73640   79.37600    2.74150    2.59420   94.59210   84.80900   71.65600    0.08890
 9481.50000    0.06370  100.38400    8.73850   85.81460    2.68470    2.61020   74.05740   71.01500   67.48170    0.10020
