~Version ---------------------------------------------------
VERS.   2.0 : CWLS log ASCII Standard -VERSION 2.0
WRAP.    NO : One line per depth step
DLM . SPACE : Column Data Section Delimiter
~Well ------------------------------------------------------
STRT .FT                144.0 : START DEPTH
STOP .FT              12340.0 : STOP DEPTH
STEP .FT                  0.5 : STEP
NULL .               -9999.25 : NULL VALUE
COMP .                        : COMPANY
WELL .                        : WELL
FLD  .                        : FIELD
LOC  .                        : LOCATION
PROV .                        : PROVINCE
CNTY .                        : COUNTY
STAT .                        : STATE
CTRY .                        : COUNTRY
SRVC .                        : SERVICE COMPANY
DATE .                        : DATE
UWI  .                        : UNIQUE WELL ID
API  .                        : API NUMBER
SLAT .WGS84 2.285069702591997 : SURFACE LATITUDE
SLON .WGS84 8.141602013994003 : SURFACE LONGITUDE
DATUM.F                   nan : DEPTH DATUM ELEV
~Curve Information -----------------------------------------
DEPT   .FT    : 
DPHZ_LS.DEC   : HGRD STANDARD RESOLUTION DENSITY POROSITY
DTSM   .US/F  : DELTA-T SHEAR
HCALD  .IN    : HRCC CALIPER CALIBRATED FROM DENSITY LOG
HSGRD  .GAPI  : HNGS STANDARD GAMMA RAY FROM DENSITY LOG
PEFZ   .B/E   : HRDD STANDARD RESOLUTION FORMATION PHOTOELECTRIC FACTOR
RHOZ   .G/C3  : HRDD STANDARD RESOLUTION FORMATION DENSITY
RLA1   .OHMM  : APPARENT RESISTIVITY FROM COMPUTED FOCUSING MODE 1
RLA4   .OHMM  : APPARENT RESISTIVITY FROM COMPUTED FOCUSING MODE 4
RLA5   .OHMM  : APPARENT RESISTIVITY FROM COMPUTED FOCUSING MODE 5
TNPH_LS.DEC   : THERMAL NEUTRON POROSITY [LIMESTONE]
~Params ----------------------------------------------------
~Other -----------------------------------------------------
~ASCII -----------------------------------------------------
# ...
 7535.00000    0.11500  112.75960    8.79000  152.81680    3.01540    2.53050  174.19790  185.12480  148.35130    0.21990
 7535.50000    0.10640  112.23520    8.79000  138.56460    3.08900    2.54840  129.77100  138.65820   86.45910    0.18000
 7536.00000    0.09680  111.55140    8.79000  111.56930    3.04780    2.55920   77.64280   68.58420   13.01010    0.15100
 7536.50000    0.09530  110.76190    8.83030   88.50580    2.91800    2.55030   23.80520    7.34490    7.01010    0.12150
 7537.00000    0.10090  109.13750    8.87050   74.64770    2.76560    2.53920    8.37180    6.52340    6.55160    0.10450
 7537.50000    0.10790  108.96650    8.87020   66.70000    2.64440    2.53060    7.04040    6.30160    6.23780    0.11120
 7538.00000    0.10960  108.37020    8.86990   65.00650    2.61090    2.53760    7.00780    6.23960    6.16120    0.11240
 7538.50000    0.10180  108.00370    8.86960   63.58130    2.64680    2.55410    8.92290    7.42350    6.90260    0.10990
 7539.00000    0.09210  108.62510    8.87360   57.94750    2.68260    2.57050   11.39860   10.77600   10.13040    0.10130
 7539.50000    0.08730  108.96000    8.87870   50.60350    2.71130    2.55760   10.04220    8.51050    7.34920    0.09500
 7540.00000    0.09570  109.61390    8.88380   49.98870    2.68000    2.53590    6.83980    5.49000    5.02300    0.09930
 7540.50000    0.11220  110.73700    8.90510   49.49680    2.64920    2.51430    4.99460    4.63860    4.51610    0.10240
 7541.00000    0.12170  111.36700    8.90850   50.30160    2.58020    2.50990    4.57580    4.52540    4.48030    0.10490
 7541.50000    0.12380  112.17060    8.94340   51.72690    2.53060    2.51340    4.74860    4.61640    4.59150    0.10960
 7542.00000    0.11990  113.08990    8.94360   52.21310    2.48740    2.51920    4.88250    4.73120    4.66960    0.11740
 7542.50000    0.11920  113.79820    8.94380   52.11250    2.49160    2.52190    4.85990    4.68470    4.63720    0.12260
 7543.00000    0.11720  114.45360    8.94400   53.89820    2.52300    2.52190    4.36130    4.21190    4.02300    0.12020
 7543.50000    0.12170  115.47680    8.94430   57.70320    2.54620    2.49740    4.24890    4.14020    4.01060    0.11980
 7544.00000    0.13290  115.74090    8.94450   61.36800    2.55880    2.47860    4.32090    4.07930    4.01060    0.12400
 7544.50000    0.14750  115.48420    8.94470   59.45660    2.53220    2.45990    4.08200    3.89340    3.78140    0.13710
 7545.00000    0.15440  115.55240    8.94490   54.67790    2.50560    2.46470    3.90890    3.75060    3.65570    0.14160
 7545.50000    0.14740  115.67480    8.94510   50.65380    2.48350    2.48520    4.38260    4.08260    3.98890    0.12990
 7546.00000    0.13170  115.38960    8.94530   46.75540    2.48040    2.50570    4.83700    4.57030    4.37710    0.11920
 7546.50000    0.12500  115.26220    8.94550   44.06420    2.47430    2.50860    5.02010    4.66150    4.53800    0.11260
 7547.00000    0.12700  114.23060    8.94570   43.56120    2.44420    2.49920    4.92790    4.36890    4.25420    0.10800
 7547.50000    0.13460  112.06930    8.94590   42.87710    2.43250    2.49160    4.36870    4.09950    3.96140    0.10610
 7548.00000    0.12980  112.07640    8.94610   41.64980    2.45000    2.49670    4.55470    4.25160    3.93700    0.10370
 7548.50000    0.11910  110.86340    8.94630   42.95760    2.53610    2.51650    5.21110    4.91040    4.46370    0.09580
 7549.00000    0.10760  109.02370    8.94660   44.22020    2.65110    2.53630    6.31890    5.56920    5.38570    0.08780
 7549.50000    0.10050  108.55270    8.94680   45.27150    2.67540    2.55610    7.67120    6.78650    6.30760    0.07910
 7550.00000    0.09550  108.32820    8.94700   44.76850    2.69970    2.56410    8.12770    7.13030    6.80150    0.07220
 7550.50000    0.09650  108.48090    8.94720   46.50510    2.72400    2.54960    8.87690    8.23030    7.98760    0.07230
 7551.00000    0.10800  109.37280    8.94660   48.54770    2.69740    2.52760    7.48800    6.32670    5.86380    0.08300
 7551.50000    0.12000  109.90590    8.94910   49.06130    2.62320    2.49980    5.11660    4.87580    4.38290    0.09120
 7552.00000    0.13140  108.42400    8.96580   47.05990    2.53810    2.47580    4.19300    3.92370    3.77280    0.10900
 7552.50000    0.14790  114.78530    8.96840   47.02630    2.46930    2.46050    4.25480    4.04110    3.80850    0.12020
 7553.00000    0.16300  115.97520    8.97110   50.95560    2.39850    2.43100    4.56150    4.33270    4.14190    0.12980
 7553.50000    0.17210  116.82190    8.97370   54.94960    2.33520    2.43100    4.68810    4.48570    4.31060    0.13470
 7554.00000    0.17270  118.07480    8.97640   53.40430    2.28450    2.43610    4.45720    4.12920    4.02230    0.13480
 7554.50000    0.16960  120.26100    8.97900   50.80470    2.27950    2.44250    4.06220    3.79320    3.69500    0.13150
 7555.00000    0.16520  120.09020    8.98170   49.84900    2.31300    2.44070    3.98830    3.70120    3.48970    0.12930
 7555.50000    0.16780  119.42830    8.98430   48.89320    2.35480    2.44000    3.72110    3.25560    3.13300    0.13660
 7556.00000    0.16290  119.01080    8.98700   47.88720    2.39670    2.45070    3.53690    3.17670    3.07150    0.13700
 7556.50000    0.15640  118.87360    8.98960   46.16690    2.45410    2.47760    3.47250    3.09960    3.01570    0.12630
 7557.00000    0.13690  118.43660    8.94860   44.30070    2.49990    2.50000    4.38980    3.94070    3.85960    0.11110
 7557.50000    0.12480  117.94150    8.94360   41.45100    2.54760    2.51400    4.54400    4.20200    4.18460    0.09840
 7558.00000    0.11980  117.50950    8.95180   41.79810    2.59250    2.51680    5.57350    5.58600    4.91890    0.08710
 7558.50000    0.12850  116.79110    8.96010   46.28070    2.57170    2.50780    5.09050    4.64670    4.31900    0.08670
 7559.00000    0.13970  116.08900    8.96830   51.32290    2.51840    2.48510    3.31800    3.16400    3.10310    0.10130
 7559.50000    0.14610  115.48090    8.97650   55.34300    2.46130    2.47160    3.59240    3.38450    3.24350    0.11770
 7560.00000    0.14480  116.05800    8.98480   55.10290    2.42880    2.48730    4.03160    3.87560    3.70230    0.12610
 7560.50000    0.13510  116.75740    8.99300   53.13170    2.44590    2.50250    4.16490    3.97280    3.88920    0.12470
 7561.00000    0.12690  117.45680    8.99920   52.40220    2.46300    2.51010    4.71460    4.46590    4.69320    0.11420
 7561.50000    0.12490  118.02700    9.00240   54.52200    2.48010    2.50410    5.10690    4.88950    5.42910    0.10790
 7562.00000    0.13480  118.51110    9.00560   60.21110    2.49040    2.49460    4.26890    4.61390    4.83540    0.11480
 7562.50000    0.13780  118.99530    9.00880   63.78250    2.47030    2.48500    3.85070    4.30090    4.24160    0.13510
 7563.00000    0.14050  119.19430    9.00280   64.08430    2.42200    2.48100    4.08990    4.30120    4.33450    0.14740
 7563.50000    0.14300  119.28340    9.00090   62.97770    2.41250    2.47690    3.99660    4.07860    4.13070    0.15060
 7564.00000    0.14570  119.23800    9.00800   64.70230    2.42860    2.47580    4.12860    4.03420    3.85530    0.15190
 7564.50000    0.14500  118.92300    8.97940   67.90720    2.46000    2.48530    4.28480    4.13080    3.96420    0.15100
 7565.00000    0.13970  118.18410    8.97840   67.90720    2.50570    2.49790    4.36530    4.22120    4.13970    0.14350
 7565.50000    0.12900  117.12880    8.98440   66.44850    2.54850    2.51920    4.64850    4.36710    4.30950    0.13680
 7566.00000    0.11270  116.04240    8.97700   63.80260    2.57320    2.54380    5.13440    5.01540    5.03670    0.12630
 7566.50000    0.10160  114.37310    8.94790   57.63560    2.59760    2.55650    7.71890    6.62910    6.35920    0.11640
 7567.00000    0.09420  113.33240    8.91310   52.51490    2.62190    2.55630    7.44420    7.23790    7.15290    0.09980
 7567.50000    0.09770  112.53920    8.90660   50.50290    2.64620    2.55290    6.66660    6.37020    6.24400    0.08810
