~Version ---------------------------------------------------
VERS.   2.0 : CWLS log ASCII Standard -VERSION 2.0
WRAP.    NO : One line per depth step
DLM . SPACE : Column Data Section Delimiter
~Well ------------------------------------------------------
STRT .FT                144.0 : START DEPTH
STOP .FT              12340.0 : STOP DEPTH
STEP .FT                  0.5 : STEP
NULL .               -9999.25 : NULL VALUE
COMP .                        : COMPANY
WELL .                        : WELL
FLD  .                        : FIELD
LOC  .                        : LOCATION
PROV .                        : PROVINCE
CNTY .                        : COUNTY
STAT .                        : STATE
CTRY .                        : COUNTRY
SRVC .                        : SERVICE COMPANY
DATE .                        : DATE
UWI  .                        : UNIQUE WELL ID
API  .                        : API NUMBER
SLAT .WGS84 2.285069702591997 : SURFACE LATITUDE
SLON .WGS84 8.141602013994003 : SURFACE LONGITUDE
DATUM.F                   nan : DEPTH DATUM ELEV
~Curve Information -----------------------------------------
DEPT   .FT    : 
DPHZ_LS.DEC   : HGRD STANDARD RESOLUTION DENSITY POROSITY
DTSM   .US/F  : DELTA-T SHEAR
HCALD  .IN    : HRCC CALIPER CALIBRATED FROM DENSITY LOG
HSGRD  .GAPI  : HNGS STANDARD GAMMA RAY FROM DENSITY LOG
PEFZ   .B/E   : HRDD STANDARD RESOLUTION FORMATION PHOTOELECTRIC FACTOR
RHOZ   .G/C3  : HRDD STANDARD RESOLUTION FORMATION DENSITY
RLA1   .OHMM  : APPARENT RESISTIVITY FROM COMPUTED FOCUSING MODE 1
RLA4   .OHMM  : APPARENT RESISTIVITY FROM COMPUTED FOCUSING MODE 4
RLA5   .OHMM  : APPARENT RESISTIVITY FROM COMPUTED FOCUSING MODE 5
TNPH_LS.DEC   : THERMAL NEUTRON POROSITY [LIMESTONE]
~Params ----------------------------------------------------
~Other -----------------------------------------------------
~ASCII -----------------------------------------------------
# ...
 10867.00000    0.15510  118.50230    8.73580   99.79870    2.67510    2.45650   51.36390   69.34860   78.17180    0.16720
 10867.50000    0.15940  115.75980    8.71690   93.44040    2.66110    2.45250   54.29810   77.13540   80.12880    0.16740
 10868.00000    0.16070  115.84110    8.72730   91.64960    2.69040    2.45560   53.87770   73.19150   77.45330    0.16790
 10868.50000    0.15840  115.77160    8.73640   96.09630    2.72700    2.46600   63.65130   85.40780   89.82430    0.16820
 10869.00000    0.14990  114.06130    8.71760   99.49670    2.81850    2.48260   57.30750   68.80960   75.68080    0.16360
 10869.50000    0.12390  110.71400    8.72200   83.75230    3.09900    2.53040   57.68190   76.58600  110.52230    0.15290
 10870.00000    0.08920  107.72370    8.72920   54.90430    3.50560    2.62510  105.71470  296.34750  638.41340    0.14210
 10870.50000    0.04960  106.16200    8.73640   31.69000    4.19810    2.67550  201.78060 1110.77280 1721.56990    0.11090
 10871.00000    0.02500  104.20110    8.74450   22.83690    4.62890    2.69370  227.64140 1948.20780 2263.06720    0.04660
 10871.50000    0.01200  103.61230    8.73870   23.13870    4.94180    2.69110  213.79240  960.48470 1967.23060    0.03430
 10872.00000    0.02120  103.19530    8.73640   26.55920    4.99120    2.65860  194.84060  735.50250  867.67670    0.05430
 10872.50000    0.04250  103.30500    8.74340   44.44150    4.45210    2.59270  191.26480  619.53900  922.49740    0.09280
 10873.00000    0.09130  104.59260    8.74070   70.50280    3.99860    2.51580  138.48990  247.93690  292.11010    0.13130
 10873.50000    0.13800  106.04940    8.73800   91.30760    3.34360    2.43890  103.51820  152.35490  177.70160    0.16970
 10874.00000    0.17390  107.50630    8.71190   99.69790    3.01100    2.40820   93.91530  116.20150  125.75740    0.18430
 10874.50000    0.18680  108.59500    8.73640  101.54250    2.87920    2.42000   89.16860  126.01620  143.60930    0.17230
 10875.00000    0.17780  109.52340    8.72340   92.25330    2.93610    2.44970   86.56480  105.03240  113.22610    0.15780
 10875.50000    0.15370  111.14140    8.73080   79.37600    3.13940    2.47260   94.49310  124.47010  150.87510    0.14790
 10876.00000    0.13760  111.94620    8.72290   70.32170    3.47340    2.49930  119.46040  160.82040  175.52130    0.14000
 10876.50000    0.12890  111.43370    8.72850   70.24630    3.64480    2.51790  122.62340  157.38290  180.46630    0.13210
 10877.00000    0.11640  111.26800    8.73410   70.82470    3.72020    2.54150   87.53220  106.99600  123.83080    0.12420
 10877.50000    0.10060  111.09140    8.73870   72.18290    3.64960    2.56510  143.10080  325.36330  389.74890    0.11630
 10878.00000    0.08840  110.54350    8.73640   74.94950    3.61680    2.56520  160.70130  338.51420  405.26290    0.11000
 10878.50000    0.09770  110.63380    8.72000   79.40960    3.64090    2.55110  118.17410  201.05430  269.92880    0.11040
 10879.00000    0.10120  111.36020    8.71910   80.38210    3.62880    2.54540   98.54880  123.70360  134.18010    0.11610
 10879.50000    0.10140  109.03240    8.71810   85.37870    3.36560    2.52660  119.48450  149.79850  236.79750    0.12690
 10880.00000    0.11710  110.80020    8.71720   90.29150    3.15180    2.48800   90.98270  117.49480  132.22470    0.14630
 10880.50000    0.14250  112.40040    8.71620   92.85690    2.88060    2.44950   87.08460  108.99630  115.70030    0.16510
 10881.00000    0.17000  113.18200    8.71620   91.95140    2.64340    2.42610   85.60820  111.72210  113.92770    0.17710
 10881.50000    0.17630  114.02720    8.73640   91.95140    2.56030    2.42780   84.34890  110.01050  110.40700    0.17750
 10882.00000    0.16800  115.20220    8.73180   99.49670    2.63250    2.44420   89.53830   99.66300  104.49390    0.17610
 10882.50000    0.16160  116.01550    8.73640  108.07340    2.75010    2.45370   90.83560  110.45000  125.36900    0.17110
 10883.00000    0.15760  116.26660    8.73130  108.80270    2.83160    2.45660   84.90440  101.90820  113.82350    0.16610
 10883.50000    0.15720  116.36710    8.72630  103.37020    2.79930    2.45200   75.06790   95.74190   98.84580    0.16080
 10884.00000    0.16140  116.36710    8.72130   97.95410    2.69390    2.44530   74.38060   97.83400  109.86400    0.15650
 10884.50000    0.16660  116.14240    8.71620   89.85890    2.60170    2.44100   87.24030  150.39770  155.14690    0.15430
 10885.00000    0.16670  115.70610    8.71620   83.29960    2.65580    2.44710  107.31350  174.79950  187.27710    0.15220
 10885.50000    0.15820  115.26980    8.72360   81.87430    2.80100    2.45960   94.13670  118.36380  143.55170    0.14820
 10886.00000    0.15060  114.83350    8.71380   79.87900    2.94670    2.47090   76.83310   87.89650  100.17820    0.14720
 10886.50000    0.14530  114.10690    8.71690   80.78450    2.97340    2.48040   62.48310   66.55460   68.66760    0.15250
 10887.00000    0.14060  113.28960    8.72000   72.73620    2.99260    2.49130   57.59280   58.24390   63.44540    0.15710
 10887.50000    0.13150  112.86910    8.72310   68.13720    3.01170    2.50560   58.02110   73.50220   82.03500    0.14580
 10888.00000    0.12560  112.44860    8.72230   64.15790    3.06610    2.50350   87.22390  119.55760  127.71280    0.13200
 10888.50000    0.12670  111.96750    8.72050   65.65370    3.07870    2.49100  116.42590  122.94180  170.18460    0.11860
 10889.00000    0.14180  111.65250    8.71860   72.93740    2.99670    2.46990  104.17990  137.81880  139.67420    0.11980
 10889.50000    0.15810  111.72890    8.73640   83.84280    2.86980    2.44890  101.13780  113.49860  138.81410    0.12770
 10890.00000    0.16760  111.94000    8.73640   92.15270    2.78170    2.43210   86.04990   90.83690  109.10000    0.14290
 10890.50000    0.16790  111.66840    8.73640   90.10710    2.86580    2.43240   61.10960   67.75540   77.74990    0.15820
 10891.00000    0.14490  111.87860    8.73640   82.39410    3.05280    2.49790   69.55420   87.28840   93.59440    0.15820
 10891.50000    0.11450  112.09240    8.73640   78.47060    3.42500    2.53400  111.77690  144.45010  149.43270    0.14720
 10892.00000    0.09690  112.04080    8.73640   78.77240    3.66090    2.54720  113.44550  147.17400  171.23910    0.13160
 10892.50000    0.10550  111.78800    8.73640   80.78450    3.58290    2.52820   81.90920  106.94240  119.80380    0.11910
 10893.00000    0.12100  112.97070    8.73640   81.38810    3.37800    2.50100   46.45740   49.14840   52.65670    0.12660
 10893.50000    0.13800  114.69870    8.73640   77.06210    3.18160    2.48520   54.87520   64.87710   89.21550    0.14350
 10894.00000    0.14230  115.40060    8.73640   79.57720    2.96400    2.47120   88.83900  114.51590  138.81410    0.16030
 10894.50000    0.15310  115.65020    8.73640   83.70200    2.86260    2.45710   82.73230   97.34780  111.61610    0.16840
 10895.00000    0.16130  115.69910    8.73640   90.24120    2.76300    2.44580   73.95130   81.79530   89.90420    0.17030
 10895.50000    0.16370  115.79840    8.74340   94.56710    2.69220    2.45260   62.56540   80.54250   83.15290    0.17050
 10896.00000    0.15490  115.77350    8.73640   88.69860    2.69800    2.46610   56.14600   60.62880   77.32150    0.16260
 10896.50000    0.14770  115.65790    8.73640   81.99170    2.76680    2.48040   58.41700   71.17180   74.93730    0.15470
 10897.00000    0.13970  115.54230    8.73640   77.86700    2.92140    2.49790   70.08690   85.93700   89.54770    0.14690
 10897.50000    0.12460  114.65990    8.73640   77.66580    3.02410    2.51540   86.56480   89.45570   92.64100    0.13900
 10898.00000    0.11840  113.98520    8.72780   83.40020    3.11370    2.51860   87.53220  104.70900  115.10850    0.13740
 10898.50000    0.12190  113.76730    8.73710   88.32970    3.15170    2.50150   53.67840   55.60840   82.71310    0.14470
 10899.00000    0.14170  113.45980    8.78100   84.73320    3.17910    2.48370   66.12500   93.38320  110.82790    0.15580
 10899.50000    0.14240  112.62090    8.81780   74.11590    3.25840    2.48060   86.88610  113.94730  135.79160    0.15460
