~Version ---------------------------------------------------
VERS.   2.0 : CWLS log ASCII Standard -VERSION 2.0
WRAP.    NO : One line per depth step
DLM . SPACE : Column Data Section Delimiter
~Well ------------------------------------------------------
STRT .FT                144.0 : START DEPTH
STOP .FT              12340.0 : STOP DEPTH
STEP .FT                  0.5 : STEP
NULL .               -9999.25 : NULL VALUE
COMP .                        : COMPANY
WELL .                        : WELL
FLD  .                        : FIELD
LOC  .                        : LOCATION
PROV .                        : PROVINCE
CNTY .                        : COUNTY
STAT .                        : STATE
CTRY .                        : COUNTRY
SRVC .                        : SERVICE COMPANY
DATE .                        : DATE
UWI  .                        : UNIQUE WELL ID
API  .                        : API NUMBER
SLAT .WGS84 2.285069702591997 : SURFACE LATITUDE
SLON .WGS84 8.141602013994003 : SURFACE LONGITUDE
DATUM.F                   nan : DEPTH DATUM ELEV
~Curve Information -----------------------------------------
DEPT   .FT    : 
DPHZ_LS.DEC   : HGRD STANDARD RESOLUTION DENSITY POROSITY
DTSM   .US/F  : DELTA-T SHEAR
HCALD  .IN    : HRCC CALIPER CALIBRATED FROM DENSITY LOG
HSGRD  .GAPI  : HNGS STANDARD GAMMA RAY FROM DENSITY LOG
PEFZ   .B/E   : HRDD STANDARD RESOLUTION FORMATION PHOTOELECTRIC FACTOR
RHOZ   .G/C3  : HRDD STANDARD RESOLUTION FORMATION DENSITY
RLA1   .OHMM  : APPARENT RESISTIVITY FROM COMPUTED FOCUSING MODE 1
RLA4   .OHMM  : APPARENT RESISTIVITY FROM COMPUTED FOCUSING MODE 4
RLA5   .OHMM  : APPARENT RESISTIVITY FROM COMPUTED FOCUSING MODE 5
TNPH_LS.DEC   : THERMAL NEUTRON POROSITY [LIMESTONE]
~Params ----------------------------------------------------
~Other -----------------------------------------------------
~ASCII -----------------------------------------------------
# ...
 11329.00000    0.07880  109.92400    8.76580   76.61950    3.24270    2.58660   27.42430   29.49050   37.09330    0.11550
 11329.50000    0.07460  110.11600    8.75570   70.12050    3.33950    2.58610   34.90320   42.09810   47.85080    0.11250
 11330.00000    0.08110  109.54370    8.75190   68.00790    3.35930    2.56500   42.59900   42.36060   45.80250    0.10960
 11330.50000    0.09630  108.82930    8.74800   67.40420    3.27370    2.54180   38.44240   37.23830   38.49630    0.11200
 11331.00000    0.11610  107.88790    8.74420   69.29050    3.13500    2.51910   39.16110   36.66820   36.46770    0.11980
 11331.50000    0.12920  106.60580    8.73640   75.15070    3.05570    2.49640   52.47520   44.83830   39.88320    0.12610
 11332.00000    0.13210  106.36650    8.73640   75.05010    3.11680    2.49240   54.65770   48.26250   45.68550    0.11910
 11332.50000    0.10670  105.83580    8.74350   64.68790    3.59500    2.49320   96.59610   66.73970   57.72690    0.09500
 11333.00000    0.07560  104.78920    8.76210   43.25940    4.22490    2.61140  197.54780  409.75660  147.09860    0.07080
 11333.50000    0.04900  103.57790    8.78830   23.39020    4.75640    2.65040  291.04900  752.56690  489.30040    0.04670
 11334.00000    0.03860  103.00750    8.79280   20.02000    4.73410    2.65080  289.97270  661.66470  326.23590    0.03010
 11334.50000    0.03810  102.78860    8.77800   30.88520    4.32780    2.64190  197.79100  146.57480   87.74390    0.03000
 11335.00000    0.04810  102.02050    8.76310   48.28960    3.76580    2.62170   66.87330   64.71100   60.13160    0.04120
 11335.50000    0.05900  102.95490    8.75720   62.04210    3.56530    2.60680   86.25820   73.57890   62.59370    0.05380
 11336.00000    0.06700  103.32520    8.76080   63.79360    3.49500    2.58910  127.12070  114.90800   91.03680    0.06650
 11336.50000    0.07660  103.97180    8.76440   65.33680    3.46930    2.57010  153.33430  107.41820  105.79190    0.07910
 11337.00000    0.09050  104.71930    8.75780   70.14930    3.40230    2.55040  111.95800   85.39320   69.95500    0.09180
 11337.50000    0.10080  105.29730    8.75650   76.55910    3.32650    2.54350   59.48480   58.44830   51.86010    0.10440
 11338.00000    0.10300  105.21120    8.76650   74.05240    3.28400    2.55560   53.66550   49.95650   47.26370    0.10560
 11338.50000    0.09310  105.21920    8.75630   66.08630    3.35010    2.57070   62.32820   59.35260   52.13970    0.09900
 11339.00000    0.08290  105.38650    8.76900   58.65600    3.46070    2.58590   64.44130   62.16570   58.04720    0.08970
 11339.50000    0.07400  105.10960    8.78170   56.81400    3.57140    2.59770   78.43060   74.81570   62.77320    0.08460
 11340.00000    0.06710  104.62510    8.76710   59.03050    3.70800    2.60400   73.88080   59.19920   53.41550    0.08130
 11340.50000    0.06440  104.46110    8.77660   59.22930    3.82160    2.60780   54.75690   52.62740   48.44050    0.07810
 11341.00000    0.06200  104.40980    8.76950   55.86940    3.89920    2.61490   78.67520   69.64220   62.56630    0.07540
 11341.50000    0.05670  104.35860    8.75650   51.39830    3.91070    2.61990   87.03150   84.72490   80.64250    0.06960
 11342.00000    0.05510  104.18670    8.75650   49.59740    3.88100    2.61560   94.37230   87.70470   79.66570    0.06390
 11342.50000    0.06340  103.90420    8.75650   53.21920    3.82340    2.60020  106.73490  100.39080   68.56730    0.06960
 11343.00000    0.07310  104.19370    8.77510   58.57130    3.70020    2.58470   60.94390   47.41540   43.25100    0.08090
 11343.50000    0.08350  104.70070    8.78140   66.04610    3.47280    2.57460   40.18140   36.14900   32.16060    0.09230
 11344.00000    0.08550  105.21370    8.78870   73.44050    3.36280    2.57140   29.96260   27.71490   26.72500    0.10230
 11344.50000    0.08580  105.20160    8.76760   73.33990    3.33390    2.57530   29.52510   28.32900   26.72850    0.11120
 11345.00000    0.08160  105.47270    8.78090   69.31050    3.38520    2.58610   36.60830   35.14380   31.84280    0.10740
 11345.50000    0.07230  105.26540    8.79410   65.28110    3.45240    2.60000   45.19700   42.19570   38.96710    0.09520
 11346.00000    0.06170  105.28000    8.77860   64.66250    3.46230    2.61400   52.45690   46.45290   43.61830    0.08800
 11346.50000    0.05670  105.29470    8.78360   66.50280    3.42480    2.61760   49.99650   44.89740   42.27800    0.08440
 11347.00000    0.05840  105.25450    8.78540   64.66400    3.39680    2.61210   38.86530   37.88750   36.53470    0.07940
 11347.50000    0.06270  105.19830    8.78230   63.38010    3.39820    2.60570   44.10760   38.48200   37.86230    0.08280
 11348.00000    0.06580  105.65730    8.77910   59.85900    3.39890    2.60030   48.19680   44.33200   40.87310    0.08430
 11348.50000    0.07000  106.21670    8.77860   59.55720    3.29360    2.59090   39.94030   36.52350   33.97820    0.08970
 11349.00000    0.07670  106.64930    8.78730   67.50490    3.18840    2.57660   30.78670   27.75550   26.18110    0.10040
 11349.50000    0.08730  107.51150    8.78800   72.83680    3.07100    2.56100   22.97640   21.21350   20.70530    0.11580
 11350.00000    0.09900  108.12830    8.79080   78.63830    2.95970    2.54770   23.23610   21.88140   20.45330    0.12940
 11350.50000    0.09930  108.84820    8.79770   81.68990    2.93060    2.55270   20.25680   18.38450   16.70230    0.13500
 11351.00000    0.09610  108.90040    8.80460   81.79050    2.94200    2.55870   16.81550   15.71330   15.20530    0.12750
 11351.50000    0.09150  108.44070    8.81160   76.76040    2.97080    2.56190   18.08290   17.46880   15.73070    0.12870
 11352.00000    0.09300  108.33400    8.81850   69.96960    3.00350    2.56260   20.69430   19.93220   18.35680    0.11850
 11352.50000    0.09170  107.42640    8.82540   62.67590    3.03180    2.56440   20.38970   19.89120   19.46720    0.10400
 11353.00000    0.09010  106.27070    8.83230   58.78840    3.06960    2.57440   20.38970   19.99380   19.46720    0.09390
 11353.50000    0.08310  105.49130    8.83920   56.67320    3.17210    2.58760   22.12200   20.74880   19.83130    0.09090
 11354.00000    0.07260  104.80600    8.84610   54.73860    3.25930    2.60370   27.36340   23.55000   20.96510    0.08860
 11354.50000    0.05870  104.15870    8.85310   52.28100    3.35570    2.62060   37.30520   37.54430   43.88880    0.08410
 11355.00000    0.05090  103.59200    8.86000   51.10650    3.43300    2.62320   38.85900   43.40950   46.36960    0.07970
 11355.50000    0.05760  103.96290    8.85940   54.48450    3.38910    2.60280   31.14490   31.23750   37.57270    0.07800
 11356.00000    0.07170  104.65570    8.86710   57.63000    3.27270    2.57840   23.71770   22.38690   27.81620    0.09550
 11356.50000    0.08680  105.34700    8.87110   61.24880    3.19270    2.55960   20.39750   19.79930   22.45790    0.10140
 11357.00000    0.09780  105.86650    8.90200   65.40220    3.10450    2.55340   18.10420   17.21170   18.68190    0.10740
 11357.50000    0.09810  106.50810    8.94320   67.02200    3.03480    2.55690   15.92280   14.95570   16.83740    0.11330
 11358.00000    0.09420  107.14980    8.92300   66.57390    2.99510    2.56240   14.60630   15.04830   15.68220    0.11830
 11358.50000    0.08940  107.81810    8.92440   65.87790    2.95540    2.56690   15.13880   15.76220   16.07460    0.11880
 11359.00000    0.08770  108.60170    8.92750   65.34390    2.93000    2.56470   16.20360   16.47940   17.39810    0.11990
 11359.50000    0.09140  109.00900    8.92590   65.98480    2.95890    2.55910   15.73020   16.45160   18.52860    0.12240
 11360.00000    0.09710  109.32910    8.93240   66.86390    3.00640    2.55210   14.17960   15.61650   17.10990    0.12470
 11360.50000    0.10030  109.34510    8.92950   68.37850    3.00780    2.54920   13.51260   15.52040   16.12430    0.12310
 11361.00000    0.09940  109.74840    8.92650   69.26200    2.96850    2.54860   14.07490   15.92850   16.68150    0.11730
 11361.50000    0.10040  109.92130    8.92360   65.78290    2.95150    2.54560   16.87790   17.48830   19.28760    0.11280
