~Version ---------------------------------------------------
VERS.   2.0 : CWLS log ASCII Standard -VERSION 2.0
WRAP.    NO : One line per depth step
DLM . SPACE : Column Data Section Delimiter
~Well ------------------------------------------------------
STRT .FT                144.0 : START DEPTH
STOP .FT              12340.0 : STOP DEPTH
STEP .FT                  0.5 : STEP
NULL .               -9999.25 : NULL VALUE
COMP .                        : COMPANY
WELL .                        : WELL
FLD  .                        : FIELD
LOC  .                        : LOCATION
PROV .                        : PROVINCE
CNTY .                        : COUNTY
STAT .                        : STATE
CTRY .                        : COUNTRY
SRVC .                        : SERVICE COMPANY
DATE .                        : DATE
UWI  .                        : UNIQUE WELL ID
API  .                        : API NUMBER
SLAT .WGS84 2.285069702591997 : SURFACE LATITUDE
SLON .WGS84 8.141602013994003 : SURFACE LONGITUDE
DATUM.F                   nan : DEPTH DATUM ELEV
~Curve Information -----------------------------------------
DEPT   .FT    : 
DPHZ_LS.DEC   : HGRD STANDARD RESOLUTION DENSITY POROSITY
DTSM   .US/F  : DELTA-T SHEAR
HCALD  .IN    : HRCC CALIPER CALIBRATED FROM DENSITY LOG
HSGRD  .GAPI  : HNGS STANDARD GAMMA RAY FROM DENSITY LOG
PEFZ   .B/E   : HRDD STANDARD RESOLUTION FORMATION PHOTOELECTRIC FACTOR
RHOZ   .G/C3  : HRDD STANDARD RESOLUTION FORMATION DENSITY
RLA1   .OHMM  : APPARENT RESISTIVITY FROM COMPUTED FOCUSING MODE 1
RLA4   .OHMM  : APPARENT RESISTIVITY FROM COMPUTED FOCUSING MODE 4
RLA5   .OHMM  : APPARENT RESISTIVITY FROM COMPUTED FOCUSING MODE 5
TNPH_LS.DEC   : THERMAL NEUTRON POROSITY [LIMESTONE]
~Params ----------------------------------------------------
~Other -----------------------------------------------------
~ASCII -----------------------------------------------------
# ...
 11824.00000    0.06880  110.07480    8.76900   39.23530    4.21850    2.61860  171.62260  260.23610  344.43320    0.08310
 11824.50000    0.05180  107.94420    8.77660   38.53110    4.24120    2.64000  152.19120  216.73030  331.45770    0.07030
 11825.00000    0.04530  107.04440    8.77660   44.06430    4.31310    2.62490  128.62110  171.61600  187.88380    0.06960
 11825.50000    0.05860  106.79320    8.77660   45.47270    4.52630    2.60560  130.57840  173.80500  190.86930    0.07620
 11826.00000    0.07510  106.82940    8.76660   45.47270    4.71940    2.58620  166.56150  230.58030  280.48130    0.07870
 11826.50000    0.07900  106.83730    8.75650   47.09350    4.69670    2.58140  196.39880  245.22770  345.49490    0.08080
 11827.00000    0.08010  106.22980    8.75730   48.99380    4.55450    2.58460   79.25390  137.35180  155.33380    0.09040
 11827.50000    0.07700  106.41640    8.75510   46.67990    4.41600    2.59630   78.69380  115.79210  193.82370    0.10430
 11828.00000    0.07040  106.85590    8.75290   40.74430    4.45610    2.61930  158.69440  611.52120  692.91850    0.11820
 11828.50000    0.05250  106.92090    8.75070   34.22520    4.65100    2.63870  237.51800  825.25440  886.90690    0.12010
 11829.00000    0.03510  107.39590    8.75250   36.99520    4.80350    2.65810  242.02330  596.52840  812.34470    0.10830
 11829.50000    0.03510  108.71880    8.73640   44.16490    4.75630    2.65750  192.59280  292.49810  424.95880    0.10080
 11830.00000    0.05170  110.42140    8.73570   54.12460    4.56600    2.61960  112.12660  118.61510   68.03270    0.12230
 11830.50000    0.07320  112.77070    8.72940   73.44040    4.41550    2.58170   97.86340   99.14440   79.61540    0.15460
 11831.00000    0.08810  114.27440    8.71780   77.86700    4.29440    2.55860  105.31030  130.41740  150.34720    0.18200
 11831.50000    0.09460  115.14560    8.70620   72.78650    4.19760    2.56860  133.95060  149.23060  155.02530    0.17790
 11832.00000    0.08640  115.63840    8.70490   67.60540    4.19130    2.57530  130.97280  151.52070  160.33900    0.15670
 11832.50000    0.08530  116.28960    8.70370   71.24150    4.17560    2.56120   86.42070  100.78630  113.08890    0.14390
 11833.00000    0.09420  116.54850    8.69840   76.35790    4.13190    2.55660   32.51300   39.05690   43.28890    0.15260
 11833.50000    0.09120  116.80740    8.70400   72.73620    4.11720    2.56300   39.67330   53.65560   97.13720    0.16160
 11834.00000    0.07780  116.45510    8.70970   61.56920    4.32620    2.59360  129.40780  169.67030  196.99990    0.16020
 11834.50000    0.05910  117.12650    8.70690   47.28350    4.63610    2.62430  135.26070  195.54470  210.14960    0.14870
 11835.00000    0.05500  117.85880    8.71240   49.71810    4.89750    2.62430  152.24860  179.66450  277.39230    0.13260
 11835.50000    0.06940  117.85360    8.71220   69.41630    4.73050    2.57920  122.01030   85.22750  131.54910    0.13940
 11836.00000    0.08920  118.57750    8.72230   84.60740    4.09300    2.54850   42.39340   39.97770   43.76600    0.16200
 11836.50000    0.10460  118.60750    8.73230   89.95070    3.64140    2.53650   43.26510   41.43520   46.39980    0.21900
 11837.00000    0.10590  118.62140    8.74240   84.39610    3.35050    2.54230   45.12780   43.70220   46.96600    0.20590
 11837.50000    0.10380  119.03220    8.75250   79.67780    3.37720    2.53780   45.45350   44.09880   49.18020    0.18520
 11838.00000    0.10610  119.43170    8.76750   75.85090    3.52860    2.53410   48.75660   47.32820   58.40350    0.17150
 11838.50000    0.10880  119.00080    8.75880   74.05550    3.68540    2.53480   54.94960   44.05360   57.31080    0.16520
 11839.00000    0.10070  116.90760    8.76790   73.44040    3.86770    2.55440   62.21290   40.66850   99.54690    0.16580
 11839.50000    0.07540  115.74160    8.77880   63.98370    4.03240    2.57390  161.60450  215.95260  351.09350    0.17210
 11840.00000    0.04690  115.75230    8.78440   52.81670    4.36690    2.66390  189.00010  701.06380 1348.80090    0.16460
 11840.50000    0.02830  116.62180    8.79000   39.93760    4.59850    2.66670  186.24420  845.40750 1959.54550    0.13830
 11841.00000    0.03120  117.93170    8.78640   46.17210    4.65610    2.62310  160.62160  443.14060 1119.27950    0.12130
 11841.50000    0.05730  119.41720    8.79520   64.10660    4.36890    2.56920   65.32680  105.70040  169.69920    0.12370
 11842.00000    0.09550  120.46060    8.80400   82.04120    3.97290    2.52030   37.74260   44.36250   53.22930    0.21200
 11842.50000    0.12210  121.35290    8.82680   91.52370    3.52500    2.50320   31.36460   33.90280   37.90710    0.26370
 11843.00000    0.12900  121.95510    8.83110   91.82050    3.15920    2.51120   30.11570   33.49120   34.89840    0.20970
 11843.50000    0.12050  122.52370    8.83550   86.27850    2.97080    2.51880   29.89670   33.18630   34.41190    0.18540
 11844.00000    0.11890  123.63560    8.84360   81.33880    3.07150    2.52130   30.12330   32.98650   34.90720    0.17140
 11844.50000    0.11650  124.59370    8.83680   74.95470    3.22210    2.51610   45.96220   55.93770   69.50480    0.15610
 11845.00000    0.12500  124.74400    8.82510   72.33410    3.36490    2.49650   39.78390   49.88450   55.24830    0.16000
 11845.50000    0.13900  124.19030    8.81330   77.68190    3.41360    2.47690   37.77710   46.43040   49.50260    0.17130
 11846.00000    0.15040  123.87100    8.78680   84.97000    3.36730    2.45740   35.60770   44.66630   46.68840    0.17970
 11846.50000    0.15550  123.43350    8.76030   90.54260    3.32270    2.46330   35.34920   43.98890   46.40760    0.18030
 11847.00000    0.15190  122.86470    8.74440   89.74140    3.27800    2.47750   35.09220   42.65650   45.84480    0.17910
 11847.50000    0.14310  121.63880    8.74440   83.36560    3.23340    2.49120   31.99180   39.24950   42.57450    0.16460
 11848.00000    0.13250  120.37370    8.74440   78.60770    3.25060    2.50190   42.09100   51.19610   58.34750    0.14080
 11848.50000    0.12690  120.13770    8.74390   67.89870    3.40910    2.50200   37.81950   45.11370   49.39150    0.13430
 11849.00000    0.12860  120.06280    8.75540   63.40680    3.68840    2.51160   38.35340   49.04370   50.32130    0.13520
 11849.50000    0.12710  120.28690    8.76690   63.68180    3.90850    2.52120   41.48830   60.07580   64.63540    0.14230
 11850.00000    0.11780  120.08430    8.77840   65.82530    4.04770    2.53080   53.78490   68.26920   82.76360    0.14260
 11850.50000    0.11030  120.89350    8.78100   72.63560    3.79810    2.53280   51.24740   65.17010   68.54020    0.14290
 11851.00000    0.11500  123.79160    8.77040   83.44330    3.57990    2.51170   45.73810   56.48850   59.66070    0.14710
 11851.50000    0.13040  123.96290    8.77710   99.39610    3.38520    2.48580   32.00000   38.77750   47.73900    0.15350
 11852.00000    0.14520  124.81010    8.77970  107.57390    3.19050    2.47690   27.89570   33.32760   35.81740    0.16420
 11852.50000    0.14300  126.07220    8.78220  115.19110    2.99530    2.48000   28.51950   33.52980   40.66040    0.18330
 11853.00000    0.14340  127.24570    8.78470  119.01400    2.96790    2.47440   49.16670   51.97900   62.62480    0.20000
 11853.50000    0.14710  127.40080    8.78790  117.00190    3.00560    2.47280   40.87420   43.55790   51.43860    0.21010
 11854.00000    0.13950  126.74960    8.79630  107.08530    3.18420    2.49290   26.57060   31.11960   35.34900    0.20810
 11854.50000    0.11670  126.16290    8.79960  100.10060    3.36240    2.53070   36.99970   28.54090   50.89810    0.20430
 11855.00000    0.09490  125.57620    8.80290   77.96760    3.53900    2.56850   63.32390   67.50480   83.40720    0.19820
 11855.50000    0.08480  124.90720    8.80610   76.55910    3.71560    2.56860   67.57180   80.03100   87.88970    0.18060
 11856.00000    0.10280  123.37860    8.79600   86.33780    3.81430    2.54640   51.61620   61.18090   68.47080    0.17370
 11856.50000    0.11680  122.21980    8.80210   94.46650    3.78570    2.52420   41.57590   46.60840   50.09060    0.18660
