~Version ---------------------------------------------------
VERS.   2.0 : CWLS log ASCII Standard -VERSION 2.0
WRAP.    NO : One line per depth step
DLM . SPACE : Column Data Section Delimiter
~Well ------------------------------------------------------
STRT .FT                144.0 : START DEPTH
STOP .FT              12340.0 : STOP DEPTH
STEP .FT                  0.5 : STEP
NULL .               -9999.25 : NULL VALUE
COMP .                        : COMPANY
WELL .                        : WELL
FLD  .                        : FIELD
LOC  .                        : LOCATION
PROV .                        : PROVINCE
CNTY .                        : COUNTY
STAT .                        : STATE
CTRY .                        : COUNTRY
SRVC .                        : SERVICE COMPANY
DATE .                        : DATE
UWI  .                        : UNIQUE WELL ID
API  .                        : API NUMBER
SLAT .WGS84 2.285069702591997 : SURFACE LATITUDE
SLON .WGS84 8.141602013994003 : SURFACE LONGITUDE
DATUM.F                   nan : DEPTH DATUM ELEV
~Curve Information -----------------------------------------
DEPT   .FT    : 
DPHZ_LS.DEC   : HGRD STANDARD RESOLUTION DENSITY POROSITY
DTSM   .US/F  : DELTA-T SHEAR
HCALD  .IN    : HRCC CALIPER CALIBRATED FROM DENSITY LOG
HSGRD  .GAPI  : HNGS STANDARD GAMMA RAY FROM DENSITY LOG
PEFZ   .B/E   : HRDD STANDARD RESOLUTION FORMATION PHOTOELECTRIC FACTOR
RHOZ   .G/C3  : HRDD STANDARD RESOLUTION FORMATION DENSITY
RLA1   .OHMM  : APPARENT RESISTIVITY FROM COMPUTED FOCUSING MODE 1
RLA4   .OHMM  : APPARENT RESISTIVITY FROM COMPUTED FOCUSING MODE 4
RLA5   .OHMM  : APPARENT RESISTIVITY FROM COMPUTED FOCUSING MODE 5
TNPH_LS.DEC   : THERMAL NEUTRON POROSITY [LIMESTONE]
~Params ----------------------------------------------------
~Other -----------------------------------------------------
~ASCII -----------------------------------------------------
# ...
 6116.00000    0.11640  112.78970    8.95470   57.43330    2.78240    2.52660    5.03010    4.74580    4.29790    0.12360
 6116.50000    0.11050  112.19810    8.95270   60.66100    2.81660    2.53540    5.46290    5.15440    5.03170    0.12070
 6117.00000    0.10550  111.68210    8.93420   60.45980    2.83090    2.54660    5.98610    5.28330    5.11000    0.11910
 6117.50000    0.09980  111.16630    8.95150   61.57760    2.85410    2.55440    6.75250    6.09700    5.85340    0.11880
 6118.00000    0.09380  111.85790    8.93370   66.40010    2.93040    2.56780    7.51890    7.02200    6.62280    0.11980
 6118.50000    0.08460  112.33130    8.95130   71.85310    3.09100    2.58490    7.97870    7.57710    7.44710    0.12260
 6119.00000    0.07070  112.86360    8.93390   79.18880    3.28610    2.61070    9.25250    8.28130    7.38370    0.13360
 6119.50000    0.05810  113.52660    8.93020   85.57710    3.36330    2.62310   12.35430   11.13840   10.25270    0.14450
 6120.00000    0.05460  116.11520    8.92650   91.27310    3.34810    2.61750   15.32030   14.25860   13.27430    0.15550
 6120.50000    0.06070  118.14350    8.91370   96.60990    3.25490    2.60490   13.70320   12.24190   11.76510    0.16010
 6121.00000    0.07070  119.74250    8.91540   97.07940    3.24940    2.59240   15.23310   11.76020   10.53080    0.16030
 6121.50000    0.07670  120.48800    8.91710   97.61590    3.35280    2.58050   22.81830   18.19010   15.78850    0.16550
 6122.00000    0.08370  121.12580    8.92100  100.31590    3.51390    2.56890   30.40360   23.79500   22.77670    0.18780
 6122.50000    0.09010  121.43870    8.89250  102.74740    3.66790    2.55560   37.98890   32.48190   31.10410    0.20710
 6123.00000    0.10000  121.39510    8.86410  110.26150    3.82950    2.54230   46.17620   41.93930   39.43150    0.21490
 6123.50000    0.10430  121.85260    8.85710  114.13470    3.87620    2.53970   52.77730   50.24420   47.91600    0.22270
 6124.00000    0.10470  121.60880    8.85210  120.32180    3.86160    2.53970   49.69400   46.42640   43.40910    0.23060
 6124.50000    0.10150  121.02450    8.83780  127.72800    3.80340    2.54870   63.72560   95.01850   43.40910    0.23600
 6125.00000    0.09170  119.26620    8.83990  129.12750    3.72180    2.56870   88.65160   90.62060   73.59390    0.18670
 6125.50000    0.08300  117.39770    8.84200  119.01400    3.64730    2.58860   76.32380   75.61930   66.89340    0.16980
 6126.00000    0.07260  116.66510    8.84410  110.76160    3.56620    2.59260   64.40550   59.43240   58.20290    0.15580
 6126.50000    0.08080  115.75490    8.84620  113.91120    3.56940    2.57620   90.01710   81.27540   64.61560    0.16330
 6127.00000    0.09330  114.13670    8.84620  124.51030    3.58500    2.55610  126.04260  115.77540  107.51660    0.17380
 6127.50000    0.10570  113.16460    8.85710  133.20410    3.55540    2.53600  105.45660   93.42010   84.39730    0.17460
 6128.00000    0.09730  113.34400    8.87020  126.09910    3.53890    2.54790   68.71920   60.91810   53.84620    0.16770
 6128.50000    0.07860  113.08760    8.85750  109.37510    3.57120    2.57520   98.61450  106.97720   78.39710    0.14120
 6129.00000    0.07060  113.25250    8.86730  102.00240    3.73840    2.59700   75.65680   86.10820   65.67990    0.13130
 6129.50000    0.07610  113.69830    8.87720  102.97590    3.97850    2.59430   66.52740   60.02200   57.45260    0.13970
 6130.00000    0.08910  114.47260    8.88710  103.34000    4.09880    2.57200   59.82840   40.11140   27.52150    0.14960
 6130.50000    0.09210  115.42320    8.91610  104.46000    3.93050    2.56090   28.63760   24.79010   21.25920    0.15960
 6131.00000    0.09320  115.70760    8.93570  108.42310    3.64130    2.55560   34.21610   28.88090   23.98700    0.16960
 6131.50000    0.09830  116.40270    8.95200  114.18510    3.38360    2.54560   32.43590   30.49910   24.03730    0.17630
 6132.00000    0.10500  116.82700    8.97560  119.41640    3.23620    2.53310   28.10290   24.17750   18.85490    0.18230
 6132.50000    0.11060  116.95110    8.99920  123.10960    3.18430    2.53140   30.49150   28.73770   25.72560    0.18910
 6133.00000    0.10810  116.78380    9.04320  123.89240    3.12300    2.54170   26.84730   22.51840   14.98400    0.19070
 6133.50000    0.10640  116.79990    9.07840  105.44350    2.99430    2.53790   15.96640    8.03180    6.72530    0.18790
 6134.00000    0.11300  117.55000    9.10860   84.16460    2.85600    2.52410    5.08550    5.45170    4.22930    0.16930
 6134.50000    0.12120  117.74410    9.13510   65.60700    2.71860    2.51340    4.42110    3.67860    3.49550    0.15210
 6135.00000    0.12530  118.03000    9.16690   60.92800    2.60390    2.50750    4.66180    3.62390    3.42730    0.13500
 6135.50000    0.12180  119.07960    9.19870   59.29600    2.58920    2.50170    5.95020    4.92210    4.26560    0.13270
 6136.00000    0.13070  120.05280    9.24630   59.36300    2.61210    2.48410    4.50580    4.36110    3.96980    0.14150
 6136.50000    0.14380  121.56540    9.30830   59.83250    2.58690    2.46650    4.44290    3.88170    3.57700    0.15210
 6137.00000    0.15810  122.73600    9.37020   60.30200    2.57500    2.45040    4.75400    4.29150    3.98460    0.16260
 6137.50000    0.16330  124.28150    9.42950   59.92190    2.58230    2.44470    5.07070    4.47830    4.14730    0.17320
 6138.00000    0.16590  124.60470    9.48320   58.96060    2.61310    2.44290    5.21350    4.54450    4.23730    0.17890
 6138.50000    0.16550  125.00180    9.53680   60.90560    2.62540    2.44010    5.19660    4.61180    4.27610    0.18070
 6139.00000    0.16840  124.97550    9.56460   64.37420    2.65040    2.43700    5.22270    4.61100    4.32850    0.17900
 6139.50000    0.17080  124.91140    9.57500   66.80370    2.65830    2.43520    5.24360    4.61040    4.34120    0.17600
 6140.00000    0.17030  124.84730    9.63370   66.54590    2.67230    2.46020    5.33750    4.63260    4.35410    0.17300
 6140.50000    0.14900  124.90740    9.67340   62.16580    2.68980    2.48640    5.55520    4.74830    4.56040    0.16420
 6141.00000    0.12700  124.81900    9.69770   54.74560    2.71020    2.51260    5.58870    4.79540    4.61710    0.14130
 6141.50000    0.12040  124.66960    9.72200   49.76860    2.72410    2.51220    4.79230    4.18630    3.73860    0.12800
 6142.00000    0.13230  125.33680    9.76170   47.41460    2.65530    2.47410    4.00810    3.64780    3.31770    0.13680
 6142.50000    0.15570  126.89000    9.81180   51.65140    2.54490    2.44280    4.10940    3.42180    3.27700    0.14550
 6143.00000    0.17340  128.00880    9.88230   58.37880    2.42420    2.41260    4.80070    3.84470    3.93300    0.15410
 6143.50000    0.18550  130.90380    9.89020   65.10620    2.33980    2.38300    4.62500    3.83930    3.98250    0.16270
 6144.00000    0.20130  135.28050    9.88160   63.56030    2.36530    2.37120    4.04450    3.25020    3.42280    0.17130
 6144.50000    0.20990  138.57590    9.87300   57.09260    2.41070    2.37300    3.43900    2.88250    2.68090    0.17360
 6145.00000    0.20670  139.78960    9.94880   51.46850    2.43900    2.38170    3.80880    3.08630    3.20550    0.17480
 6145.50000    0.20160  143.01510   10.12690   48.96600    2.46140    2.38700    3.88480    3.26150    3.34860    0.17540
 6146.00000    0.20300  144.23730   10.33140   48.83720    2.45690    2.37560    3.71930    3.10430    2.99620    0.17640
 6146.50000    0.21090  144.66410   10.46930   48.66630    2.42010    2.36520    3.74620    3.05860    3.28710    0.17600
 6147.00000    0.21140  147.72780   10.65140   48.06030    2.37670    2.37050    3.82930    3.08900    3.29730    0.17500
 6147.50000    0.20950  148.71930   10.71780   46.99570    2.36060    2.36960    3.68840    3.07370    3.01940    0.17660
 6148.00000    0.21140  149.38120   10.81440   45.93110    2.34290    2.36300    3.37660    2.81840    2.63980    0.18190
 6148.50000    0.21760  150.31360   10.88200   45.46360    2.32510    2.35100    3.07400    2.54240    2.37150    0.18710
