~Version ---------------------------------------------------
VERS.   2.0 : CWLS log ASCII Standard -VERSION 2.0
WRAP.    NO : One line per depth step
DLM . SPACE : Column Data Section Delimiter
~Well ------------------------------------------------------
STRT .F                   97.0 : START DEPTH
STOP .F                 1536.0 : STOP DEPTH
STEP .F                    0.5 : STEP
NULL .                -9999.25 : NULL VALUE
COMP .                         : COMPANY
WELL .                         : WELL
FLD  .                         : FIELD
LOC  .                         : LOCATION
PROV .                         : PROVINCE
CNTY .                         : COUNTY
STAT .                         : STATE
CTRY .                         : COUNTRY
SRVC .                         : SERVICE COMPANY
DATE .                         : DATE
UWI  .                         : UNIQUE WELL ID
API  .                         : API NUMBER
SLAT .WGS84 1.0895347317891968 : SURFACE LATITUDE
SLON .WGS84  6.558643228714004 : SURFACE LONGITUDE
DATUM.F                2563.77 : DEPTH DATUM ELEV
~Curve Information -----------------------------------------
DEPT.F     : 
GRS .GAPI  : GAMMA RAY FROM SONIC LOG
DT  .US/F  : INTERVAL TRANSIT TIME
DTL .US/F  : DELTA-T LONG SPACING
DTSM.US/F  : SHEAR-WAVE INTERVAL TRANSIT TIME DELTA-T
DTCO.US/F  : COMPRESSIONAL-WAVE INTERVAL TRANSIT TIME ACOUSTIC SLOWNESS
GRD .GAPI  : GAMMA RAY
NPHI.DEC   : NEUTRON POROSITY LIMESTONE
LLD .OHMM  : LATEROLOG LOG DEEP
LLS .OHMM  : LATEROLOG LOG SHALLOW
MSFL.OHMM  : MICRO SPHERICALLY FOCUSED
GR  .GAPI  : GAMMA RAY
SNP .DEC   : SIDEWALL NEUTRON POROSITY LIMESTONE
CALD.IN    : CALIPER FDC LOG
DPHI.DEC   : DENSITY POROSITY LIMESTONE
DRHO.G/C3  : DENSITY CORRECTION
PEF .B/E   : PHOTOELECTRIC FACTOR
RHOB.G/C3  : BULK DENSITY
~Params ----------------------------------------------------
~Other -----------------------------------------------------
~ASCII -----------------------------------------------------
# ...
 1040.00000    6.52570   55.35820   55.84640  101.13320   56.10120    7.60030    0.00530  141.82130  165.29500  491.62260    7.97870    0.02260    9.90060   -0.06150   -0.00440    5.05190    2.93900
 1040.50000    6.65160   54.95640   55.26580   98.46500   56.50770    7.96000    0.00240  138.12140  163.62450  146.57240    8.43130    0.02110    9.90570   -0.05940   -0.00420    4.94140    2.93740
 1041.00000    8.17170   55.68080   55.81220   98.45620   56.36140    8.91800    0.00140  120.30210  142.82310  132.01820    9.19940    0.02060    9.91360   -0.05610   -0.00410    4.90090    2.93180
 1041.50000    9.75190   56.66220   56.94910   97.72780   56.10320    9.81580    0.00240  106.56470  124.43510  241.88330   10.18530    0.02120    9.92690   -0.05320   -0.00420    5.00830    2.92430
 1042.00000   10.86310   57.30420   57.88630   99.89610   56.95070   10.70400    0.00340   91.46860  106.31230   44.47050   10.48650    0.02290    9.94060   -0.04900   -0.00720    5.12680    2.91690
 1042.50000   12.20080   58.28740   58.54800  104.30210   57.27650   11.78520    0.00480   77.83140   90.24800   94.22110   10.61940    0.02520    9.95440   -0.04380   -0.00950    5.06540    2.90820
 1043.00000   14.09480   59.04410   58.93100  104.55770   56.77310   13.62300    0.00690   68.84360   80.73140  172.72490   11.15690    0.02740    9.96820   -0.03030   -0.01230    5.00500    2.88350
 1043.50000   15.85410   59.23550   59.27940  108.14370   57.98730   15.07290    0.00960   64.19410   76.45530  175.41150   12.47660    0.03170    9.98200   -0.01830   -0.01510    5.20320    2.86510
 1044.00000   17.69360   59.49160   60.21190  110.98330   59.41040   16.15160    0.01200   52.85770   67.39040   18.44240   13.68770    0.03590    9.98840   -0.01990   -0.01790    5.35170    2.86650
 1044.50000   20.51680   61.31320   61.91860  116.07100   61.50910   18.25940    0.01500   34.90640   43.01280  336.76860   14.89020    0.03870    9.99330   -0.01880   -0.01700    5.11680    2.86130
 1045.00000   23.43490   63.06450   63.79750  115.50480   61.25050   21.87780    0.02530   24.88330   31.33930  554.53010   18.32660    0.04170    9.99820   -0.00370   -0.01410    4.72300    2.83040
 1045.50000   23.15480   63.81210   64.12530  115.85370   60.81410   24.25350    0.03650   21.74920   29.27720   32.17780   23.11070    0.05020   10.00320    0.01530   -0.01120    4.49290    2.79830
 1046.00000   19.98110   63.34600   64.19330  116.80010   61.61760   23.09440    0.04130   21.93950   29.56530    9.16870   24.87420    0.05870   10.00810    0.00800   -0.00740    4.74010    2.81630
 1046.50000   18.39400   61.88110   62.28720  118.82120   62.86900   20.84160    0.03440   22.27500   29.84500   32.50770   21.96820    0.05830   10.01310   -0.00960    0.00070    4.83050    2.85910
 1047.00000   20.32030   61.73620   61.93880  120.97390   63.30710   21.54710    0.02730   20.59940   27.46020   80.23800   19.43430    0.05100   10.01800   -0.01660    0.00470    4.76110    2.85880
 1047.50000   24.08750   63.60270   63.47330  120.78050   63.39780   25.33510    0.03700   18.62430   24.45280   57.97360   20.84030    0.05360   10.02290    0.00040    0.00420    4.80160    2.82920
 1048.00000   23.96920   65.55650   65.07400  119.49440   63.50230   27.06570    0.06280   17.67550   22.34780    8.93660   24.53570    0.06570   10.02790    0.01280    0.00420    4.98130    2.80980
 1048.50000   21.83600   66.28490   65.73420  118.38570   63.93750   25.52150    0.07400   19.00760   23.70920   10.37850   26.00170    0.07590   10.03280   -0.00150    0.00620    5.04470    2.83380
 1049.00000   19.58290   65.07460   64.39980  118.61250   63.30520   21.79040    0.06700   24.16170   30.16340   38.33520   24.64710    0.06880   10.03780   -0.01830    0.00830    4.85240    2.86890
 1049.50000   19.17970   63.21520   62.96970  113.99490   61.54580   19.31790    0.05150   31.02760   36.87550   39.81100   23.01340    0.05120   10.03860   -0.03130    0.00520    4.65510    2.88990
 1050.00000   19.57010   62.53820   61.94990  110.19840   60.50370   19.39760    0.04260   41.00140   51.38640   62.60230   22.07730    0.04030   10.03860   -0.03220    0.00090    4.59470    2.88640
 1050.50000   20.49910   62.51850   61.56350  110.00010   60.02180   20.12620    0.03830   47.09730   52.23990   35.31830   21.75290    0.03870   10.03870   -0.02960   -0.00250    4.59750    2.88100
 1051.00000   23.06760   62.54320   62.14140  110.91880   59.92200   21.33520    0.03430   47.53760   52.51610   52.64300   21.88070    0.04000   10.03870   -0.02910   -0.00320    4.60220    2.88050
 1051.50000   28.47830   62.69520   62.60550  113.33610   60.65730   26.14920    0.03140   43.53170   49.58050   79.04860   24.02750    0.04070   10.03870   -0.02430   -0.00400    4.35250    2.86110
 1052.00000   36.54110   64.21360   63.02590  116.82890   63.79490   36.37240    0.03860   36.04560   41.98210   72.60170   30.89800    0.04220   10.03870    0.01360   -0.00490    3.97840    2.79690
 1052.50000   47.27880   67.37760   66.50790  120.74030   67.02570   47.18390    0.06070   28.06570   33.43650   49.55490   40.32880    0.05430   10.03870    0.05680   -0.00570    3.73150    2.72480
 1053.00000   52.46620   70.28810   69.47450  125.09340   68.77620   57.15420    0.09340   22.79970   28.90380   18.05900   48.26120    0.07410   10.03870    0.08920   -0.00660    3.60860    2.66720
 1053.50000   53.38020   72.23260   72.05100  129.44650   69.42450   60.66170    0.12010   21.25040   24.98930   20.56320   54.41900    0.09800   10.03870    0.10490   -0.00730    3.57770    2.64820
 1054.00000   50.50690   72.51670   72.13370  127.02430   69.02720   57.93250    0.13060   20.59590   24.93370   20.08670   55.44910    0.10910   10.03860    0.09660   -0.00810    3.71050    2.66230
 1054.50000   42.60950   71.55050   70.70000  124.04800   68.11110   49.57560    0.13390   21.40220   26.59020   18.00160   51.25130    0.11120   10.03860    0.07560   -0.00890    4.03250    2.69990
 1055.00000   33.00680   68.87900   67.67940  120.02880   66.66250   39.13460    0.12600   23.87530   29.74590   17.55060   42.58920    0.10090   10.03860    0.03790   -0.00900    4.64240    2.76440
 1055.50000   32.48720   65.25900   64.78620  116.19320   64.75010   31.67890    0.10390   29.29080   33.36990   20.17960   33.40080    0.07950   10.03170    0.00490   -0.00780    5.18240    2.82590
 1056.00000   36.66140   63.17650   62.43990  113.01800   63.34460   26.33770    0.07160   33.53860   39.16450   66.31530   26.43980    0.06200   10.02210   -0.01070   -0.00630    5.28710    2.85030
 1056.50000   40.83570   61.19940   61.55190  112.51820   60.49360   25.09660    0.04990   39.33920   44.96030   50.72240   24.16830    0.05050   10.01250   -0.00630   -0.00630    5.12460    2.84110
 1057.00000   40.90400   60.77570   61.71870  112.48290   60.30050   25.20810    0.04110   42.44420   49.43920   17.05330   25.62780    0.05310   10.00290    0.00010   -0.00630    4.87580    2.82970
 1057.50000   37.90050   61.80620   62.14170  114.96260   60.52580   25.26070    0.03830   42.94630   52.16050  410.05970   26.46350    0.05610    9.99330   -0.00470   -0.00640    4.83670    2.84020
 1058.00000   34.89750   63.00780   62.99630  117.44540   61.35450   25.69400    0.03690   42.36510   51.89400  100.22670   25.78030    0.05400    9.98370   -0.01510   -0.00640    4.87020    2.85770
 1058.50000   31.89450   64.10870   63.85100  118.06320   62.69590   26.22670    0.04000   38.70900   50.32490   69.68840   24.26720    0.05030    9.97410   -0.01990   -0.00640    4.83210    2.86460
 1059.00000   28.89150   64.98970   64.70560  118.11900   63.73090   28.19220    0.04850   32.66120   39.36870   45.53230   23.62950    0.04810    9.96450   -0.01370   -0.00640    4.68890    2.85500
 1059.50000   25.88850   65.16440   64.81700  118.22990   65.00740   30.44610    0.05580   25.76880   34.23740   48.74020   24.59540    0.04800    9.95500   -0.00820   -0.00590    4.60960    2.84510
 1060.00000   25.03290   64.08960   63.57110  117.64000   64.82730   31.88740    0.05610   25.05480   32.77760   56.95280   27.09260    0.04930    9.94540   -0.00370   -0.00510    4.67570    2.83540
