~Version ---------------------------------------------------
VERS.   2.0 : CWLS log ASCII Standard -VERSION 2.0
WRAP.    NO : One line per depth step
DLM . SPACE : Column Data Section Delimiter
~Well ------------------------------------------------------
STRT .F                   97.0 : START DEPTH
STOP .F                 1536.0 : STOP DEPTH
STEP .F                    0.5 : STEP
NULL .                -9999.25 : NULL VALUE
COMP .                         : COMPANY
WELL .                         : WELL
FLD  .                         : FIELD
LOC  .                         : LOCATION
PROV .                         : PROVINCE
CNTY .                         : COUNTY
STAT .                         : STATE
CTRY .                         : COUNTRY
SRVC .                         : SERVICE COMPANY
DATE .                         : DATE
UWI  .                         : UNIQUE WELL ID
API  .                         : API NUMBER
SLAT .WGS84 1.0895347317891968 : SURFACE LATITUDE
SLON .WGS84  6.558643228714004 : SURFACE LONGITUDE
DATUM.F                2563.77 : DEPTH DATUM ELEV
~Curve Information -----------------------------------------
DEPT.F     : 
GRS .GAPI  : GAMMA RAY FROM SONIC LOG
DT  .US/F  : INTERVAL TRANSIT TIME
DTL .US/F  : DELTA-T LONG SPACING
DTSM.US/F  : SHEAR-WAVE INTERVAL TRANSIT TIME DELTA-T
DTCO.US/F  : COMPRESSIONAL-WAVE INTERVAL TRANSIT TIME ACOUSTIC SLOWNESS
GRD .GAPI  : GAMMA RAY
NPHI.DEC   : NEUTRON POROSITY LIMESTONE
LLD .OHMM  : LATEROLOG LOG DEEP
LLS .OHMM  : LATEROLOG LOG SHALLOW
MSFL.OHMM  : MICRO SPHERICALLY FOCUSED
GR  .GAPI  : GAMMA RAY
SNP .DEC   : SIDEWALL NEUTRON POROSITY LIMESTONE
CALD.IN    : CALIPER FDC LOG
DPHI.DEC   : DENSITY POROSITY LIMESTONE
DRHO.G/C3  : DENSITY CORRECTION
PEF .B/E   : PHOTOELECTRIC FACTOR
RHOB.G/C3  : BULK DENSITY
~Params ----------------------------------------------------
~Other -----------------------------------------------------
~ASCII -----------------------------------------------------
# ...
  958.00000   57.30830   77.89640   77.32480  148.50940   77.29230   63.84440    0.19030   12.06640    9.41330   14.21920   58.84930    0.12310   10.10600    0.15750   -0.01360    2.92800    2.54840
  958.50000   58.12930   80.18420   79.61490  153.88840   79.21870   65.66700    0.18980    9.65370    7.54010    6.86980   54.80700    0.13340   10.11020    0.16310   -0.01360    2.88810    2.53940
  959.00000   61.49420   82.79480   82.00260  159.45690   81.55560   69.99820    0.20810    7.93710    6.42790    5.45920   53.17520    0.15360   10.11350    0.16340   -0.01330    2.96610    2.54210
  959.50000   66.48780   85.17970   84.37680  160.76620   83.28240   75.28300    0.23200    6.78730    5.99320    5.04350   55.80580    0.17120   10.09560    0.15900   -0.01250    3.04110    2.54960
  960.00000   71.03060   86.46790   86.23070  160.16160   84.43440   79.79860    0.26510    6.46430    5.94570    7.46020   60.74360    0.18180   10.07780    0.15300   -0.01180    3.10490    2.55550
  960.50000   71.13770   86.00650   85.48670  156.34740   84.68780   82.22370    0.30180    6.52170    5.94670    4.29800   64.50710    0.18670   10.05990    0.14710   -0.01100    3.17840    2.56260
  961.00000   68.06160   84.10730   82.94620  150.08540   82.31630   81.03930    0.31010    7.06320    6.18550    5.06610   65.62500    0.18670   10.04210    0.13770   -0.01020    3.31280    2.58440
  961.50000   66.48960   81.25910   80.18880  144.42570   81.48150   77.29730    0.28490    7.62070    7.23370    5.24740   66.02060    0.18390   10.02420    0.12760   -0.00920    3.45850    2.60670
  962.00000   66.57170   80.08930   78.24750  143.43210   80.76980   74.79680    0.24690    8.25970    8.08650    6.22820   65.53700    0.18120   10.00640    0.11670   -0.00820    3.51980    2.62290
  962.50000   66.75600   79.78720   77.75320  145.06040   78.96560   73.06860    0.22380    8.87730    8.82960    6.26970   64.48840    0.17930    9.98860    0.11340   -0.00720    3.52910    2.62980
  963.00000   66.94030   79.67630   78.09480  148.35000   79.03400   72.41530    0.21870    8.77480    8.72230    5.63010   63.93490    0.17610    9.95980    0.11430   -0.00680    3.47150    2.62900
  963.50000   69.21970   80.20790   79.03780  156.14290   80.74280   72.03300    0.22310    8.30440    8.23270    5.53280   66.67800    0.17130    9.92670    0.11810   -0.00840    3.39960    2.62070
  964.00000   72.08480   81.33680   80.14860  155.22340   82.64120   72.52800    0.23220    7.60720    7.51760    6.04120   71.48910    0.17290    9.89870    0.12420   -0.01070    3.28440    2.60900
  964.50000   72.96390   82.29430   81.57600  147.99000   84.41320   73.82500    0.24190    7.10400    6.87730    6.13390   74.36930    0.17880    9.87800    0.13090   -0.01310    3.23090    2.59740
  965.00000   69.54890   83.07480   82.18280  137.50650   84.24590   73.99080    0.25700    7.34860    6.60180    4.67760   74.07630    0.18670    9.85730    0.13500   -0.01550    3.29320    2.58820
  965.50000   61.26200   80.91140   79.94900  126.20010   82.60070   67.41370    0.26980    8.46640    7.26880    5.32860   69.27950    0.19030    9.83660    0.12700   -0.01730    3.57340    2.60660
  966.00000   45.92280   76.57330   74.80250  114.33830   76.72400   49.97690    0.24990   11.36350    9.99640    4.21940   58.23560    0.17870    9.81590    0.09080   -0.01230    4.11720    2.68000
  966.50000   25.88490   67.74110   65.55810  102.16200   69.93030   28.27410    0.19190   19.66570   14.19750    7.13060   44.79130    0.13960    9.79520    0.03160   -0.00720    4.65480    2.77710
  967.00000   13.42970   59.63340   58.09970   96.12760   64.17860   13.51710    0.10230   69.53040   59.37530   35.12170   27.40640    0.08350    9.77450   -0.01770   -0.00290    4.78800    2.86910
  967.50000    5.29880   54.44130   53.82620   95.16290   60.22480    4.71750    0.03280  357.92400  299.14950  637.84330   12.08810    0.03790    9.75380   -0.04700   -0.00020    4.83970    2.91010
  968.00000    2.46770   52.88030   52.26570   95.04410   55.70590    2.63910    0.00020 1728.38550 1540.68840 1826.05540    5.92050    0.01670    9.73310   -0.04540   -0.00100    4.88750    2.90920
  968.50000    1.89650   52.79120   52.04910   94.69620   53.07490    2.34780   -0.00490 7472.14060 1997.46610 1735.28500    3.42600    0.01090    9.70920   -0.03860   -0.00190    4.95410    2.89780
  969.00000    1.89630   52.68660   52.12120   94.50360   52.19100    2.05650   -0.00160 13802.67190 1999.83390 1727.05100    2.56010    0.01180    9.68210   -0.04420   -0.00270    5.05220    2.91140
  969.50000    1.89610   52.31220   52.01560   95.03850   51.70270    1.85480    0.00280 17837.29300 2000.19840 1957.30030    2.41680    0.01280    9.65500   -0.05520   -0.00420    5.14160    2.93110
  970.00000    1.81240   51.84880   51.70410   95.05250   51.97420    2.31830    0.00350 20690.07420 2000.56300 2000.88920    2.45660    0.01080    9.62780   -0.06380   -0.00560    5.21600    2.94360
  970.50000    2.09860   51.83580   51.55360   94.41300   52.17060    3.34040    0.00240 16218.49410 2000.92760 1997.76550    2.52360    0.00990    9.60070   -0.06420   -0.00700    5.27360    2.94710
  971.00000    2.78060   51.97430   51.83700   94.03540   52.26990    4.18260    0.00120 10747.75390 2001.29240 1993.63390    2.84590    0.01040    9.57710   -0.06250   -0.00730    5.25420    2.94380
  971.50000    3.50420   52.11300   52.02620   93.94870   52.53860    4.45080    0.00160 6754.53320 2001.65710 1989.51210    3.24380    0.01330    9.55840   -0.06030   -0.00700    5.13080    2.93770
  972.00000    4.27490   52.25960   52.08400   94.02550   53.16660    4.55760    0.00270 3726.39450 1991.41130 1985.53940    3.66460    0.01670    9.53980   -0.05470   -0.00660    5.07210    2.92750
  972.50000    4.84400   52.43630   52.18170   94.29690   53.05660    4.91930    0.00610 1072.79170 1306.68200 1932.43510    3.98360    0.01950    9.52110   -0.04960   -0.00620    5.03590    2.91820
  973.00000    5.27320   52.61130   52.42570   94.74610   52.59000    5.95760    0.00960  589.88320  611.78550 1865.98900    4.30270    0.02210    9.50240   -0.04450   -0.00600    4.97280    2.91000
  973.50000    6.20180   52.61130   52.57990   95.19270   52.45930    7.22530    0.01450  364.16670  461.52940  140.20590    5.03610    0.02480    9.48380   -0.03610   -0.00720    4.90970    2.89380
  974.00000    8.22200   53.01790   52.72350   95.63930   53.50090    9.86150    0.02350  227.02210  271.12370  484.44800    7.04060    0.02950    9.48050   -0.01840   -0.00830    4.53930    2.85780
  974.50000   11.37690   53.87610   53.57290   96.08590   54.36740   13.56670    0.04160   84.41110  119.28140 1339.66440    9.96340    0.03920    9.48220    0.00630   -0.01130    4.04180    2.80550
  975.00000   14.54750   54.89860   54.48590   96.53240   54.61410   17.02480    0.07970   42.80630   57.11560  658.84940   13.02020    0.06010    9.48380    0.03850   -0.01540    3.58850    2.74970
  975.50000   17.40980   55.80650   55.28310   96.99040   54.78940   19.71830    0.12140   34.81990   45.76010   11.70410   16.05950    0.08490    9.48550    0.05480   -0.01660    3.77390    2.73240
  976.00000   19.67800   56.03380   55.72650   96.81940   54.74970   22.12780    0.12100   36.58710   51.58480    8.85970   18.87240    0.09490    9.48710    0.03620   -0.01390    4.22210    2.77430
  976.50000   19.81490   55.52340   55.13880   95.86850   54.34450   23.24770    0.08570   74.70170   99.37250  234.62830   20.35210    0.07590    9.48880    0.00120   -0.01120    4.54130    2.82680
  977.00000   17.19400   54.58440   54.29820   94.73040   53.72440   21.55770    0.03530   89.00480  170.92260  129.98040   20.52470    0.05050    9.49040   -0.02170   -0.01120    4.64000    2.86830
  977.50000   13.82810   53.82020   53.51330   93.72270   52.98180   17.45730    0.01750  247.07970  275.59820  475.19260   18.63220    0.03080    9.49720   -0.03060   -0.01120    4.87740    2.88630
  978.00000   13.95890   53.21220   53.32050   93.72270   52.51340   14.69100    0.01500  277.48270  350.94970 1718.20510   14.58110    0.02550    9.50200   -0.02840   -0.01180    5.06290    2.88040
