~Version ---------------------------------------------------
VERS.   2.0 : CWLS log ASCII Standard -VERSION 2.0
WRAP.    NO : One line per depth step
DLM . SPACE : Column Data Section Delimiter
~Well ------------------------------------------------------
STRT .F                   97.0 : START DEPTH
STOP .F                 1536.0 : STOP DEPTH
STEP .F                    0.5 : STEP
NULL .                -9999.25 : NULL VALUE
COMP .                         : COMPANY
WELL .                         : WELL
FLD  .                         : FIELD
LOC  .                         : LOCATION
PROV .                         : PROVINCE
CNTY .                         : COUNTY
STAT .                         : STATE
CTRY .                         : COUNTRY
SRVC .                         : SERVICE COMPANY
DATE .                         : DATE
UWI  .                         : UNIQUE WELL ID
API  .                         : API NUMBER
SLAT .WGS84 1.0895347317891968 : SURFACE LATITUDE
SLON .WGS84  6.558643228714004 : SURFACE LONGITUDE
DATUM.F                2563.77 : DEPTH DATUM ELEV
~Curve Information -----------------------------------------
DEPT.F     : 
GRS .GAPI  : GAMMA RAY FROM SONIC LOG
DT  .US/F  : INTERVAL TRANSIT TIME
DTL .US/F  : DELTA-T LONG SPACING
DTSM.US/F  : SHEAR-WAVE INTERVAL TRANSIT TIME DELTA-T
DTCO.US/F  : COMPRESSIONAL-WAVE INTERVAL TRANSIT TIME ACOUSTIC SLOWNESS
GRD .GAPI  : GAMMA RAY
NPHI.DEC   : NEUTRON POROSITY LIMESTONE
LLD .OHMM  : LATEROLOG LOG DEEP
LLS .OHMM  : LATEROLOG LOG SHALLOW
MSFL.OHMM  : MICRO SPHERICALLY FOCUSED
GR  .GAPI  : GAMMA RAY
SNP .DEC   : SIDEWALL NEUTRON POROSITY LIMESTONE
CALD.IN    : CALIPER FDC LOG
DPHI.DEC   : DENSITY POROSITY LIMESTONE
DRHO.G/C3  : DENSITY CORRECTION
PEF .B/E   : PHOTOELECTRIC FACTOR
RHOB.G/C3  : BULK DENSITY
~Params ----------------------------------------------------
~Other -----------------------------------------------------
~ASCII -----------------------------------------------------
# ...
 1470.50000   36.86210   69.74480   69.11320  125.73360   69.86410   41.19430    0.31040   29.28810   13.46670    6.49190   45.96740    0.30330    8.77820    0.24520    0.00210    2.80880    2.39350
 1471.00000   38.21970   68.78370   68.31270  123.81060   66.91490   39.84820    0.29870   31.60280   14.83720    9.48090   43.82880    0.28760    8.76260    0.23090    0.00030    2.84100    2.42010
 1471.50000   39.61150   67.99930   67.65730  121.97580   65.45110   41.93700    0.28550   33.43000   16.08610    9.16690   43.54900    0.27210    8.74710    0.21850   -0.00150    2.87540    2.44110
 1472.00000   40.79720   67.51180   67.33470  120.51010   65.20850   45.93480    0.28330   32.93050   15.85150    8.62690   43.99210    0.26230    8.75070    0.21610   -0.00350    2.90220    2.44700
 1472.50000   42.08100   67.02800   66.96630  119.04440   65.05500   48.67260    0.28510   31.96150   15.19510   10.41510   44.38910    0.26110    8.76270    0.21360   -0.00550    2.93530    2.44880
 1473.00000   43.42690   66.84200   66.55250  117.80050   64.61840   49.71570    0.28600   31.54250   14.74170   11.08670   44.78610    0.26250    8.78230    0.20910   -0.00590    2.96770    2.45880
 1473.50000   44.76090   66.79210   66.00740  116.56850   63.08020   50.24320    0.28090   33.23580   15.00070   10.11500   46.19020    0.25760    8.81640    0.19670   -0.00410    3.00010    2.48180
 1474.00000   45.95810   65.97640   65.26770  115.07540   62.36040   51.30180    0.27370   36.02000   16.46900   12.60130   49.37250    0.24310    8.85050    0.18050   -0.00420    3.02600    2.50370
 1474.50000   49.90450   64.65820   64.47850  114.05350   62.42860   54.69480    0.26540   42.37470   18.83160    8.33240   53.59600    0.22500    8.88460    0.17600   -0.00440    3.03380    2.51530
 1475.00000   56.43800   64.54980   64.47620  114.78760   63.78160   60.33790    0.25280   52.30220   21.48010   15.60830   57.41250    0.21480    8.91870    0.17990   -0.00420    2.97790    2.50770
 1475.50000   62.13870   65.65970   65.44740  118.83780   65.81420   65.79150    0.23850   56.29290   21.34060   16.40210   60.42050    0.21760    8.95280    0.19200   -0.00320    2.83030    2.48720
 1476.00000   62.83760   68.32930   67.50390  123.04870   67.84680   66.21660    0.23060   45.36820   15.02780   12.79630   61.75460    0.22550    8.98690    0.21060   -0.00230    2.72790    2.45100
 1476.50000   52.04200   71.21980   70.36430  127.10280   70.37300   58.71550    0.23870   28.32410    9.77670   14.59630   59.74470    0.23430    9.02110    0.23840   -0.00130    2.65740    2.40210
 1477.00000   40.44080   73.70380   73.23340  131.15680   73.57950   47.67630    0.27390   19.71940    6.47640    8.18980   50.61710    0.24800    9.06260    0.27230   -0.00040    2.61300    2.34550
 1477.50000   28.91520   75.76950   75.18070  134.13050   76.60030   37.84710    0.33740   13.70210    4.97350    2.67630   38.26350    0.27390    9.11880    0.29280    0.00060    2.61320    2.31470
 1478.00000   22.74900   76.63740   76.66720  135.88330   77.41210   30.99190    0.37030   13.07670    4.84240    2.15500   29.06340    0.30260    9.17510    0.29780    0.00210    2.64140    2.29700
 1478.50000   20.84840   77.16500   77.25170  136.40840   76.92030   26.43450    0.39210   13.99000    5.25470    2.63460   23.39070    0.32210    9.18850    0.29490    0.00360    2.68030    2.30380
 1479.00000   19.79960   77.43630   77.99500  136.46770   75.25070   23.95170    0.39500   15.65860    5.95830    3.21170   20.99760    0.33530    9.12680    0.29240    0.00450    2.66340    2.30860
 1479.50000   19.89930   77.74360   79.04300  134.21720   73.38230   23.33540    0.38770   17.17880    6.55100    4.08500   20.67820    0.35240    9.06510    0.29730    0.00320    2.61820    2.30360
 1480.00000   20.35420   77.13860   78.60030  134.04850   72.00760   24.10130    0.38110   17.54790    6.59060    5.17600   21.31990    0.36750    9.00340    0.30320    0.00180    2.57020    2.29130
 1480.50000   20.89300   75.65160   76.95620  134.26720   72.51490   25.26660    0.39000   16.35390    6.35950    3.33920   22.44940    0.36920    8.97230    0.30400    0.00050    2.53440    2.28340
 1481.00000   21.51230   74.46800   75.44480  132.60550   72.76310   26.88530    0.40170   15.00900    6.04700    3.02000   23.64780    0.35750    8.94730    0.29850    0.00010    2.54880    2.28890
 1481.50000   22.13170   73.93210   74.44440  132.00840   71.57670   28.00410    0.39600   13.85020    5.97660    3.41350   25.69600    0.34570    8.92230    0.29230    0.01030    2.56020    2.30830
 1482.00000   22.75100   74.48240   73.87390  132.63480   70.41700   27.64180    0.37600   13.68660    6.36900    4.39640   28.03840    0.35190    8.89730    0.28850    0.02050    2.53930    2.32110
 1482.50000   23.80600   74.92940   73.92660  134.67900   69.71220   26.20200    0.35710   13.77910    6.84950    3.20260   28.28390    0.36480    8.87230    0.28780    0.02960    2.51660    2.31940
 1483.00000   25.48830   74.44180   74.05380  134.71210   69.38150   25.29080    0.35350   13.65430    6.88890    3.26820   26.68930    0.36630    8.85840    0.28330    0.03490    2.52080    2.32300
 1483.50000   27.17270   74.28510   74.56820  135.54530   69.70940   25.10770    0.35070   12.93200    6.68240    3.67430   24.36530    0.35180    8.87150    0.27530    0.03640    2.59710    2.34090
 1484.00000   28.49940   74.60470   75.55480  138.52840   70.50710   26.58200    0.34450   11.82020    6.28560    3.17290   24.56000    0.33960    8.90960    0.27050    0.03650    2.65780    2.34810
 1484.50000   29.54900   74.73820   76.06940  141.22100   71.07490   29.25500    0.34080   10.88060    5.85200    2.22530   27.34850    0.33920    8.94780    0.27310    0.02930    2.64940    2.33930
 1485.00000   32.70150   74.27230   75.04620  141.26730   70.73660   33.05240    0.34410   11.14650    5.62410    2.13370   30.63390    0.34450    8.98600    0.27460    0.02370    2.63650    2.34320
 1485.50000   36.98250   73.18450   73.15980  137.34190   69.40680   37.29230    0.35380   13.01950    6.28140    2.51680   33.97120    0.34490    9.02220    0.26120    0.02840    2.63870    2.37350
 1486.00000   42.64100   70.79480   70.08280  129.75540   66.45080   41.90010    0.36250   17.70990    7.96730    4.48270   37.28970    0.32980    9.03360    0.23640    0.03240    2.70700    2.41690
 1486.50000   48.59540   68.11650   67.00580  125.71560   63.03360   47.52530    0.35570   26.19200   10.91910    7.08190   45.89540    0.30650    8.98890    0.20080    0.03010    2.87240    2.46850
 1487.00000   53.94590   64.46080   64.15720  122.82900   61.58230   54.47440    0.32170   39.93890   16.35090    6.81680   53.45100    0.27990    8.90860    0.16760    0.02440    3.03190    2.52060
 1487.50000   58.40170   62.21200   61.74390  119.42250   61.05390   58.95310    0.26890   64.67360   23.74950   21.41640   59.67390    0.25180    8.82830    0.15490    0.01540    3.04560    2.54760
 1488.00000   58.87860   60.78700   60.09890  118.06400   57.93320   58.66430    0.22470   96.43050   35.41250   76.95570   60.53420    0.22640    8.79780    0.15500    0.00980    2.98770    2.55110
 1488.50000   57.52030   60.59370   59.79530  117.56660   56.80810   56.55500    0.20890  114.29580   37.02520   43.61590   57.35600    0.21020    8.78240    0.16560    0.00680    2.92290    2.53820
 1489.00000   53.53930   61.42910   61.71790  117.88800   57.62990   52.08580    0.21900   94.37380   31.61210   32.23400   53.78330    0.20330    8.79240    0.17760    0.00380    2.91590    2.51430
 1489.50000   49.45550   63.83950   64.38060  120.04360   60.82220   49.46160    0.23040   67.92130   19.63470   22.34030   51.11650    0.20600    8.82610    0.19760    0.00120    2.89880    2.47610
 1490.00000   46.35780   66.20660   66.72830  123.51480   63.83520   48.89720    0.24880   48.56230   16.21660   13.63750   48.98490    0.21740    8.87120    0.21870   -0.00090    2.89350    2.44130
 1490.50000   43.96340   68.54010   69.01430  126.98600   65.20660   48.89860    0.28740   35.73760   14.71670    6.77060   47.57920    0.23230    8.91640    0.23390   -0.00300    2.83430    2.41200
