~Version ---------------------------------------------------
VERS.   2.0 : CWLS log ASCII Standard -VERSION 2.0
WRAP.    NO : One line per depth step
DLM . SPACE : Column Data Section Delimiter
~Well ------------------------------------------------------
STRT .F                   97.0 : START DEPTH
STOP .F                 1536.0 : STOP DEPTH
STEP .F                    0.5 : STEP
NULL .                -9999.25 : NULL VALUE
COMP .                         : COMPANY
WELL .                         : WELL
FLD  .                         : FIELD
LOC  .                         : LOCATION
PROV .                         : PROVINCE
CNTY .                         : COUNTY
STAT .                         : STATE
CTRY .                         : COUNTRY
SRVC .                         : SERVICE COMPANY
DATE .                         : DATE
UWI  .                         : UNIQUE WELL ID
API  .                         : API NUMBER
SLAT .WGS84 1.0895347317891968 : SURFACE LATITUDE
SLON .WGS84  6.558643228714004 : SURFACE LONGITUDE
DATUM.F                2563.77 : DEPTH DATUM ELEV
~Curve Information -----------------------------------------
DEPT.F     : 
GRS .GAPI  : GAMMA RAY FROM SONIC LOG
DT  .US/F  : INTERVAL TRANSIT TIME
DTL .US/F  : DELTA-T LONG SPACING
DTSM.US/F  : SHEAR-WAVE INTERVAL TRANSIT TIME DELTA-T
DTCO.US/F  : COMPRESSIONAL-WAVE INTERVAL TRANSIT TIME ACOUSTIC SLOWNESS
GRD .GAPI  : GAMMA RAY
NPHI.DEC   : NEUTRON POROSITY LIMESTONE
LLD .OHMM  : LATEROLOG LOG DEEP
LLS .OHMM  : LATEROLOG LOG SHALLOW
MSFL.OHMM  : MICRO SPHERICALLY FOCUSED
GR  .GAPI  : GAMMA RAY
SNP .DEC   : SIDEWALL NEUTRON POROSITY LIMESTONE
CALD.IN    : CALIPER FDC LOG
DPHI.DEC   : DENSITY POROSITY LIMESTONE
DRHO.G/C3  : DENSITY CORRECTION
PEF .B/E   : PHOTOELECTRIC FACTOR
RHOB.G/C3  : BULK DENSITY
~Params ----------------------------------------------------
~Other -----------------------------------------------------
~ASCII -----------------------------------------------------
# ...
 1265.50000    6.23700   53.82070   54.78060   98.53630   51.28990    5.31960    0.00470  912.10960 1185.71180 1813.38930    5.53800    0.01620    8.92050   -0.05580   -0.00390    4.72670    2.92670
 1266.00000    6.77170   54.61350   54.92850   99.93290   51.63560    7.66950    0.02670 1013.74680 1217.27280 1780.49490    5.86680    0.02380    8.90940   -0.02750   -0.00560    4.69970    2.86860
 1266.50000    6.95180   55.43070   55.16080  102.08670   52.14690    9.18190    0.05060  964.04800 1178.34860 1062.00170    7.33630    0.04500    8.89650    0.00330   -0.00720    4.69810    2.82050
 1267.00000    6.31140   55.45590   55.27910  100.12070   52.75300    8.95740    0.07990  959.22600 1172.47990  416.62700    8.75240    0.07210    8.88360    0.01170   -0.00290    4.73620    2.80820
 1267.50000    5.52100   55.05970   54.97400   99.82210   53.59580    7.62880    0.07660 1040.88130 1258.20590  301.98090    8.53470    0.08290    8.87070   -0.00730    0.00380    4.84230    2.83850
 1268.00000    5.40460   54.54940   54.50340  100.11770   54.26120    7.46960    0.05410 1080.86820 1324.32250 1658.91750    8.02450    0.07120    8.85780   -0.01460    0.00530    4.95950    2.86220
 1268.50000    7.74150   54.42330   54.37160  101.21170   54.50200    8.95100    0.03590 1046.23610 1274.16260 1867.20320    8.26330    0.05760    8.85410   -0.00080    0.00630    5.07430    2.82810
 1269.00000    9.97940   55.21030   54.88020  102.58030   54.67660   10.84460    0.07830  863.80920 1083.84440  734.38190   10.63990    0.06670    8.85480    0.03940    0.00660    5.07980    2.75950
 1269.50000   12.09340   56.40750   56.08060  103.53180   55.05230   12.52410    0.12840  677.63090  911.28880   96.80700   13.53260    0.10190    8.85800    0.06240    0.00690    4.82600    2.72060
 1270.00000   14.50540   57.16870   57.04760  104.54180   55.86000   16.03070    0.16230  541.20140  768.00160  196.42770   16.49890    0.13850    8.86120    0.06450    0.00700    4.51830    2.71150
 1270.50000   19.95820   57.66530   57.57490  105.68220   57.37710   22.45000    0.17000  406.57470  598.50520  297.43920   19.93760    0.15250    8.86450    0.05940    0.00710    4.09740    2.72350
 1271.00000   31.35450   59.29860   58.85140  108.54520   59.81450   33.46730    0.14060  293.82670  439.41510  232.91170   27.15310    0.13790    8.86770    0.06240    0.00690    3.57000    2.72270
 1271.50000   48.71880   62.16100   61.14860  111.44180   62.25180   54.27640    0.10770  217.88280  316.73490  485.77510   40.64170    0.11010    8.87100    0.08920    0.00100    3.02120    2.66940
 1272.00000   67.36600   66.83480   65.22790  114.07610   64.68920   69.90530    0.10060  160.70870  259.03070  118.67220   60.01010    0.09680    8.87420    0.13780   -0.00490    2.64790    2.58730
 1272.50000   76.04810   70.86090   69.05400  116.68290   67.12660   85.09300    0.12580  153.33370  236.74400   97.61070   70.30480    0.10710    8.87740    0.18450   -0.01000    2.32780    2.48800
 1273.00000   77.94570   73.13290   72.57480  118.85380   69.19900   87.93910    0.15860  163.99180  263.93830  134.04240   77.47880    0.13300    8.87780    0.21720   -0.01130    2.30040    2.44520
 1273.50000   74.27890   72.25430   71.93870  117.69850   69.59480   83.23430    0.19260  208.39470  341.35650  186.14240   78.01920    0.15780    8.87460    0.21580   -0.01020    2.44120    2.44470
 1274.00000   65.50750   69.59900   68.85110  114.72740   67.96150   71.34470    0.19180  272.29010  457.28730  261.40040   74.70490    0.16470    8.87150    0.19550   -0.00710    2.89560    2.48710
 1274.50000   56.05210   66.19780   65.08180  111.60880   66.69470   57.91340    0.16190  286.44910  464.41230  359.66880   67.10380    0.15270    8.86830    0.15200   -0.00310    3.35820    2.56210
 1275.00000   48.24790   63.97590   63.16570  111.50840   65.66870   50.13250    0.12030  227.11160  389.75270  610.14900   56.61020    0.12780    8.86510    0.10560    0.00080    3.38400    2.64440
 1275.50000   49.53350   64.02770   63.76740  111.91880   65.35480   52.10950    0.09760  137.11020  232.98430 1343.28110   50.12910    0.10550    8.86200    0.09670   -0.00100    3.04690    2.65720
 1276.00000   55.14340   66.47010   65.78570  114.97770   65.49600   59.95570    0.10970   86.29210  147.12770  897.51860   52.27190    0.09920    8.85880    0.11000   -0.00430    2.73710    2.61290
 1276.50000   59.03680   70.03280   68.76380  116.66440   65.85950   66.30070    0.13770   61.98280  116.20700   44.29330   59.12740    0.10860    8.85570    0.16210   -0.00760    2.52830    2.54390
 1277.00000   60.42800   71.85950   71.56920  115.71630   66.35110   67.36530    0.17440   62.37700  111.18670   44.67860   65.29640    0.12590    8.85250    0.18230   -0.00880    2.55940    2.50260
 1277.50000   57.24410   70.80740   69.88850  113.14910   65.35300   63.28730    0.18050   72.04680  130.29640   52.37070   67.36840    0.13250    8.84930    0.18220   -0.00880    2.73450    2.51690
 1278.00000   48.50510   67.46580   65.98450  110.49070   62.77700   54.84110    0.15950   96.50600  170.23000   60.21290   61.75890    0.12190    8.85220    0.14820   -0.00520    3.08600    2.57080
 1278.50000   36.67920   63.22280   62.11000  107.69740   60.14470   42.75950    0.12300  131.95290  232.18660   96.41990   52.17060    0.10080    8.87650    0.10060   -0.00160    3.47940    2.65780
 1279.00000   24.98840   59.46110   58.45990  104.90420   57.60090   33.89500    0.06730  170.08720  314.64380  383.30860   41.08660    0.07560    8.89410    0.04750   -0.00240    3.84910    2.75030
 1279.50000   20.44020   57.72580   57.33550  102.72590   56.13250   27.19930    0.04190  186.07530  336.88990  518.30570   32.10670    0.05400    8.89550    0.00620   -0.00510    4.23620    2.82140
 1280.00000   18.84570   56.93450   57.04330  102.34450   55.66580   24.15990    0.03280  181.93040  320.60280  295.87120   27.92080    0.04340    8.89680   -0.01260   -0.00600    4.45640    2.85740
 1280.50000   17.71150   56.66370   57.04300  102.41970   55.88300   21.87800    0.03270  183.51070  314.87590  169.60190   25.25260    0.04290    8.87810   -0.01560   -0.00530    4.56340    2.85910
 1281.00000   15.90440   56.70440   56.78400  102.56040   55.83900   19.39540    0.04030  194.13500  331.66780  138.51670   21.75030    0.04720    8.84980   -0.01130   -0.00460    4.46420    2.84980
 1281.50000   14.14870   56.73600   56.86110  102.34690   55.04150   17.84910    0.04400  257.90340  381.93630  264.77510   18.45330    0.05430    8.84380   -0.00460    0.00210    4.23400    2.83720
 1282.00000   13.83280   56.37690   57.12610  101.11740   54.16990   17.76420    0.04220  290.30170  456.73460  404.79100   17.73680    0.05640    8.85270    0.00150    0.00970    3.93540    2.82630
 1282.50000   13.47560   55.91040   56.01120   99.27950   53.45690   18.27100    0.03750  360.38090  527.56930  336.32930   18.48500    0.05390    8.85840    0.00130    0.01790    3.89730    2.83050
 1283.00000   12.69030   55.48620   55.67390   98.08510   52.76380   17.93060    0.03240  422.48600  587.74400  110.98480   18.37710    0.04860    8.85840   -0.00470    0.02580    4.10210    2.83960
 1283.50000   12.63460   54.89460   55.13380   97.67480   52.09620   16.99460    0.02870  517.47550  713.44370   82.09040   16.84880    0.04580    8.85840   -0.01070    0.02130    4.34160    2.84800
 1284.00000   13.25990   54.46220   54.97440   97.22440   51.77640   15.83530    0.02490  714.82530  937.54220  642.65470   15.16630    0.04480    8.85240   -0.00810    0.01200    4.35480    2.84560
 1284.50000   13.56720   54.30310   54.72380   96.80700   51.47520   15.31450    0.02100 1016.06340 1294.57670  347.77310   14.10500    0.04220    8.84780   -0.00340    0.00270    4.34890    2.83870
 1285.00000   13.08120   54.02460   54.18140   96.32110   51.36330   13.79450    0.01750 1330.51890 1687.53660  473.58780   13.59710    0.03630    8.84880   -0.00420    0.00020    4.43830    2.83770
 1285.50000   12.05030   54.00890   54.10920   96.11160   51.36330   12.44920    0.02130 1582.03260 1758.76780  490.89790   12.60010    0.03350    8.84980   -0.00560    0.00000    4.41710    2.83840
