~Version ---------------------------------------------------
VERS.   2.0 : CWLS log ASCII Standard -VERSION 2.0
WRAP.    NO : One line per depth step
DLM . SPACE : Column Data Section Delimiter
~Well ------------------------------------------------------
STRT .F                   97.0 : START DEPTH
STOP .F                 1536.0 : STOP DEPTH
STEP .F                    0.5 : STEP
NULL .                -9999.25 : NULL VALUE
COMP .                         : COMPANY
WELL .                         : WELL
FLD  .                         : FIELD
LOC  .                         : LOCATION
PROV .                         : PROVINCE
CNTY .                         : COUNTY
STAT .                         : STATE
CTRY .                         : COUNTRY
SRVC .                         : SERVICE COMPANY
DATE .                         : DATE
UWI  .                         : UNIQUE WELL ID
API  .                         : API NUMBER
SLAT .WGS84 1.0895347317891968 : SURFACE LATITUDE
SLON .WGS84  6.558643228714004 : SURFACE LONGITUDE
DATUM.F                2563.77 : DEPTH DATUM ELEV
~Curve Information -----------------------------------------
DEPT.F     : 
GRS .GAPI  : GAMMA RAY FROM SONIC LOG
DT  .US/F  : INTERVAL TRANSIT TIME
DTL .US/F  : DELTA-T LONG SPACING
DTSM.US/F  : SHEAR-WAVE INTERVAL TRANSIT TIME DELTA-T
DTCO.US/F  : COMPRESSIONAL-WAVE INTERVAL TRANSIT TIME ACOUSTIC SLOWNESS
GRD .GAPI  : GAMMA RAY
NPHI.DEC   : NEUTRON POROSITY LIMESTONE
LLD .OHMM  : LATEROLOG LOG DEEP
LLS .OHMM  : LATEROLOG LOG SHALLOW
MSFL.OHMM  : MICRO SPHERICALLY FOCUSED
GR  .GAPI  : GAMMA RAY
SNP .DEC   : SIDEWALL NEUTRON POROSITY LIMESTONE
CALD.IN    : CALIPER FDC LOG
DPHI.DEC   : DENSITY POROSITY LIMESTONE
DRHO.G/C3  : DENSITY CORRECTION
PEF .B/E   : PHOTOELECTRIC FACTOR
RHOB.G/C3  : BULK DENSITY
~Params ----------------------------------------------------
~Other -----------------------------------------------------
~ASCII -----------------------------------------------------
# ...
 1511.50000   -9999.25   71.13120   71.00120  129.06630   66.28190   29.19080    0.33640   12.08990    5.58600    2.87730   25.14690    0.31660    8.94550    0.27560    0.00810    2.80040    2.34220
 1512.00000   -9999.25   71.12180   71.00150  129.13910   66.59540   28.33500    0.32540   12.01240    5.55130    3.80840   23.81690    0.31820    8.86030    0.27320    0.00640    2.80220    2.34690
 1512.50000   -9999.25   71.14490   70.97650  128.84390   66.95330   27.38170    0.31830   11.90920    5.28990    3.14900   23.92050    0.31460    8.79970    0.27080    0.00440    2.78860    2.34960
 1513.00000   -9999.25   70.82320   70.64390  128.26780   67.20890   26.96330    0.32090   11.45560    4.86980    3.17060   24.57720    0.31080    8.78920    0.26840    0.00240    2.77510    2.35230
 1513.50000   -9999.25   70.08980   69.73950  126.46480   66.67760   27.92330    0.33190   11.77820    4.53980    3.51540   25.20630    0.31140    8.77880    0.26340    0.00090    2.74250    2.36070
 1514.00000   -9999.25   68.91510   68.56000  123.74910   66.37430   31.10420    0.34210   12.73660    4.71180    2.46790   26.20150    0.31350    8.76840    0.25320    0.00000    2.75510    2.38700
 1514.50000   -9999.25   67.74040   67.38020  120.01500   66.28620   37.11060    0.34050   17.01250    5.68920    2.79330   29.34570    0.31110    8.75790    0.23290    0.00080    2.76150    2.42110
 1515.00000   -9999.25   66.55380   66.12880  117.44080   65.77380   44.35240    0.30820   25.68440    7.75040    3.77660   35.83190    0.28970    8.75470    0.21330    0.00420    2.72960    2.45910
 1515.50000   -9999.25   65.87150   65.75720  117.01640   64.81380   49.87610    0.26390   41.24580   13.45360   17.35330   44.79270    0.26050    8.76400    0.20240    0.00670    2.66010    2.47040
 1516.00000   -9999.25   66.66710   66.40050  117.20930   64.18490   49.48390    0.24250   51.78280   17.79290   31.46750   49.31370    0.23780    8.77330    0.21050    0.00670    2.61990    2.45490
 1516.50000   -9999.25   68.02530   67.61770  119.12440   64.61320   44.52790    0.25690   45.15710   17.32420   23.23330   47.02530    0.23630    8.78260    0.22580    0.00520    2.58610    2.42760
 1517.00000   -9999.25   69.26480   68.90230  121.28770   66.52750   38.52730    0.28790   30.70110   13.28720   16.44340   42.59230    0.24620    8.79190    0.23850    0.00370    2.56980    2.40130
 1517.50000   -9999.25   69.88840   69.88710  123.45090   67.83100   33.35290    0.30890   18.99500    9.57190    7.87370   40.15470    0.26120    8.80130    0.24600    0.00210    2.59060    2.39210
 1518.00000   -9999.25   69.46690   69.90520  125.58290   68.92160   31.21670    0.32080   13.40900    7.21220    4.10160   40.92470    0.27810    8.81060    0.24550    0.00050    2.68560    2.39210
 1518.50000   -9999.25   68.99540   69.19940   -9999.25   -9999.25   32.84000    0.33010   10.82850    6.51990    3.69260   -9999.25    0.29520    8.81990    0.24320   -0.00170    2.79480    2.39650
 1519.00000   -9999.25   68.87580   68.93190   -9999.25   -9999.25   37.44250    0.33370   11.26820    6.73980    2.91750   -9999.25    0.30240    8.82660    0.23930   -0.00380    2.83390    2.40140
 1519.50000   -9999.25   68.83220   68.83250   -9999.25   -9999.25   43.24290    0.32380   12.67600    8.21830    3.51020   -9999.25    0.29410    8.83320    0.23500   -0.00450    2.72180    2.40720
 1520.00000   -9999.25   68.60910   68.77850   -9999.25   -9999.25   44.83460    0.30300   14.72320    9.87090    8.32620   -9999.25    0.27630    8.83970    0.23300   -0.00470    2.64380    2.41290
 1520.50000   -9999.25   68.37510   68.53180   -9999.25   -9999.25   -9999.25    0.29130   16.54150   11.08440   11.47920   -9999.25    0.25910    8.84630    0.23170   -0.00350    2.63300    2.41830
 1521.00000   -9999.25   68.18090   68.22390   -9999.25   -9999.25   -9999.25    0.29520   15.83760   10.56330    7.74490   -9999.25    0.25380    8.85280    0.23030   -0.00210    2.69230    2.42130
 1521.50000   -9999.25   67.69150   67.89340   -9999.25   -9999.25   -9999.25    0.31140   13.48710    9.57270    3.68180   -9999.25    0.25910    8.85930    0.22970   -0.00070    2.76810    2.42220
 1522.00000   -9999.25   67.07080   67.33720   -9999.25   -9999.25   -9999.25    0.31820   12.15190    8.89160    3.52640   -9999.25    0.27050    8.86590    0.23200    0.00070    2.75830    2.41660
 1522.50000   -9999.25   66.67680   66.78530   -9999.25   -9999.25   -9999.25    0.31470   -9999.25   -9999.25    3.84810   -9999.25    0.28020    8.87240    0.23430    0.00150    2.73440    2.40950
 1523.00000   -9999.25   66.28280   66.32740   -9999.25   -9999.25   -9999.25    0.30380   -9999.25   -9999.25    5.06730   -9999.25    0.28310    8.86810    0.23500    0.00150    2.81090    2.40950
 1523.50000   -9999.25   66.13530   65.98050   -9999.25   -9999.25   -9999.25    0.30080   -9999.25   -9999.25    4.26110   -9999.25    0.27760    8.85410    0.22850    0.00110    2.91850    2.42060
 1524.00000   -9999.25   66.23360   65.86360   -9999.25   -9999.25   -9999.25    0.30200   -9999.25   -9999.25    6.03750   -9999.25    0.26850    8.84000    0.22420   -0.00140    2.98830    2.42900
 1524.50000   -9999.25   66.67850   66.08490   -9999.25   -9999.25   -9999.25    0.30150   -9999.25   -9999.25   20.58620   -9999.25    0.25940    8.82600    0.22850   -0.00510    2.94770    2.42520
 1525.00000   -9999.25   67.13830   66.95350   -9999.25   -9999.25   -9999.25    0.29910   -9999.25   -9999.25   26.23250   -9999.25    0.26010    8.81190    0.24220   -0.00870    2.84180    2.39950
 1525.50000   -9999.25   67.43100   67.05370   -9999.25   -9999.25   -9999.25    0.30410   -9999.25   -9999.25    3.79330   -9999.25    0.27010    8.79790    0.25760   -0.00920    2.69330    2.37700
 1526.00000   -9999.25   67.09690   66.94890   -9999.25   -9999.25   -9999.25    0.31620   -9999.25   -9999.25    2.07200   -9999.25    0.28790    8.79870    0.25880   -0.00820    2.63910    2.36840
 1526.50000   -9999.25   66.30130   66.12390   -9999.25   -9999.25   -9999.25    0.33040   -9999.25   -9999.25    2.05420   -9999.25    0.30440    8.81650    0.24950   -0.00490    2.66930    2.38360
 1527.00000   -9999.25   65.40340   65.24430   -9999.25   -9999.25   -9999.25    0.33870   -9999.25   -9999.25    2.39120   -9999.25    0.31100    8.83440    0.23970   -0.00160    2.84380    2.40450
 1527.50000   -9999.25   64.86800   64.69970   -9999.25   -9999.25   -9999.25    0.32940   -9999.25   -9999.25    3.87090   -9999.25    0.30240    8.85050    0.23060    0.00070    2.98090    2.41840
 1528.00000   -9999.25   64.65700   64.57290   -9999.25   -9999.25   -9999.25    0.31100   -9999.25   -9999.25    4.87040   -9999.25    0.28840    8.85070    0.22900    0.00110    2.92020    2.42180
 1528.50000   -9999.25   -9999.25   -9999.25   -9999.25   -9999.25   -9999.25    0.30070   -9999.25   -9999.25    7.71640   -9999.25    0.27550    8.84030    0.22500    0.00140    2.82760    2.42880
 1529.00000   -9999.25   -9999.25   -9999.25   -9999.25   -9999.25   -9999.25    0.29770   -9999.25   -9999.25    5.72710   -9999.25    0.26630    8.77370    0.21160    0.00340    2.77790    2.45450
 1529.50000   -9999.25   -9999.25   -9999.25   -9999.25   -9999.25   -9999.25    0.29260   -9999.25   -9999.25   11.80970   -9999.25    0.25060    8.76880    0.19000    0.00590    2.80450    2.49710
 1530.00000   -9999.25   -9999.25   -9999.25   -9999.25   -9999.25   -9999.25    0.26930   -9999.25   -9999.25   32.31970   -9999.25    0.22980    8.78410    0.16780    0.00840    2.84530    2.53140
 1530.50000   -9999.25   -9999.25   -9999.25   -9999.25   -9999.25   -9999.25    0.24180   -9999.25   -9999.25   37.18700   -9999.25    0.21360    8.79930    0.17390    0.01090    2.85070    2.51970
 1531.00000   -9999.25   -9999.25   -9999.25   -9999.25   -9999.25   -9999.25    0.22470   -9999.25   -9999.25   58.70260   -9999.25    0.20860    8.81210    0.19660    0.01340    2.73520    2.47890
 1531.50000   -9999.25   -9999.25   -9999.25   -9999.25   -9999.25   -9999.25    0.21620   -9999.25   -9999.25    4.48520   -9999.25    0.22490    8.82410    0.22670    0.01730    2.61200    2.42580
