~Version ---------------------------------------------------
VERS.   2.0 : CWLS log ASCII Standard -VERSION 2.0
WRAP.    NO : One line per depth step
DLM . SPACE : Column Data Section Delimiter
~Well ------------------------------------------------------
STRT .F                   97.0 : START DEPTH
STOP .F                 1536.0 : STOP DEPTH
STEP .F                    0.5 : STEP
NULL .                -9999.25 : NULL VALUE
COMP .                         : COMPANY
WELL .                         : WELL
FLD  .                         : FIELD
LOC  .                         : LOCATION
PROV .                         : PROVINCE
CNTY .                         : COUNTY
STAT .                         : STATE
CTRY .                         : COUNTRY
SRVC .                         : SERVICE COMPANY
DATE .                         : DATE
UWI  .                         : UNIQUE WELL ID
API  .                         : API NUMBER
SLAT .WGS84 1.0895347317891968 : SURFACE LATITUDE
SLON .WGS84  6.558643228714004 : SURFACE LONGITUDE
DATUM.F                2563.77 : DEPTH DATUM ELEV
~Curve Information -----------------------------------------
DEPT.F     : 
GRS .GAPI  : GAMMA RAY FROM SONIC LOG
DT  .US/F  : INTERVAL TRANSIT TIME
DTL .US/F  : DELTA-T LONG SPACING
DTSM.US/F  : SHEAR-WAVE INTERVAL TRANSIT TIME DELTA-T
DTCO.US/F  : COMPRESSIONAL-WAVE INTERVAL TRANSIT TIME ACOUSTIC SLOWNESS
GRD .GAPI  : GAMMA RAY
NPHI.DEC   : NEUTRON POROSITY LIMESTONE
LLD .OHMM  : LATEROLOG LOG DEEP
LLS .OHMM  : LATEROLOG LOG SHALLOW
MSFL.OHMM  : MICRO SPHERICALLY FOCUSED
GR  .GAPI  : GAMMA RAY
SNP .DEC   : SIDEWALL NEUTRON POROSITY LIMESTONE
CALD.IN    : CALIPER FDC LOG
DPHI.DEC   : DENSITY POROSITY LIMESTONE
DRHO.G/C3  : DENSITY CORRECTION
PEF .B/E   : PHOTOELECTRIC FACTOR
RHOB.G/C3  : BULK DENSITY
~Params ----------------------------------------------------
~Other -----------------------------------------------------
~ASCII -----------------------------------------------------
# ...
 1347.50000   69.25490   80.45140   79.68040  131.21330   80.35630   81.05760    0.20030   22.65330   28.85010   29.49540   75.49990    0.15560    8.92000    0.22080   -0.01160    2.48980    2.43710
 1348.00000   71.01860   80.41250   79.10190  130.95500   80.09700   82.11820    0.18600   19.72990   25.15240   18.47560   76.52170    0.14840    8.90880    0.20270   -0.01130    2.59830    2.46360
 1348.50000   70.00580   79.55730   77.87140  129.81700   78.77670   81.52930    0.18410   18.00460   22.79800   17.10750   76.06780    0.14580    8.90060    0.18620   -0.01110    2.77010    2.49820
 1349.00000   67.80460   77.92720   76.60080  129.69710   77.33970   78.53220    0.18840   18.12720   22.74760   15.85960   73.67050    0.14680    8.89220    0.16770   -0.01080    2.83950    2.53940
 1349.50000   66.73620   77.26030   76.27740  130.69180   77.58810   74.80120    0.19510   18.80650   23.54490   14.06740   70.29100    0.14780    8.88330    0.15900   -0.01020    2.65900    2.54230
 1350.00000   67.35710   77.78570   76.77750  133.41820   78.42710   71.63030    0.20160   21.70810   26.12390   17.06300   69.87600    0.14960    8.88170    0.18310   -0.01250    2.43350    2.49640
 1350.50000   69.26570   79.53990   78.72110  135.87150   79.94270   71.82240    0.21390   25.70600   31.32230   12.52260   72.94210    0.15640    8.88220    0.23340   -0.01590    2.22870    2.41510
 1351.00000   70.94040   81.68930   81.11970  138.17810   81.46170   74.08450    0.23660   31.60050   37.92160   21.43610   76.16340    0.17570    8.87650    0.28020   -0.01890    2.15220    2.32710
 1351.50000   72.09390   84.26820   83.77120  142.02280   83.12830   75.89620    0.26250   44.83340   46.34280   40.97760   77.32190    0.20170    8.86480    0.29910   -0.01650    2.15670    2.29500
 1352.00000   71.77700   85.12440   85.01330  145.07280   84.41470   75.40890    0.27410   50.82320   53.44850   49.57060   76.58790    0.22180    8.85990    0.30140   -0.01310    2.16000    2.29730
 1352.50000   69.55860   84.15550   83.86470  144.30890   83.79820   73.58100    0.27410   52.82700   56.13480   45.65420   75.69760    0.22820    8.86700    0.28910   -0.00980    2.19620    2.31340
 1353.00000   65.45490   82.82040   82.55180  142.93630   83.47360   72.19370    0.26660   51.35870   52.68150   52.53770   74.54680    0.23050    8.89200    0.27910   -0.00640    2.28000    2.33320
 1353.50000   62.79670   81.76400   81.26210  142.39980   82.73020   72.18570    0.25860   42.65290   44.76560   72.12470   72.71520    0.23180    8.98040    0.27150   -0.00630    2.33700    2.34720
 1354.00000   64.20600   80.60440   80.28430  139.92600   81.90130   72.76800    0.25640   34.80580   36.35190   67.67030   70.36350    0.23050    8.98130    0.26430   -0.00660    2.39390    2.35940
 1354.50000   67.90660   79.74500   79.10370  137.20770   80.87080   74.46020    0.25620   28.72870   30.23530   27.94760   68.21390    0.22300    8.93570    0.25360   -0.00680    2.46430    2.37870
 1355.00000   71.40740   78.46280   77.97630  135.18540   78.43090   77.85170    0.25170   24.84030   25.44300   21.36950   68.37030    0.20760    8.89000    0.22980   -0.00710    2.70030    2.43460
 1355.50000   74.82590   77.29720   77.04380  132.63750   77.83720   81.61440    0.23850   22.21080   22.87600   20.72300   71.16900    0.18360    8.84440    0.19110   -0.00730    2.91700    2.50180
 1356.00000   75.89760   76.54560   76.25160  131.50890   77.93860   83.82680    0.22120   20.72970   21.19290   32.07010   73.93760    0.15550    8.79870    0.16320   -0.00740    2.94880    2.53690
 1356.50000   73.72470   77.17200   76.93750  132.55670   78.59380   83.72860    0.20880   19.90210   19.99810   18.33750   74.38660    0.14090    8.77760    0.17150   -0.00740    2.71070    2.52480
 1357.00000   68.73230   78.47400   78.34020  138.01490   79.69600   80.12130    0.20050   19.86630   19.94100   17.76780   70.38490    0.13730    8.78400    0.19740   -0.00730    2.42180    2.47730
 1357.50000   64.26360   79.65230   78.88100  145.75110   80.53660   73.54840    0.20140   19.83690   19.93710   11.32140   66.55420    0.14940    8.81730    0.22600   -0.00630    2.28330    2.42200
 1358.00000   61.74240   80.53630   79.65470  150.38580   81.23940   69.56500    0.20700   19.76380   19.91390   13.08920   63.44310    0.17020    8.86620    0.24740   -0.00050    2.24200    2.38390
 1358.50000   59.22190   81.93580   81.46420  153.51860   83.31340   66.05390    0.21280   18.85130   19.20110   15.75030   62.14760    0.18710    8.91590    0.26270    0.01110    2.21040    2.36190
 1359.00000   56.62160   84.01010   83.34640  156.20710   86.15430   63.52340    0.21740   17.36000   17.65660   15.36600   61.37670    0.19770    8.96560    0.27210    0.02640    2.16230    2.34500
 1359.50000   54.42660   85.10400   84.02350  155.83470   86.05220   61.11740    0.22170   15.43460   15.84810   10.27790   59.62070    0.20830    9.09730    0.28580    0.04640    2.10310    2.32010
 1360.00000   53.27440   84.01860   83.29660  151.79380   86.17000   59.52580    0.22980   14.20610   14.53720    9.22800   56.97860    0.22180    9.23370    0.30840    0.06460    2.02450    2.28240
 1360.50000   53.28010   83.39430   82.21970  153.22370   88.07660   58.73190    0.24050   13.32080   13.73020    9.57780   54.46720    0.23840    9.36930    0.32830    0.07400    1.96720    2.24250
 1361.00000   55.16370   84.44440   82.14400  156.46310   90.53100   58.74050    0.25230   12.55410   13.21970    7.31820   52.63870    0.26740    9.49720    0.34550    0.07190    1.96320    2.21930
 1361.50000   57.68560   85.19310   84.16600  159.56520   92.98540   60.11370    0.26520   11.87950   12.73270    5.95340   53.52540    0.29350    9.55400    0.34330    0.06210    2.02110    2.22200
 1362.00000   60.56720   88.12320   86.41690  161.98360   94.64760   62.98740    0.27230   11.34980   12.56250    5.92800   57.84750    0.30390    9.49940    0.33050    0.05010    2.07910    2.24010
 1362.50000   62.24860   90.70370   89.40500  162.20200   94.01870   65.84120    0.27660   11.05790   12.63590    5.95040   63.10260    0.29240    9.38490    0.31720    0.03380    2.14570    2.26780
 1363.00000   64.35480   92.06230   91.03880  161.49110   92.72770   67.75260    0.27440   10.86270   12.72320    6.87620   67.45680    0.26920    9.26800    0.29930    0.02140    2.20190    2.29720
 1363.50000   66.27630   92.21410   91.12590  158.78120   91.88890   69.98130    0.26960   10.89110   12.76060    6.49770   70.00670    0.24510    9.15110    0.28550    0.01490    2.22930    2.32320
 1364.00000   66.60820   91.47150   91.03020  157.01240   91.27360   72.22660    0.26370   11.10390   12.72710    7.32370   72.71970    0.23130    9.03410    0.27720    0.01120    2.22990    2.33750
 1364.50000   66.65960   89.73530   89.20760  155.14870   90.44020   74.07980    0.26050   11.45590   13.01770   10.42610   75.64180    0.22340    8.95060    0.27180    0.00750    2.22120    2.34580
 1365.00000   66.79970   87.42100   86.21740  151.55350   87.77130   73.46910    0.26130   12.10270   13.70670    8.29290   76.87490    0.22380    8.89090    0.26650    0.00450    2.27190    2.35620
 1365.50000   64.66240   83.29320   82.02830  148.70320   83.07810   69.42000    0.26710   13.62030   15.21020    8.25980   73.61340    0.22030    8.85080    0.25060    0.00430    2.48500    2.38880
 1366.00000   59.31400   78.66500   77.64810  145.23730   79.02390   62.81030    0.27220   15.61340   17.13400    7.54300   65.79770    0.20330    8.83290    0.21470    0.00730    2.72230    2.45690
 1366.50000   56.39240   73.70770   73.41840  139.72890   75.86650   59.67950    0.26930   16.64300   17.58660    8.40220   59.63160    0.18240    8.82930    0.17050    0.01140    2.93810    2.53720
 1367.00000   63.39370   72.76940   72.63700  135.73750   74.84090   62.78140    0.24370   14.89950   16.28370   27.18210   59.96400    0.16070    8.82570    0.13840    0.01410    2.89270    2.58510
 1367.50000   74.26600   74.92570   73.89060  138.27290   76.28060   75.38430    0.21110   12.05120   13.98210   71.37080   67.57660    0.15160    8.82210    0.13700    0.01020    2.82300    2.58630
