~Version ---------------------------------------------------
VERS.   2.0 : CWLS log ASCII Standard -VERSION 2.0
WRAP.    NO : One line per depth step
DLM . SPACE : Column Data Section Delimiter
~Well ------------------------------------------------------
STRT .F                   97.0 : START DEPTH
STOP .F                 1536.0 : STOP DEPTH
STEP .F                    0.5 : STEP
NULL .                -9999.25 : NULL VALUE
COMP .                         : COMPANY
WELL .                         : WELL
FLD  .                         : FIELD
LOC  .                         : LOCATION
PROV .                         : PROVINCE
CNTY .                         : COUNTY
STAT .                         : STATE
CTRY .                         : COUNTRY
SRVC .                         : SERVICE COMPANY
DATE .                         : DATE
UWI  .                         : UNIQUE WELL ID
API  .                         : API NUMBER
SLAT .WGS84 1.0895347317891968 : SURFACE LATITUDE
SLON .WGS84  6.558643228714004 : SURFACE LONGITUDE
DATUM.F                2563.77 : DEPTH DATUM ELEV
~Curve Information -----------------------------------------
DEPT.F     : 
GRS .GAPI  : GAMMA RAY FROM SONIC LOG
DT  .US/F  : INTERVAL TRANSIT TIME
DTL .US/F  : DELTA-T LONG SPACING
DTSM.US/F  : SHEAR-WAVE INTERVAL TRANSIT TIME DELTA-T
DTCO.US/F  : COMPRESSIONAL-WAVE INTERVAL TRANSIT TIME ACOUSTIC SLOWNESS
GRD .GAPI  : GAMMA RAY
NPHI.DEC   : NEUTRON POROSITY LIMESTONE
LLD .OHMM  : LATEROLOG LOG DEEP
LLS .OHMM  : LATEROLOG LOG SHALLOW
MSFL.OHMM  : MICRO SPHERICALLY FOCUSED
GR  .GAPI  : GAMMA RAY
SNP .DEC   : SIDEWALL NEUTRON POROSITY LIMESTONE
CALD.IN    : CALIPER FDC LOG
DPHI.DEC   : DENSITY POROSITY LIMESTONE
DRHO.G/C3  : DENSITY CORRECTION
PEF .B/E   : PHOTOELECTRIC FACTOR
RHOB.G/C3  : BULK DENSITY
~Params ----------------------------------------------------
~Other -----------------------------------------------------
~ASCII -----------------------------------------------------
# ...
  876.00000   44.96330   63.93590   -9999.25   94.58430   52.93490   -9999.25   -9999.25   -9999.25   -9999.25   -9999.25   44.29800    0.43770   -9999.25   -9999.25   -9999.25   -9999.25   -9999.25
  876.50000   43.85840   63.97620   -9999.25   94.83400   50.65900   -9999.25   -9999.25   -9999.25   -9999.25   -9999.25   45.96750    0.41990   -9999.25   -9999.25   -9999.25   -9999.25   -9999.25
  877.00000   44.79660   64.02500   -9999.25   98.98820   50.76760   -9999.25   -9999.25   -9999.25   -9999.25   -9999.25   46.49510    0.40170   -9999.25   -9999.25   -9999.25   -9999.25   -9999.25
  877.50000   45.86900   64.00800   -9999.25  105.39770   51.03990   -9999.25   -9999.25   -9999.25   -9999.25   -9999.25   45.84230    0.38880   -9999.25   -9999.25   -9999.25   -9999.25   -9999.25
  878.00000   45.01640   63.98460   -9999.25  109.79350   51.02740   -9999.25   -9999.25   -9999.25   -9999.25   -9999.25   44.09980    0.37570   -9999.25   -9999.25   -9999.25   -9999.25   -9999.25
  878.50000   42.61480   63.96650   40.03160  111.61250   51.28760   -9999.25   -9999.25   -9999.25   -9999.25   -9999.25   42.32270    0.35830   -9999.25   -9999.25   -9999.25   -9999.25   -9999.25
  879.00000   41.23770   63.86630   39.99700  112.31730   52.43150   -9999.25   -9999.25   -9999.25   -9999.25   -9999.25   41.94100    0.33590   -9999.25   -9999.25   -9999.25   -9999.25   -9999.25
  879.50000   41.26130   63.83620   45.65000  111.06870   52.22440   -9999.25   -9999.25   -9999.25   -9999.25   -9999.25   42.33990    0.32430   -9999.25   -9999.25   -9999.25   -9999.25   -9999.25
  880.00000   41.62180   63.91340   51.52960  109.16760   51.63060   37.37400    0.28160   -9999.25   -9999.25   -9999.25   42.32090    0.32420   -9999.25   -9999.25   -9999.25   -9999.25   -9999.25
  880.50000   41.57330   64.05520   55.58020  108.23170   51.62820   36.90400    0.28820   -9999.25   -9999.25   -9999.25   41.58140    0.32540   -9999.25   -9999.25   -9999.25   -9999.25   -9999.25
  881.00000   41.17850   64.19700   56.26060  107.98780   51.39820   37.29600    0.28570   -9999.25   -9999.25   -9999.25   40.84190    0.31700   -9999.25   -9999.25   -9999.25   -9999.25   -9999.25
  881.50000   38.01760   64.47910   56.98650  108.11130   51.06260   37.04100    0.27980   -9999.25   -9999.25   -9999.25   39.42220    0.30780   -9999.25   -9999.25   -9999.25   -9999.25   -9999.25
  882.00000   31.09330   64.85110   57.99650  109.20070   51.44750   32.65860    0.28580   -9999.25   -9999.25   -9999.25   37.29160    0.31410   -9999.25   -9999.25   -9999.25   -9999.25   -9999.25
  882.50000   23.76280   65.19700   58.00670  111.61280   52.02690   25.23190    0.33430   -9999.25   -9999.25   -9999.25   32.29050    0.36120   -9999.25   -9999.25   -9999.25   -9999.25   -9999.25
  883.00000   15.37930   64.92650   57.95520  113.23270   52.39750   17.31530    0.44640   -9999.25   -9999.25   -9999.25   23.59230    0.43360   -9999.25   -9999.25   -9999.25   -9999.25   -9999.25
  883.50000    9.03360   64.34630   57.91340  114.97000   54.19110   10.00200    0.56420   -9999.25   -9999.25   -9999.25   15.48720    0.57060   -9999.25   -9999.25   -9999.25   -9999.25   -9999.25
  884.00000    6.70730   62.45660   57.63860  123.89250   58.25150    5.77070    0.62430   -9999.25   -9999.25   -9999.25    8.61580    0.66090   -9999.25   -9999.25   -9999.25   -9999.25   -9999.25
  884.50000    6.08860   60.31190   57.59180  136.51210   63.72200    4.52610    0.67320   -9999.25   -9999.25   -9999.25    5.99630    0.70110   -9999.25   -9999.25   -9999.25   -9999.25   -9999.25
  885.00000    7.14030   58.89300   57.72390  144.50080   70.68070    5.71600    0.69490   -9999.25   -9999.25   -9999.25    5.20810    0.69710   -9999.25   -9999.25   -9999.25   -9999.25   -9999.25
  885.50000    9.62820   58.09030   57.80630  150.68770   81.50470    7.53840    0.70580   -9999.25   -9999.25   -9999.25    6.68230    0.68960   -9999.25   -9999.25   -9999.25   -9999.25   -9999.25
  886.00000   12.01030   67.49350   64.37860  161.67940   92.32870    9.73820    0.70560   -9999.25   -9999.25   -9999.25   10.06670    0.67340   -9999.25   -9999.25   -9999.25   -9999.25   -9999.25
  886.50000   15.41780   89.61270   87.98290  176.49090   98.87970   11.58740    0.69130   -9999.25   -9999.25   -9999.25   13.14570    0.65370   -9999.25   -9999.25   -9999.25   -9999.25   -9999.25
  887.00000   18.05210  109.24690  112.38530  179.42800  104.12250   14.50520    0.64840   -9999.25   -9999.25   -9999.25   16.23970    0.65240   -9999.25   -9999.25   -9999.25   -9999.25   -9999.25
  887.50000   20.57410  119.21690  121.30240  171.39160  105.76300   18.22020    0.59330   -9999.25   -9999.25   -9999.25   19.86430    0.65530   -9999.25   -9999.25   -9999.25   -9999.25   -9999.25
  888.00000   23.15510  122.16700  126.13340  147.65420  104.98920   23.33660    0.57680    0.19960    0.20080    0.20270   23.85690    0.64030   10.55040    0.61500   -0.04760    2.76440    1.71690
  888.50000   25.90510  115.04570  118.22800  129.04380  102.62050   28.45890    0.57040    0.19960    0.20080    0.21390   27.97490    0.60970   10.63560    0.61130   -0.04850    2.46610    1.72440
  889.00000   29.69400   98.67710  101.29610  124.25220   96.22450   32.90830    0.50930    0.22770    0.24830    0.21820   31.36690    0.56910   10.36240    0.58780   -0.02210    2.38580    1.82990
  889.50000   33.46410   85.55060   88.39390  125.29460   86.68520   37.07510    0.39890    0.44310    0.45520    0.20180   34.88200    0.48700   10.12890    0.51850    0.02140    2.61840    1.95650
  890.00000   35.95940   76.63020   77.98530  125.32290   79.63970   41.73160    0.27060    1.28450    1.71020    4.66690   38.63950    0.32810   10.10530    0.42380    0.03310    2.85110    2.08320
  890.50000   38.09410   70.94320   71.57840  120.92020   72.01370   45.69880    0.15090    4.95080    7.05700    9.56600   41.67160    0.21560   10.12980    0.32700    0.03850    2.98150    2.25740
  891.00000   41.02680   67.73180   68.08070  111.82850   66.99090   48.11940    0.11210   22.18350   24.48890   28.66370   44.52640    0.13560   10.12980    0.27040    0.03390    2.96280    2.34810
  891.50000   45.93430   69.44780   70.26670  114.06190   66.35280   50.28880    0.09620   34.50520   41.78120   41.35950   47.57150    0.10840   10.16210    0.25100    0.02080    2.93050    2.38410
  892.00000   50.07680   72.83480   73.37040  118.37990   67.37470   52.19170    0.09790   33.04630   43.29380   37.87720   50.14160    0.10470   10.22450    0.24570    0.00840    3.01570    2.39100
  892.50000   52.02050   73.76450   74.29840  123.11850   69.21610   53.58350    0.11150   30.24930   38.87300   30.68600   52.23510    0.10770   10.28690    0.24740   -0.00120    3.10080    2.38890
  893.00000   51.29430   73.66910   73.66990  125.84810   70.31510   54.03070    0.12940   29.41500   37.62390   33.04140   53.71070    0.11360   10.37390    0.24870   -0.00790    3.13620    2.38760
  893.50000   49.58890   73.89470   73.34990  126.09280   69.43230   55.04070    0.14540   28.23430   38.04530   29.04250   54.86500    0.11690   10.48530    0.24500   -0.01260    3.16740    2.39280
  894.00000   47.98060   74.26940   73.31900  127.29850   69.82350   57.09370    0.15390   27.64250   38.45490   28.11750   55.34910    0.12050   10.59670    0.23820   -0.01460    3.22610    2.40820
  894.50000   46.44540   74.40330   73.36650  127.53560   70.77470   57.88230    0.15500   26.92820   35.96130   33.98910   54.67160    0.12470   10.70810    0.23250   -0.00990    3.31050    2.41610
  895.00000   42.71850   74.12900   73.46900  126.67400   71.52520   54.98990    0.14630   21.80980   29.30430   32.91700   51.80220    0.13020   10.82570    0.24330   -0.00320    3.29950    2.39430
  895.50000   37.51790   72.87440   72.19550  125.23110   71.64480   50.10610    0.13120   18.65250   22.56480   22.11570   47.57370    0.14050   10.95270    0.27320    0.00340    3.23450    2.34670
  896.00000   32.99030   71.33070   70.50270  122.20380   70.73790   46.53530    0.11280   18.81560   23.85890    4.99670   42.76020    0.15030   11.07980    0.30840    0.00760    3.15960    2.29670
