~Version ---------------------------------------------------
VERS.   2.0 : CWLS log ASCII Standard -VERSION 2.0
WRAP.    NO : One line per depth step
DLM . SPACE : Column Data Section Delimiter
~Well ------------------------------------------------------
STRT .F                   97.0 : START DEPTH
STOP .F                 1536.0 : STOP DEPTH
STEP .F                    0.5 : STEP
NULL .                -9999.25 : NULL VALUE
COMP .                         : COMPANY
WELL .                         : WELL
FLD  .                         : FIELD
LOC  .                         : LOCATION
PROV .                         : PROVINCE
CNTY .                         : COUNTY
STAT .                         : STATE
CTRY .                         : COUNTRY
SRVC .                         : SERVICE COMPANY
DATE .                         : DATE
UWI  .                         : UNIQUE WELL ID
API  .                         : API NUMBER
SLAT .WGS84 1.0895347317891968 : SURFACE LATITUDE
SLON .WGS84  6.558643228714004 : SURFACE LONGITUDE
DATUM.F                2563.77 : DEPTH DATUM ELEV
~Curve Information -----------------------------------------
DEPT.F     : 
GRS .GAPI  : GAMMA RAY FROM SONIC LOG
DT  .US/F  : INTERVAL TRANSIT TIME
DTL .US/F  : DELTA-T LONG SPACING
DTSM.US/F  : SHEAR-WAVE INTERVAL TRANSIT TIME DELTA-T
DTCO.US/F  : COMPRESSIONAL-WAVE INTERVAL TRANSIT TIME ACOUSTIC SLOWNESS
GRD .GAPI  : GAMMA RAY
NPHI.DEC   : NEUTRON POROSITY LIMESTONE
LLD .OHMM  : LATEROLOG LOG DEEP
LLS .OHMM  : LATEROLOG LOG SHALLOW
MSFL.OHMM  : MICRO SPHERICALLY FOCUSED
GR  .GAPI  : GAMMA RAY
SNP .DEC   : SIDEWALL NEUTRON POROSITY LIMESTONE
CALD.IN    : CALIPER FDC LOG
DPHI.DEC   : DENSITY POROSITY LIMESTONE
DRHO.G/C3  : DENSITY CORRECTION
PEF .B/E   : PHOTOELECTRIC FACTOR
RHOB.G/C3  : BULK DENSITY
~Params ----------------------------------------------------
~Other -----------------------------------------------------
~ASCII -----------------------------------------------------
# ...
 1306.50000   62.93410   74.14270   73.35180  128.93210   76.88650   64.98410    0.19360   75.57000   79.16250   95.09930   52.86090    0.21110    8.91870    0.20530   -0.00760    2.54690    2.46420
 1307.00000   69.08960   77.40400   76.41490  130.15230   78.71390   75.39300    0.19550   63.42930   66.45110   36.88960   64.69620    0.19020    8.87440    0.22000   -0.01340    2.50140    2.43820
 1307.50000   70.75230   81.12430   80.13440  133.15350   80.08300   78.70140    0.22030   51.38180   58.05350   31.55760   72.03320    0.18390    8.83000    0.23870   -0.01920    2.48070    2.40990
 1308.00000   70.46960   83.66040   82.90470  135.58040   80.31190   77.32440    0.23800   47.67050   54.75870   20.58950   72.82980    0.19000    8.78570    0.24540   -0.01980    2.47530    2.39310
 1308.50000   70.14980   84.91270   84.55640  136.09860   80.26100   76.31850    0.23120   45.41690   52.72990   14.04380   72.06030    0.19820    8.73410    0.25070   -0.01300    2.47550    2.38620
 1309.00000   71.28950   84.09910   83.63100  136.40150   80.26510   78.49760    0.20900   44.02780   50.68360   34.69160   72.24100    0.20490    8.71480    0.25780   -0.00580    2.48280    2.37080
 1309.50000   72.55330   83.48950   83.33020  136.85290   80.27860   81.02220    0.20170   42.08590   49.00810   24.16530   73.86860    0.21560    8.74350    0.26570   -0.00070    2.50790    2.35560
 1310.00000   69.38580   83.44800   81.81560  139.06130   80.59420   80.29050    0.21300   39.98340   48.83380    8.77480   73.61390    0.22830    8.77220    0.26350    0.00670    2.47670    2.35780
 1310.50000   64.90530   83.24450   81.06750  141.84090   81.87550   78.21910    0.23180   39.66340   50.42170    9.94600   70.51830    0.23680    8.78440    0.26340    0.01270    2.38190    2.36240
 1311.00000   60.62280   84.53510   82.81410  144.96130   85.26830   74.90190    0.24680   39.98380   51.90380   16.70800   64.86280    0.23750    8.78910    0.28250    0.00730    2.18440    2.33110
 1311.50000   58.77550   87.54910   86.45610  147.83700   88.67410   72.14780    0.26090   37.30600   48.68370   11.45330   59.78290    0.23710    8.77870    0.30550    0.00290    2.09250    2.28870
 1312.00000   58.41790   89.53730   88.81870  148.22040   89.33790   69.34090    0.27950   31.08530   42.42950   30.24530   56.82470    0.24040    8.75830    0.32570    0.00320    2.14310    2.25410
 1312.50000   57.26370   88.51450   87.01080  144.14720   88.27600   65.89080    0.29370   26.82750   36.74960   61.29460   55.98960    0.24520    8.73790    0.31510    0.00890    2.25180    2.27610
 1313.00000   56.64230   84.73500   83.51560  138.22290   85.44120   64.13020    0.30180   25.82780   37.60080    4.61360   56.08900    0.24190    8.72980    0.28120    0.01570    2.43190    2.33150
 1313.50000   57.08700   81.26290   79.35040  132.65900   81.63070   63.80170    0.28070   28.56530   39.19870    5.08670   57.04490    0.22470    8.72600    0.22510    0.02970    2.53200    2.41930
 1314.00000   57.27990   78.42560   77.43880  129.83990   79.96510   63.92290    0.25090   38.09890   47.16350   18.54820   58.91210    0.19790    8.72220    0.19760    0.03810    2.45060    2.49000
 1314.50000   55.64020   77.22170   75.69920  127.22190   78.42220   62.67770    0.21900   59.70480   73.51270   42.76200   61.18220    0.17770    8.71850    0.20360    0.02980    2.31700    2.45040
 1315.00000   52.12360   77.24870   75.57190  125.17750   77.04900   59.28010    0.21440   86.77450   97.68290   22.71400   59.09950    0.17710    8.71470    0.24960    0.01690    2.26220    2.39500
 1315.50000   47.89440   76.62980   74.96040  124.08640   75.76070   55.38020    0.23100   90.06330   99.81150   31.74460   52.14050    0.18830    8.71100    0.26980    0.01060    2.28610    2.34570
 1316.00000   46.96980   75.26860   74.00680  124.69030   75.03200   53.25220    0.23840   80.13000   95.59940  300.67010   46.04330    0.20260    8.70730    0.26250    0.01600    2.52900    2.36670
 1316.50000   52.93060   73.95440   73.03220  126.43330   73.72120   59.09490    0.23240   56.98040   71.22530   76.39850   48.02850    0.20780    8.70560    0.23510    0.02590    2.60960    2.41970
 1317.00000   62.84340   74.56760   73.70470  127.42890   74.29620   69.76630    0.22080   36.92990   50.66870   13.25170   60.18070    0.20140    8.70560    0.20010    0.03970    2.60100    2.47960
 1317.50000   72.66420   76.23500   74.84060  128.32050   75.33710   80.12490    0.21140   32.64250   38.59390   28.85960   71.73810    0.18830    8.71580    0.17940    0.03710    2.61400    2.51090
 1318.00000   75.94870   77.29420   76.26260  129.38170   75.65670   82.15020    0.21620   19.03360   32.34030   18.40750   77.08720    0.17760    8.72730    0.16520    0.03150    2.67760    2.53770
 1318.50000   76.51270   77.06610   76.65410  132.69380   75.86290   80.67290    0.22430   15.97890   28.78750   13.68030   79.71970    0.16880    8.73880    0.15120    0.02580    2.69960    2.56600
 1319.00000   76.59230   77.09370   76.07290  132.99890   76.27870   80.70820    0.22430   16.10330   27.72460   15.70010   80.15830    0.16070    8.75030    0.14390    0.02020    2.59550    2.57190
 1319.50000   75.37520   77.71340   76.23070  132.62280   76.56270   82.25800    0.22360   16.96570   29.43570   15.87150   79.61760    0.15410    8.75900    0.16280    0.01110    2.50590    2.53970
 1320.00000   70.86620   78.39980   77.28860  131.86070   76.63570   79.74880    0.23580   18.81800   32.41620   14.99570   75.80460    0.15280    8.76760    0.18590    0.00450    2.42270    2.49950
 1320.50000   63.35690   78.52180   78.28780  131.09660   76.71930   72.01570    0.25640   21.76250   38.71420   18.22740   70.58790    0.16150    8.77640    0.20130    0.00120    2.40260    2.47340
 1321.00000   55.71780   78.45460   78.10550  131.41750   76.72100   61.97520    0.26840   23.24600   44.95150   24.05910   63.05410    0.17290    8.78560    0.19720   -0.00040    2.53920    2.47470
 1321.50000   51.86810   77.07010   76.80560  131.59320   76.48160   56.40360    0.26050   26.19330   47.22880   26.60210   55.68930    0.17810    8.79540    0.18490   -0.00130    2.76110    2.50140
 1322.00000   52.15850   76.35210   75.95900  130.96150   75.49420   56.60430    0.23620   24.60740   43.76090   28.09810   52.25410    0.17470    8.83470    0.17270   -0.00230    2.83710    2.52360
 1322.50000   53.68340   76.05200   75.77720  128.59680   73.38560   59.18780    0.21530   22.40100   39.10790   51.88920   54.39680    0.16870    8.88100    0.17560   -0.00470    2.80110    2.51860
 1323.00000   52.72360   75.38350   75.19090  127.02800   72.27010   60.69650    0.21380   21.56300   34.12690   23.60110   57.18850    0.16880    8.92720    0.18600   -0.00720    2.68340    2.49760
 1323.50000   49.37460   74.75220   74.58110  126.61150   71.77940   59.42110    0.23100   22.28660   33.79970   13.93040   56.11420    0.17530    8.97340    0.18600   -0.00940    2.62150    2.49890
 1324.00000   48.26030   74.05180   73.70830  126.69100   72.16790   58.21570    0.23920   24.53450   35.98340   19.74640   52.86860    0.17990    9.00720    0.18350   -0.01060    2.56990    2.50120
 1324.50000   51.16960   72.84920   72.53480  127.68630   72.50410   59.06790    0.22610   30.17120   42.84430   52.32200   50.85410    0.17040    9.02190    0.19160   -0.01190    2.50650    2.48850
 1325.00000   55.74560   73.00810   72.37190  129.83500   73.23900   60.23680    0.20430   32.89220   46.48940   24.53620   52.14700    0.16050    8.96590    0.20880   -0.01320    2.44310    2.46050
 1325.50000   56.75550   75.47570   74.55240  133.95860   76.39190   60.40930    0.19790   32.40120   45.99480   38.43590   54.00200    0.15910    8.90990    0.23300   -0.01440    2.39120    2.42180
 1326.00000   56.20050   79.56800   78.36890  138.33510   79.84890   60.95090    0.20820   31.06380   44.71260   38.83160   56.54370    0.16840    8.86510    0.25710   -0.01570    2.29480    2.36620
 1326.50000   55.33230   83.62650   82.80600  143.02940   83.65030   62.98370    0.22300   29.78160   42.87610   33.09990   59.23300    0.18320    8.85540    0.28830   -0.01700    2.18120    2.31070
