~Version ---------------------------------------------------
VERS.   2.0 : CWLS log ASCII Standard -VERSION 2.0
WRAP.    NO : One line per depth step
DLM . SPACE : Column Data Section Delimiter
~Well ------------------------------------------------------
STRT .F                   97.0 : START DEPTH
STOP .F                 1536.0 : STOP DEPTH
STEP .F                    0.5 : STEP
NULL .                -9999.25 : NULL VALUE
COMP .                         : COMPANY
WELL .                         : WELL
FLD  .                         : FIELD
LOC  .                         : LOCATION
PROV .                         : PROVINCE
CNTY .                         : COUNTY
STAT .                         : STATE
CTRY .                         : COUNTRY
SRVC .                         : SERVICE COMPANY
DATE .                         : DATE
UWI  .                         : UNIQUE WELL ID
API  .                         : API NUMBER
SLAT .WGS84 1.0895347317891968 : SURFACE LATITUDE
SLON .WGS84  6.558643228714004 : SURFACE LONGITUDE
DATUM.F                2563.77 : DEPTH DATUM ELEV
~Curve Information -----------------------------------------
DEPT.F     : 
GRS .GAPI  : GAMMA RAY FROM SONIC LOG
DT  .US/F  : INTERVAL TRANSIT TIME
DTL .US/F  : DELTA-T LONG SPACING
DTSM.US/F  : SHEAR-WAVE INTERVAL TRANSIT TIME DELTA-T
DTCO.US/F  : COMPRESSIONAL-WAVE INTERVAL TRANSIT TIME ACOUSTIC SLOWNESS
GRD .GAPI  : GAMMA RAY
NPHI.DEC   : NEUTRON POROSITY LIMESTONE
LLD .OHMM  : LATEROLOG LOG DEEP
LLS .OHMM  : LATEROLOG LOG SHALLOW
MSFL.OHMM  : MICRO SPHERICALLY FOCUSED
GR  .GAPI  : GAMMA RAY
SNP .DEC   : SIDEWALL NEUTRON POROSITY LIMESTONE
CALD.IN    : CALIPER FDC LOG
DPHI.DEC   : DENSITY POROSITY LIMESTONE
DRHO.G/C3  : DENSITY CORRECTION
PEF .B/E   : PHOTOELECTRIC FACTOR
RHOB.G/C3  : BULK DENSITY
~Params ----------------------------------------------------
~Other -----------------------------------------------------
~ASCII -----------------------------------------------------
# ...
  917.00000   41.86250   73.28260   72.92260  127.43740   73.49100   49.24250    0.16790   16.25300   11.97830   17.51160   46.14550    0.11630   10.87890    0.17430   -0.01040    3.43650    2.52200
  917.50000   38.32860   71.98000   71.50960  124.63380   73.79440   44.57400    0.17460   14.30290   10.51710   17.88110   42.79310    0.10980   10.83780    0.15720   -0.00940    3.35460    2.55770
  918.00000   39.03320   70.19020   70.03330  121.77310   72.78950   43.63670    0.15300   14.19930    9.70430    2.44140   40.86480    0.09480   10.79970    0.14010   -0.00850    3.13830    2.58110
  918.50000   43.44610   69.30830   69.33570  121.42970   72.25300   48.20940    0.12250   14.30980    9.76760   30.33730   42.11270    0.08090   10.77960    0.13960   -0.00810    2.98730    2.58070
  919.00000   49.46240   69.42020   69.27660  123.94980   72.21300   55.31100    0.10500   15.01900   10.34720   21.83570   46.62820    0.07220   10.75960    0.14510   -0.00880    2.97190    2.56950
  919.50000   55.13780   70.30120   70.01920  127.21800   72.76980   62.32690    0.11450   14.56200   10.10140   13.29510   52.79550    0.07650   10.73960    0.15050   -0.00950    2.94410    2.56140
  920.00000   60.19790   72.29180   71.65320  130.55000   73.54130   66.01600    0.13450   13.63420    9.29210    7.82630   60.77750    0.08810   10.71960    0.15610   -0.01020    2.89130    2.55170
  920.50000   62.37450   74.05980   73.54790  133.55280   74.75200   68.13310    0.15840   11.24910    7.98950   10.82280   65.28990    0.10090   10.69960    0.16540   -0.01100    2.83970    2.53460
  921.00000   62.70940   75.24640   75.03240  134.43480   75.80080   70.53070    0.17000    9.91500    7.36630    7.25240   68.15830    0.11100   10.67930    0.17910   -0.01190    2.81250    2.51270
  921.50000   59.58280   75.70910   75.51920  133.37570   76.69540   72.30930    0.17730    9.83900    8.20260    5.17220   68.03130    0.11840   10.65640    0.17800   -0.01270    2.86800    2.51210
  922.00000   56.00660   75.26240   74.76090  130.60150   76.40360   72.56980    0.18010   10.55040    7.89760    5.45980   66.64870    0.12210   10.63350    0.16530   -0.01250    2.95050    2.53470
  922.50000   53.36810   73.85600   73.44840  128.03220   74.91030   71.03060    0.16960   11.36870    8.93590    8.26690   64.66180    0.12020   10.61050    0.15130   -0.01150    3.00140    2.55540
  923.00000   52.17700   72.11570   71.85400  126.34500   73.47820   67.03280    0.14200   14.03040   10.32500   10.01610   62.34860    0.11490   10.58760    0.15580   -0.01050    2.98090    2.55550
  923.50000   52.92230   71.14560   70.99790  126.11830   73.07620   62.57990    0.11150   16.46540   10.77870    9.80760   59.01890    0.10630   10.56910    0.16550   -0.00980    2.90360    2.53540
  924.00000   56.55590   71.23220   70.99790  126.41930   73.16010   59.66370    0.10240   18.10380   12.19760   14.12100   55.84880    0.09820   10.55750    0.17750   -0.00900    2.82630    2.51100
  924.50000   60.76760   71.68390   71.03360  128.15180   73.47160   59.35920    0.11220   17.90320   12.24420   17.03460   56.34770    0.09500   10.54590    0.18820   -0.00870    2.71730    2.49440
  925.00000   64.32790   73.11790   72.38960  130.47770   74.14790   59.96470    0.13170   16.43330   11.76620   12.61010   58.73050    0.09990   10.53430    0.19220   -0.00870    2.63420    2.48580
  925.50000   65.10450   75.21190   74.17990  132.73350   74.91700   61.46510    0.15090   14.29800   10.48680   11.20330   62.30210    0.10980   10.52270    0.19260   -0.00860    2.57840    2.48280
  926.00000   63.13280   76.44390   75.97030  134.84320   75.73150   64.27660    0.16850   12.32810    8.33970    8.98570   65.03590    0.11930   10.51100    0.19290   -0.01060    2.56300    2.48460
  926.50000   60.77140   77.54730   77.15690  134.39810   76.10290   68.20370    0.18500   10.46430    7.35720    6.95230   66.82150    0.13030   10.49940    0.19110   -0.01260    2.61350    2.49010
  927.00000   60.31870   77.55480   77.11910  132.71550   76.01320   68.39360    0.20600    9.83740    6.94870    6.39500   68.51060    0.13910   10.48780    0.18540   -0.01390    2.77640    2.50120
  927.50000   60.69260   76.58790   76.29930  132.40160   75.51980   66.31800    0.21500   10.20020    7.29320    7.25690   68.30400    0.14140   10.47620    0.17650   -0.01390    2.90130    2.51690
  928.00000   60.29250   75.50880   75.22980  132.10400   74.99160   63.82900    0.19590   11.49280    7.44840    6.07350   65.60130    0.13290   10.46460    0.17250   -0.01430    2.94440    2.52310
  928.50000   59.71730   74.41200   74.33490  131.53800   74.56920   62.20890    0.16040   13.30820    9.18170   11.64640   61.74510    0.11770   10.45290    0.17540   -0.01480    2.85700    2.51500
  929.00000   60.41550   74.61350   74.41310  132.70100   74.81660   62.09730    0.14350   14.89810   10.20230   13.47220   58.30280    0.10790   10.44130    0.18850   -0.01460    2.84400    2.49340
  929.50000   64.54480   75.90090   75.02430  136.98140   75.60210   64.49040    0.15240   14.61230    9.82420   12.81600   59.10490    0.11260   10.42970    0.19600   -0.01290    2.89420    2.47950
  930.00000   70.15300   77.71310   77.09560  141.26170   78.31270   69.44120    0.17440   12.26530    8.81300   11.05200   62.51800    0.13220   10.41810    0.19240   -0.01080    2.94620    2.48210
  930.50000   73.07540   79.96620   79.17320  146.64260   81.01670   74.04000    0.19640    9.01720    6.99680    8.66500   66.74760    0.14910   10.41240    0.18660   -0.00810    2.94860    2.49790
  931.00000   73.47960   81.73720   81.21280  152.58050   83.36820   78.65830    0.21620    7.09140    5.48520    5.67650   69.51050    0.16090   10.41160    0.18070   -0.00540    2.89350    2.51090
  931.50000   74.11010   83.70910   83.25250  155.74850   84.86290   82.81510    0.23110    5.89520    4.92190    4.34190   72.48370    0.16760   10.41080    0.17830   -0.00660    2.81070    2.51450
  932.00000   75.47950   85.55230   84.71680  157.28460   85.66370   84.34680    0.23860    5.68150    4.69430    3.58350   75.76230    0.17330   10.41010    0.18500   -0.00910    2.75180    2.50090
  932.50000   77.05620   86.08100   85.09850  158.82080   86.04160   83.58000    0.24420    5.67080    4.67130    3.99800   77.80030    0.17920   10.40930    0.19840   -0.01100    2.73520    2.47540
  933.00000   77.18590   85.51040   84.87500  160.05960   86.06060   83.52280    0.24830    5.54270    4.67140    3.72340   77.81370    0.19000   10.40860    0.20700   -0.01280    2.75060    2.46250
  933.50000   77.05350   85.61030   84.72220  160.78590   86.28850   85.91350    0.24470    5.16560    4.59450    3.83350   77.74230    0.19960   10.40780    0.20900   -0.01460    2.77960    2.46320
  934.00000   78.42200   86.37120   85.88570  162.43940   86.60930   90.03170    0.23410    4.81680    4.44510    4.28730   78.60640    0.20670   10.40710    0.21130   -0.01650    2.73400    2.45560
  934.50000   80.01700   87.48530   87.13110  164.04660   86.81530   91.91730    0.22990    4.54240    4.33010    3.00030   79.04100    0.21610   10.39430    0.21930   -0.01680    2.62830    2.44180
  935.00000   80.01100   88.53680   87.92020  163.80260   86.98300   91.61960    0.24760    4.53210    4.30620    2.98250   78.29410    0.23020   10.37970    0.22310   -0.01600    2.65000    2.42940
  935.50000   75.84460   87.43120   86.40700  158.09300   86.70560   88.51130    0.27050    4.76810    4.33180    3.85400   76.25070    0.23590   10.36520    0.21840   -0.01500    2.81180    2.44220
  936.00000   69.35090   83.94480   82.91180  144.12780   85.01880   82.16970    0.27200    5.23370    4.75960    3.65690   72.70450    0.22090   10.35060    0.19510   -0.01350    2.97500    2.48850
  936.50000   61.39000   79.77900   78.43770  130.45940   79.08100   72.75610    0.24190    6.48340    6.11340    4.15560   68.36140    0.19180   10.33600    0.16300   -0.01110    3.05980    2.53850
  937.00000   55.18600   75.27270   74.03070  120.19270   72.94580   63.75220    0.18600    9.16480    7.96520    6.30590   61.97290    0.14510   10.32140    0.13930   -0.00800    3.00140    2.58140
