~Version ---------------------------------------------------
VERS.   2.0 : CWLS log ASCII Standard -VERSION 2.0
WRAP.    NO : One line per depth step
DLM . SPACE : Column Data Section Delimiter
~Well ------------------------------------------------------
STRT .F                   97.0 : START DEPTH
STOP .F                 1536.0 : STOP DEPTH
STEP .F                    0.5 : STEP
NULL .                -9999.25 : NULL VALUE
COMP .                         : COMPANY
WELL .                         : WELL
FLD  .                         : FIELD
LOC  .                         : LOCATION
PROV .                         : PROVINCE
CNTY .                         : COUNTY
STAT .                         : STATE
CTRY .                         : COUNTRY
SRVC .                         : SERVICE COMPANY
DATE .                         : DATE
UWI  .                         : UNIQUE WELL ID
API  .                         : API NUMBER
SLAT .WGS84 1.0895347317891968 : SURFACE LATITUDE
SLON .WGS84  6.558643228714004 : SURFACE LONGITUDE
DATUM.F                2563.77 : DEPTH DATUM ELEV
~Curve Information -----------------------------------------
DEPT.F     : 
GRS .GAPI  : GAMMA RAY FROM SONIC LOG
DT  .US/F  : INTERVAL TRANSIT TIME
DTL .US/F  : DELTA-T LONG SPACING
DTSM.US/F  : SHEAR-WAVE INTERVAL TRANSIT TIME DELTA-T
DTCO.US/F  : COMPRESSIONAL-WAVE INTERVAL TRANSIT TIME ACOUSTIC SLOWNESS
GRD .GAPI  : GAMMA RAY
NPHI.DEC   : NEUTRON POROSITY LIMESTONE
LLD .OHMM  : LATEROLOG LOG DEEP
LLS .OHMM  : LATEROLOG LOG SHALLOW
MSFL.OHMM  : MICRO SPHERICALLY FOCUSED
GR  .GAPI  : GAMMA RAY
SNP .DEC   : SIDEWALL NEUTRON POROSITY LIMESTONE
CALD.IN    : CALIPER FDC LOG
DPHI.DEC   : DENSITY POROSITY LIMESTONE
DRHO.G/C3  : DENSITY CORRECTION
PEF .B/E   : PHOTOELECTRIC FACTOR
RHOB.G/C3  : BULK DENSITY
~Params ----------------------------------------------------
~Other -----------------------------------------------------
~ASCII -----------------------------------------------------
# ...
  999.00000   17.23150   62.99190   62.41610  119.40670   63.76340   17.05570    0.05720   47.73660   54.47750   12.46220   24.98460    0.06430    9.79690   -0.01640   -0.00430    5.49620    2.86410
  999.50000   12.70770   60.24120   59.74880  114.77290   60.15080   13.04950    0.03780   62.42170   80.73970   28.80640   17.23990    0.05270    9.79450   -0.04000   -0.00320    5.37510    2.90360
 1000.00000    9.64570   58.41310   58.02660  110.13910   58.65210   10.68740    0.01710   93.14350  148.61150  260.15170   10.38190    0.03860    9.79520   -0.05660   -0.00240    5.31520    2.93110
 1000.50000    7.71210   57.55940   57.30040  105.50530   55.99960    8.89950    0.01090  181.88270  215.18350 1122.69060    8.87780    0.02750    9.80510   -0.05750   -0.00540    5.26030    2.93190
 1001.00000    6.39510   56.51330   55.85450  100.87150   52.84370    7.18980    0.00700  257.65960  267.52000   91.18460    8.49660    0.02110    9.81510   -0.05690   -0.00720    5.26730    2.93020
 1001.50000    5.64000   54.89410   54.06010   99.02830   52.24450    5.69510    0.00390  297.30940  316.30420  116.24820    7.55290    0.01720    9.81780   -0.06410   -0.00380    5.28260    2.94230
 1002.00000    5.91500   53.52340   52.95790  100.47300   52.53800    5.10250    0.00110  336.80210  354.08090 1503.16200    6.36800    0.01360    9.81420   -0.07190   -0.00110    5.22420    2.95590
 1002.50000    8.23060   53.65300   52.98930  102.60140   54.50840    6.99490    0.00040  264.12310  272.05760 1876.23840    6.36820    0.01030    9.81070   -0.06970    0.00030    5.07170    2.95450
 1003.00000   10.98590   54.66770   54.09500  105.70660   57.53450   11.26960    0.00540  144.76780  161.15660 1835.94430    8.22760    0.01140    9.80710   -0.05640   -0.00160    4.98530    2.92960
 1003.50000   15.07300   57.08850   55.76730  108.83860   59.52630   16.86660    0.01150   81.94320  109.49510 1518.79440   11.34700    0.01860    9.80350   -0.03930   -0.00400    5.08720    2.89780
 1004.00000   22.98310   60.25460   58.25830  112.49700   61.69980   25.55900    0.01920   50.15090   63.02080   39.86030   16.20260    0.02860    9.79990   -0.02020   -0.00640    5.01410    2.86110
 1004.50000   29.76860   63.12790   61.25070  115.45390   63.15690   31.83100    0.03100   26.83200   37.40220  140.27910   22.15370    0.03820    9.79630   -0.00050   -0.00850    4.87250    2.82570
 1005.00000   35.14860   65.87560   64.64200  116.54110   64.02630   36.58640    0.05760   18.59560   27.54130  180.55460   29.08550    0.05100    9.79280    0.01860   -0.00890    4.67100    2.79220
 1005.50000   33.60600   67.93900   67.30640  118.28880   65.17700   35.86120    0.08950   16.01890   24.46520   13.13270   32.93620    0.06720    9.78920    0.02740   -0.00830    4.68460    2.77920
 1006.00000   29.08430   67.85470   67.44070  120.49380   66.29070   32.24490    0.10250   16.35130   25.62580   24.75100   32.52450    0.08110    9.78560    0.02550   -0.00300    4.75430    2.79640
 1006.50000   25.58200   65.96550   65.15330  120.06500   65.42370   28.38550    0.09030   18.63060   29.51910   25.92460   29.65300    0.07920    9.78200    0.00910    0.00020    4.76720    2.81780
 1007.00000   23.47470   63.89260   63.23820  117.45830   63.83840   25.98090    0.06340   20.97050   33.87930   11.44090   27.33560    0.06820    9.77840   -0.00320    0.00170    4.54780    2.83550
 1007.50000   21.24130   62.04030   61.41600  112.62660   61.99450   23.22540    0.04530   25.64390   41.04820  163.82790   25.79420    0.05790    9.77490   -0.00980    0.00060    4.40480    2.85070
 1008.00000   18.22940   60.47660   59.77160  110.06940   60.33480   20.21730    0.03300   30.02550   47.57520   56.40820   23.78010    0.05050    9.77130   -0.02230   -0.00190    4.53870    2.87150
 1008.50000   15.45980   59.42350   58.13640  107.49200   58.79740   16.94470    0.02680   37.44700   57.59230   24.16550   20.92080    0.04420    9.76770   -0.03460   -0.00450    4.80000    2.89440
 1009.00000   14.07170   58.70890   57.67150  104.91470   57.71260   14.64580    0.02050   48.26840   68.95340  113.03620   17.56610    0.03730    9.76080   -0.04000   -0.00710    4.96330    2.90500
 1009.50000   13.19930   57.97510   57.52930  103.57040   57.65560   13.30480    0.01660   63.18820   83.04730   87.26720   16.25380    0.03100    9.75120   -0.03780   -0.00970    4.97340    2.89850
 1010.00000   13.48440   57.36050   57.07110  103.53980   56.90740   12.84330    0.01320   80.07770   95.57480   99.01870   16.72160    0.02700    9.74150   -0.03000   -0.01230    4.96620    2.88350
 1010.50000   13.47510   56.37110   55.83710  103.46710   55.60990   12.22770    0.00970  119.97130  134.18270  104.91910   17.63890    0.02770    9.73190   -0.01960   -0.01490    4.99120    2.86490
 1011.00000   12.61900   54.84460   54.48360  103.50900   54.87870   10.76650    0.00570  167.52390  189.85560  130.24900   17.65770    0.03170    9.72230   -0.01120   -0.01620    5.14440    2.84880
 1011.50000   10.73260   53.72320   53.53490  102.29660   53.70500    8.81810    0.00190  261.09120  284.03790   68.64810   16.75120    0.03560    9.71270   -0.01640   -0.01450    5.39070    2.85910
 1012.00000    9.43110   53.00290   52.71860  101.84070   53.86390    8.12110    0.00050  340.20540  388.81660   90.49280   14.40760    0.03360    9.70310   -0.03030   -0.01200    5.39130    2.89160
 1012.50000    9.65210   53.13700   52.80650  102.31740   54.33560    9.29010   -0.00040  331.20860  392.41470  684.29220   11.73700    0.02670    9.69340   -0.04740   -0.00960    5.28660    2.92570
 1013.00000   11.65830   54.52910   53.89540  103.17730   55.03620   12.02990   -0.00050  200.61200  280.40210 1750.67800   10.81910    0.01770    9.68550   -0.06340   -0.00710    5.08280    2.94100
 1013.50000   14.56890   56.37660   55.49630  103.19210   55.58660   14.93880    0.00230   92.38520  127.17270 1808.21400   12.63500    0.01500    9.68550   -0.06230   -0.00470    4.91300    2.94090
 1014.00000   15.08450   57.72110   57.43600  102.73370   55.61960   15.48230    0.00790   49.40470   78.59660  661.92660   15.49660    0.01790    9.68560   -0.06000   -0.00280    4.91940    2.94100
 1014.50000   13.04800   57.55270   57.12930  101.40330   55.19800   13.63850    0.01160   48.45610   70.97640   43.66770   15.93640    0.02360    9.68560   -0.06470   -0.00120    5.02580    2.94540
 1015.00000    8.99000   56.17700   55.65710  100.95120   54.55890   10.88500    0.00920   50.45020  104.04510  125.90060   13.43190    0.02560    9.68570   -0.07400    0.00030    5.20140    2.96270
 1015.50000    6.15380   54.17420   53.95340   99.28010   54.07600    8.61150    0.00350  336.19890  588.81680 1785.82510    9.76610    0.02090    9.68500   -0.08640    0.00180    5.35490    2.98560
 1016.00000    4.77600   52.64120   52.27330   97.93840   53.09970    7.70930   -0.00050 1294.32450 1393.00480 1862.07070    7.28670    0.01240    9.68350   -0.09440    0.00200    5.54610    2.99870
 1016.50000    5.77560   52.22420   52.05740   97.55390   52.40180    7.96530   -0.00360 1400.86160 1484.72690 1903.79700    6.70100    0.00530    9.68210   -0.09210    0.00220    5.33130    3.00080
 1017.00000    8.17010   53.01290   52.61980   98.70300   52.23800    9.82330   -0.00220  636.03930  834.66390 1880.12450    8.08190    0.00500    9.68060   -0.08060    0.00250    4.96900    2.97100
 1017.50000   11.12470   54.50460   53.97440  101.42580   52.40280   12.39750    0.00030  261.89640  326.13810 1801.44970   10.62770    0.00700    9.67910   -0.06260    0.00200    4.82660    2.94240
 1018.00000   12.66280   55.84710   55.46780  101.72880   52.90060   13.86370    0.00380  137.75810  184.08740  433.22880   12.26120    0.01350    9.67770   -0.05730    0.00140    4.99930    2.93280
 1018.50000   11.65830   55.74530   55.49700  102.52250   53.38490   12.58980    0.00640  120.43420  167.55010   70.73690   12.67740    0.01890    9.67620   -0.06170   -0.00010    5.29970    2.93740
 1019.00000    8.56940   54.70700   54.62070  100.89120   53.50370    9.70450    0.00560  139.27640  212.64000  104.96430   11.82940    0.01970    9.67480   -0.06800   -0.00220    5.55650    2.95180
