~Version ---------------------------------------------------
VERS.   2.0 : CWLS log ASCII Standard -VERSION 2.0
WRAP.    NO : One line per depth step
DLM . SPACE : Column Data Section Delimiter
~Well ------------------------------------------------------
STRT .F                   97.0 : START DEPTH
STOP .F                 1536.0 : STOP DEPTH
STEP .F                    0.5 : STEP
NULL .                -9999.25 : NULL VALUE
COMP .                         : COMPANY
WELL .                         : WELL
FLD  .                         : FIELD
LOC  .                         : LOCATION
PROV .                         : PROVINCE
CNTY .                         : COUNTY
STAT .                         : STATE
CTRY .                         : COUNTRY
SRVC .                         : SERVICE COMPANY
DATE .                         : DATE
UWI  .                         : UNIQUE WELL ID
API  .                         : API NUMBER
SLAT .WGS84 1.0895347317891968 : SURFACE LATITUDE
SLON .WGS84  6.558643228714004 : SURFACE LONGITUDE
DATUM.F                2563.77 : DEPTH DATUM ELEV
~Curve Information -----------------------------------------
DEPT.F     : 
GRS .GAPI  : GAMMA RAY FROM SONIC LOG
DT  .US/F  : INTERVAL TRANSIT TIME
DTL .US/F  : DELTA-T LONG SPACING
DTSM.US/F  : SHEAR-WAVE INTERVAL TRANSIT TIME DELTA-T
DTCO.US/F  : COMPRESSIONAL-WAVE INTERVAL TRANSIT TIME ACOUSTIC SLOWNESS
GRD .GAPI  : GAMMA RAY
NPHI.DEC   : NEUTRON POROSITY LIMESTONE
LLD .OHMM  : LATEROLOG LOG DEEP
LLS .OHMM  : LATEROLOG LOG SHALLOW
MSFL.OHMM  : MICRO SPHERICALLY FOCUSED
GR  .GAPI  : GAMMA RAY
SNP .DEC   : SIDEWALL NEUTRON POROSITY LIMESTONE
CALD.IN    : CALIPER FDC LOG
DPHI.DEC   : DENSITY POROSITY LIMESTONE
DRHO.G/C3  : DENSITY CORRECTION
PEF .B/E   : PHOTOELECTRIC FACTOR
RHOB.G/C3  : BULK DENSITY
~Params ----------------------------------------------------
~Other -----------------------------------------------------
~ASCII -----------------------------------------------------
# ...
 1163.00000    8.48580   55.63450   55.06020  102.30830   53.23670    8.99980   -0.00110  326.68410  387.68040 1892.38180    6.99260    0.01150    9.25150   -0.05950   -0.00680    5.18940    2.93610
 1163.50000    8.98570   57.31050   56.56110  103.68240   53.94180   10.37760    0.00660  196.40290  238.15300 1638.25390    8.95540    0.01860    9.25650   -0.04070   -0.00790    5.05550    2.90320
 1164.00000    8.57860   58.09400   57.76940  103.46630   54.64690    9.90140    0.01270  153.03500  212.53620  373.58910    9.92180    0.02800    9.25630   -0.02310   -0.00840    4.96500    2.87550
 1164.50000    7.62170   58.11830   57.67470  103.04640   55.20460    8.72170    0.02200  161.96050  231.05360  253.60800    9.14200    0.03650    9.24800   -0.02740   -0.00710    5.11870    2.87600
 1165.00000    6.85860   57.10900   56.47610  102.29600   55.69420    7.25850    0.01870  196.65700  274.73780  593.67440    7.69890    0.03830    9.23980   -0.04350   -0.00480    5.31940    2.90650
 1165.50000    7.21350   55.67750   55.35820  101.52790   55.90880    6.32420    0.01160  240.09400  351.41420 1372.96450    6.75220    0.03230    9.24040   -0.05800   -0.00250    5.40950    2.93330
 1166.00000    7.83720   55.01910   54.56900  100.68390   55.54210    6.60840    0.00660  266.12810  371.78390  537.48720    6.86760    0.02570    9.24190   -0.06090   -0.00250    5.22710    2.93980
 1166.50000    8.20770   54.68000   54.30900   99.62800   53.41340    7.08820    0.00330  274.36820  380.84740  169.66320    7.24810    0.02100    9.24340   -0.06310   -0.00250    5.06930    2.94140
 1167.00000    7.57860   54.58580   54.35320   99.04470   51.57370    7.58440    0.00310  271.21940  368.52630   85.14200    7.23800    0.01940    9.24500   -0.06560   -0.00170    5.07130    2.94900
 1167.50000    7.15840   54.85590   54.81470   98.96340   51.46560    8.19920    0.00350  260.18730  351.75490  468.16830    7.55120    0.01830    9.24650   -0.06700   -0.00090    5.19390    2.95400
 1168.00000    7.92120   55.52540   55.28580   99.93640   51.55720    9.34570    0.00390  228.79900  307.21760  350.26900    9.01480    0.01810    9.24800   -0.06330   -0.00160    5.25220    2.94170
 1168.50000    9.13450   55.60230   55.43420  100.25170   51.96200    9.48420    0.00420  191.24190  265.68170  385.33420   10.85650    0.01940    9.25520   -0.05550   -0.00360    5.20560    2.92930
 1169.00000    9.64060   55.23870   55.03080   99.66560   53.12810    8.95430    0.00430  180.07360  245.48460  185.26540   11.86890    0.02050    9.25880   -0.05120   -0.00560    5.10940    2.92150
 1169.50000    8.98450   54.76500   54.62490   99.91460   53.78200    8.50510    0.00380  194.64560  251.72320  127.15370   11.23900    0.02030    9.25870   -0.05510   -0.00760    5.01320    2.92750
 1170.00000    8.41010   54.65260   54.10550  100.46980   53.51710    9.39790    0.00270  232.82450  282.47370  256.73160   10.01750    0.01960    9.25490   -0.05990   -0.00920    4.90460    2.93550
 1170.50000    8.32570   54.76180   54.03930   99.67110   52.11020   10.12030    0.00160  302.06680  361.12670  850.30830    8.79610    0.01890    9.24600   -0.06190   -0.00760    4.84600    2.93750
 1171.00000    8.78300   54.87090   54.47100   98.36440   51.79750    9.93820    0.00140  354.49250  412.55550  431.84300    7.96010    0.01880    9.23930   -0.06390   -0.00620    4.91250    2.94000
 1171.50000    9.30070   54.90900   54.79860   97.67350   51.39300    8.86130    0.00100  397.41970  483.72570  241.13680    7.08580    0.01920    9.24130   -0.06650   -0.00440    5.09110    2.94790
 1172.00000   10.28280   54.92340   54.75980   97.89750   51.60410    9.10640   -0.00010  422.55300  536.31650  335.90740    6.73060    0.01880    9.24440   -0.06930   -0.00190    5.40990    2.95530
 1172.50000   11.27280   54.93370   54.71620   98.45260   52.35960   10.86940    0.00060  431.46340  535.18770  445.87130    7.54590    0.01830    9.24740   -0.06890   -0.00060    5.59180    2.95080
 1173.00000   15.11280   55.43980   54.90620   98.70280   53.46760   15.10760    0.00310  311.75250  422.01890  256.59090   10.13970    0.01830    9.25050   -0.05620   -0.00210    5.28840    2.92830
 1173.50000   22.58450   56.69670   56.35870   98.99020   54.81740   22.47490    0.00620  193.18200  290.31400  251.20370   15.29120    0.02020    9.25350   -0.02540   -0.00480    4.65650    2.87060
 1174.00000   31.78180   58.06460   57.86050   99.46570   56.05060   30.81630    0.01110  148.91240  181.53140  222.07950   22.96500    0.02490    9.25650    0.01110   -0.00750    4.01820    2.80520
 1174.50000   36.80690   59.30760   59.30000   99.94860   57.28380   37.00910    0.01790  128.59890  182.90760   93.07020   31.61520    0.03220    9.25960    0.04340   -0.00900    3.82100    2.74990
 1175.00000   35.91720   59.28520   59.12080  102.24660   58.55920   37.93680    0.02180  131.59450  197.90380   83.15250   34.05050    0.03680    9.26150    0.03930   -0.00840    4.14990    2.76000
 1175.50000   32.11430   58.80580   58.67280  105.64750   59.99570   35.09710    0.02240  134.31620  200.74310  245.58610   32.66420    0.03810    9.26150    0.01620   -0.00330    4.43830    2.80970
 1176.00000   32.58070   60.21730   59.77400  109.09740   61.43230   34.57950    0.02350  115.15880  190.72340  302.78820   31.50200    0.04000    9.26130   -0.00080    0.00160    4.34210    2.83150
 1176.50000   38.36030   62.95400   62.16120  113.37170   62.86880   40.19820    0.04070   78.95050  138.06320  448.20810   35.58320    0.05140    9.26100    0.01940   -0.00190    3.97540    2.79330
 1177.00000   46.54290   65.80910   65.43990  117.51810   64.23740   51.80610    0.06550   51.54580   79.80480   87.82890   43.65200    0.07360    9.26070    0.05810   -0.00760    3.88700    2.72290
 1177.50000   49.88660   68.52950   68.01700  116.16720   64.96420   59.59210    0.11190   41.55580   72.97840   34.41880   49.06190    0.09650    9.26040    0.08490   -0.01330    4.01030    2.68310
 1178.00000   46.44540   68.55470   67.76350  114.66200   63.98570   54.05060    0.12690   39.30210   72.38430   25.12330   49.09010    0.10720    9.26010    0.07870   -0.01510    4.30590    2.68900
 1178.50000   38.99410   65.77580   64.77690  111.90290   62.67160   43.16810    0.11680   47.71650   87.74100   23.06160   42.29060    0.09850    9.25980    0.05180   -0.01360    4.56910    2.73720
 1179.00000   27.77610   62.39430   61.15670  109.11060   60.71560   30.55010    0.08760   65.19660  123.72810   52.37580   33.43070    0.08070    9.25950    0.02210   -0.01210    4.60490    2.79720
 1179.50000   18.73190   59.93480   59.18640  106.31820   58.69160   22.97870    0.05660  111.76730  189.02070   67.12150   23.63140    0.06250    9.25920   -0.00920   -0.01060    4.53760    2.84540
 1180.00000   13.34420   58.11220   57.15200  103.24140   56.22890   17.41160    0.03870  219.77180  307.94720  198.92610   17.74250    0.05100    9.25930   -0.02280   -0.01080    4.62080    2.87250
 1180.50000    9.24770   56.71050   55.89780  101.07320   53.89010   13.18840    0.02440  257.29770  399.12770  173.04210   13.79570    0.04440    9.26070   -0.03460   -0.01120    4.90200    2.89140
 1181.00000    6.34300   55.51340   54.68680   99.66610   52.34800    9.09510    0.01500  448.02900  557.62430 1052.27510   10.57470    0.03900    9.26120   -0.04690   -0.01170    5.37170    2.91470
 1181.50000    4.78150   54.50150   54.09080   98.26090   51.04990    5.75360    0.00740  814.23970  942.56920 1630.37110    7.54270    0.03060    9.26050   -0.05770   -0.01140    5.59720    2.93470
 1182.00000    3.60940   54.10020   54.00810   96.14520   50.78750    3.60980    0.00120 1500.47740 1624.06350 1865.04270    5.52920    0.02100    9.26030   -0.06430   -0.01110    5.42600    2.94540
 1182.50000    2.96420   54.09800   54.00590   95.28670   50.57170    2.47810   -0.00270 2894.83570 1953.36390 1977.08360    3.84410    0.01230    9.26090   -0.06710   -0.01110    5.17350    2.94840
 1183.00000    2.50800   53.94800   53.84980   94.87210   50.30160    2.31390   -0.00440 4548.25490 1964.36070 1924.48340    2.84680    0.00700    9.26200   -0.06840   -0.01120    5.09190    2.95150
