~Version ---------------------------------------------------
VERS.   2.0 : CWLS log ASCII Standard -VERSION 2.0
WRAP.    NO : One line per depth step
DLM . SPACE : Column Data Section Delimiter
~Well ------------------------------------------------------
STRT .F                   97.0 : START DEPTH
STOP .F                 1536.0 : STOP DEPTH
STEP .F                    0.5 : STEP
NULL .                -9999.25 : NULL VALUE
COMP .                         : COMPANY
WELL .                         : WELL
FLD  .                         : FIELD
LOC  .                         : LOCATION
PROV .                         : PROVINCE
CNTY .                         : COUNTY
STAT .                         : STATE
CTRY .                         : COUNTRY
SRVC .                         : SERVICE COMPANY
DATE .                         : DATE
UWI  .                         : UNIQUE WELL ID
API  .                         : API NUMBER
SLAT .WGS84 1.0895347317891968 : SURFACE LATITUDE
SLON .WGS84  6.558643228714004 : SURFACE LONGITUDE
DATUM.F                2563.77 : DEPTH DATUM ELEV
~Curve Information -----------------------------------------
DEPT.F     : 
GRS .GAPI  : GAMMA RAY FROM SONIC LOG
DT  .US/F  : INTERVAL TRANSIT TIME
DTL .US/F  : DELTA-T LONG SPACING
DTSM.US/F  : SHEAR-WAVE INTERVAL TRANSIT TIME DELTA-T
DTCO.US/F  : COMPRESSIONAL-WAVE INTERVAL TRANSIT TIME ACOUSTIC SLOWNESS
GRD .GAPI  : GAMMA RAY
NPHI.DEC   : NEUTRON POROSITY LIMESTONE
LLD .OHMM  : LATEROLOG LOG DEEP
LLS .OHMM  : LATEROLOG LOG SHALLOW
MSFL.OHMM  : MICRO SPHERICALLY FOCUSED
GR  .GAPI  : GAMMA RAY
SNP .DEC   : SIDEWALL NEUTRON POROSITY LIMESTONE
CALD.IN    : CALIPER FDC LOG
DPHI.DEC   : DENSITY POROSITY LIMESTONE
DRHO.G/C3  : DENSITY CORRECTION
PEF .B/E   : PHOTOELECTRIC FACTOR
RHOB.G/C3  : BULK DENSITY
~Params ----------------------------------------------------
~Other -----------------------------------------------------
~ASCII -----------------------------------------------------
# ...
 1429.50000   26.97160   58.38450   58.03730  100.12240   55.16670   30.84620    0.25240  122.53330  116.27570   44.60910   29.08840    0.21050    8.72880    0.13390    0.01010    3.10560    2.59200
 1430.00000   32.81180   56.81770   56.46560   98.17240   54.54190   36.54560    0.21800  190.19040  165.46950  195.62440   36.22380    0.17840    8.74860    0.10360    0.01530    3.09540    2.64680
 1430.50000   36.14000   55.34140   54.80250   96.22250   53.18520   41.72090    0.16480  277.51530  244.57990  466.57550   42.17760    0.13800    8.76850    0.07810    0.01560    3.09300    2.69920
 1431.00000   34.93370   54.31300   54.01350   94.53700   51.38210   41.11060    0.13380  310.92560  275.29280  262.29430   43.18810    0.10820    8.78830    0.06020    0.01310    3.05280    2.72050
 1431.50000   31.76470   53.58290   53.39390   93.54040   51.11680   36.72650    0.12630  281.96180  266.59770  319.78280   39.33890    0.09160    8.79540    0.06420    0.01050    2.99200    2.71500
 1432.00000   32.50710   53.52060   53.38600   93.44260   51.30540   35.67000    0.11400  246.89920  239.75460  274.67290   35.29850    0.09100    8.79960    0.06430    0.00750    2.93110    2.71390
 1432.50000   41.25270   53.82320   53.71560   94.06520   51.73560   42.58420    0.10010  211.01530  204.83650  276.43280   36.90380    0.09320    8.80390    0.06130    0.00460    2.86550    2.71980
 1433.00000   52.40420   54.96620   54.19280   95.65030   53.26300   54.07350    0.09040  174.00580  163.89280  411.15730   45.69370    0.09360    8.80430    0.05930    0.00400    2.78980    2.72320
 1433.50000   60.20770   56.98180   56.37450   98.67380   55.68930   65.29730    0.09040  136.46510  128.26250  255.19000   58.22840    0.09330    8.79190    0.06780    0.00320    2.66270    2.71190
 1434.00000   66.68330   59.28870   58.52800  101.96890   57.90550   72.27420    0.10140  101.25780   94.94220  124.70380   68.54280    0.09530    8.77960    0.08090    0.00200    2.57900    2.68520
 1434.50000   70.53160   61.36750   60.67980  102.62820   58.17730   76.58260    0.11050   85.66990   81.56020  134.79310   73.76000    0.10100    8.76730    0.09490    0.00210    2.53990    2.65830
 1435.00000   68.95330   61.78760   61.81670  101.65920   57.36260   74.99660    0.12000   86.75720   82.04050   62.16580   73.37710    0.10880    8.75500    0.10240    0.00400    2.63270    2.64780
 1435.50000   61.17500   60.15210   60.94330  100.76950   56.43980   68.04860    0.12790   90.51150   88.64080   55.05050   69.30850    0.11060    8.74270    0.09650    0.00580    2.80440    2.66140
 1436.00000   51.41000   57.63530   58.59460   99.55380   54.81360   59.02530    0.12940  109.73380  105.65780   74.05430   58.42070    0.10530    8.72250    0.08060    0.00760    2.99680    2.68120
 1436.50000   39.68340   55.27470   56.24590   98.28230   52.09270   49.08730    0.12260  150.31910  138.94060  107.87920   45.80600    0.09750    8.70090    0.07000    0.00950    3.17030    2.70560
 1437.00000   32.91850   53.23740   53.92330   95.04290   49.86980   41.56890    0.11400  185.85900  179.90530  239.70830   37.95750    0.09310    8.67920    0.06400    0.01090    3.21440    2.72190
 1437.50000   30.15910   53.14640   53.23750   93.44630   48.62430   39.47480    0.10390  192.91120  189.00350  157.23630   35.89220    0.09550    8.66000    0.06370    0.01090    3.22360    2.71910
 1438.00000   32.23250   53.15520   53.25930   92.82430   48.46590   40.70370    0.09840  195.40630  190.96060  149.90500   35.96550    0.10180    8.68030    0.06600    0.01120    3.24360    2.71260
 1438.50000   36.82250   53.16410   53.28110   92.77130   48.79850   43.17580    0.10210  194.15090  192.07290  161.66860   36.87610    0.10720    8.72890    0.07090    0.01270    3.31870    2.70420
 1439.00000   42.42750   53.17290   53.30300   93.00420   49.60890   49.39920    0.11460  204.90350  197.18660   62.98030   40.55610    0.11110    8.77760    0.06910    0.01420    3.36700    2.70700
 1439.50000   48.15420   53.08770   53.17550   93.31220   50.87230   59.40720    0.12450  220.84100  197.99610  186.76050   47.97000    0.11480    8.79460    0.06140    0.01570    3.35360    2.72220
 1440.00000   54.43190   52.37770   52.14350   93.35010   51.52950   63.60750    0.11610  239.81670  198.26050  277.37970   56.03570    0.11530    8.79200    0.05280    0.01630    3.25630    2.73710
 1440.50000   59.29850   51.21390   51.05110   92.97550   51.26510   66.41630    0.09580  250.29740  198.14310   94.35690   63.24270    0.10740    8.78930    0.04690    0.01730    3.18950    2.74810
 1441.00000   59.73470   50.30540   49.99950   92.43230   50.67480   65.75120    0.08140  237.73970  187.19050   36.63890   64.35750    0.09490    8.78660    0.04230    0.01980    3.17960    2.75490
 1441.50000   57.27790   49.62590   49.51900   92.10250   50.34580   62.71820    0.08190  231.41450  193.19380  194.49110   61.87330    0.07870    8.78400    0.04360    0.02380    3.16970    2.75230
 1442.00000   54.36560   49.80700   49.56660   93.13540   51.24970   57.75710    0.09090  235.54150  199.21040  162.05960   56.52990    0.06910    8.78130    0.04950    0.02460    3.16550    2.74260
 1442.50000   53.05080   50.91090   50.52770   95.39530   53.17890   53.02390    0.10300  246.56450  182.71360  183.22980   51.15070    0.06830    8.79420    0.05760    0.02350    3.16630    2.72690
 1443.00000   53.59500   52.82160   52.49730   98.08500   55.10820   50.80890    0.11590  257.15470  174.63240  101.26390   48.58300    0.07280    8.80800    0.06390    0.02320    3.17210    2.71620
 1443.50000   53.03450   54.69440   54.28060  100.77460   56.72100   50.51680    0.12930  253.42590  169.05020   96.00410   48.09810    0.08200    8.83120    0.06800    0.03350    3.11540    2.70850
 1444.00000   48.67520   56.21780   55.65480  103.06150   57.49130   49.51090    0.14180  246.89540  162.34520  116.16060   47.69650    0.09620    8.85450    0.08220    0.04310    3.02030    2.68360
 1444.50000   42.12870   57.63360   57.41190  105.19440   58.15290   44.98510    0.15770  237.35030  157.19940   65.90660   45.82710    0.11530    8.87770    0.09980    0.05160    2.92160    2.65010
 1445.00000   34.92690   59.34860   59.24290  107.58040   58.87960   37.75920    0.18080  224.93710  147.99930   27.99220   41.31220    0.14330    8.91400    0.11840    0.06060    2.89190    2.61960
 1445.50000   31.03650   60.91510   61.07380  110.04840   60.56970   32.34790    0.20070  204.38630  135.65440   57.83530   37.03190    0.17090    8.96240    0.12770    0.07100    2.87420    2.60560
 1446.00000   31.09560   62.18580   62.66650  112.60920   63.23760   31.79600    0.22180  177.40210  117.22730   27.23410   34.43670    0.19180    9.01090    0.14240    0.06680    2.86440    2.57940
 1446.50000   34.29660   63.17540   63.46430  113.46550   64.64800   34.60940    0.24570  157.51050  100.60080   35.27210   34.89300    0.20880    9.03690    0.15730    0.04880    2.90630    2.55010
 1447.00000   38.41300   63.39280   63.10650  113.17440   64.80430   39.91260    0.26930  152.79640   92.00110   12.78720   36.69860    0.21770    9.03210    0.16200    0.03450    2.99210    2.54210
 1447.50000   42.62330   61.65710   61.45310  111.54560   63.80070   45.46890    0.28760  170.90570   96.51050   16.25490   39.04150    0.21620    9.00120    0.15240    0.02620    3.06250    2.55820
 1448.00000   46.84340   58.99650   59.30880  108.55080   60.00680   49.94850    0.26710  219.16460  108.41840   35.23320   42.70710    0.19700    8.94150    0.14280    0.01900    3.06890    2.57670
 1448.50000   50.80910   56.30280   56.94250  105.60360   55.82970   52.85230    0.23410  312.89100  150.37070   53.10420   46.75050    0.17170    8.88170    0.13610    0.01190    3.06790    2.59090
 1449.00000   53.90470   53.97770   54.57620  102.65440   55.51470   52.89600    0.18000  461.31330  182.60280  238.08150   51.53620    0.14960    8.84850    0.12270    0.00900    3.06700    2.61360
 1449.50000   53.96930   52.88740   53.66560   99.70030   54.82240   51.64720    0.13600  533.56010  175.92620  393.05330   54.88330    0.13820    8.86750    0.11020    0.00860    3.08810    2.63700
