~Version ---------------------------------------------------
VERS.   2.0 : CWLS log ASCII Standard -VERSION 2.0
WRAP.    NO : One line per depth step
DLM . SPACE : Column Data Section Delimiter
~Well ------------------------------------------------------
STRT .F                   97.0 : START DEPTH
STOP .F                 1536.0 : STOP DEPTH
STEP .F                    0.5 : STEP
NULL .                -9999.25 : NULL VALUE
COMP .                         : COMPANY
WELL .                         : WELL
FLD  .                         : FIELD
LOC  .                         : LOCATION
PROV .                         : PROVINCE
CNTY .                         : COUNTY
STAT .                         : STATE
CTRY .                         : COUNTRY
SRVC .                         : SERVICE COMPANY
DATE .                         : DATE
UWI  .                         : UNIQUE WELL ID
API  .                         : API NUMBER
SLAT .WGS84 1.0895347317891968 : SURFACE LATITUDE
SLON .WGS84  6.558643228714004 : SURFACE LONGITUDE
DATUM.F                2563.77 : DEPTH DATUM ELEV
~Curve Information -----------------------------------------
DEPT.F     : 
GRS .GAPI  : GAMMA RAY FROM SONIC LOG
DT  .US/F  : INTERVAL TRANSIT TIME
DTL .US/F  : DELTA-T LONG SPACING
DTSM.US/F  : SHEAR-WAVE INTERVAL TRANSIT TIME DELTA-T
DTCO.US/F  : COMPRESSIONAL-WAVE INTERVAL TRANSIT TIME ACOUSTIC SLOWNESS
GRD .GAPI  : GAMMA RAY
NPHI.DEC   : NEUTRON POROSITY LIMESTONE
LLD .OHMM  : LATEROLOG LOG DEEP
LLS .OHMM  : LATEROLOG LOG SHALLOW
MSFL.OHMM  : MICRO SPHERICALLY FOCUSED
GR  .GAPI  : GAMMA RAY
SNP .DEC   : SIDEWALL NEUTRON POROSITY LIMESTONE
CALD.IN    : CALIPER FDC LOG
DPHI.DEC   : DENSITY POROSITY LIMESTONE
DRHO.G/C3  : DENSITY CORRECTION
PEF .B/E   : PHOTOELECTRIC FACTOR
RHOB.G/C3  : BULK DENSITY
~Params ----------------------------------------------------
~Other -----------------------------------------------------
~ASCII -----------------------------------------------------
# ...
 1388.50000   64.12280   73.45200   72.97810  125.53190   70.35430   73.79480    0.19780   18.81840   28.82730   13.90710   72.21640    0.15360    8.69840    0.15470   -0.00830    2.90640    2.55750
 1389.00000   63.34380   72.46260   71.41220  119.54270   65.61700   75.46110    0.18740   16.46090   24.30740   36.36270   67.88590    0.15420    8.69030    0.13240   -0.00830    2.99920    2.59630
 1389.50000   61.10360   71.12320   70.39680  117.50270   64.00320   74.42090    0.18720   16.17250   24.77090   57.74650   66.83090    0.15340    8.67280    0.12150   -0.00770    3.09520    2.61510
 1390.00000   52.73720   68.88810   67.84050  118.66500   63.81150   64.42960    0.20230   19.42180   27.28350   11.63770   61.98540    0.15010    8.65210    0.11070   -0.00610    3.14500    2.63280
 1390.50000   38.34290   65.28470   64.81240  116.22680   62.66910   46.74970    0.21730   25.90200   33.74690   18.14840   52.11500    0.14610    8.63130    0.10080   -0.00340    3.14650    2.65040
 1391.00000   26.52240   60.93330   61.40600  110.24790   60.61260   33.33020    0.20410   51.61000   60.76430  113.27500   39.63090    0.13920    8.61050    0.09550   -0.00020    3.09370    2.66160
 1391.50000   20.74840   56.49120   57.83430  103.88380   58.35020   23.74580    0.17250   88.76640  102.93620   95.93180   28.79990    0.13320    8.60760    0.09530    0.00330    3.04730    2.66050
 1392.00000   18.06470   55.56800   55.70380   98.13780   56.70260   19.54250    0.14580  122.36180  140.27310  141.92710   22.38770    0.12760    8.62100    0.09940    0.00440    3.01060    2.65420
 1392.50000   19.00040   55.97640   55.74510  100.13250   56.14790   19.03450    0.12990  127.99860  144.28690  237.70800   20.60650    0.12290    8.64940    0.10680    0.00500    2.97390    2.63980
 1393.00000   24.28390   58.69830   57.73290  103.56150   58.31230   23.54580    0.12650  116.97170  134.62190  193.47040   21.91970    0.12500    8.67780    0.11600    0.00500    2.93530    2.62170
 1393.50000   33.75240   62.00960   60.98630  107.45370   60.66190   35.48030    0.12830   74.07740   79.94510   93.93290   28.03920    0.13200    8.70190    0.12730    0.00440    2.82520    2.60330
 1394.00000   48.90970   65.36520   63.65270  112.04800   63.92760   53.34710    0.13340   40.16590   48.84810  151.04100   38.00870    0.13490    8.70230    0.13750    0.00380    2.69820    2.58470
 1394.50000   61.50890   69.58460   68.90340  117.76100   67.56560   70.26610    0.14330   24.02830   29.13480   58.21500   53.80930    0.13040    8.71020    0.14880    0.00160    2.62650    2.56500
 1395.00000   70.21570   72.74430   71.76320  124.18870   71.20350   81.65300    0.16160   18.81860   22.47320   17.68230   68.28930    0.12700    8.71680    0.15730   -0.00170    2.61590    2.54680
 1395.50000   79.30330   75.38490   74.56320  130.43430   74.84150   89.47610    0.18110   15.58350   20.48950   11.04670   78.86750    0.13030    8.71740    0.16530   -0.00360    2.64590    2.53580
 1396.00000   90.89400   76.71950   75.65280  131.91190   76.79920   97.48820    0.18720   13.80260   18.78000   15.05060   86.34380    0.13420    8.71790    0.16710   -0.00490    2.68740    2.53180
 1396.50000  102.30140   77.34660   76.35560  132.13920   77.66040  107.69230    0.18900   13.40560   18.60950   15.67460   94.31480    0.13750    8.71850    0.16720   -0.00490    2.72890    2.53150
 1397.00000  102.76910   77.54500   76.50230  131.24840   77.77400  108.25930    0.19560   13.82420   20.41830   14.30540   98.29150    0.13870    8.71700    0.16710   -0.00310    2.69890    2.53200
 1397.50000   94.46490   77.41560   76.73310  129.42610   77.77300  100.92110    0.20570   15.27810   22.70830    9.58520   96.06650    0.13700    8.70820    0.16650   -0.00130    2.64970    2.53420
 1398.00000   83.51450   76.65110   74.75990  128.86450   77.22690   90.13460    0.20310   16.88850   25.51730   18.33630   89.87090    0.13440    8.69940    0.16590    0.00050    2.60830    2.53600
 1398.50000   77.75130   75.42820   73.04720  128.44500   76.23820   85.86340    0.18810   18.55400   27.69070   24.35710   84.68770    0.13280    8.69060    0.16530    0.00240    2.57720    2.53600
 1399.00000   78.89330   74.85680   72.97750  127.98450   74.35520   88.85360    0.17650   18.94500   26.75600   22.44930   85.96770    0.13300    8.68180    0.16510    0.00480    2.55620    2.53640
 1399.50000   79.58660   74.17270   72.67940  126.87620   72.59830   90.42210    0.18410   19.36750   25.48820   19.89650   89.51030    0.13410    8.66770    0.15600    0.00820    2.63260    2.55030
 1400.00000   73.71270   71.09890   69.44380  125.05400   70.93420   81.65920    0.20770   19.95010   25.78510   15.30870   85.78490    0.13390    8.65320    0.13560    0.01320    2.78940    2.59010
 1400.50000   55.86700   67.05640   65.41230  119.99970   67.99930   63.47950    0.22480   26.45360   32.93110   15.53840   73.35260    0.12920    8.63880    0.10820    0.01830    2.96280    2.63880
 1401.00000   37.18760   61.92680   61.01830  113.80700   63.25610   43.38170    0.21110   45.01610   56.81750   48.64230   55.10980    0.12040    8.62930    0.08520    0.02060    3.06080    2.67900
 1401.50000   30.81080   57.80370   57.32040  107.80510   62.29850   32.37270    0.16800   75.31090   87.07080  192.19860   38.28580    0.10970    8.64750    0.07180    0.02120    3.05240    2.70320
 1402.00000   39.00680   58.33710   56.56610  107.99940   64.16610   35.48380    0.12340   78.33810   86.69880  344.82740   31.31230    0.10240    8.67530    0.07180    0.01980    2.90590    2.68810
 1402.50000   55.95620   63.33620   61.62400  113.94820   67.48740   51.76310    0.09640   59.59780   65.25020  317.52180   40.54360    0.10370    8.70310    0.11090    0.01430    2.73350    2.62470
 1403.00000   76.20220   72.18210   69.97500  121.74950   71.27560   75.14420    0.10250   40.72690   47.32240   97.70540   62.77090    0.11960    8.73100    0.16140    0.00930    2.53130    2.53230
 1403.50000   94.82200   79.02880   77.06630  130.65700   75.68820   99.14460    0.13920   31.89950   36.09440   25.08500   91.70220    0.14200    8.75420    0.22180    0.00450    2.36800    2.43510
 1404.00000  104.73830   84.39580   82.77240  141.01680   79.99880  120.13330    0.18890   22.89440   35.43710   22.03160  109.34250    0.17010    8.76300    0.26020    0.00180    2.26630    2.36230
 1404.50000  107.65140   84.88790   84.85040  145.79120   81.74520  123.48400    0.23710   23.75510   35.78770   14.32330  116.91030    0.19270    8.77170    0.27960    0.00350    2.20450    2.32030
 1405.00000  104.09520   84.75350   84.65350  143.70230   82.73880  117.07700    0.26690   24.85310   36.14180   30.10750  116.05560    0.21530    8.78050    0.29190    0.00590    2.21860    2.31290
 1405.50000   95.76020   84.30430   84.07110  141.52630   82.58600  103.47970    0.28200   24.81410   36.04450   27.61450  108.91630    0.22840    8.78930    0.28320    0.00830    2.26300    2.33000
 1406.00000   88.58690   83.29690   82.72130  139.35030   81.92280   94.37410    0.27780   23.40760   35.09980    9.77400   97.96040    0.22620    8.79190    0.26480    0.01060    2.33240    2.37160
 1406.50000   82.76630   81.97510   81.24670  135.51260   80.91190   88.68280    0.26100   21.59190   31.23570   11.28530   89.20440    0.21270    8.79170    0.23460    0.01120    2.40910    2.42170
 1407.00000   79.89220   80.02520   79.13950  130.70260   78.37120   87.17340    0.24480   20.70610   29.60350   13.36930   82.51750    0.19610    8.79150    0.21360    0.01120    2.49540    2.45050
 1407.50000   74.99620   77.56730   76.28400  125.89260   74.98230   83.19690    0.24340   22.36800   31.82650    9.91960   78.73030    0.18320    8.79130    0.19650    0.01120    2.62210    2.48360
 1408.00000   63.60310   73.10910   72.07710  118.63020   71.16180   71.58630    0.25560   26.02890   34.70470    7.73430   72.73450    0.16980    8.77680    0.17610    0.01110    2.79480    2.52360
 1408.50000   53.49680   67.48100   66.51260  111.71630   67.34120   58.34260    0.25670   32.78360   47.00680   10.58290   63.58990    0.15240    8.75570    0.12760    0.01090    2.87600    2.61750
