~Version ---------------------------------------------------
VERS.   2.0 : CWLS log ASCII Standard -VERSION 2.0
WRAP.    NO : One line per depth step
DLM . SPACE : Column Data Section Delimiter
~Well ------------------------------------------------------
STRT .F                   97.0 : START DEPTH
STOP .F                 1536.0 : STOP DEPTH
STEP .F                    0.5 : STEP
NULL .                -9999.25 : NULL VALUE
COMP .                         : COMPANY
WELL .                         : WELL
FLD  .                         : FIELD
LOC  .                         : LOCATION
PROV .                         : PROVINCE
CNTY .                         : COUNTY
STAT .                         : STATE
CTRY .                         : COUNTRY
SRVC .                         : SERVICE COMPANY
DATE .                         : DATE
UWI  .                         : UNIQUE WELL ID
API  .                         : API NUMBER
SLAT .WGS84 1.0895347317891968 : SURFACE LATITUDE
SLON .WGS84  6.558643228714004 : SURFACE LONGITUDE
DATUM.F                2563.77 : DEPTH DATUM ELEV
~Curve Information -----------------------------------------
DEPT.F     : 
GRS .GAPI  : GAMMA RAY FROM SONIC LOG
DT  .US/F  : INTERVAL TRANSIT TIME
DTL .US/F  : DELTA-T LONG SPACING
DTSM.US/F  : SHEAR-WAVE INTERVAL TRANSIT TIME DELTA-T
DTCO.US/F  : COMPRESSIONAL-WAVE INTERVAL TRANSIT TIME ACOUSTIC SLOWNESS
GRD .GAPI  : GAMMA RAY
NPHI.DEC   : NEUTRON POROSITY LIMESTONE
LLD .OHMM  : LATEROLOG LOG DEEP
LLS .OHMM  : LATEROLOG LOG SHALLOW
MSFL.OHMM  : MICRO SPHERICALLY FOCUSED
GR  .GAPI  : GAMMA RAY
SNP .DEC   : SIDEWALL NEUTRON POROSITY LIMESTONE
CALD.IN    : CALIPER FDC LOG
DPHI.DEC   : DENSITY POROSITY LIMESTONE
DRHO.G/C3  : DENSITY CORRECTION
PEF .B/E   : PHOTOELECTRIC FACTOR
RHOB.G/C3  : BULK DENSITY
~Params ----------------------------------------------------
~Other -----------------------------------------------------
~ASCII -----------------------------------------------------
# ...
 1224.50000    7.69780   54.86180   54.93160   98.93090   53.75640    9.73360    0.00210  298.62360  471.34650 1633.81800    8.53000    0.01480    8.94630   -0.05900   -0.00160    5.05560    2.93300
 1225.00000    7.72900   55.02880   54.95910   98.42860   54.08610    9.43510    0.00340  297.84280  454.01100  168.39500    8.09910    0.01660    8.94770   -0.06180   -0.00220    5.35240    2.93970
 1225.50000    7.29660   55.12980   54.82550   97.05420   54.23720    8.74050    0.00400  335.13400  497.71140  760.17820    7.66820    0.01720    8.94910   -0.06390   -0.00360    5.55160    2.94420
 1226.00000    6.90690   55.16600   54.65300   96.46430   53.71700    7.68310    0.00330  390.55480  632.25370  482.62970    7.11220    0.01600    8.95060   -0.06320   -0.00520    5.61340    2.94040
 1226.50000    6.58350   55.06220   54.50540   96.04290   52.82120    6.51010    0.00250  447.33450  734.11870  300.20700    6.51950    0.01510    8.95200   -0.05860   -0.00710    5.51750    2.93280
 1227.00000    6.36810   54.87070   54.35110   95.75090   51.71300    6.66200    0.00140  636.47310  941.56950 1456.21310    6.25350    0.01580    8.95340   -0.05680   -0.00880    5.30200    2.93090
 1227.50000    6.04200   54.33950   54.11790   95.56970   51.24030    7.54230    0.00100  875.13060 1135.67720  999.04960    5.98740    0.01600    8.95480   -0.06110   -0.00930    5.10440    2.93950
 1228.00000    6.00730   53.91640   53.84680   95.47170   50.96340    9.08000    0.00050 1299.64530 1640.97850  704.31490    5.72140    0.01430    8.95620   -0.06420   -0.00970    5.00760    2.94630
 1228.50000    5.77670   53.72630   53.59970   95.31160   50.49980    9.75290    0.00000 2486.44360 1980.55770  452.84380    5.45530    0.01230    8.95760   -0.06350   -0.01200    5.02100    2.94850
 1229.00000    5.32920   53.37560   53.27100   95.11230   50.23690    8.40160   -0.00090 7026.98970 1984.81900 1395.12780    5.18930    0.01040    8.95900   -0.06260   -0.01460    5.28090    2.94260
 1229.50000    4.15490   52.92910   52.33960   94.88790   50.28370    6.46590   -0.00230 18202.07420 1992.32980 1875.80580    4.92330    0.00840    8.96040   -0.06270   -0.01720    5.39950    2.94110
 1230.00000    2.90300   52.65960   51.99170   94.95170   50.77400    4.68420   -0.00310 29129.85350 1983.00560 1911.06740    4.65720    0.00650    8.96180   -0.06510   -0.01930    5.27230    2.94540
 1230.50000    2.22320   52.49120   52.04210   95.28660   51.22970    3.38320   -0.00390 35482.17190 1972.29750 1917.85460    4.39120    0.00570    8.96280   -0.06880   -0.01920    5.13020    2.95450
 1231.00000    2.11130   52.43850   52.03760   95.34600   51.48010    2.98620   -0.00390 34382.45700 1978.31040 1951.21610    4.12510    0.00570    8.96280   -0.07130   -0.01760    5.24270    2.96340
 1231.50000    2.69200   52.44010   51.96550   95.38520   51.49990    2.89470   -0.00360 32664.05080 1984.34290 1962.30310    3.85910    0.00570    8.96270   -0.07380   -0.01610    5.44730    2.96210
 1232.00000    4.01750   52.47500   51.89340   95.44850   51.33630    3.42810   -0.00320 21138.19920 1990.39370 1931.62050    3.59310    0.00570    8.96270   -0.06950   -0.01490    5.42570    2.95310
 1232.50000    5.97320   52.51100   52.01660   95.34720   51.39320    5.01130   -0.00180 9783.50590 1996.46300 1885.17850    4.20870    0.00580    8.96270   -0.06350   -0.01390    4.98730    2.94130
 1233.00000    9.51160   52.77450   52.66110   95.34600   51.81850    8.80750   -0.00030 2771.94460 1998.92720 1878.97400    5.94200    0.00690    8.96260   -0.05680   -0.01300    4.72700    2.93160
 1233.50000   14.36090   53.70520   53.39830   95.34600   52.44860   14.20010    0.00110  930.65120 1180.63370 1883.49130    9.13910    0.00910    8.96260   -0.04870   -0.01300    4.61540    2.91740
 1234.00000   19.87000   54.60740   54.44430   95.63360   53.43490   19.94370    0.00260  505.11840  533.71070 1329.35800   13.14970    0.01160    8.96250   -0.03780   -0.01300    4.44990    2.89290
 1234.50000   25.14940   55.39180   55.27760   96.10560   54.57720   24.83670    0.00420  295.16890  339.16760  355.60620   17.33280    0.01620    8.96250   -0.02180   -0.01310    4.25850    2.86540
 1235.00000   31.28670   55.87770   55.79780   96.89480   56.25070   31.47980    0.00540  225.58300  276.95760  466.19350   23.57910    0.01940    8.96250   -0.00660   -0.01310    4.04930    2.83640
 1235.50000   37.54500   56.43940   56.14840   97.86930   57.31000   40.09440    0.00660  132.97610  218.35900  137.02650   31.93250    0.02130    8.96240    0.01230   -0.01310    3.84300    2.80640
 1236.00000   44.40890   57.82150   57.31970   98.84370   58.27560   48.54840    0.00880  107.17200  150.23100  340.18410   41.50690    0.02340    8.96240    0.02970   -0.01310    3.67770    2.77120
 1236.50000   48.25090   59.38170   58.63590   99.81810   58.97570   53.45540    0.01230   78.52110  113.02430  137.80650   49.25690    0.02690    8.96230    0.04990   -0.01240    3.59350    2.73800
 1237.00000   47.07890   60.68000   60.26090  101.79580   59.27520   52.49190    0.01820   65.98240   91.26130   94.17790   51.56240    0.03210    8.96230    0.06340   -0.01170    3.52950    2.71800
 1237.50000   43.49700   61.53000   61.50440  104.11560   59.65540   49.22780    0.02400   62.95430   89.01080   37.34450   49.57290    0.03720    8.96230    0.06730   -0.01040    3.47630    2.71160
 1238.00000   40.96540   61.65330   61.84210  104.07340   60.36820   48.10620    0.02550   62.83620   98.27580   79.24860   46.78150    0.03820    8.96220    0.06740   -0.00920    3.46350    2.71150
 1238.50000   39.74280   61.36380   61.70480  103.69370   61.58070   48.03940    0.02350   66.31120  107.83880   65.07330   43.66580    0.03820    8.96220    0.06650   -0.00900    3.50810    2.71280
 1239.00000   40.00450   61.10190   61.47120  103.76200   62.16890   48.07710    0.02200   67.69910  113.76460   55.96960   42.70830    0.03820    8.96220    0.06080   -0.00860    3.55270    2.72020
 1239.50000   40.63320   61.10130   61.15070  104.92200   60.57300   47.07890    0.02280   67.81090  108.47230   66.42090   43.48860    0.03830    8.96210    0.05340   -0.00550    3.51170    2.73540
 1240.00000   41.09210   61.19980   60.83030  105.22410   60.60760   45.21770    0.02550   68.06500  102.94340   49.07830   43.91890    0.03830    8.96210    0.04930   -0.00250    3.47730    2.74320
 1240.50000   40.23350   61.32410   60.82240  105.49700   61.06900   42.79740    0.02700   68.32960   98.77900   60.17280   43.05820    0.03850    8.96140    0.04680   -0.00220    3.51920    2.74660
 1241.00000   39.08200   61.32310   60.90000  105.65240   60.87200   40.68910    0.02880   67.56010   97.99210   65.22110   40.10490    0.04170    8.95890    0.04740   -0.00270    3.72160    2.74710
 1241.50000   36.51860   61.18980   60.93540  105.19960   59.93740   39.01080    0.03140   68.19930  101.86000  112.17100   37.79040    0.04400    8.95650    0.04550   -0.00380    4.04360    2.74980
 1242.00000   32.83560   60.40360   59.80500  104.28270   58.79470   36.68350    0.03090   80.57370  116.21960  156.84450   36.16600    0.04440    8.95400    0.03850   -0.00490    4.22620    2.76080
 1242.50000   29.27440   59.26800   58.62560  102.70410   57.93460   34.10950    0.02450   98.06660  145.01090   85.04710   34.07880    0.04270    8.95160    0.02870   -0.00600    4.59060    2.77940
 1243.00000   26.44440   58.01020   57.82650  101.69320   56.80220   31.48500    0.01850  117.97630  166.75220   80.88690   30.72690    0.03730    8.94910    0.01650   -0.00640    4.50820    2.80080
 1243.50000   26.11190   57.03150   57.13840  100.78750   56.39210   30.46640    0.01270  132.27660  182.99250  367.46390   28.57790    0.03060    8.94670    0.01220   -0.00640    4.22310    2.80780
 1244.00000   26.24950   56.75800   57.00950   99.78040   55.96920   31.22120    0.01030  131.97970  186.58610  429.27000   27.79520    0.02620    8.94420    0.01600   -0.00620    4.01070    2.80160
 1244.50000   24.44250   56.65710   56.50500   99.13380   55.23510   29.75220    0.00910  131.68350  184.56650  196.33600   27.79520    0.02370    8.94180    0.01360   -0.00570    4.03430    2.80310
