~Version ---------------------------------------------------
VERS.   2.0 : CWLS log ASCII Standard -VERSION 2.0
WRAP.    NO : One line per depth step
DLM . SPACE : Column Data Section Delimiter
~Well ------------------------------------------------------
STRT .F                   97.0 : START DEPTH
STOP .F                 1536.0 : STOP DEPTH
STEP .F                    0.5 : STEP
NULL .                -9999.25 : NULL VALUE
COMP .                         : COMPANY
WELL .                         : WELL
FLD  .                         : FIELD
LOC  .                         : LOCATION
PROV .                         : PROVINCE
CNTY .                         : COUNTY
STAT .                         : STATE
CTRY .                         : COUNTRY
SRVC .                         : SERVICE COMPANY
DATE .                         : DATE
UWI  .                         : UNIQUE WELL ID
API  .                         : API NUMBER
SLAT .WGS84 1.0895347317891968 : SURFACE LATITUDE
SLON .WGS84  6.558643228714004 : SURFACE LONGITUDE
DATUM.F                2563.77 : DEPTH DATUM ELEV
~Curve Information -----------------------------------------
DEPT.F     : 
GRS .GAPI  : GAMMA RAY FROM SONIC LOG
DT  .US/F  : INTERVAL TRANSIT TIME
DTL .US/F  : DELTA-T LONG SPACING
DTSM.US/F  : SHEAR-WAVE INTERVAL TRANSIT TIME DELTA-T
DTCO.US/F  : COMPRESSIONAL-WAVE INTERVAL TRANSIT TIME ACOUSTIC SLOWNESS
GRD .GAPI  : GAMMA RAY
NPHI.DEC   : NEUTRON POROSITY LIMESTONE
LLD .OHMM  : LATEROLOG LOG DEEP
LLS .OHMM  : LATEROLOG LOG SHALLOW
MSFL.OHMM  : MICRO SPHERICALLY FOCUSED
GR  .GAPI  : GAMMA RAY
SNP .DEC   : SIDEWALL NEUTRON POROSITY LIMESTONE
CALD.IN    : CALIPER FDC LOG
DPHI.DEC   : DENSITY POROSITY LIMESTONE
DRHO.G/C3  : DENSITY CORRECTION
PEF .B/E   : PHOTOELECTRIC FACTOR
RHOB.G/C3  : BULK DENSITY
~Params ----------------------------------------------------
~Other -----------------------------------------------------
~ASCII -----------------------------------------------------
# ...
 1122.00000    4.10880   54.39260   53.93310   96.56550   50.43920    4.02900    0.00200  815.96430  899.13020  436.94850    5.41390    0.02470    9.22700   -0.07420   -0.00340    5.16100    2.96930
 1122.50000    3.36550   54.31880   54.15560   96.17150   51.22020    3.03560   -0.00160 1070.26400 1563.97770 1916.98520    3.82150    0.01530    9.22000   -0.07590   -0.00530    5.31060    2.96880
 1123.00000    4.75020   54.41250   54.36620   97.43950   52.67320    3.94140   -0.00210 1018.15840 1242.74710 1441.32520    3.60890    0.01100    9.21310   -0.07330   -0.00640    5.39680    2.96140
 1123.50000    7.53690   55.09520   54.60070  100.48220   54.97740    6.58370    0.00060  355.31900  552.81430 1367.76990    5.09030    0.01190    9.20610   -0.06440   -0.00720    5.33910    2.94370
 1124.00000   10.87060   57.54610   56.60550  103.52480   56.69490   11.10290    0.00440   85.69200  141.67900 1236.41030    8.42490    0.01630    9.19910   -0.04760   -0.00810    5.05000    2.91170
 1124.50000   13.60350   59.57180   59.11190  105.59660   57.61810   14.84170    0.01340   50.72130   93.74510  575.06380   12.01690    0.02440    9.19220   -0.03050   -0.00900    4.81590    2.88140
 1125.00000   14.00000   60.82350   60.77400  105.93830   57.64810   15.23180    0.02330   43.33350   81.10680   30.57570   14.69840    0.03350    9.18520   -0.02500   -0.00980    4.82880    2.87080
 1125.50000   12.34990   60.78650   60.38150  104.59740   57.32540   13.06560    0.02430   50.59340   97.57880   37.49340   15.02820    0.03820    9.17830   -0.03090   -0.00980    4.97120    2.88520
 1126.00000    9.53830   59.58180   59.11510  102.99640   56.83290   10.27700    0.01850   68.93950  116.69290   40.40910   13.13710    0.03580    9.17130   -0.04200   -0.01000    5.00350    2.90640
 1126.50000    7.12830   58.49370   58.06640  101.14240   56.14880    8.67230    0.00970  115.54120  202.55760  170.12430   10.09600    0.03080    9.16440   -0.05030   -0.01200    4.92690    2.92120
 1127.00000    5.53480   57.53130   57.27980   99.53590   54.29330    7.51500    0.00640  142.54390  254.28220  182.88090    7.23160    0.02490    9.15670   -0.05390   -0.01400    4.95550    2.92360
 1127.50000    4.04600   56.89270   56.67030   98.56030   52.48970    6.35590    0.00330  173.68690  328.32040   73.05600    5.64730    0.01940    9.14850   -0.05570   -0.01590    5.11540    2.92630
 1128.00000    4.11370   56.19730   56.03340   98.38660   52.17690    5.34350    0.00170  228.90220  387.28940 1608.61160    5.33460    0.01530    9.14040   -0.05570   -0.01620    5.17310    2.92830
 1128.50000    5.04720   55.68390   55.52100   98.38660   52.12280    4.93630    0.00150  261.13530  436.40000  561.76250    5.84850    0.01340    9.13260   -0.05460   -0.01520    5.09670    2.92690
 1129.00000    5.84470   55.28150   55.16500   98.38660   52.11810    4.52920    0.00140  284.11850  463.32170  580.08500    6.79670    0.01410    9.12480   -0.05380   -0.01320    4.98130    2.92550
 1129.50000    6.08920   54.62460   54.68720   98.38660   52.03790    4.29830    0.00180  298.77810  463.69260  631.08540    7.25540    0.01640    9.11630   -0.05350   -0.01120    4.92690    2.92460
 1130.00000    6.00380   53.96030   54.14880   98.29320   51.70630    4.41710    0.00120  311.12090  458.01190  430.71220    6.86180    0.01700    9.10720   -0.05600   -0.00980    4.98340    2.92930
 1130.50000    5.66110   53.26720   53.34380   98.06870   51.64940    4.99480    0.00060  306.49420  452.40100 1250.85330    6.65400    0.01680    9.09880   -0.06050   -0.00850    5.22440    2.93660
 1131.00000    5.51150   53.27270   53.34420   97.86660   51.52210    6.06310    0.00000  291.67440  463.27940 1973.10000    7.01530    0.01580    9.09120   -0.06500   -0.00850    5.43860    2.94570
 1131.50000    5.46470   53.35580   53.44720   97.38280   51.60410    6.74380   -0.00060  293.74490  499.34090  534.59300    7.69500    0.01480    9.08360   -0.06720   -0.00910    5.53810    2.95050
 1132.00000    5.12790   53.38350   53.46130   96.87440   52.13930    6.35040   -0.00130  348.80330  500.41800  819.04710    7.45030    0.01370    9.08170   -0.06400   -0.00960    5.40320    2.94720
 1132.50000    5.44420   53.29450   53.38360   96.09970   52.47480    6.14020   -0.00190  387.13530  594.18900 1825.10230    6.80290    0.01210    9.08150   -0.05720   -0.01020    5.13630    2.93560
 1133.00000    6.60380   53.13700   53.23470   95.58830   52.38830    6.91960   -0.00250  348.80560  553.28240 1663.56860    7.19650    0.00980    9.08050   -0.05800   -0.01020    4.83110    2.93280
 1133.50000    7.61350   52.99230   53.27060   95.30270   52.08350    7.44570   -0.00320  290.82570  483.13780 1890.27310    8.44700    0.00820    9.06820   -0.06360   -0.00980    4.63390    2.94270
 1134.00000    7.43360   52.93970   53.41600   95.11210   51.63170    6.72150   -0.00340  258.43440  450.34230  863.14080    9.26490    0.00880    9.06190   -0.06790   -0.00930    4.60750    2.95390
 1134.50000    7.22840   52.88700   53.22620   95.04240   51.37920    6.13980   -0.00310  322.33040  536.10360  320.84190    8.90580    0.01000    9.06130   -0.06750   -0.01020    4.76380    2.95520
 1135.00000    7.21130   52.84920   52.89650   95.04730   51.08710    6.70700   -0.00380  414.00860  770.28090 1885.79850    8.56650    0.01140    9.06050   -0.06630   -0.01310    5.07490    2.94700
 1135.50000    7.40730   52.85010   52.96150   95.05230   50.66810    7.82320   -0.00240  686.37500 1107.89530 1897.87510    9.07670    0.01220    9.06030   -0.05600   -0.01500    5.07350    2.93020
 1136.00000    7.60330   52.85890   53.05800   95.03410   50.40940    8.32380   -0.00180  876.40850 1377.74240 1324.81770    9.86670    0.01330    9.06140   -0.04460   -0.01680    4.99290    2.91220
 1136.50000    7.49020   52.85990   53.07570   94.95610   50.24930    8.08590   -0.00180 1000.01810 1511.95030 1070.47740   10.21970    0.01200    9.06220   -0.04470   -0.01580    4.65010    2.91110
 1137.00000    6.58650   52.86180   52.86420   94.11930   50.25430    7.21450   -0.00170 2219.09740 1992.24340 1771.88000    9.51380    0.01010    9.06210   -0.05270   -0.01230    4.54460    2.92600
 1137.50000    5.41280   52.79360   52.70160   92.44130   50.33030    5.89500   -0.00220 4405.45260   -9999.25 1782.88640    8.26590    0.00830    9.06200   -0.06430   -0.00880    4.58250    2.94590
 1138.00000    4.19010   52.63120   52.40170   90.17080   50.43740    5.35820   -0.00290 8654.93850   -9999.25 1886.81030    7.15620    0.00600    9.06200   -0.06870   -0.00560    4.68470    2.95330
 1138.50000    3.56360   52.47480   52.14710   89.93150   50.52090    5.43250   -0.00340 15671.99020   -9999.25 1945.91250    6.36310    0.00560    9.06200   -0.06970   -0.00480    4.81010    2.95470
 1139.00000    2.96730   52.44170   52.06590   90.44880   50.51070    5.60640   -0.00290 20536.22070   -9999.25 1904.57580    5.89030    0.00580    9.06200   -0.07080   -0.00390    4.96370    2.95700
 1139.50000    2.37100   52.39150   51.96590   91.37000   50.29720    4.87280   -0.00350 22728.64650   -9999.25 1917.50200    5.52500    0.00530    9.06210   -0.07410   -0.00430    5.12570    2.96190
 1140.00000    1.80580   52.36460   51.98540   92.29190   49.10530    3.77390   -0.00410 26177.81840   -9999.25 1947.29740    5.11020    0.00450    9.06170   -0.07890   -0.00500    5.25470    2.97030
 1140.50000    1.67970   52.39380   52.06160   93.07120   49.51680    2.49900   -0.00550 32525.58790   -9999.25 1987.15980    4.65850    0.00320    9.06090   -0.08200   -0.00560    5.26390    2.97590
 1141.00000    1.66220   52.37020   52.10180   93.75400   50.16980    2.28580   -0.00650 37119.28910   -9999.25 1883.14600    4.18380    0.00190    9.06000   -0.07770   -0.00630    5.19680    2.97140
 1141.50000    1.64480   52.25640   52.10180   94.32080   50.37780    2.18410   -0.00660 35923.00780   -9999.25 1773.00870    3.73990    0.00080    9.05960   -0.07130   -0.00610    5.19410    2.95540
 1142.00000    2.17040   52.34570   52.12160   94.22410   50.38280    2.35010   -0.00650 31536.92580   -9999.25 1598.84610    3.71550    0.00220    9.06060   -0.06300   -0.00570    5.17360    2.93980
