~Version ---------------------------------------------------
VERS.   2.0 : CWLS log ASCII Standard -VERSION 2.0
WRAP.    NO : One line per depth step
DLM . SPACE : Column Data Section Delimiter
~Well ------------------------------------------------------
STRT .F                   97.0 : START DEPTH
STOP .F                 1536.0 : STOP DEPTH
STEP .F                    0.5 : STEP
NULL .                -9999.25 : NULL VALUE
COMP .                         : COMPANY
WELL .                         : WELL
FLD  .                         : FIELD
LOC  .                         : LOCATION
PROV .                         : PROVINCE
CNTY .                         : COUNTY
STAT .                         : STATE
CTRY .                         : COUNTRY
SRVC .                         : SERVICE COMPANY
DATE .                         : DATE
UWI  .                         : UNIQUE WELL ID
API  .                         : API NUMBER
SLAT .WGS84 1.0895347317891968 : SURFACE LATITUDE
SLON .WGS84  6.558643228714004 : SURFACE LONGITUDE
DATUM.F                2563.77 : DEPTH DATUM ELEV
~Curve Information -----------------------------------------
DEPT.F     : 
GRS .GAPI  : GAMMA RAY FROM SONIC LOG
DT  .US/F  : INTERVAL TRANSIT TIME
DTL .US/F  : DELTA-T LONG SPACING
DTSM.US/F  : SHEAR-WAVE INTERVAL TRANSIT TIME DELTA-T
DTCO.US/F  : COMPRESSIONAL-WAVE INTERVAL TRANSIT TIME ACOUSTIC SLOWNESS
GRD .GAPI  : GAMMA RAY
NPHI.DEC   : NEUTRON POROSITY LIMESTONE
LLD .OHMM  : LATEROLOG LOG DEEP
LLS .OHMM  : LATEROLOG LOG SHALLOW
MSFL.OHMM  : MICRO SPHERICALLY FOCUSED
GR  .GAPI  : GAMMA RAY
SNP .DEC   : SIDEWALL NEUTRON POROSITY LIMESTONE
CALD.IN    : CALIPER FDC LOG
DPHI.DEC   : DENSITY POROSITY LIMESTONE
DRHO.G/C3  : DENSITY CORRECTION
PEF .B/E   : PHOTOELECTRIC FACTOR
RHOB.G/C3  : BULK DENSITY
~Params ----------------------------------------------------
~Other -----------------------------------------------------
~ASCII -----------------------------------------------------
# ...
 1081.00000   20.94790   64.26420   63.93070  114.63010   63.11350   22.89630    0.06780   25.68350   42.58860  233.18460   25.66150    0.05770    9.58770   -0.03540    0.00010    4.79880    2.89880
 1081.50000   19.86610   63.13150   62.75700  116.76460   63.36920   19.51590    0.04290   32.73730   53.64570  275.65690   21.84420    0.04540    9.58710   -0.04040    0.00340    4.94400    2.90270
 1082.00000   22.04620   63.54400   61.92310  119.17280   63.63520   21.45070    0.03030   30.70620   51.76930   50.27930   21.16610    0.04000    9.58640   -0.02160   -0.00010    4.76750    2.86370
 1082.50000   24.38930   64.42920   63.98650  115.34810   63.27230   26.26260    0.04170   24.99070   42.88460   43.83350   22.67180    0.04610    9.58580    0.01040   -0.00580    4.55800    2.80640
 1083.00000   22.99740   64.46470   64.17890  113.50520   62.15940   26.46650    0.06350   23.98850   39.86660   58.59720   22.77400    0.06190    9.58510    0.03100   -0.01150    4.77100    2.77810
 1083.50000   17.63140   62.99320   62.42820  111.45110   60.64430   22.55710    0.07100   25.47740   42.88500   10.51300   20.68300    0.07090    9.58450    0.02380   -0.01310    5.15280    2.79120
 1084.00000   12.95830   60.59950   60.28040  108.19300   59.13010   16.06700    0.05620   32.67720   54.33550   44.67010   16.43610    0.06470    9.58380    0.00320   -0.01280    5.10180    2.83000
 1084.50000   12.31990   58.95960   58.13250  106.11570   58.10700   13.09030    0.03410   55.62360   80.76280   61.49410   12.53260    0.04830    9.58310   -0.01630   -0.01180    4.89640    2.86350
 1085.00000   15.44280   58.64900   58.03720  108.70000   58.46540   14.57740    0.02110   60.99290   90.79570 1389.19320   11.69820    0.03850    9.58250   -0.02460   -0.01030    4.72190    2.87340
 1085.50000   20.76130   60.24080   59.45400  110.49370   59.16840   18.18800    0.02210   45.54320   61.10780  100.32300   14.51470    0.03900    9.58180   -0.01750   -0.00870    4.61420    2.85640
 1086.00000   24.13860   62.16240   61.25280  111.79660   59.62130   20.87140    0.03840   33.85020   56.10960  713.68580   18.58490    0.04670    9.58120   -0.00510   -0.00720    4.58000    2.83420
 1086.50000   23.99220   63.91400   63.01210  112.62590   59.55150   20.18470    0.05810   33.42780   49.69230   18.17440   22.69670    0.05700    9.58050    0.00500   -0.00570    4.63500    2.82040
 1087.00000   20.24680   63.86420   62.70350  111.21270   58.65760   17.87050    0.06640   35.05110   58.17840   35.58320   22.13430    0.06080    9.57990   -0.00300   -0.00420    4.89770    2.83570
 1087.50000   15.74560   61.40430   60.93260  108.22080   57.03780   14.61520    0.05810   60.80090   95.58850  102.33420   18.51310    0.05460    9.57920   -0.02280   -0.00270    5.23030    2.87270
 1088.00000   14.33650   59.69770   59.59680  106.36510   56.71210   12.86800    0.03760   79.51840  119.75290   89.11370   15.05110    0.04440    9.57860   -0.04710   -0.00110    5.35400    2.91860
 1088.50000   15.37470   59.28030   59.19150  107.77850   57.43140   13.14290    0.02460   75.96750  113.89540  471.64210   14.27140    0.03650    9.57790   -0.05160   -0.00120    5.20480    2.91960
 1089.00000   17.71760   60.02770   59.87620  109.29030   59.49440   15.28990    0.02300   54.93490   85.21920 1651.63230   15.97760    0.03730    9.57730   -0.04070   -0.00290    4.94480    2.90020
 1089.50000   18.05760   60.84350   60.63110  110.65380   60.14590   17.37310    0.02760   41.49030   64.19740  225.98460   16.94320    0.04190    9.57660   -0.02950   -0.00430    4.67170    2.87720
 1090.00000   15.66490   60.70910   60.11350  111.97130   60.94060   17.95210    0.03150   41.81700   54.93490   29.65820   16.02990    0.04530    9.57600   -0.02740   -0.00260    4.74090    2.87860
 1090.50000   12.68170   59.08470   58.01880  113.07170   60.78530   17.06300    0.02980   46.80900   62.24140   48.89320   14.33260    0.04420    9.57530   -0.03650   -0.00040    4.96090    2.90040
 1091.00000    9.98660   57.07400   55.93280  112.57590   59.09890   14.03530    0.02080   62.20140   91.08130   41.42720   12.16160    0.03610    9.57460   -0.05170    0.00170    5.15170    2.92300
 1091.50000    8.33430   55.42390   54.88790  109.46060   57.78070   10.58350    0.01030   89.42330  141.35490   87.83810   10.53940    0.02760    9.57400   -0.06270    0.00230    5.33630    2.94250
 1092.00000    8.21980   54.96020   54.13540  109.23610   57.29120    9.33210    0.00600  134.55240  168.14820  497.48220    9.56690    0.02210    9.57330   -0.06480    0.00020    5.57950    2.94320
 1092.50000    9.65870   55.98500   55.03070  114.83120   57.70730   11.00710    0.00340   97.23080  130.15260 1719.15890   10.77400    0.01980    9.57270   -0.04550   -0.00290    5.31060    2.91060
 1093.00000   16.02260   59.31790   57.45640  119.66740   59.63040   17.56160    0.01010   52.41630   75.31270  715.53590   15.27180    0.02270    9.57200   -0.00610   -0.00600    4.72630    2.83600
 1093.50000   21.93190   63.70490   61.26540  119.50880   61.65490   26.67050    0.03070   25.64360   34.51440   71.08430   21.70470    0.03500    9.57140    0.03950   -0.00900    4.31950    2.75510
 1094.00000   24.31490   65.89690   64.55870  117.22130   62.64610   31.08440    0.06670   21.82850   32.04040   21.53450   27.36460    0.05230    9.57070    0.06040   -0.01040    4.35230    2.72150
 1094.50000   22.78130   65.15150   64.62220  114.11600   61.82920   27.56070    0.09700   21.94030   34.43660   14.03340   28.92740    0.06880    9.57000    0.05410   -0.00720    4.59740    2.73720
 1095.00000   21.16800   63.73110   63.13080  115.38800   60.54200   22.11870    0.08990   27.59800   41.71340   43.95980   26.32860    0.06730    9.56940    0.03430   -0.00380    4.77320    2.77190
 1095.50000   23.18230   62.60770   62.13370  116.81600   60.20810   24.30920    0.06270   34.61540   50.72760   97.77010   24.25660    0.05350    9.56870    0.02150   -0.00510    4.77670    2.79280
 1096.00000   27.14770   63.07040   62.21450  115.13970   60.05330   32.13360    0.05150   36.66510   53.82990  335.43240   26.98640    0.04500    9.56810    0.02000   -0.00660    4.81680    2.79420
 1096.50000   29.74020   64.52840   63.76320  112.13850   60.40510   37.35590    0.06730   32.14220   46.50650   37.60910   31.82890    0.04610    9.56740    0.01610   -0.00630    4.85730    2.80300
 1097.00000   29.00830   64.30420   64.58200  109.82050   61.71090   36.81550    0.08860   27.16980   41.53730   22.79940   33.72420    0.05180    9.56680    0.00400   -0.00520    5.13750    2.82330
 1097.50000   25.99520   63.14900   63.60750  111.10040   63.67980   31.51050    0.09710   27.12050   38.34330   74.36430   30.41860    0.05440    9.56610   -0.00960   -0.00500    5.33060    2.85100
 1098.00000   25.79000   62.44310   61.68470  112.63740   65.64880   27.25140    0.08020   28.05140   35.67380   40.87530   25.46100    0.05170    9.56540   -0.01550   -0.00740    4.93170    2.85560
 1098.50000   30.02090   63.34560   62.06290  112.68570   66.38710   29.39030    0.06020   25.48990   34.55570  766.17490   24.11490    0.04960    9.56480   -0.00040   -0.00990    4.28580    2.81820
 1099.00000   37.24320   65.33870   63.50030  111.51540   65.20350   37.95870    0.06490   21.46210   27.28620  222.32410   28.48280    0.05270    9.56410    0.03670   -0.01240    3.56260    2.74950
 1099.50000   42.61640   66.40810   65.01600  110.34500   64.40310   43.25610    0.09310   17.79610   24.54010   43.68390   33.91360    0.06400    9.56350    0.06900   -0.01220    3.59430    2.70160
 1100.00000   42.30960   66.99180   66.40850  112.53040   63.88080   41.79530    0.11260   16.37100   23.51580   13.71610   37.66510    0.07830    9.56280    0.07040   -0.00660    4.12830    2.71250
 1100.50000   36.94600   67.50230   67.20550  115.16250   63.75150   37.15260    0.11240   15.69930   23.43320   15.93700   37.23210    0.08480    9.55800    0.04190   -0.00020    4.63890    2.76050
 1101.00000   34.55390   68.10740   67.76860  118.64250   64.38820   35.63090    0.09790   15.95350   25.21360   87.23360   36.78730    0.08360    9.54960    0.02570   -0.00170    4.52570    2.78130
