~Version ---------------------------------------------------
VERS.   2.0 : CWLS log ASCII Standard -VERSION 2.0
WRAP.    NO : One line per depth step
DLM . SPACE : Column Data Section Delimiter
~Well ------------------------------------------------------
STRT .FT                105.0 : START DEPTH
STOP .FT              10671.0 : STOP DEPTH
STEP .FT                  0.5 : STEP
NULL .               -9999.25 : NULL VALUE
COMP .                        : COMPANY
WELL .                        : WELL
FLD  .                        : FIELD
LOC  .                        : LOCATION
PROV .                        : PROVINCE
CNTY .                        : COUNTY
STAT .                        : STATE
CTRY .                        : COUNTRY
SRVC .                        : SERVICE COMPANY
DATE .                        : DATE
UWI  .                        : UNIQUE WELL ID
API  .                        : API NUMBER
SLAT .WGS84 2.846263619665301 : SURFACE LATITUDE
SLON .WGS84 8.627339803501002 : SURFACE LONGITUDE
DATUM.F                   nan : DEPTH DATUM ELEV
~Curve Information -----------------------------------------
DEPT   .FT    : 
CALD   .IN    : CALIPER FROM DENSITY LOG
DPHI_LS.DEC   : DENSITY POROSITY LIMESTONE
DTCO   .US/F  : DELTA-T COMPRESSIONAL
DTSM   .US/F  : DELTA-T SHEAR
HDRA   .G/C3  : HRDD SPINE AND RIBS DENSITY CORRECTION
NPHI_LS.DEC   : NEUTRON POROSITY LIMESTONE
PEFZ   .B/E   : HRDD STANDARD RESOLUTION FORMATION PHOTOELECTRIC FACTOR
RHOZ   .G/C3  : HRDD STANDARD RESOLUTION FORMATION DENSITY
RLA3   .OHMM  : APPARENT RESISTIVITY FROM COMPUTED FOCUSING MODE 3
RLA5   .OHMM  : APPARENT RESISTIVITY FROM COMPUTED FOCUSING MODE 5
RXO8   .OHMM  : MCFL INVADED FORMATION RESISTIVITY FILTERED AT 8 INCHES
SGRDD  .GAPI  : SPECTROSCOPY GAMMA RAY FROM DENSITY LOG
~Params ----------------------------------------------------
~Other -----------------------------------------------------
~ASCII -----------------------------------------------------
# ...
 9681.00000    7.84580    0.02700   58.65260  101.47690   -0.00210    0.02820    4.52640    2.67850 2045.43340 3138.33130  283.31760   27.79370
 9681.50000    7.83920    0.02470   59.99380  102.18400   -0.00160    0.02990    4.55850    2.67370 2506.57620 9172.64390  326.75390   27.62920
 9682.00000    7.83260    0.02830   60.89330  102.72940   -0.00110    0.04020    4.47120    2.66900 2900.54760 9840.04790  314.06530   31.97940
 9682.50000    7.82600    0.04150   61.97660  103.80870   -0.00100    0.05680    4.27520    2.64710 2280.35910 5738.55170  247.70650   42.85860
 9683.00000    7.82460    0.05840   62.93030  105.36750   -0.00130    0.07350    3.93820    2.62100  851.54030 2006.89920  235.23450   65.49060
 9683.50000    7.82670    0.07690   63.79020  106.30930   -0.00440    0.09070    3.61370    2.59490  614.87000  368.82600  200.44860   84.04770
 9684.00000    7.82870    0.08610   64.80090  107.04810   -0.00750    0.11020    3.32770    2.56880  385.49370  173.42410  112.95100  100.15310
 9684.50000    7.83080    0.08100   65.32140  107.42340   -0.00900    0.12240    3.21520    2.57480  158.56910  148.79880   99.60850   99.99980
 9685.00000    7.83280    0.07480   65.46580  107.20960   -0.00990    0.11840    3.28680    2.58390  149.71370  141.37590   96.06880   88.59190
 9685.50000    7.83480    0.07170   64.38140  106.99580   -0.01080    0.11240    3.38870    2.59310  223.02160  272.42300  127.23640   81.13480
 9686.00000    7.83690    0.07140   63.46930  106.84930   -0.01140    0.10650    3.58830    2.59650  276.35520  309.93240  161.55880   74.94280
 9686.50000    7.83890    0.06770   63.18840  106.71540   -0.01100    0.10060    3.63320    2.60540  322.12110  347.82880  181.68190   71.77900
 9687.00000    7.84100    0.05990   62.41150  105.37620   -0.00940    0.09580    3.60210    2.61610  305.01510  343.41310  225.64650   69.19630
 9687.50000    7.84300    0.05290   62.74220  104.71290   -0.00790    0.09110    3.52290    2.62490  281.69990  300.32000  258.15780   68.05170
 9688.00000    7.84420    0.05380   63.13270  104.66690   -0.00630    0.08810    3.46400    2.62060  281.69990  323.40390  189.00680   67.04910
 9688.50000    7.84580    0.05900   63.78380  104.55720   -0.00480    0.08630    3.48840    2.60830  336.35210  396.28650  163.84580   65.95070
 9689.00000    7.84740    0.06060   63.58660  104.44760   -0.00330    0.08510    3.51080    2.61710  392.66370  475.59660  178.58010   68.15550
 9689.50000    7.84900    0.05720   63.27290  104.04660   -0.00270    0.08710    3.41660    2.61650  405.28870  345.45480  142.75970   73.53430
 9690.00000    7.85060    0.06290   62.88140  103.17950   -0.00360    0.09230    3.30710    2.60310  325.75180  271.15610  196.71710   81.77910
 9690.50000    7.85220    0.07070   62.32720  102.63380   -0.00450    0.10230    3.20870    2.58690  246.21500  298.79310  152.76940   88.79180
 9691.00000    7.85380    0.07770   61.07440  102.07490   -0.00540    0.11230    3.11790    2.58310  166.67810  250.27940   70.16600   92.33110
 9691.50000    7.85530    0.07040   59.76160  101.11530   -0.00250    0.10720    3.33730    2.60380  102.55640  127.64580   48.37010   80.89350
 9692.00000    7.85690    0.05030   58.25540   99.09310    0.00150    0.08060    3.68020    2.62450  721.43780 1067.89490   80.93020   59.86450
 9692.50000    7.85850    0.02060   56.63830   98.37610    0.00230    0.03380    4.00960    2.67900 1987.55020 2000.59400  303.21500   40.81900
 9693.00000    7.86010    0.00160   55.99340   97.51270    0.00020    0.01460    4.44770    2.70190 2462.29410 5682.26050  399.50280   31.75080
 9693.50000    7.86170    0.00020   55.70520   97.49320    0.00050    0.01770    4.56700    2.70700 2718.39280 3565.27990  354.01170   32.95400
 9694.00000    7.86330    0.00020   55.48120   97.48980    0.00250    0.02470    4.40360    2.70290 2536.74360 3178.25590  366.54420   42.10930
 9694.50000    7.87430    0.00710   55.95770   98.05040   -0.00020    0.03180    4.12860    2.68250 2219.55400 2646.67620  300.57800   52.14830
 9695.00000    7.89930    0.01740   56.52600   98.57860   -0.00360    0.03880    3.78460    2.66210 2065.71170 2019.75470  154.40870   60.24140
 9695.50000    7.92430    0.02890   58.94630   99.52440   -0.00690    0.04790    3.55950    2.65610  346.39100  222.57780  185.33230   63.11200
 9696.00000    7.93250    0.03310   61.42760  100.24920   -0.00960    0.05900    3.35810    2.65610  194.07370  240.17700  141.24260   66.61390
 9696.50000    7.91620    0.02830   61.15120  101.25600   -0.00680    0.07010    3.30590    2.66630  216.47180  229.67790  139.52990   73.15930
 9697.00000    7.89990    0.02860   63.28010  102.08770   -0.00170    0.07810    3.29470    2.66630  179.59390  199.92540  140.48170   75.52750
 9697.50000    7.88360    0.03610   63.76660  102.62630   -0.00350    0.08120    3.23210    2.64920  173.69750  156.04780   78.27680   76.07340
 9698.00000    7.86730    0.04700   64.37130  103.09160   -0.00540    0.08840    3.13600    2.63100  139.43320  112.17020   73.01030   79.02590
 9698.50000    7.85750    0.05810   65.46440  103.88880   -0.00720    0.09560    3.01080    2.61280   97.21910   77.07960   60.45640   81.03890
 9699.00000    7.86430    0.06550   65.99880  104.88620   -0.00820    0.10050    2.83530    2.60550   75.12420   74.65800   55.94360   81.74830
 9699.50000    7.88000    0.06780   66.32800  105.32530   -0.00950    0.09910    2.74820    2.60070   70.92890   80.94010   66.98700   76.28430
 9700.00000    7.89580    0.07160   67.39950  106.02790   -0.01100    0.10010    2.70020    2.59120   86.31620   96.99890   55.59490   73.00600
 9700.50000    7.90650    0.07700   68.12670  106.91160   -0.01210    0.10450    2.67550    2.58380   84.99490   96.99890   37.37410   87.33230
 9701.00000    7.91260    0.07410   67.73420  107.29970   -0.00940    0.11870    2.69890    2.58880   55.04500   54.25360   32.56390  100.10270
 9701.50000    7.91870    0.06790   67.45250  107.90880   -0.00520    0.13280    2.68120    2.59620   49.29050   58.40080   36.15200  107.07310
 9702.00000    7.92480    0.06360   67.40690  108.08270   -0.00110    0.13060    2.63130    2.60360   56.09390   62.03850   40.38500   97.46790
 9702.50000    7.93710    0.06500   67.39800  108.25650    0.00030    0.11880    2.56240    2.60570   56.09390   63.80780   42.42050   84.94340
 9703.00000    7.95090    0.06770   67.60880  108.43040   -0.00060    0.10700    2.50080    2.59980   56.63380   68.64610   36.20120   75.90110
 9703.50000    7.96480    0.07040   67.69900  108.31210   -0.00160    0.09510    2.51760    2.59550   55.91090   73.71090   32.27270   74.92130
 9704.00000    7.97860    0.06920   67.51820  108.15250   -0.00260    0.10020    2.57520    2.59640   52.29660   69.90160   30.80330   82.47910
 9704.50000    7.99240    0.06610   67.38660  108.09650   -0.00360    0.10860    2.63280    2.60120   48.68230   62.25220   31.01110   92.59790
 9705.00000    8.00620    0.06320   67.47290  107.99010   -0.00450    0.12460    2.70440    2.60600   45.06790   57.50400   27.26500   96.90260
 9705.50000    8.02000    0.06650   68.01600  108.15690   -0.00540    0.14090    2.75530    2.60260   43.10530   52.54860   27.71390   93.49130
 9706.00000    8.00780    0.07250   68.26780  108.03610   -0.00580    0.13190    2.70830    2.59580   45.87400   52.54860   31.70780   87.47700
 9706.50000    7.98900    0.07630   67.85480  107.84470   -0.00630    0.11700    2.66120    2.58890   48.82070   62.43550   34.06510   82.34230
 9707.00000    7.97010    0.07590   67.30830  107.65580   -0.00670    0.10670    2.61450    2.58600   48.35530   62.83560   35.09280   80.82090
 9707.50000    7.95130    0.07510   66.91670  107.52580   -0.00710    0.10150    2.60360    2.58550   46.06850   62.83560   35.91910   80.70560
 9708.00000    7.93250    0.07640   66.38920  106.16720   -0.00760    0.09820    2.62320    2.58570   44.57470   61.64710   33.88850   80.14900
 9708.50000    7.91370    0.07700   66.15930  105.96290   -0.00800    0.09770    2.64830    2.58830   43.43130   57.98580   30.22750   79.25990
