~Version ---------------------------------------------------
VERS.   2.0 : CWLS log ASCII Standard -VERSION 2.0
WRAP.    NO : One line per depth step
DLM . SPACE : Column Data Section Delimiter
~Well ------------------------------------------------------
STRT .FT                105.0 : START DEPTH
STOP .FT              10671.0 : STOP DEPTH
STEP .FT                  0.5 : STEP
NULL .               -9999.25 : NULL VALUE
COMP .                        : COMPANY
WELL .                        : WELL
FLD  .                        : FIELD
LOC  .                        : LOCATION
PROV .                        : PROVINCE
CNTY .                        : COUNTY
STAT .                        : STATE
CTRY .                        : COUNTRY
SRVC .                        : SERVICE COMPANY
DATE .                        : DATE
UWI  .                        : UNIQUE WELL ID
API  .                        : API NUMBER
SLAT .WGS84 2.846263619665301 : SURFACE LATITUDE
SLON .WGS84 8.627339803501002 : SURFACE LONGITUDE
DATUM.F                   nan : DEPTH DATUM ELEV
~Curve Information -----------------------------------------
DEPT   .FT    : 
CALD   .IN    : CALIPER FROM DENSITY LOG
DPHI_LS.DEC   : DENSITY POROSITY LIMESTONE
DTCO   .US/F  : DELTA-T COMPRESSIONAL
DTSM   .US/F  : DELTA-T SHEAR
HDRA   .G/C3  : HRDD SPINE AND RIBS DENSITY CORRECTION
NPHI_LS.DEC   : NEUTRON POROSITY LIMESTONE
PEFZ   .B/E   : HRDD STANDARD RESOLUTION FORMATION PHOTOELECTRIC FACTOR
RHOZ   .G/C3  : HRDD STANDARD RESOLUTION FORMATION DENSITY
RLA3   .OHMM  : APPARENT RESISTIVITY FROM COMPUTED FOCUSING MODE 3
RLA5   .OHMM  : APPARENT RESISTIVITY FROM COMPUTED FOCUSING MODE 5
RXO8   .OHMM  : MCFL INVADED FORMATION RESISTIVITY FILTERED AT 8 INCHES
SGRDD  .GAPI  : SPECTROSCOPY GAMMA RAY FROM DENSITY LOG
~Params ----------------------------------------------------
~Other -----------------------------------------------------
~ASCII -----------------------------------------------------
# ...
 8225.00000    7.77370    0.07540   63.97440  105.24630   -0.00710    0.09440    2.72310    2.60270   39.19500   45.30050   34.02800   82.18750
 8225.50000    7.78190    0.07050   64.26470  105.43930   -0.00490    0.09650    2.76930    2.60670   70.99100   84.21100   46.26930   86.00290
 8226.00000    7.76450    0.06510   64.44930  105.79580   -0.00260    0.09240    2.80890    2.59950  119.45450  144.53450  360.70010   81.36480
 8226.50000    7.75140    0.06410   64.77950  106.42080   -0.00100    0.08690    2.84840    2.59050  131.01590  168.66380  260.23500   80.24510
 8227.00000    7.75140    0.06830   65.09690  106.03870   -0.00450    0.09170    2.87320    2.58150  121.42960  143.23750  109.46930   84.82240
 8227.50000    7.75140    0.07540   65.08260  105.99310   -0.00810    0.10360    2.87590    2.58040  111.78270  119.65970   92.13440   92.29630
 8228.00000    7.75140    0.07780   65.19270  106.17760   -0.00780    0.11560    2.92820    2.58040  101.64780  112.08560   78.50750   96.96910
 8228.50000    7.75550    0.07070   65.34000  106.18130   -0.00580    0.11310    3.02710    2.62720   88.04530  102.31300   67.47220   91.50640
 8229.00000    7.76290    0.05900   65.40570  106.15070   -0.00390    0.10670    3.04330    2.62280   73.11350   86.68500   64.33420   86.67700
 8229.50000    7.77030    0.05100   65.41440  106.36700   -0.00380    0.10030    3.02130    2.61160   52.99320   63.08930   50.40690   88.37160
 8230.00000    7.77350    0.05700   65.13330  106.44330   -0.00400    0.09530    2.91970    2.60050   32.87290   40.78410   24.57050   89.26210
 8230.50000    7.77060    0.06400   64.99130  106.36200   -0.00590    0.09490    2.81250    2.58940   29.68970   32.90760   24.22010   86.58020
 8231.00000    7.76750    0.07080   65.13260  106.46070   -0.00780    0.09490    2.78910    2.57990   33.94990   34.84130   30.91490   83.04750
 8231.50000    7.76440    0.07740   65.20730  106.37990   -0.00750    0.09490    2.76570    2.57940   35.44510   36.11460   34.19140   81.94900
 8232.00000    7.77430    0.08070   64.86650  106.28910   -0.00640    0.10190    2.74230    2.57940   35.61530   38.49880   30.47920   86.26030
 8232.50000    7.78690    0.07060   64.67040  106.07590   -0.00530    0.10890    2.77800    2.60370   64.66800   55.10300   40.22580   89.86170
 8233.00000    7.78680    0.05830   64.41430  105.80530   -0.00420    0.11470    2.83850    2.63600   99.46640   99.90180  160.44260   88.48090
 8233.50000    7.77470    0.04590   64.14640  105.34270   -0.00310    0.10850    2.86550    2.62640  127.30510  144.70060  307.21180   86.02120
 8234.00000    7.78960    0.05160   64.18560  104.88010   -0.00200    0.10970    2.87640    2.58820  127.30510  119.88150  320.31610   92.25960
 8234.50000    7.78960    0.06520   64.31240  104.41750   -0.00270    0.11080    2.84360    2.58970   93.96070   69.19920  118.39600   95.22450
 8235.00000    7.78960    0.07250   64.20240  104.40010   -0.00450    0.10560    2.77560    2.60460   55.29950   18.51690   29.57580   86.20650
 8235.50000    7.78960    0.06560   63.74890  104.29980   -0.00640    0.09470    2.71170    2.61950   16.63820   13.80540   13.76470   74.96050
 8236.00000    7.78970    0.05790   64.04150  104.14200   -0.00720    0.08370    2.72950    2.61080   16.16700   13.94160   15.14820   66.60350
 8236.50000    7.80540    0.05830   63.76340  104.13410   -0.00800    0.08150    2.74730    2.60000   16.16700   15.28900   16.23910   69.60630
 8237.00000    7.82520    0.06380   63.70680  104.22800   -0.00920    0.08880    2.76510    2.58920   17.20540   16.61230   17.57250   80.20620
 8237.50000    7.84490    0.06910   63.99890  104.32180   -0.00840    0.09600    2.78290    2.58820   22.68460   28.24320   45.94110   90.57440
 8238.00000    7.86460    0.07260   64.33950  104.45680   -0.00700    0.10890    2.79530    2.58870   30.12050   33.10640   35.07140   93.67450
 8238.50000    7.86000    0.07180   64.58210  104.59850   -0.00570    0.10570    2.75090    2.59430   31.75940   32.89560   28.43660   86.12030
 8239.00000    7.85530    0.06890   64.61800  104.82970   -0.00430    0.09740    2.66180    2.59950   30.49120   28.41950   24.86560   80.77260
 8239.50000    7.85070    0.07060   64.32060  105.06090   -0.00290    0.08920    2.58470    2.58210   27.90740   24.68050   21.69410   78.08550
 8240.00000    7.84600    0.07730   64.65650  105.24650   -0.00560    0.08880    2.57910    2.57120   27.84190   26.05560   22.98760   75.76620
 8240.50000    7.84140    0.08270   65.16520  105.47860   -0.00720    0.08900    2.59030    2.57120   28.86610   30.09070   25.41530   77.66680
 8241.00000    7.83400    0.08420   65.47650  105.97330   -0.00730    0.09200    2.62330    2.57270   29.57180   30.67870   25.96200   79.82700
 8241.50000    7.82610    0.08160   65.27900  106.51240   -0.00750    0.09780    2.64320    2.58130   30.58680   33.39660   26.79370   82.45010
 8242.00000    7.81970    0.07890   65.44790  106.93530   -0.00760    0.10370    2.68990    2.58820   32.87110   39.16210   33.36630   86.56370
 8242.50000    7.81990    0.07570   65.66110  107.00930   -0.00770    0.10960    2.77620    2.58740   61.02330   68.57770   46.55740   88.64950
 8243.00000    7.80160    0.07580   65.83320  107.15520   -0.00780    0.11440    2.84700    2.58370   94.80960  128.28190   72.98100   91.25690
 8243.50000    7.79100    0.07820   65.81600  107.40910   -0.00800    0.11920    2.89460    2.58300  110.42800  151.46150  108.42840   96.92240
 8244.00000    7.79980    0.07870   65.96540  107.36830   -0.00810    0.12390    2.91570    2.59290  110.44400  143.96600  113.86660  101.88390
 8244.50000    7.80850    0.07490   66.12770  107.32750   -0.00760    0.12630    2.88280    2.60050  101.34180  135.06190  105.00100  102.03120
 8245.00000    7.81720    0.06970   66.14900  107.28670   -0.00460    0.12230    2.84740    2.60290   88.20890  118.13940   90.64250   99.72500
 8245.50000    7.82590    0.06760   65.97030  107.14890   -0.00160    0.11700    2.82500    2.59860   68.34880   87.50970   65.78810   98.37000
 8246.00000    7.83760    0.06880   65.63340  107.08340   -0.00360    0.11350    2.80940    2.59210   48.48870   55.67190   40.93360  101.78950
 8246.50000    7.85010    0.07340   65.12280  106.68720   -0.00490    0.11670    2.79380    2.58710   44.73880   47.45950   35.56900  104.50060
 8247.00000    7.86130    0.07640   64.78350  106.67470   -0.00610    0.11820    2.78230    2.58610   44.74650   42.19500   33.40380  103.52360
 8247.50000    7.86320    0.07330   64.72350  106.32460   -0.00680    0.11170    2.77900    2.59380   40.98730   35.17830   29.15230  102.47110
 8248.00000    7.86520    0.06560   64.52210  105.94050   -0.00490    0.10590    2.76370    2.60670   35.92100   32.59190   29.87040  100.91940
 8248.50000    7.86720    0.06080   64.30260  105.55650   -0.00300    0.10020    2.74840    2.61640   34.16890   30.97730   28.34240  100.05850
 8249.00000    7.86910    0.05830   63.83540  105.45280   -0.00450    0.09430    2.74610    2.61750   33.44770   24.96190   20.70390   94.62290
 8249.50000    7.87110    0.05750   64.03010  105.34900   -0.00530    0.08850    2.75640    2.61520   22.17080   19.53370   14.73710   88.45650
 8250.00000    7.89050    0.05910   63.85390  105.24530   -0.00630    0.08280    2.75540    2.60970   16.95760   14.10540   12.04500   81.36830
 8250.50000    7.91170    0.06270   63.94530  105.27680   -0.00730    0.08050    2.72720    2.60570   12.06030   11.38620   11.18020   78.55690
 8251.00000    7.91970    0.06760   64.01520  105.68740   -0.00820    0.08210    2.70850    2.60120   11.02710   11.42110   10.49310   79.10040
 8251.50000    7.92770    0.07090   64.14120  105.77470   -0.00850    0.08410    2.69550    2.59470   11.02540   11.75190    9.89590   78.95040
 8252.00000    7.93570    0.07620   64.43140  106.03940   -0.00880    0.08510    2.65660    2.58810   11.34470   12.36040   10.28600   76.59710
 8252.50000    7.93100    0.07900   64.72170  106.30060   -0.00900    0.08200    2.62710    2.58160   11.45220   12.68330   10.57840   75.50110
