~Version ---------------------------------------------------
VERS.   2.0 : CWLS log ASCII Standard -VERSION 2.0
WRAP.    NO : One line per depth step
DLM . SPACE : Column Data Section Delimiter
~Well ------------------------------------------------------
STRT .FT                105.0 : START DEPTH
STOP .FT              10671.0 : STOP DEPTH
STEP .FT                  0.5 : STEP
NULL .               -9999.25 : NULL VALUE
COMP .                        : COMPANY
WELL .                        : WELL
FLD  .                        : FIELD
LOC  .                        : LOCATION
PROV .                        : PROVINCE
CNTY .                        : COUNTY
STAT .                        : STATE
CTRY .                        : COUNTRY
SRVC .                        : SERVICE COMPANY
DATE .                        : DATE
UWI  .                        : UNIQUE WELL ID
API  .                        : API NUMBER
SLAT .WGS84 2.846263619665301 : SURFACE LATITUDE
SLON .WGS84 8.627339803501002 : SURFACE LONGITUDE
DATUM.F                   nan : DEPTH DATUM ELEV
~Curve Information -----------------------------------------
DEPT   .FT    : 
CALD   .IN    : CALIPER FROM DENSITY LOG
DPHI_LS.DEC   : DENSITY POROSITY LIMESTONE
DTCO   .US/F  : DELTA-T COMPRESSIONAL
DTSM   .US/F  : DELTA-T SHEAR
HDRA   .G/C3  : HRDD SPINE AND RIBS DENSITY CORRECTION
NPHI_LS.DEC   : NEUTRON POROSITY LIMESTONE
PEFZ   .B/E   : HRDD STANDARD RESOLUTION FORMATION PHOTOELECTRIC FACTOR
RHOZ   .G/C3  : HRDD STANDARD RESOLUTION FORMATION DENSITY
RLA3   .OHMM  : APPARENT RESISTIVITY FROM COMPUTED FOCUSING MODE 3
RLA5   .OHMM  : APPARENT RESISTIVITY FROM COMPUTED FOCUSING MODE 5
RXO8   .OHMM  : MCFL INVADED FORMATION RESISTIVITY FILTERED AT 8 INCHES
SGRDD  .GAPI  : SPECTROSCOPY GAMMA RAY FROM DENSITY LOG
~Params ----------------------------------------------------
~Other -----------------------------------------------------
~ASCII -----------------------------------------------------
# ...
 6321.00000    7.71620    0.01360   -9999.25   -9999.25   -0.00200    0.01870    4.85980    2.67830 2518.70800 4740.31290  234.14300   21.60710
 6321.50000    7.71690    0.02230   -9999.25   -9999.25   -0.00200    0.02360    4.78600    2.66690 2758.49520 4482.27970  276.83110   24.78810
 6322.00000    7.71760    0.02520   -9999.25   -9999.25   -0.00220    0.02850    4.71210    2.66460 2518.70800 3186.57370  308.67580   26.86230
 6322.50000    7.71830    0.02390   -9999.25   -9999.25   -0.00240    0.03050    4.66190    2.66460 2365.55780 2880.50700  319.68740   28.15830
 6323.00000    7.71900    0.02720   -9999.25   -9999.25   -0.00450    0.03130    4.62750    2.66560 2174.11990 3246.64840  340.79850   29.82140
 6323.50000    7.71970    0.03070   -9999.25   -9999.25   -0.00570    0.03590    4.60680    2.66560 2018.55720 2031.08100  392.10860   31.65240
 6324.00000    7.72040    0.03010   -9999.25   -9999.25   -0.00690    0.04080    4.74070    2.65450 2011.31980 1672.96940  356.40560   32.43420
 6324.50000    7.72110    0.01960   -9999.25   -9999.25   -0.00650    0.04280    4.90800    2.64650 2011.31980 1818.69210  393.08480   29.18730
 6325.00000    7.72180    0.01200   -9999.25   -9999.25   -0.00480    0.03780    5.07540    2.69800 2030.66570 2567.43400  487.92270   25.94030
 6325.50000    7.72250    0.00680   -9999.25   -9999.25   -0.00330    0.03190    5.15810    2.70050 2069.91760 3184.48120  418.80030   22.69320
 6326.00000    7.72330    0.00640   -9999.25   -9999.25   -0.00180    0.02790    5.17880    2.70250 2306.57650 3035.65320  350.78100   21.15520
 6326.50000    7.72400    0.00550   -9999.25   -9999.25   -0.00200    0.02630    5.09660    2.70410 2878.03690 3783.29490  288.34380   22.08020
 6327.00000    7.72470    0.00310   -9999.25   -9999.25   -0.00130    0.02530    4.97720    2.70410 2363.86770 3405.17810  219.64110   23.73980
 6327.50000    7.72540    0.00570   -9999.25   -9999.25   -0.00070    0.02620    4.85790    2.70020 2130.22250 2058.21860  359.36280   26.94420
 6328.00000    7.72610    0.00660   -9999.25   -9999.25    0.00000    0.02730    4.73850    2.69450 2140.44280 3068.64340  458.64660   29.65480
 6328.50000    7.72680    0.00880   -9999.25   -9999.25    0.00050    0.02820    4.68070    2.68540 2333.02490 4003.35670  307.51300   32.79040
 6329.00000    7.72750    0.01190   -9999.25   -9999.25    0.00020    0.03000    4.64640    2.67090 3747.19280 6158.89880  307.49140   36.73150
 6329.50000    7.72820    0.01890   -9999.25   -9999.25   -0.00020    0.03730    4.63090    2.65640 3335.35800 5575.46980  412.00630   39.69770
 6330.00000    7.71600    0.02740   -9999.25   -9999.25   -0.00270    0.04430    4.55890    2.64190 2069.77760 2009.43230  362.64560   46.36290
 6330.50000    7.70400    0.04120   -9999.25   -9999.25   -0.00490    0.05780    4.44240    2.62730 2066.00270  601.74030  303.55360   55.17200
 6331.00000    7.70650    0.05510   -9999.25   -9999.25   -0.00710    0.07140    4.34540    2.61280 2058.93570  365.36750  205.09090   62.18740
 6331.50000    7.70900    0.06080   -9999.25   -9999.25   -0.00850    0.07360    4.37250    2.61230 2243.66060  690.39440  259.17750   57.15960
 6332.00000    7.71150    0.05260   -9999.25   -9999.25   -0.00750    0.06030    4.56540    2.61230 5676.92610 1981.48090  336.43080   47.69320
 6332.50000    7.71400    0.03010   -9999.25   -9999.25   -0.00580    0.04700    4.74810    2.63090 3926.14690 6139.06270  421.82230   38.45480
 6333.00000    7.71660    0.02680   -9999.25   -9999.25   -0.00400    0.03370    4.92810    2.65220 4020.29960 4376.25990  497.38400   33.24580
 6333.50000    7.71910    0.02190   -9999.25   -9999.25   -0.00300    0.02930    4.99210    2.67350 4504.54490 10224.01990  423.40020   29.86800
 6334.00000    7.72160    0.01510   -9999.25   -9999.25   -0.00100    0.02390    5.00670    2.68230 5084.13460 20363.43130  367.87780   26.03730
 6334.50000    7.72410    0.00840   -9999.25   -9999.25    0.00090    0.01780    4.96770    2.69210 5663.72430 19719.00220  401.07480   22.65020
 6335.00000    7.72660    0.00240   -9999.25   -9999.25    0.00290    0.01350    4.91900    2.70200 5806.42300 15869.97180  333.14820   22.80670
 6335.50000    7.72910    0.00000   -9999.25   -9999.25    0.00290    0.01420    4.87030    2.70780 5804.93330 12448.54730  356.91760   22.67340
 6336.00000    7.73160    0.00640   -9999.25   -9999.25    0.00130    0.01670    4.82610    2.70470 5776.00140 12366.67280  490.54510   22.44920
 6336.50000    7.73300    0.01450   -9999.25   -9999.25   -0.00040    0.01920    4.75120    2.68910 5637.96880 18132.14830  413.80760   22.91790
 6337.00000    7.73680    0.02250   -9999.25   -9999.25   -0.00210    0.02900    4.67630    2.67360 5477.21390 14112.41000  392.77900   26.29520
 6337.50000    7.74060    0.03050   -9999.25   -9999.25   -0.00240    0.04590    4.60140    2.65710 3506.70900 9284.72180  504.55410   33.89160
 6338.00000    7.74440    0.03890   -9999.25   -9999.25   -0.00310    0.06400    4.51080    2.63720 2215.56840 2030.06060  387.14750   45.18700
 6338.50000    7.74680    0.05010   -9999.25   -9999.25   -0.00380    0.09360    4.41550    2.61740 2121.61310 1200.75040  212.08630   54.28920
 6339.00000    7.73950    0.05890   -9999.25   -9999.25   -0.00520    0.09700    4.36770    2.60970 2100.96130 1239.37590  310.11850   57.80670
 6339.50000    7.73050    0.06550   -9999.25   -9999.25   -0.00550    0.09780    4.29930    2.60080 2141.07250 1999.91350  431.95780   54.38870
 6340.00000    7.72140    0.06670   -9999.25   -9999.25   -0.00580    0.09210    4.14730    2.59190 3538.23210 2002.29860  479.62940   59.39340
 6340.50000    7.71230    0.07120   -9999.25   -9999.25   -0.00610    0.09690    4.02220    2.58290 3521.09530 1049.14540  328.09880   72.54920
 6341.00000    7.70320    0.08260   -9999.25   -9999.25   -0.00700    0.10790    3.88900    2.57940 3437.78230 1176.58300  298.34700   84.76860
 6341.50000    7.69420    0.08200   -9999.25   -9999.25   -0.00610    0.10860    3.82900    2.58720 2120.04130 1985.04650  327.77860   94.64710
 6342.00000    7.69660    0.06440   -9999.25   -9999.25   -0.00510    0.09970    3.97770    2.61600 2699.37300 5614.76150  437.82940   85.37600
 6342.50000    7.69890    0.04220   -9999.25   -9999.25   -0.00390    0.06850    4.22530    2.64480 3785.55090 6601.65180  435.36050   61.93570
 6343.00000    7.70130    0.03050   -9999.25   -9999.25   -0.00330    0.03870    4.43500    2.66260 4245.85830 8790.15170  375.65680   38.49540
 6343.50000    7.70370    0.03190   -9999.25   -9999.25   -0.00270    0.03710    4.49510    2.65670 4515.52380 10654.64720  382.40300   32.48020
 6344.00000    7.70600    0.03930   -9999.25   -9999.25   -0.00200    0.05570    4.35090    2.62710 4193.47010 1976.90770  320.00460   49.68050
 6344.50000    7.70840    0.05560   -9999.25   -9999.25   -0.00140    0.07430    4.08140    2.59760 3372.27020  254.04770  138.07600   68.74550
 6345.00000    7.71080    0.07370   -9999.25   -9999.25   -0.00040    0.09300    3.77350    2.56800 2645.27360 1118.54700  328.45330   82.89590
 6345.50000    7.71320    0.09200   -9999.25   -9999.25   -0.00210    0.11160    3.46160    2.53850 2150.66720 2006.81750  410.54710   86.37820
 6346.00000    7.71550    0.11040   -9999.25   -9999.25   -0.00440    0.12310    3.25910    2.50890 2150.66320 2718.39720  421.62560   90.88930
 6346.50000    7.71740    0.12540   -9999.25   -9999.25   -0.00470    0.12950    3.20500    2.50890 2432.40660 3335.62280  446.80260   99.09610
 6347.00000    7.71930    0.12160   -9999.25   -9999.25   -0.00490    0.11680    3.35190    2.51040 3020.65910 5321.11240  521.57270   97.68100
 6347.50000    7.72120    0.10380   -9999.25   -9999.25   -0.00520    0.10110    3.46840    2.53360 3049.66670 4892.67090  678.90050   96.34700
 6348.00000    7.72280    0.09140   -9999.25   -9999.25   -0.00430    0.10500    3.63620    2.55670 2001.71540 1939.43930  285.53200   99.31810
 6348.50000    7.72390    0.07910   -9999.25   -9999.25   -0.00400    0.11140    3.81540    2.57980 2001.71530 1767.20330  315.93850   93.58550
