~Version ---------------------------------------------------
VERS.   2.0 : CWLS log ASCII Standard -VERSION 2.0
WRAP.    NO : One line per depth step
DLM . SPACE : Column Data Section Delimiter
~Well ------------------------------------------------------
STRT .FT                105.0 : START DEPTH
STOP .FT              10671.0 : STOP DEPTH
STEP .FT                  0.5 : STEP
NULL .               -9999.25 : NULL VALUE
COMP .                        : COMPANY
WELL .                        : WELL
FLD  .                        : FIELD
LOC  .                        : LOCATION
PROV .                        : PROVINCE
CNTY .                        : COUNTY
STAT .                        : STATE
CTRY .                        : COUNTRY
SRVC .                        : SERVICE COMPANY
DATE .                        : DATE
UWI  .                        : UNIQUE WELL ID
API  .                        : API NUMBER
SLAT .WGS84 2.846263619665301 : SURFACE LATITUDE
SLON .WGS84 8.627339803501002 : SURFACE LONGITUDE
DATUM.F                   nan : DEPTH DATUM ELEV
~Curve Information -----------------------------------------
DEPT   .FT    : 
CALD   .IN    : CALIPER FROM DENSITY LOG
DPHI_LS.DEC   : DENSITY POROSITY LIMESTONE
DTCO   .US/F  : DELTA-T COMPRESSIONAL
DTSM   .US/F  : DELTA-T SHEAR
HDRA   .G/C3  : HRDD SPINE AND RIBS DENSITY CORRECTION
NPHI_LS.DEC   : NEUTRON POROSITY LIMESTONE
PEFZ   .B/E   : HRDD STANDARD RESOLUTION FORMATION PHOTOELECTRIC FACTOR
RHOZ   .G/C3  : HRDD STANDARD RESOLUTION FORMATION DENSITY
RLA3   .OHMM  : APPARENT RESISTIVITY FROM COMPUTED FOCUSING MODE 3
RLA5   .OHMM  : APPARENT RESISTIVITY FROM COMPUTED FOCUSING MODE 5
RXO8   .OHMM  : MCFL INVADED FORMATION RESISTIVITY FILTERED AT 8 INCHES
SGRDD  .GAPI  : SPECTROSCOPY GAMMA RAY FROM DENSITY LOG
~Params ----------------------------------------------------
~Other -----------------------------------------------------
~ASCII -----------------------------------------------------
# ...
 6797.00000    7.68540   -0.00320   -9999.25   -9999.25   -0.00040    0.00440    4.95830    2.71300 5510.06820 34315.29560  433.28910   22.22800
 6797.50000    7.68460    0.00000   -9999.25   -9999.25    0.00010    0.00440    4.97280    2.70970 5328.42480 24621.22540  398.27460   24.16260
 6798.00000    7.69130    0.00910   -9999.25   -9999.25   -0.00370    0.00440    4.99960    2.69630 5252.42230 44302.00150  370.93010   25.41670
 6798.50000    7.69230    0.01830   -9999.25   -9999.25   -0.00680    0.00410    5.07010    2.68290 5177.50390 44302.00150  465.60760   24.98160
 6799.00000    7.69320    0.02460   -9999.25   -9999.25   -0.00640    0.00350    5.15810    2.67070 5055.00700 21123.12550  508.75860   23.60720
 6799.50000    7.69420    0.02320   -9999.25   -9999.25   -0.00590    0.00280    5.14810    2.67100 5510.06820 41827.94620  407.68610   22.44960
 6800.00000    7.69520    0.01770   -9999.25   -9999.25   -0.00550    0.00250    5.10570    2.68310 5678.10690 26077.48850  385.10630   22.69920
 6800.50000    7.69610    0.01140   -9999.25   -9999.25   -0.00480    0.00270    5.06340    2.69350 5302.83920 41031.19150  400.93580   22.94890
 6801.00000    7.69710    0.00520   -9999.25   -9999.25   -0.00340    0.00320    5.02110    2.69750 5562.81650 39993.60400  347.79490   23.49480
 6801.50000    7.69810    0.00320   -9999.25   -9999.25   -0.00200    0.00380    4.97870    2.70220 5724.78510 24616.25190  341.34900   24.71590
 6802.00000    7.69900    0.00290   -9999.25   -9999.25   -0.00060    0.00450    4.93640    2.70190 5201.85100 30049.18590  441.17260   25.69160
 6802.50000    7.70000    0.00270   -9999.25   -9999.25   -0.00040    0.00450    4.89410    2.69840 5103.03460 24613.13850  431.03210   24.70360
 6803.00000    7.70100    0.00470   -9999.25   -9999.25   -0.00060    0.00450    4.87560    2.69190 5807.10860 45136.78420  441.44430   23.47060
 6803.50000    7.70190    0.01270   -9999.25   -9999.25   -0.00420    0.00410    4.97950    2.68470 5862.85170 22220.40560  431.81450   22.23760
 6804.00000    7.70290    0.01960   -9999.25   -9999.25   -0.00460    0.00410    5.06960    2.67830 5890.79590 23086.64450  381.19520   21.35140
 6804.50000    7.70380    0.01980   -9999.25   -9999.25   -0.00500    0.00370    5.12360    2.68310 5890.64490 39362.84530  437.89050   20.68060
 6805.00000    7.69510    0.01190   -9999.25   -9999.25   -0.00540    0.00380    5.07300    2.69920 5657.07320 49974.26160  471.44010   21.11200
 6805.50000    7.69280    0.00620   -9999.25   -9999.25   -0.00340    0.00410    5.02560    2.69920 5267.89880 34288.77430  449.82020   22.53000
 6806.00000    7.69040    0.01050   -9999.25   -9999.25   -0.00020    0.00470    5.02450    2.68970 4956.52910 47478.16210  407.88620   23.94800
 6806.50000    7.68810    0.01590   -9999.25   -9999.25   -0.00480    0.00510    5.00780    2.67710 5586.54080 29041.05270  390.37750   24.17740
 6807.00000    7.68570    0.01910   -9999.25   -9999.25   -0.00610    0.00520    4.97680    2.67820 5452.97020 29412.11610  465.90310   23.33700
 6807.50000    7.68340    0.01530   -9999.25   -9999.25   -0.00400    0.00530    4.93750    2.68370 5183.84550 55677.99190  541.42870   22.49670
 6808.00000    7.68100    0.01140   -9999.25   -9999.25   -0.00260    0.00540    4.91850    2.68920 5076.11410 23975.35190  527.83350   21.65630
 6808.50000    7.67870    0.00750   -9999.25   -9999.25   -0.00190    0.00540    4.89760    2.69470 5559.29000 36030.31690  516.37690   21.76380
 6809.00000    7.67640    0.00490   -9999.25   -9999.25   -0.00120    0.00550    4.87660    2.69940 4996.79700 32727.29440  569.97850   22.87610
 6809.50000    7.67400    0.00460   -9999.25   -9999.25   -0.00040    0.00560    4.86820    2.70080 4612.39700 20176.71350  491.22600   23.98840
 6810.00000    7.67220    0.00430   -9999.25   -9999.25   -0.00110    0.00560    4.90920    2.70140 4857.40120 32560.63430  511.38450   24.97960
 6810.50000    7.67260    0.00410   -9999.25   -9999.25   -0.00230    0.00570    4.95020    2.70140 5198.68790 32355.90790  538.68080   24.09650
 6811.00000    7.67300    0.00530   -9999.25   -9999.25   -0.00020    0.00530    4.98150    2.69650 4701.66500 22276.16370  555.39100   21.62550
 6811.50000    7.67340    0.01260   -9999.25   -9999.25   -0.00150    0.00460    5.00470    2.69090 4861.97450 19670.42160  552.17960   19.66510
 6812.00000    7.67370    0.01810   -9999.25   -9999.25   -0.00550    0.00400    5.01350    2.68510 5076.13210 19422.24580  562.87210   20.65420
 6812.50000    7.67410    0.02120   -9999.25   -9999.25   -0.00840    0.00390    5.07420    2.67920 5174.37300 32572.35910  589.56860   21.93230
 6813.00000    7.67450    0.01830   -9999.25   -9999.25   -0.00840    0.00300    5.13430    2.67750 6236.63050 95184.34650  601.88140   23.21820
 6813.50000    7.67490    0.02000   -9999.25   -9999.25   -0.00810    0.00270    5.19430    2.68220 6118.50140 24916.33420  488.12260   24.51600
 6814.00000    7.67520    0.01480   -9999.25   -9999.25   -0.00780    0.00220    5.14290    2.68600 4956.53140 89888.83640  460.67670   25.81380
 6814.50000    7.67560    0.01090   -9999.25   -9999.25   -0.00720    0.00220    5.01450    2.69020 4635.33930 61459.29950  464.55230   25.97110
 6815.00000    7.67600    0.00950   -9999.25   -9999.25   -0.00550    0.00210    5.00220    2.69300 4613.29550 59019.65580  513.90270   24.13060
 6815.50000    7.67640    0.00760   -9999.25   -9999.25   -0.00370    0.00200    5.00010    2.69540 5199.98950 43708.41240  566.97320   24.02840
 6816.00000    7.67680    0.00510   -9999.25   -9999.25   -0.00200    0.00190    4.98900    2.69740 5052.84660 41270.94510  562.27830   24.69300
 6816.50000    7.67580    0.00450   -9999.25   -9999.25   -0.00260    0.00180    4.98680    2.69570 4839.85960 23704.98580  548.36800   25.35760
 6817.00000    7.67410    0.00830   -9999.25   -9999.25   -0.00430    0.00220    5.09170    2.69210 4680.44640 14876.91730  439.90810   23.41580
 6817.50000    7.67240    0.01130   -9999.25   -9999.25   -0.00540    0.00270    5.19110    2.69240 3191.09500 8394.22010  316.07000   19.32820
 6818.00000    7.67070    0.00660   -9999.25   -9999.25   -0.00430    0.00290    5.22690    2.69830 3237.30300 4533.49050  296.09610   15.24060
 6818.50000    7.67190    0.00230   -9999.25   -9999.25   -0.00330    0.00280    5.17920    2.70250 4148.73210 11258.24180  382.60200   14.48330
 6819.00000    7.67660    0.00330   -9999.25   -9999.25   -0.00220    0.00260    5.13260    2.69920 4886.99230 25292.34310  513.77300   17.63120
 6819.50000    7.68130    0.00510   -9999.25   -9999.25   -0.00300    0.00250    5.08680    2.69590 5126.84110 54307.17450  465.17790   21.36990
 6820.00000    7.68600    0.00880   -9999.25   -9999.25   -0.00360    0.00230    5.06850    2.69270 5102.45710 18829.98100  496.06400   23.74760
 6820.50000    7.69070    0.00740   -9999.25   -9999.25   -0.00350    0.00220    5.11330    2.69180 4909.88340 20327.92640  586.15020   23.27320
 6821.00000    7.69540    0.01050   -9999.25   -9999.25   -0.00350    0.00200    5.15810    2.69980 4771.37910 15383.39900  612.77180   22.16120
 6821.50000    7.69770    0.00490   -9999.25   -9999.25   -0.00380    0.00190    5.15810    2.70950 4658.39540 13336.38240  619.23660   18.44910
 6822.00000    7.69840   -0.00180   -9999.25   -9999.25   -0.00030    0.00170    5.10640    2.71610 4440.50740 22104.51130  617.08950   14.73690
 6822.50000    7.69910   -0.00620   -9999.25   -9999.25    0.00180    0.00160    5.06160    2.71280 4253.11830 23688.15110  597.97060   11.02480
 6823.00000    7.69980   -0.00210   -9999.25   -9999.25    0.00290    0.00180    5.11900    2.70460 3267.83790 4988.87200  400.71380    8.19500
 6823.50000    7.70050    0.00490   -9999.25   -9999.25    0.00010    0.00220    5.17650    2.69640 2698.68220 5608.22920  439.12430    6.57780
 6824.00000    7.70130    0.00930   -9999.25   -9999.25   -0.00170    0.00250    5.22900    2.69080 3033.62430 6915.65570  423.73880    6.88640
 6824.50000    7.70200    0.01370   -9999.25   -9999.25   -0.00340    0.00290    5.23910    2.68570 3130.41280 7749.31690  276.24500    7.12830
