~Version ---------------------------------------------------
VERS.   2.0 : CWLS log ASCII Standard -VERSION 2.0
WRAP.    NO : One line per depth step
DLM . SPACE : Column Data Section Delimiter
~Well ------------------------------------------------------
STRT .FT                105.0 : START DEPTH
STOP .FT              10671.0 : STOP DEPTH
STEP .FT                  0.5 : STEP
NULL .               -9999.25 : NULL VALUE
COMP .                        : COMPANY
WELL .                        : WELL
FLD  .                        : FIELD
LOC  .                        : LOCATION
PROV .                        : PROVINCE
CNTY .                        : COUNTY
STAT .                        : STATE
CTRY .                        : COUNTRY
SRVC .                        : SERVICE COMPANY
DATE .                        : DATE
UWI  .                        : UNIQUE WELL ID
API  .                        : API NUMBER
SLAT .WGS84 2.846263619665301 : SURFACE LATITUDE
SLON .WGS84 8.627339803501002 : SURFACE LONGITUDE
DATUM.F                   nan : DEPTH DATUM ELEV
~Curve Information -----------------------------------------
DEPT   .FT    : 
CALD   .IN    : CALIPER FROM DENSITY LOG
DPHI_LS.DEC   : DENSITY POROSITY LIMESTONE
DTCO   .US/F  : DELTA-T COMPRESSIONAL
DTSM   .US/F  : DELTA-T SHEAR
HDRA   .G/C3  : HRDD SPINE AND RIBS DENSITY CORRECTION
NPHI_LS.DEC   : NEUTRON POROSITY LIMESTONE
PEFZ   .B/E   : HRDD STANDARD RESOLUTION FORMATION PHOTOELECTRIC FACTOR
RHOZ   .G/C3  : HRDD STANDARD RESOLUTION FORMATION DENSITY
RLA3   .OHMM  : APPARENT RESISTIVITY FROM COMPUTED FOCUSING MODE 3
RLA5   .OHMM  : APPARENT RESISTIVITY FROM COMPUTED FOCUSING MODE 5
RXO8   .OHMM  : MCFL INVADED FORMATION RESISTIVITY FILTERED AT 8 INCHES
SGRDD  .GAPI  : SPECTROSCOPY GAMMA RAY FROM DENSITY LOG
~Params ----------------------------------------------------
~Other -----------------------------------------------------
~ASCII -----------------------------------------------------
# ...
 7273.00000    7.72210    0.02260   52.26530   94.97720    0.00050    0.03830    4.58600    2.67210 1267.13570 2021.66590  411.34090   23.58530
 7273.50000    7.72090    0.00940   51.49890   94.33450   -0.00040    0.02410    4.87310    2.69590 1987.55020 3889.72170  457.38050   19.58060
 7274.00000    7.71960    0.00070   51.36990   94.05800   -0.00040    0.01970    5.06000    2.70590 2087.80640 3996.70110  483.89370   16.44920
 7274.50000    7.71830   -0.00010   50.76470   93.47280   -0.00040    0.01920    5.00750    2.70520 2387.38670 4215.64150  518.95080   15.01130
 7275.00000    7.71700    0.00150   50.45420   93.03430   -0.00050    0.01910    4.96570    2.70190 2391.35250 4562.92500  563.98400   14.72380
 7275.50000    7.71570    0.00530   50.45280   92.97510   -0.00050    0.01940    4.92390    2.69870 2353.33400 4391.42490  561.54020   17.37120
 7276.00000    7.71980    0.00530   50.43050   93.11080    0.00030    0.01950    4.88220    2.69540 2353.33400 4391.42490  528.21880   19.47220
 7276.50000    7.72520    0.00620   50.49030   93.18060    0.00070    0.02050    4.86530    2.69350 2433.55800 4926.47720  479.64950   20.75370
 7277.00000    7.73070    0.00630   50.33310   93.25040    0.00090    0.02120    4.85080    2.69350 2614.79540 5053.71290  554.65030   21.93230
 7277.50000    7.73610    0.00590   50.38250   93.22410    0.00020    0.02120    4.87270    2.69350 2970.04780 6103.15970  581.85090   20.86680
 7278.00000    7.74150    0.00580   50.59870   93.24380    0.00040    0.02060    4.95500    2.69560 3166.84690 6869.07570  540.65140   19.09110
 7278.50000    7.72520    0.00410   50.39310   93.28500    0.00070    0.01980    5.00100    2.70190 3228.09270 7535.03430  585.70220   18.13570
 7279.00000    7.73820    0.00180   50.46330   93.29770    0.00120    0.01900    5.02850    2.70830 3259.15840 7801.41770  562.28050   17.36550
 7279.50000    7.74000   -0.00070   50.70980   93.50570    0.00150    0.01820    5.00880    2.71210 3259.15840 6875.42830  477.56280   16.94460
 7280.00000    7.74180   -0.00270   50.49330   93.61270    0.00160    0.01750    4.96010    2.71210 3034.94990 5742.09750  482.10780   16.52370
 7280.50000    7.74360   -0.00380   50.60590   93.56520    0.00160    0.01770    4.91680    2.69790 2845.57420 5633.15400  544.36330   16.10280
 7281.00000    7.74540   -0.00030   50.98960   93.30080    0.00140    0.02000    4.88040    2.68380 2576.67410 4520.84420  564.25820   18.88920
 7281.50000    7.73810    0.00390   50.95730   93.31980    0.00000    0.02330    4.86160    2.68430 2200.73270 3273.76960  496.00050   21.67350
 7282.00000    7.74760    0.00720   50.61840   93.31110   -0.00150    0.02550    4.88880    2.69050 2707.84060 3252.93250  547.66420   22.81210
 7282.50000    7.74140    0.00830   50.49190   93.30240   -0.00290    0.02270    4.95790    2.69560 3341.72550 8585.55170  594.99320   20.73260
 7283.00000    7.73760    0.00860   50.46610   93.23580   -0.00280    0.01960    5.02700    2.68790 3370.26160 5797.31700  572.63340   19.06290
 7283.50000    7.72860    0.01060   50.61090   93.15280   -0.00430    0.01790    5.08230    2.68740 3041.46810 6441.45790  558.36990   18.53310
 7284.00000    7.73500    0.01160   50.45090   93.09690   -0.00590    0.01770    5.01850    2.69160 3103.07010 6954.40400  532.47760   19.32930
 7284.50000    7.74150    0.01120   50.27100   92.92260   -0.00720    0.01770    4.98990    2.70250 3421.47180 8785.80160  524.15000   19.27030
 7285.00000    7.74550    0.00730   50.24460   92.73420   -0.00590    0.01790    4.98300    2.70900 3621.25920 10398.18560  543.24670   18.63610
 7285.50000    7.73940    0.00170   50.13840   92.57370   -0.00380    0.01830    4.97610    2.70900 3726.81660 10531.81400  464.03270   18.97560
 7286.00000    7.73950   -0.00050   50.38000   92.80520   -0.00170    0.01830    5.00310    2.70780 3928.39450 10071.45570  384.81870   18.77820
 7286.50000    7.74370    0.00170   50.51970   92.92060   -0.00010    0.01740    5.02010    2.70480 3647.06990 8257.68710  591.97640   18.58080
 7287.00000    7.74290    0.00230   50.50630   93.06530    0.00050    0.01660    5.01880    2.70180 3259.15840 6822.45970  613.12970   18.38340
 7287.50000    7.74100    0.00250   50.42720   93.12560    0.00050    0.01660    4.99360    2.69740 3106.76300 6779.03170  543.24670   17.92170
 7288.00000    7.73910    0.00660   50.42560   93.18580   -0.00210    0.01800    4.96640    2.69160 3228.09270 8153.55790  589.30680   18.45770
 7288.50000    7.73720    0.01190   50.66410   93.24600   -0.00320    0.01950    4.88790    2.68580 3587.30720 9448.50040  589.02740   19.15900
 7289.00000    7.73940    0.01400   50.56000   93.32790   -0.00400    0.02100    4.81760    2.68530 4042.90460 9817.49650  534.84180   21.52540
 7289.50000    7.74440    0.01400   50.64270   93.41530   -0.00380    0.02340    4.77630    2.69050 3402.69540 9269.23620  476.84600   23.72380
 7290.00000    7.74510    0.00760   50.39990   93.23800   -0.00240    0.02260    4.76840    2.69900 3274.80320 7225.99720  561.42510   22.91580
 7290.50000    7.74300    0.00290   50.43570   93.28590   -0.00100    0.02140    4.78500    2.70610 3123.60010 6120.68350  587.43500   20.64510
 7291.00000    7.74080    0.00060   50.64110   93.29040    0.00030    0.02100    4.79340    2.70690 2989.99360 6120.68350  616.11340   19.49880
 7291.50000    7.73860   -0.00100   50.68730   92.99790    0.00020    0.02040    4.77800    2.70440 3298.84270 7433.87880  574.71990   19.72140
 7292.00000    7.73020    0.00140   50.39580   93.05650   -0.00040    0.01990    4.75730    2.69950 3586.74210 7653.40320  505.59300   19.42630
 7292.50000    7.73930    0.00520   50.39020   93.13370   -0.00100    0.01940    4.76740    2.69450 3621.25920 7412.91940  600.71920   19.14150
 7293.00000    7.74850    0.00820   50.47200   93.28540   -0.00160    0.01930    4.79200    2.68960 3621.25920 7835.97320  535.81020   18.95460
 7293.50000    7.74850    0.00990   50.47470   93.43720   -0.00220    0.01970    4.83550    2.68460 3691.29330 8158.00480  548.14160   18.73450
 7294.00000    7.74850    0.01100   50.49230   93.54610   -0.00240    0.02190    4.84880    2.67970 3780.74360 8054.49070  627.54560   20.78380
 7294.50000    7.74850    0.01270   50.53200   93.58670   -0.00280    0.02460    4.83130    2.67970 2809.53030 6791.95700  640.85180   22.64940
 7295.00000    7.74560    0.01380   50.57180   93.35110   -0.00310    0.02550    4.83190    2.69320 2891.42630 4308.10750  547.65060   25.00120
 7295.50000    7.73830    0.01240   50.59690   93.24640   -0.00380    0.02240    4.88540    2.69920 3358.43620 4419.54970  550.98780   22.39810
 7296.00000    7.74010    0.01030   50.63690   93.37360   -0.00360    0.02050    4.93880    2.69970 3691.29330 8315.77810  575.11990   19.40610
 7296.50000    7.74200    0.00810   50.54510   93.31550   -0.00340    0.01990    4.99230    2.69300 3603.95930 7932.70160  546.06570   17.33300
 7297.00000    7.74380    0.00900   50.18630   93.10700   -0.00330    0.01950    4.99320    2.69300 3451.93240 6735.88400  570.40930   18.01610
 7297.50000    7.74560    0.00960   50.23830   93.01980   -0.00310    0.01950    4.95980    2.69300 3370.26160 6997.62460  623.64500   19.17370
 7298.00000    7.74750    0.00900   50.51010   92.97520   -0.00300    0.01940    4.96190    2.69440 3435.44140 8574.79420  625.06610   20.15570
 7298.50000    7.74860    0.00710   50.31740   93.26210   -0.00280    0.01940    5.01710    2.69780 3573.67900 8809.25880  635.06920   20.58730
 7299.00000    7.74870    0.00690   50.28400   93.48500   -0.00210    0.01920    5.07230    2.70130 3684.33750 8864.06150  632.82710   20.82050
 7299.50000    7.74880    0.00680   50.29940   93.45200   -0.00180    0.01920    5.12750    2.70330 3794.99600 11226.21370  559.08200   20.13320
 7300.00000    7.74880    0.00630   50.31580   93.43950   -0.00170    0.01920    5.14730    2.70330 3817.12770 10398.18560  668.78750   19.96520
 7300.50000    7.74890    0.00560   50.27880   93.29810   -0.00190    0.01930    5.09790    2.70050 3817.12770 8751.59360  638.22460   19.70650
