~Version ---------------------------------------------------
VERS.   2.0 : CWLS log ASCII Standard -VERSION 2.0
WRAP.    NO : One line per depth step
DLM . SPACE : Column Data Section Delimiter
~Well ------------------------------------------------------
STRT .FT                105.0 : START DEPTH
STOP .FT              10671.0 : STOP DEPTH
STEP .FT                  0.5 : STEP
NULL .               -9999.25 : NULL VALUE
COMP .                        : COMPANY
WELL .                        : WELL
FLD  .                        : FIELD
LOC  .                        : LOCATION
PROV .                        : PROVINCE
CNTY .                        : COUNTY
STAT .                        : STATE
CTRY .                        : COUNTRY
SRVC .                        : SERVICE COMPANY
DATE .                        : DATE
UWI  .                        : UNIQUE WELL ID
API  .                        : API NUMBER
SLAT .WGS84 2.846263619665301 : SURFACE LATITUDE
SLON .WGS84 8.627339803501002 : SURFACE LONGITUDE
DATUM.F                   nan : DEPTH DATUM ELEV
~Curve Information -----------------------------------------
DEPT   .FT    : 
CALD   .IN    : CALIPER FROM DENSITY LOG
DPHI_LS.DEC   : DENSITY POROSITY LIMESTONE
DTCO   .US/F  : DELTA-T COMPRESSIONAL
DTSM   .US/F  : DELTA-T SHEAR
HDRA   .G/C3  : HRDD SPINE AND RIBS DENSITY CORRECTION
NPHI_LS.DEC   : NEUTRON POROSITY LIMESTONE
PEFZ   .B/E   : HRDD STANDARD RESOLUTION FORMATION PHOTOELECTRIC FACTOR
RHOZ   .G/C3  : HRDD STANDARD RESOLUTION FORMATION DENSITY
RLA3   .OHMM  : APPARENT RESISTIVITY FROM COMPUTED FOCUSING MODE 3
RLA5   .OHMM  : APPARENT RESISTIVITY FROM COMPUTED FOCUSING MODE 5
RXO8   .OHMM  : MCFL INVADED FORMATION RESISTIVITY FILTERED AT 8 INCHES
SGRDD  .GAPI  : SPECTROSCOPY GAMMA RAY FROM DENSITY LOG
~Params ----------------------------------------------------
~Other -----------------------------------------------------
~ASCII -----------------------------------------------------
# ...
 7749.00000    7.81500    0.05400   55.72270   98.12290   -0.00690    0.04370    4.65330    2.62110 2598.68040 6399.78270  427.75100   20.42620
 7749.50000    7.81170    0.05180   55.92370   98.20700   -0.00560    0.04460    4.73680    2.62540 2397.92780 5163.39650  339.94810   19.99440
 7750.00000    7.81180    0.04510   55.86200   97.95100   -0.00380    0.04530    4.80110    2.63410 2707.67640 6032.96650  243.55750   18.95870
 7750.50000    7.81200    0.03760   55.77380   97.69500   -0.00310    0.04500    4.85680    2.64270 2890.06740 7291.13800  166.17410   17.53190
 7751.00000    7.81210    0.03230   55.59500   97.63310   -0.00130    0.04260    4.94620    2.65140 2960.09880 7539.55170  631.60480   16.10520
 7751.50000    7.83900    0.02940   55.06760   97.71030   -0.00050    0.03980    5.02370    2.66010 3046.37350 10177.27210  292.95430   14.67840
 7752.00000    7.84360    0.02240   54.67160   97.62900    0.00030    0.03980    4.98890    2.66940 3046.40800 9487.72050  148.14500   14.10720
 7752.50000    7.84810    0.02020   54.92720   96.98230    0.00110    0.04200    4.88450    2.67610 2787.79390 5697.05230  125.92300   14.36450
 7753.00000    7.85270    0.02000   55.18550   96.61290    0.00110    0.04350    4.73250    2.67700 2405.13030 4156.59290  531.02620   14.88670
 7753.50000    7.85990    0.02320   55.34740   96.67980    0.00110    0.04260    4.65560    2.67210 2003.19550 2390.30460  345.54250   15.40890
 7754.00000    7.86770    0.02490   55.23110   96.43970    0.00110    0.04150    4.60300    2.66710 1792.34060 2390.31540  167.10620   15.93110
 7754.50000    7.87560    0.02620   55.13730   96.26570    0.00090    0.04130    4.46820    2.66200 2049.78520 3103.47870  430.58190   16.01990
 7755.00000    7.87840    0.02950   55.38990   96.26570   -0.00040    0.04140    4.22010    2.65190 2008.09790 3374.12810  307.25260   15.45900
 7755.50000    7.87350    0.03590   54.97350   96.38130   -0.00170    0.04020    4.01070    2.64170 2048.47680 3672.17640  149.76210   14.89810
 7756.00000    7.85770    0.04440   54.82760   96.75830   -0.00470    0.03800    4.17090    2.63160 2098.10820 3882.98120  163.91230   14.40790
 7756.50000    7.83910    0.04790   55.32940   96.87750   -0.00450    0.03650    4.37790    2.63210 2180.03420 3883.05380  225.84220   15.12740
 7757.00000    7.81070    0.04430   55.12240   96.64310   -0.00300    0.03770    4.50690    2.64190 2211.57900 4257.54720  315.26830   16.42710
 7757.50000    7.78230    0.03930   54.69790   96.48290   -0.00150    0.03920    4.52750    2.64770 2211.58430 4022.15710  411.85400   17.72680
 7758.00000    7.77340    0.03450   54.50780   96.32260   -0.00210    0.03920    4.49940    2.65050 2053.66030 3268.37860  523.35490   19.02650
 7758.50000    7.79370    0.03460   54.27590   96.17160   -0.00270    0.03840    4.47360    2.65180 2033.53000 3628.02940  560.10670   20.06590
 7759.00000    7.80170    0.03510   54.29510   96.02690   -0.00330    0.03630    4.47240    2.65380 2108.19470 4679.18980  311.96610   19.51450
 7759.50000    7.83780    0.03320   54.41500   96.19900   -0.00350    0.03420    4.46670    2.65740 2138.70250 5378.18060  307.73880   18.52210
 7760.00000    7.83810    0.02970   54.57920   96.92950   -0.00290    0.03240    4.46090    2.66250 2029.36310 4412.49640  382.46320   17.52970
 7760.50000    7.83850    0.02470   54.59790   96.36990   -0.00230    0.03180    4.45520    2.66750 1755.10770 4113.14690  518.28410   17.17910
 7761.00000    7.83890    0.02500   54.73410   96.45330   -0.00170    0.03160    4.45520    2.66850 1778.20030 3240.97950  561.83240   17.50930
 7761.50000    7.83920    0.02660   55.28570   96.67490   -0.00170    0.03160    4.43020    2.66510 1813.74120 3284.41840  609.66170   17.64230
 7762.00000    7.82520    0.03090   54.74710   96.63890   -0.00290    0.03190    4.43070    2.66100 1951.20490 4374.28550  752.61300   17.29340
 7762.50000    7.82760    0.03500   54.44570   96.58640   -0.00410    0.03240    4.44820    2.65210 1949.04690 4462.42740  498.46720   16.85670
 7763.00000    7.81970    0.03860   54.44100   96.39860   -0.00510    0.03320    4.48330    2.64680 1945.87100 4120.35460  541.89180   16.42000
 7763.50000    7.81150    0.03990   54.31680   96.21070   -0.00470    0.03400    4.50090    2.64400 1942.69520 3983.48850  538.88850   16.26830
 7764.00000    7.80940    0.03700   53.86170   96.28590   -0.00430    0.03440    4.48100    2.64120 1939.51930 3983.41430  512.69990   17.37740
 7764.50000    7.80720    0.03780   53.72330   96.15900   -0.00410    0.03420    4.49400    2.63960 1936.34340 3809.26350  528.00620   19.08320
 7765.00000    7.80500    0.04240   53.64910   95.98040   -0.00500    0.03320    4.55180    2.64110 1545.92280 3007.87920  523.51230   20.26060
 7765.50000    7.81510    0.03520   53.46940   95.43980   -0.00390    0.02330    4.66420    2.66310 1760.99860 3926.76910  561.16540   19.23880
 7766.00000    7.82840    0.01990   53.37170   95.13860   -0.00290    0.01340    4.77650    2.69630 2237.24490 5484.08360  403.22300   14.89060
 7766.50000    7.84160    0.01080   53.35520   95.53500   -0.00120    0.00370    4.85160    2.72280 2280.49120 6722.40300  427.95440   10.54230
 7767.00000    7.84110    0.01040   53.55500   95.26090   -0.00080   -0.00430    4.83400    2.72280 2052.53000 6722.18370  447.82410   10.44000
 7767.50000    7.83730    0.01410   54.09560   95.21510   -0.00030    0.00560    4.69550    2.71820 1612.15300 1923.99610  345.74090   17.24040
 7768.00000    7.83340    0.02210   55.07320   95.16930    0.00020    0.02170    4.35460    2.68700  505.70460  321.52490  122.33770   24.20680
 7768.50000    7.83190    0.03010   55.78100   95.12350   -0.00010    0.03790    3.99280    2.65580  166.65130  254.21670  125.08530   30.40700
 7769.00000    7.82730    0.03780   56.68900   95.24830   -0.00010    0.04840    3.79960    2.63600  210.66270  254.16760  117.91350   30.51340
 7769.50000    7.82140    0.04340   57.39100   95.77060   -0.00250    0.05220    3.66160    2.63600  208.71200  244.94090   75.13490   30.61970
 7770.00000    7.81560    0.04540   57.74160   96.11260   -0.00540    0.05150    3.67290    2.63750  183.89440  215.91650   68.51030   30.72610
 7770.50000    7.80980    0.04150   57.92530   96.52440   -0.00490    0.05110    3.76250    2.64110  183.89440  213.85940  156.87740   30.83250
 7771.00000    7.80290    0.03900   57.88700   96.91920   -0.00430    0.05150    3.86670    2.64470  218.66650  257.33660  147.19740   30.93880
 7771.50000    7.80630    0.03940   57.64360   96.86910   -0.00380    0.05410    3.95850    2.64620  218.66650  260.64140  120.17580   31.44150
 7772.00000    7.81200    0.03760   57.42140   97.02180   -0.00300    0.05530    3.96020    2.65180  183.22350  236.84830  156.03690   34.45000
 7772.50000    7.81770    0.03340   57.18240   97.31340   -0.00310    0.05600    3.90330    2.65740  138.91970  175.89840  181.81890   37.45850
 7773.00000    7.82340    0.02930   56.65480   97.60500   -0.00320    0.05710    3.80020    2.66040  128.33770  150.55400  174.87570   39.41690
 7773.50000    7.82910    0.02920   56.01070   97.75190   -0.00190    0.05870    3.66620    2.65680  130.05890  152.48750  105.90470   38.90570
 7774.00000    7.83480    0.03470   55.21750   97.86080   -0.00260    0.06140    3.66150    2.65250  153.15680  191.01870  133.26010   36.34940
 7774.50000    7.84040    0.03550   56.36160   97.81430   -0.00320    0.06540    3.77290    2.65380  188.74610  230.47430  167.17720   33.79320
 7775.00000    7.84500    0.03340   57.16970   97.64520   -0.00340    0.06260    3.86520    2.65920  217.76600  294.24150  144.55330   31.23700
 7775.50000    7.85110    0.02850   57.66500   97.53700   -0.00080    0.05620    3.86600    2.66460  227.58290  290.51070   96.05830   28.52740
 7776.00000    7.85710    0.02440   58.07170   97.70460    0.00220    0.05300    3.79250    2.66830  227.58290  260.64140   51.40890   28.52740
 7776.50000    7.86310    0.02550   58.71230   98.21390    0.00380    0.05350    3.73990    2.66630  198.85660  274.29530   66.57110   29.14090
