~Version ---------------------------------------------------
VERS.   2.0 : CWLS log ASCII Standard -VERSION 2.0
WRAP.    NO : One line per depth step
DLM . SPACE : Column Data Section Delimiter
~Well ------------------------------------------------------
STRT .FT                105.0 : START DEPTH
STOP .FT              10671.0 : STOP DEPTH
STEP .FT                  0.5 : STEP
NULL .               -9999.25 : NULL VALUE
COMP .                        : COMPANY
WELL .                        : WELL
FLD  .                        : FIELD
LOC  .                        : LOCATION
PROV .                        : PROVINCE
CNTY .                        : COUNTY
STAT .                        : STATE
CTRY .                        : COUNTRY
SRVC .                        : SERVICE COMPANY
DATE .                        : DATE
UWI  .                        : UNIQUE WELL ID
API  .                        : API NUMBER
SLAT .WGS84 2.846263619665301 : SURFACE LATITUDE
SLON .WGS84 8.627339803501002 : SURFACE LONGITUDE
DATUM.F                   nan : DEPTH DATUM ELEV
~Curve Information -----------------------------------------
DEPT   .FT    : 
CALD   .IN    : CALIPER FROM DENSITY LOG
DPHI_LS.DEC   : DENSITY POROSITY LIMESTONE
DTCO   .US/F  : DELTA-T COMPRESSIONAL
DTSM   .US/F  : DELTA-T SHEAR
HDRA   .G/C3  : HRDD SPINE AND RIBS DENSITY CORRECTION
NPHI_LS.DEC   : NEUTRON POROSITY LIMESTONE
PEFZ   .B/E   : HRDD STANDARD RESOLUTION FORMATION PHOTOELECTRIC FACTOR
RHOZ   .G/C3  : HRDD STANDARD RESOLUTION FORMATION DENSITY
RLA3   .OHMM  : APPARENT RESISTIVITY FROM COMPUTED FOCUSING MODE 3
RLA5   .OHMM  : APPARENT RESISTIVITY FROM COMPUTED FOCUSING MODE 5
RXO8   .OHMM  : MCFL INVADED FORMATION RESISTIVITY FILTERED AT 8 INCHES
SGRDD  .GAPI  : SPECTROSCOPY GAMMA RAY FROM DENSITY LOG
~Params ----------------------------------------------------
~Other -----------------------------------------------------
~ASCII -----------------------------------------------------
# ...
 5845.00000    8.01240   -0.00750   -9999.25   -9999.25   -0.00580    0.05330    3.05860    2.71680   87.70160  110.19280   78.98210   27.43450
 5845.50000    8.00820   -0.00990   -9999.25   -9999.25   -0.00110    0.05230    3.12850    2.72410   70.16790   82.53070   51.98680   27.89920
 5846.00000    8.00400   -0.00830   -9999.25   -9999.25   -0.00090    0.05400    3.15730    2.72260   46.49260   62.66130   35.20410   29.39640
 5846.50000    7.99380   -0.00700   -9999.25   -9999.25   -0.00530    0.05750    3.15070    2.71830   60.29170   74.01870   51.59200   28.85960
 5847.00000    7.99260   -0.00610   -9999.25   -9999.25   -0.00690    0.06100    3.13710    2.71470   83.07300   91.43820   77.18740   27.19810
 5847.50000    7.99150   -0.00390   -9999.25   -9999.25   -0.00660    0.06400    3.12410    2.71590   83.87170   92.31730   65.96300   26.22670
 5848.00000    7.99030   -0.00980   -9999.25   -9999.25   -0.00630    0.06360    3.05570    2.72300   79.57400   88.00500   42.90760   25.10200
 5848.50000    7.98920   -0.01350   -9999.25   -9999.25   -0.00570    0.06340    3.04650    2.73000   80.23340   95.00540   52.94830   25.05090
 5849.00000    7.98800   -0.01850   -9999.25   -9999.25   -0.00480    0.06130    2.98010    2.73710   63.37610   75.29850   47.57360   25.81770
 5849.50000    7.98690   -0.01920   -9999.25   -9999.25   -0.00430    0.05920    2.96850    2.73710   50.19090   53.51050   40.85530   25.58820
 5850.00000    7.98570   -0.01510   -9999.25   -9999.25   -0.00540    0.05730    2.98370    2.72650   50.51170   60.05950   41.31580   24.87410
 5850.50000    7.98460   -0.01150   -9999.25   -9999.25   -0.00660    0.05560    2.99890    2.72600   66.24730   73.84750   48.70040   24.46430
 5851.00000    7.98340   -0.01130   -9999.25   -9999.25   -0.00770    0.05380    3.00790    2.72900   75.97660   82.25010   59.25300   24.35560
 5851.50000    7.98220   -0.01370   -9999.25   -9999.25   -0.00710    0.05260    2.99070    2.73210   82.14470   89.30630   78.45580   25.61320
 5852.00000    7.98110   -0.00630   -9999.25   -9999.25   -0.00500    0.05200    2.90650    2.73190   88.26300   96.36260   82.98800   32.75360
 5852.50000    7.98020    0.01730   -9999.25   -9999.25   -0.00260    0.05330    2.78160    2.67900   91.41380   99.66070   87.55640   45.61990
 5853.00000    7.98470    0.05620   -9999.25   -9999.25   -0.00130    0.07460    2.64650    2.61400   51.05890   98.71180    9.92910   58.48620
 5853.50000    7.98930    0.09540   -9999.25   -9999.25   -0.00200    0.11300    2.51140    2.54890    9.64040   12.32030    6.45260   66.20600
 5854.00000    7.99380    0.12580   -9999.25   -9999.25   -0.00540    0.11580    2.37640    2.48380    3.46690    5.60690    2.68280   55.23470
 5854.50000    8.02790    0.11360   -9999.25   -9999.25   -0.00880    0.11500    2.36970    2.48380    3.55650    3.79780    2.41160   41.67140
 5855.00000    8.02790    0.07000   -9999.25   -9999.25   -0.00970    0.09020    2.53730    2.52210   17.63300   58.04460   12.87630   31.36980
 5855.50000    8.02790    0.02530   -9999.25   -9999.25   -0.00720    0.06050    2.67040    2.61670   76.70700  117.51180   51.11090   26.12450
 5856.00000    8.02790    0.01140   -9999.25   -9999.25   -0.00470    0.04590    2.75270    2.69290   76.95180  129.65540   62.96060   29.38370
 5856.50000    8.02790    0.02700   -9999.25   -9999.25   -0.00510    0.04450    2.73850    2.67340   52.24960   84.26330   39.84230   34.81560
 5857.00000    8.02790    0.05460   -9999.25   -9999.25   -0.00490    0.05400    2.63590    2.62540   26.12510   36.05700   11.47140   44.01800
 5857.50000    8.02790    0.07330   -9999.25   -9999.25   -0.00390    0.06330    2.53490    2.57730    9.02530    9.69940    6.73970   47.81400
 5858.00000    8.02790    0.08010   -9999.25   -9999.25   -0.00280    0.07130    2.51770    2.57680   11.90100   16.16680   10.68360   49.87170
 5858.50000    8.02790    0.07520   -9999.25   -9999.25   -0.00170    0.07060    2.54240    2.58240   26.70880   31.86510   20.12110   57.22270
 5859.00000    8.02790    0.06640   -9999.25   -9999.25   -0.00060    0.07010    2.56090    2.58990   33.15630   37.20010   30.52130   72.34090
 5859.50000    8.02790    0.06160   -9999.25   -9999.25   -0.00100    0.07340    2.55660    2.60110   28.31450   32.39910   23.67670   75.71510
 5860.00000    8.02790    0.05650   -9999.25   -9999.25   -0.00200    0.07300    2.55230    2.62260   22.26240   26.15170   16.83200   69.55510
 5860.50000    8.02790    0.05600   -9999.25   -9999.25   -0.00560    0.06680    2.54800    2.62310   19.96840   21.15390   19.07790   59.28860
 5861.00000    8.02790    0.06180   -9999.25   -9999.25   -0.00750    0.06270    2.54370    2.61170   22.97660   27.52050   18.03650   49.02200
 5861.50000    8.02790    0.06710   -9999.25   -9999.25   -0.00830    0.06420    2.51130    2.59740   10.72150   18.87850   10.19070   42.88540
 5862.00000    8.02790    0.07420   -9999.25   -9999.25   -0.00900    0.06830    2.44090    2.58320   10.61940   11.08960    9.33330   36.74880
 5862.50000    8.02790    0.08120   -9999.25   -9999.25   -0.00900    0.07240    2.38570    2.57090   12.14150   12.80100   10.94030   34.39520
 5863.00000    8.02790    0.08940   -9999.25   -9999.25   -0.00810    0.07750    2.36290    2.55350    9.93150   11.50510    8.63130   38.03760
 5863.50000    8.02680    0.10480   -9999.25   -9999.25   -0.00820    0.08590    2.35390    2.52740    7.81870    9.31940    6.14170   41.57790
 5864.00000    8.02540    0.12050   -9999.25   -9999.25   -0.00830    0.09850    2.33420    2.50120    6.05080    7.13370    3.78200   45.11820
 5864.50000    8.02400    0.13670   -9999.25   -9999.25   -0.00870    0.10890    2.30180    2.49000    4.87700    5.38520    3.51350   45.01310
 5865.00000    8.02260    0.13590   -9999.25   -9999.25   -0.00890    0.10890    2.34150    2.51970    7.59750   11.07150    4.58830   39.28370
 5865.50000    8.02120    0.10020   -9999.25   -9999.25   -0.00840    0.08150    2.40780    2.56850   17.80250   29.45870    8.96600   33.85440
 5866.00000    8.01980    0.07220   -9999.25   -9999.25   -0.00780    0.05410    2.47410    2.61720   60.77540   70.96040   48.82940   30.69790
 5866.50000    8.01850    0.04960   -9999.25   -9999.25   -0.00750    0.05400    2.53260    2.62640   62.14720   72.33140   49.84760   37.17140
 5867.00000    8.01710    0.06600   -9999.25   -9999.25   -0.00830    0.06150    2.51100    2.59030   15.01960   16.10530   13.83720   40.85020
 5867.50000    8.01570    0.09040   -9999.25   -9999.25   -0.00910    0.07250    2.41470    2.54660    8.74210   11.50420    6.41440   41.34490
 5868.00000    8.01430    0.11600   -9999.25   -9999.25   -0.00970    0.08340    2.31850    2.51370    5.96220    7.17250    4.72780   37.86280
 5868.50000    8.01290    0.13140   -9999.25   -9999.25   -0.01000    0.09330    2.26930    2.49720    5.41850    5.81630    4.38970   35.61740
 5869.00000    8.01150    0.13690   -9999.25   -9999.25   -0.01030    0.09950    2.26370    2.48730    4.63430    5.18090    3.71190   34.56920
 5869.50000    8.01020    0.13520   -9999.25   -9999.25   -0.01060    0.10490    2.25320    2.48730    4.36190    4.66970    3.38560   34.77190
 5870.00000    8.00810    0.12660   -9999.25   -9999.25   -0.01050    0.10550    2.24670    2.50090    4.22490    4.36300    3.34390   34.60570
 5870.50000    8.00610    0.11950   -9999.25   -9999.25   -0.01010    0.10260    2.28540    2.52270    4.19810    4.42610    3.52140   34.27380
 5871.00000    8.00400    0.10500   -9999.25   -9999.25   -0.00980    0.09580    2.32410    2.54450    4.66650    5.74650    4.06040   35.00980
 5871.50000    8.00200    0.08620   -9999.25   -9999.25   -0.00940    0.08550    2.39700    2.57380    6.75120    8.12590    4.94050   39.09440
 5872.00000    7.99990    0.05590   -9999.25   -9999.25   -0.00810    0.07520    2.57210    2.61050   13.17200   37.17120    6.76760   44.16780
 5872.50000    7.99780    0.03080   -9999.25   -9999.25   -0.00710    0.06490    2.66340    2.65550   47.55690   69.39210   30.62090   44.42960
