~Version ---------------------------------------------------
VERS.   2.0 : CWLS log ASCII Standard -VERSION 2.0
WRAP.    NO : One line per depth step
DLM . SPACE : Column Data Section Delimiter
~Well ------------------------------------------------------
STRT .FT                105.0 : START DEPTH
STOP .FT              10671.0 : STOP DEPTH
STEP .FT                  0.5 : STEP
NULL .               -9999.25 : NULL VALUE
COMP .                        : COMPANY
WELL .                        : WELL
FLD  .                        : FIELD
LOC  .                        : LOCATION
PROV .                        : PROVINCE
CNTY .                        : COUNTY
STAT .                        : STATE
CTRY .                        : COUNTRY
SRVC .                        : SERVICE COMPANY
DATE .                        : DATE
UWI  .                        : UNIQUE WELL ID
API  .                        : API NUMBER
SLAT .WGS84 2.846263619665301 : SURFACE LATITUDE
SLON .WGS84 8.627339803501002 : SURFACE LONGITUDE
DATUM.F                   nan : DEPTH DATUM ELEV
~Curve Information -----------------------------------------
DEPT   .FT    : 
CALD   .IN    : CALIPER FROM DENSITY LOG
DPHI_LS.DEC   : DENSITY POROSITY LIMESTONE
DTCO   .US/F  : DELTA-T COMPRESSIONAL
DTSM   .US/F  : DELTA-T SHEAR
HDRA   .G/C3  : HRDD SPINE AND RIBS DENSITY CORRECTION
NPHI_LS.DEC   : NEUTRON POROSITY LIMESTONE
PEFZ   .B/E   : HRDD STANDARD RESOLUTION FORMATION PHOTOELECTRIC FACTOR
RHOZ   .G/C3  : HRDD STANDARD RESOLUTION FORMATION DENSITY
RLA3   .OHMM  : APPARENT RESISTIVITY FROM COMPUTED FOCUSING MODE 3
RLA5   .OHMM  : APPARENT RESISTIVITY FROM COMPUTED FOCUSING MODE 5
RXO8   .OHMM  : MCFL INVADED FORMATION RESISTIVITY FILTERED AT 8 INCHES
SGRDD  .GAPI  : SPECTROSCOPY GAMMA RAY FROM DENSITY LOG
~Params ----------------------------------------------------
~Other -----------------------------------------------------
~ASCII -----------------------------------------------------
# ...
 9205.00000    8.10980    0.06170   66.71230  107.38650   -0.00520    0.11390    2.68650    2.61170   12.00160   13.13880   11.70130   81.85750
 9205.50000    8.10460    0.06060   65.59540  106.89100   -0.00470    0.11180    2.69620    2.61050   12.23370   13.98170   11.58980   75.72400
 9206.00000    8.11180    0.06250   64.74690  106.83790   -0.00440    0.10460    2.67720    2.60560   11.98120   18.51690   14.37680   73.11420
 9206.50000    8.11890    0.06680   65.24040  106.47310   -0.00610    0.10190    2.65650    2.60160   11.66540   15.08350   10.95860   74.81630
 9207.00000    8.12610    0.06710   65.22840  105.78920   -0.00780    0.10250    2.69030    2.60350   11.34970   12.26790    8.94890   76.56140
 9207.50000    8.13320    0.06360   65.19250  105.67380   -0.00960    0.10210    2.73360    2.61290   11.22340   11.84300   10.07830   78.30600
 9208.00000    8.13560    0.05850   65.26990  106.23640   -0.00870    0.09690    2.77700    2.62230   12.50700   13.49550   11.96780   75.94850
 9208.50000    8.13670    0.05330   65.46490  106.36020   -0.00720    0.09140    2.77880    2.62410   13.52800   15.19180   13.38030   72.02140
 9209.00000    8.13790    0.05170   65.52360  106.59080   -0.00580    0.09300    2.76120    2.62410   13.72380   15.09510   14.23980   72.32450
 9209.50000    8.13900    0.05550   65.68320  106.82140   -0.00430    0.09870    2.70030    2.59420   13.02460   13.31680   12.18760   75.39890
 9210.00000    8.14020    0.06250   65.99590  107.07430   -0.00470    0.10440    2.62890    2.58710   12.07750   11.63460   10.13550   79.05070
 9210.50000    8.14130    0.07030   66.17970  107.23630   -0.00630    0.10680    2.59320    2.58810   11.13030   10.62590    9.21070   78.70830
 9211.00000    8.14250    0.07490   66.39680  107.57230   -0.00790    0.10610    2.57940    2.59040   10.59870   10.85910    9.76450   78.06100
 9211.50000    8.14000    0.07300   66.64280  108.08230   -0.00800    0.10660    2.57110    2.59280   10.54910   11.24690    9.82410   78.21140
 9212.00000    8.13760    0.07310   66.64500  108.52310   -0.00780    0.10790    2.56640    2.59280   10.70310   11.43190    9.86770   79.74210
 9212.50000    8.13510    0.07300   66.76240  108.67550   -0.00760    0.11110    2.55320    2.59180   10.85910   11.47680   10.33680   80.61550
 9213.00000    8.13560    0.07460   66.71370  108.73960   -0.00740    0.10820    2.56260    2.58790   10.93860   11.38430    9.86110   78.85970
 9213.50000    8.13670    0.07630   66.70970  108.73610   -0.00720    0.10240    2.57200    2.58400   11.01860   11.33360    9.57610   77.10390
 9214.00000    8.13770    0.07860   66.75940  108.57150   -0.00770    0.10200    2.58140    2.58270   11.04600   12.17560   10.63930   75.74250
 9214.50000    8.13870    0.07830   66.69710  108.40700   -0.00890    0.10470    2.59080    2.58510   11.18900   12.90830   11.49020   77.49810
 9215.00000    8.13980    0.07510   66.56830  108.46860   -0.00930    0.10710    2.61230    2.58840   11.34570   13.38500   11.32740   80.74300
 9215.50000    8.13560    0.07190   66.36770  108.76810   -0.00770    0.11230    2.63410    2.59390   11.50230   14.36660   11.78160   83.98790
 9216.00000    8.14800    0.06760   66.58060  108.71610   -0.00560    0.11670    2.62070    2.59940   11.65900   14.73420   13.50270   87.23280
 9216.50000    8.15020    0.06490   66.61070  108.56140   -0.00340    0.11800    2.59860    2.60390   11.81560   13.89930   13.19500   87.23010
 9217.00000    8.14560    0.06460   66.58040  108.53040   -0.00130    0.11530    2.57390    2.60120   11.90500   13.05320   12.41200   84.61920
 9217.50000    8.14100    0.06890   66.62680  108.49930   -0.00170    0.11330    2.58770    2.59570   11.79260   14.92870   13.27440   82.23480
 9218.00000    8.13640    0.07340   66.64170  108.46830   -0.00380    0.11090    2.60710    2.59060   11.39820   13.45380   11.68260   79.85040
 9218.50000    8.13170    0.07430   66.50690  108.44250   -0.00510    0.10670    2.57940    2.58800   11.00390   11.71380    9.77180   77.46600
 9219.00000    8.13080    0.07610   66.52110  108.63160   -0.00560    0.10250    2.57810    2.58590   10.71860   10.11600    9.00790   75.40490
 9219.50000    8.13080    0.07600   66.60550  108.77100   -0.00580    0.10070    2.58350    2.58420   10.66840    9.92830    9.01740   75.40160
 9220.00000    8.13080    0.07660   66.68610  108.87730   -0.00600    0.10220    2.58880    2.58250   10.66980   10.58450    9.09670   76.04200
 9220.50000    8.13080    0.07790   66.61980  108.75280   -0.00640    0.10380    2.59420    2.58090   10.67110   10.85450    9.69540   76.65150
 9221.00000    8.13080    0.07850   66.41400  108.59760   -0.00730    0.10500    2.59940    2.57920   10.64560   10.78180    9.65310   77.29120
 9221.50000    8.13080    0.07960   66.28450  108.63470   -0.00750    0.10390    2.59300    2.57700   10.45120   10.59760    8.80030   77.59360
 9222.00000    8.12870    0.08070   66.20320  108.80300   -0.00780    0.10070    2.59110    2.57280   10.25690   10.38410    8.89150   77.07850
 9222.50000    8.13530    0.08120   66.02780  108.59430   -0.00800    0.10010    2.58910    2.57100   10.06250   10.38520    9.04280   75.79740
 9223.00000    8.13280    0.08210   65.95260  108.27830   -0.00840    0.10130    2.58720    2.57650    9.98580   10.38690    9.06070   74.51630
 9223.50000    8.13040    0.08530   65.80520  107.90930   -0.00830    0.10290    2.59490    2.58350   10.08360   10.66290    9.10530   74.20590
 9224.00000    8.12790    0.08350   65.84320  107.99510   -0.00790    0.10310    2.59770    2.59040   10.52890   11.81710    9.96390   74.35570
 9224.50000    8.12550    0.07480   65.90640  107.90350   -0.00750    0.10090    2.60070    2.59740   10.88930   12.26800   10.16820   75.31060
 9225.00000    8.12300    0.07000   65.98720  107.90020   -0.00710    0.10050    2.62170    2.60150   11.15480   11.43730   10.42660   76.39410
 9225.50000    8.12060    0.06800   66.04430  107.97700   -0.00570    0.10070    2.63210    2.60080   11.31750   11.77180   11.46560   77.47750
 9226.00000    8.11810    0.06750   65.97730  108.05370   -0.00480    0.10250    2.62680    2.59730   11.42210   12.16910   11.00180   78.56090
 9226.50000    8.11570    0.06920   65.98020  108.05050   -0.00550    0.10450    2.62150    2.59380   11.66600   12.04130   10.22310   79.38800
 9227.00000    8.12240    0.07050   66.06660  108.02740   -0.00620    0.10630    2.60270    2.59170   11.87770   12.27590   11.19840   80.62920
 9227.50000    8.12920    0.07150   66.13750  108.07600   -0.00690    0.10730    2.56120    2.59050   11.87910   11.96260   11.09360   81.52560
 9228.00000    8.13160    0.07180   66.02910  107.98250   -0.00690    0.10650    2.55640    2.59420   11.88060   11.43920   10.88530   80.32300
 9228.50000    8.11680    0.07150   66.04600  107.97360   -0.00550    0.10000    2.57890    2.59870   11.76910   11.23070   10.73050   77.70640
 9229.00000    8.11470    0.06870   65.97100  108.04470   -0.00400    0.09300    2.63780    2.60330   11.49250   11.92670   10.42780   75.08980
 9229.50000    8.11580    0.06510   65.95590  108.08450   -0.00310    0.08950    2.69500    2.60330   11.38400   12.84550   11.53250   72.47320
 9230.00000    8.12260    0.06710   65.93550  108.02140   -0.00260    0.09260    2.69130    2.59400   11.44000   12.68440   10.66300   72.16240
 9230.50000    8.11530    0.07130   65.91160  107.95840   -0.00540    0.09820    2.65430    2.58660   11.94290   12.44250    9.80030   74.88150
 9231.00000    8.10810    0.07330   65.84320  107.96000   -0.00820    0.10400    2.62070    2.58660   12.52750   13.08360   11.31760   78.18350
 9231.50000    8.11230    0.07220   65.95200  107.97780   -0.00820    0.10370    2.60580    2.59160   12.95320   13.88390   12.46670   81.09730
 9232.00000    8.11940    0.07080   66.02330  107.99560   -0.00750    0.10300    2.59090    2.59530   13.91630   14.41050   13.67970   83.91410
 9232.50000    8.10120    0.06960   65.96320  107.84580   -0.00690    0.10680    2.59270    2.59910   14.45790   14.82410   14.06350   83.78240
