~Version ---------------------------------------------------
VERS.   2.0 : CWLS log ASCII Standard -VERSION 2.0
WRAP.    NO : One line per depth step
DLM . SPACE : Column Data Section Delimiter
~Well ------------------------------------------------------
STRT .FT                105.0 : START DEPTH
STOP .FT              10671.0 : STOP DEPTH
STEP .FT                  0.5 : STEP
NULL .               -9999.25 : NULL VALUE
COMP .                        : COMPANY
WELL .                        : WELL
FLD  .                        : FIELD
LOC  .                        : LOCATION
PROV .                        : PROVINCE
CNTY .                        : COUNTY
STAT .                        : STATE
CTRY .                        : COUNTRY
SRVC .                        : SERVICE COMPANY
DATE .                        : DATE
UWI  .                        : UNIQUE WELL ID
API  .                        : API NUMBER
SLAT .WGS84 2.846263619665301 : SURFACE LATITUDE
SLON .WGS84 8.627339803501002 : SURFACE LONGITUDE
DATUM.F                   nan : DEPTH DATUM ELEV
~Curve Information -----------------------------------------
DEPT   .FT    : 
CALD   .IN    : CALIPER FROM DENSITY LOG
DPHI_LS.DEC   : DENSITY POROSITY LIMESTONE
DTCO   .US/F  : DELTA-T COMPRESSIONAL
DTSM   .US/F  : DELTA-T SHEAR
HDRA   .G/C3  : HRDD SPINE AND RIBS DENSITY CORRECTION
NPHI_LS.DEC   : NEUTRON POROSITY LIMESTONE
PEFZ   .B/E   : HRDD STANDARD RESOLUTION FORMATION PHOTOELECTRIC FACTOR
RHOZ   .G/C3  : HRDD STANDARD RESOLUTION FORMATION DENSITY
RLA3   .OHMM  : APPARENT RESISTIVITY FROM COMPUTED FOCUSING MODE 3
RLA5   .OHMM  : APPARENT RESISTIVITY FROM COMPUTED FOCUSING MODE 5
RXO8   .OHMM  : MCFL INVADED FORMATION RESISTIVITY FILTERED AT 8 INCHES
SGRDD  .GAPI  : SPECTROSCOPY GAMMA RAY FROM DENSITY LOG
~Params ----------------------------------------------------
~Other -----------------------------------------------------
~ASCII -----------------------------------------------------
# ...
 4865.00000    8.28030    0.13490   -9999.25   -9999.25   -0.00970    0.14880    2.53040    2.49660    3.90190    4.27540    4.75430   57.81100
 4865.50000    8.27310    0.13020   -9999.25   -9999.25   -0.01030    0.14450    2.51180    2.49560    4.66420    4.91750    5.40670   58.12580
 4866.00000    8.29710    0.13330   -9999.25   -9999.25   -0.01050    0.14940    2.49630    2.48400    4.95570    5.29060    5.73770   57.46220
 4866.50000    8.28500    0.13910   -9999.25   -9999.25   -0.01070    0.15940    2.47050    2.47240    4.60260    4.15010    4.86270   56.38120
 4867.00000    8.29320    0.14640   -9999.25   -9999.25   -0.01090    0.16780    2.44460    2.47380    4.04030    3.66450    3.98770   56.38120
 4867.50000    8.31120    0.14450   -9999.25   -9999.25   -0.01000    0.16090    2.42930    2.48730    4.00180    3.59380    3.26070   56.15530
 4868.00000    8.31310    0.13580   -9999.25   -9999.25   -0.00880    0.15230    2.44480    2.50080    4.39830    4.10110    3.54240   55.29010
 4868.50000    8.31510    0.12630   -9999.25   -9999.25   -0.00750    0.13960    2.45830    2.50920    5.26560    4.83090    4.35230   54.03480
 4869.00000    8.31700    0.12610   -9999.25   -9999.25   -0.00730    0.14020    2.45380    2.50570    5.81290    5.56060    4.75860   53.64480
 4869.50000    8.32820    0.12980   -9999.25   -9999.25   -0.00800    0.14060    2.43680    2.50070    5.79290    4.55670    3.71980   53.98600
 4870.00000    8.33930    0.13200   -9999.25   -9999.25   -0.00850    0.13560    2.41660    2.49660    5.82110    4.73460    3.75660   53.92310
 4870.50000    8.35050    0.13220   -9999.25   -9999.25   -0.00900    0.12860    2.37990    2.48910    6.13900    5.62430    4.90710   54.33270
 4871.00000    8.36220    0.13080   -9999.25   -9999.25   -0.00850    0.13280    2.36080    2.48620    5.96720    4.81200    4.18010   54.88770
 4871.50000    8.37570    0.12930   -9999.25   -9999.25   -0.00740    0.14080    2.34480    2.47840    4.03460    3.60460    3.06800   55.93980
 4872.00000    8.38930    0.14150   -9999.25   -9999.25   -0.00620    0.14670    2.34270    2.47120    2.77610    3.28240    2.90400   55.99000
 4872.50000    8.40280    0.14520   -9999.25   -9999.25   -0.00510    0.15460    2.34070    2.46420    2.71120    3.30860    2.81720   56.09130
 4873.00000    8.40430    0.14880   -9999.25   -9999.25   -0.00560    0.16700    2.33860    2.45630    2.66480    3.30950    2.81720   56.26970
 4873.50000    8.43000    0.15660   -9999.25   -9999.25   -0.00680    0.16450    2.33650    2.44850    2.66570    3.31070    2.81890   56.97110
 4874.00000    8.42070    0.16440   -9999.25   -9999.25   -0.00800    0.16700    2.34530    2.44620    2.66660    3.22050    2.79930   57.43470
 4874.50000    8.42100    0.16440   -9999.25   -9999.25   -0.00920    0.16510    2.35680    2.46020    2.67590    3.13980    2.77440   55.76500
 4875.00000    8.41550    0.15680   -9999.25   -9999.25   -0.00660    0.16480    2.34590    2.47410    2.70240    3.24500    2.78670   54.22980
 4875.50000    8.40990    0.14830   -9999.25   -9999.25   -0.00390    0.17530    2.33230    2.48790    2.76430    3.28940    2.84570   52.76060
 4876.00000    8.40400    0.14090   -9999.25   -9999.25   -0.00130    0.18220    2.31870    2.49350    2.94750    3.36690    3.01590   53.53870
 4876.50000    8.39680    0.13460   -9999.25   -9999.25   -0.00230    0.16740    2.30510    2.48380    3.45840    3.77720    4.48320   54.96770
 4877.00000    8.40280    0.14070   -9999.25   -9999.25   -0.00360    0.15960    2.33360    2.45960    3.66420    3.94210    3.68180   55.98710
 4877.50000    8.40240    0.15080   -9999.25   -9999.25   -0.00490    0.16000    2.33520    2.43540    3.19380    3.49050    2.88030   53.52850
 4878.00000    8.40210    0.16590   -9999.25   -9999.25   -0.00600    0.16080    2.33390    2.43540    2.85840    2.97090    2.56010   53.43480
 4878.50000    8.40170    0.16930   -9999.25   -9999.25   -0.00700    0.16220    2.32820    2.43960    2.81400    2.93780    2.65780   52.48470
 4879.00000    8.40130    0.16230   -9999.25   -9999.25   -0.00800    0.16380    2.32260    2.45010    2.77910    2.91620    2.62200   52.74520
 4879.50000    8.40100    0.16280   -9999.25   -9999.25   -0.00900    0.16560    2.31690    2.46070    2.77110    2.91710    2.55880   53.22070
 4880.00000    8.40060    0.16250   -9999.25   -9999.25   -0.00890    0.17000    2.32930    2.47120    2.78070    3.06860    2.51080   54.61140
 4880.50000    8.40020    0.15340   -9999.25   -9999.25   -0.00850    0.17710    2.34630    2.48630    3.09880    3.38970    2.87470   56.72910
 4881.00000    8.36550    0.14240   -9999.25   -9999.25   -0.00810    0.18400    2.39040    2.50260    3.40040    3.63030    3.39380   61.28080
 4881.50000    8.33080    0.13020   -9999.25   -9999.25   -0.00770    0.19000    2.45410    2.51930    4.46520    6.06010    4.38620   68.59860
 4882.00000    8.31200    0.11950   -9999.25   -9999.25   -0.00680    0.19000    2.54790    2.53610   15.77740   21.13280   12.77810   77.63710
 4882.50000    8.29330    0.10710   -9999.25   -9999.25   -0.00600    0.19090    2.69310    2.54960   36.81300   37.70600   34.41000   84.98750
 4883.00000    8.28240    0.10020   -9999.25   -9999.25   -0.00510    0.19790    2.79390    2.54290   41.94700   48.56600   66.24820   90.86720
 4883.50000    8.29030    0.10010   -9999.25   -9999.25   -0.00570    0.20140    2.79760    2.52640   21.68020   39.70580   44.85420   86.90380
 4884.00000    8.30250    0.10310   -9999.25   -9999.25   -0.00720    0.18800    2.71650    2.50980   16.35640   23.21340   16.62410   82.53700
 4884.50000    8.31470    0.11120   -9999.25   -9999.25   -0.00860    0.16700    2.63530    2.49320   19.06510   20.41670   23.24810   78.56050
 4885.00000    8.31690    0.12210   -9999.25   -9999.25   -0.00920    0.16990    2.58890    2.48280   12.28790   17.52130   22.66070   74.58390
 4885.50000    8.31670    0.13570   -9999.25   -9999.25   -0.00830    0.17520    2.53840    2.49120    3.25180    4.00430   10.26660   68.20880
 4886.00000    8.31640    0.13890   -9999.25   -9999.25   -0.00710    0.17660    2.49280    2.52290    3.24140    3.07890    2.78390   59.62510
 4886.50000    8.31620    0.13250   -9999.25   -9999.25   -0.00640    0.17210    2.49810    2.55470    6.17820    4.53830    3.50670   51.90230
 4887.00000    8.21680    0.11830   -9999.25   -9999.25   -0.00710    0.14990    2.56890    2.57460   10.84400   10.79930    8.50950   47.60650
 4887.50000    8.16460    0.09880   -9999.25   -9999.25   -0.00680    0.12590    2.67390    2.57380   12.79160   13.50910   21.42740   44.73420
 4888.00000    8.20080    0.08700   -9999.25   -9999.25   -0.00650    0.10180    2.74410    2.53740   10.25620    7.61630   17.08370   43.56500
 4888.50000    8.24640    0.09760   -9999.25   -9999.25   -0.00620    0.10120    2.66170    2.50100    5.11940    4.39480   10.21100   45.82750
 4889.00000    8.29210    0.12680   -9999.25   -9999.25   -0.00700    0.13340    2.52100    2.46450    3.34650    3.24920    3.33820   48.28460
 4889.50000    8.33770    0.14690   -9999.25   -9999.25   -0.00790    0.15030    2.38640    2.45520    3.44410    3.13850    3.03590   51.07440
 4890.00000    8.38330    0.15730   -9999.25   -9999.25   -0.00880    0.16470    2.32630    2.46790    3.56720    3.18690    3.08640   53.76390
 4890.50000    8.41980    0.15160   -9999.25   -9999.25   -0.00970    0.16940    2.36020    2.48600    3.76620    3.27360    3.16380   58.27360
 4891.00000    8.35320    0.14290   -9999.25   -9999.25   -0.00870    0.17500    2.48250    2.50410    6.65720    8.86360    3.94120   68.20080
 4891.50000    8.26990    0.13320   -9999.25   -9999.25   -0.00770    0.18100    2.60490    2.52220   16.95470   32.01200   13.58730   79.22130
 4892.00000    8.18670    0.11760   -9999.25   -9999.25   -0.00680    0.17710    2.70740    2.54030   53.12550   61.82310   75.78340   86.19560
 4892.50000    8.11870    0.10630   -9999.25   -9999.25   -0.00560    0.16510    2.67480    2.54840   49.60750   61.35130   51.35270   79.05780
