~Version ---------------------------------------------------
VERS.   2.0 : CWLS log ASCII Standard -VERSION 2.0
WRAP.    NO : One line per depth step
DLM . SPACE : Column Data Section Delimiter
~Well ------------------------------------------------------
STRT .FT                105.0 : START DEPTH
STOP .FT              10671.0 : STOP DEPTH
STEP .FT                  0.5 : STEP
NULL .               -9999.25 : NULL VALUE
COMP .                        : COMPANY
WELL .                        : WELL
FLD  .                        : FIELD
LOC  .                        : LOCATION
PROV .                        : PROVINCE
CNTY .                        : COUNTY
STAT .                        : STATE
CTRY .                        : COUNTRY
SRVC .                        : SERVICE COMPANY
DATE .                        : DATE
UWI  .                        : UNIQUE WELL ID
API  .                        : API NUMBER
SLAT .WGS84 2.846263619665301 : SURFACE LATITUDE
SLON .WGS84 8.627339803501002 : SURFACE LONGITUDE
DATUM.F                   nan : DEPTH DATUM ELEV
~Curve Information -----------------------------------------
DEPT   .FT    : 
CALD   .IN    : CALIPER FROM DENSITY LOG
DPHI_LS.DEC   : DENSITY POROSITY LIMESTONE
DTCO   .US/F  : DELTA-T COMPRESSIONAL
DTSM   .US/F  : DELTA-T SHEAR
HDRA   .G/C3  : HRDD SPINE AND RIBS DENSITY CORRECTION
NPHI_LS.DEC   : NEUTRON POROSITY LIMESTONE
PEFZ   .B/E   : HRDD STANDARD RESOLUTION FORMATION PHOTOELECTRIC FACTOR
RHOZ   .G/C3  : HRDD STANDARD RESOLUTION FORMATION DENSITY
RLA3   .OHMM  : APPARENT RESISTIVITY FROM COMPUTED FOCUSING MODE 3
RLA5   .OHMM  : APPARENT RESISTIVITY FROM COMPUTED FOCUSING MODE 5
RXO8   .OHMM  : MCFL INVADED FORMATION RESISTIVITY FILTERED AT 8 INCHES
SGRDD  .GAPI  : SPECTROSCOPY GAMMA RAY FROM DENSITY LOG
~Params ----------------------------------------------------
~Other -----------------------------------------------------
~ASCII -----------------------------------------------------
# ...
 3437.00000   -9999.25   -9999.25   -9999.25   -9999.25   -9999.25    0.09510   -9999.25   -9999.25   -9999.25   -9999.25   -9999.25   38.43230
 3437.50000   -9999.25   -9999.25   -9999.25   -9999.25   -9999.25    0.08830   -9999.25   -9999.25   -9999.25   -9999.25   -9999.25   35.90240
 3438.00000   -9999.25   -9999.25   -9999.25   -9999.25   -9999.25    0.08180   -9999.25   -9999.25   -9999.25   -9999.25   -9999.25   36.87870
 3438.50000   -9999.25   -9999.25   -9999.25   -9999.25   -9999.25    0.07970   -9999.25   -9999.25   -9999.25   -9999.25   -9999.25   37.90300
 3439.00000   -9999.25   -9999.25   -9999.25   -9999.25   -9999.25    0.08210   -9999.25   -9999.25   -9999.25   -9999.25   -9999.25   34.74480
 3439.50000   -9999.25   -9999.25   -9999.25   -9999.25   -9999.25    0.08580   -9999.25   -9999.25   -9999.25   -9999.25   -9999.25   30.06110
 3440.00000   -9999.25   -9999.25   -9999.25   -9999.25   -9999.25    0.08480   -9999.25   -9999.25   -9999.25   -9999.25   -9999.25   25.44630
 3440.50000   -9999.25   -9999.25   -9999.25   -9999.25   -9999.25    0.08190   -9999.25   -9999.25   -9999.25   -9999.25   -9999.25   22.31060
 3441.00000   -9999.25   -9999.25   -9999.25   -9999.25   -9999.25    0.08050   -9999.25   -9999.25   -9999.25   -9999.25   -9999.25   21.92150
 3441.50000   -9999.25   -9999.25   -9999.25   -9999.25   -9999.25    0.08010   -9999.25   -9999.25   -9999.25   -9999.25   -9999.25   20.85870
 3442.00000   -9999.25   -9999.25   -9999.25   -9999.25   -9999.25    0.07920   -9999.25   -9999.25   -9999.25   -9999.25   -9999.25   20.08010
 3442.50000   -9999.25   -9999.25   -9999.25   -9999.25   -9999.25    0.07820   -9999.25   -9999.25   -9999.25   -9999.25   -9999.25   18.21050
 3443.00000   -9999.25   -9999.25   -9999.25   -9999.25   -9999.25    0.07490   -9999.25   -9999.25   -9999.25   -9999.25   -9999.25   18.71150
 3443.50000   -9999.25   -9999.25   -9999.25   -9999.25   -9999.25    0.06680   -9999.25   -9999.25   -9999.25   -9999.25   -9999.25   21.95760
 3444.00000   -9999.25   -9999.25   -9999.25   -9999.25   -9999.25    0.06660   -9999.25   -9999.25   -9999.25   -9999.25   -9999.25   28.46580
 3444.50000   -9999.25   -9999.25   -9999.25   -9999.25   -9999.25    0.07450   -9999.25   -9999.25   -9999.25   -9999.25   -9999.25   32.69200
 3445.00000   -9999.25   -9999.25   -9999.25   -9999.25   -9999.25    0.08470   -9999.25   -9999.25   -9999.25   -9999.25   -9999.25   33.52310
 3445.50000   -9999.25   -9999.25   -9999.25   -9999.25   -9999.25    0.09160   -9999.25   -9999.25   -9999.25   -9999.25   -9999.25   28.68070
 3446.00000    8.74020   -0.10040   -9999.25   -9999.25    0.10210    0.12850    4.17270    2.82920    8.23350    9.03790    9.69860   24.55660
 3446.50000    8.82090   -0.09940   -9999.25   -9999.25    0.10200    0.12090    3.79760    2.77130    8.37990    9.35990   24.93060   23.47070
 3447.00000    8.84250   -0.03920   -9999.25   -9999.25    0.10170    0.10940    3.38020    2.77130    8.60620    9.97640   40.26120   23.28180
 3447.50000    8.79470   -0.05010   -9999.25   -9999.25    0.10140    0.09930    3.24230    2.78660    8.91070   16.48140   26.78630   22.10340
 3448.00000    8.60210   -0.06280   -9999.25   -9999.25    0.06560    0.08690    3.26460    2.80510   55.44470   63.26140  115.15000   21.08820
 3448.50000    8.44640   -0.07100   -9999.25   -9999.25    0.02740    0.06810    3.30100    2.82370  112.89640  136.89160  212.83080   17.56930
 3449.00000    8.29080   -0.07560   -9999.25   -9999.25    0.01260    0.04920    3.33740    2.83480  170.34810  245.21620  255.52010   14.95360
 3449.50000    8.20980   -0.07700   -9999.25   -9999.25    0.00340    0.04580    3.35500    2.83710  252.46740  403.97030  297.02520   15.16200
 3450.00000    8.11990   -0.07410   -9999.25   -9999.25   -0.00230    0.04930    3.35210    2.82040  368.25550  384.80120  220.38420   18.04000
 3450.50000    8.11980   -0.06170   -9999.25   -9999.25   -0.00650    0.05290    3.33870    2.80390  364.78320  269.30120  226.85610   22.42900
 3451.00000    8.06850   -0.04590   -9999.25   -9999.25   -0.00730    0.05860    3.33790    2.78750  231.16270  169.94490  168.50950   29.51980
 3451.50000    7.97640   -0.03270   -9999.25   -9999.25   -0.00760    0.06500    3.31020    2.77100  140.42450  113.30840   83.72850   37.38600
 3452.00000    7.94000   -0.03260   -9999.25   -9999.25   -0.00800    0.07330    3.24310    2.76290   98.00930   77.63070   57.31220   43.83540
 3452.50000    7.92360   -0.03070   -9999.25   -9999.25   -0.00840    0.07870    3.20050    2.75520  101.37680   74.78810   69.80280   49.83080
 3453.00000    7.92810   -0.02300   -9999.25   -9999.25   -0.00960    0.07970    3.19560    2.74400   90.81080   77.23300   65.72000   53.44300
 3453.50000    7.93270   -0.01840   -9999.25   -9999.25   -0.01080    0.08630    3.20530    2.73730   79.42290   59.75160   43.26590   53.45470
 3454.00000    7.93720   -0.03400   -9999.25   -9999.25   -0.00950    0.09600    3.25090    2.74800   42.99060   25.82470   15.06930   41.92630
 3454.50000    7.94180   -0.04930   -9999.25   -9999.25   -0.00820    0.08100    3.33030    2.78860  178.58180   59.57430   29.87810   28.93080
 3455.00000    7.94190   -0.06780   -9999.25   -9999.25   -0.00680    0.06460    3.40980    2.82110  570.33310  443.54950  361.57380   20.26710
 3455.50000    7.94220   -0.06560   -9999.25   -9999.25   -0.00600    0.04820    3.45350    2.81790  629.50640  506.03160  338.64600   15.93380
 3456.00000    7.94250   -0.05790   -9999.25   -9999.25   -0.00670    0.04990    3.47250    2.80470  351.58870  276.27470  232.50170   19.94040
 3456.50000    7.94280   -0.05540   -9999.25   -9999.25   -0.00690    0.05520    3.39240    2.79940  170.63940  206.67830  126.35740   21.91250
 3457.00000    7.94310   -0.06380   -9999.25   -9999.25   -0.00700    0.05950    3.30070    2.80530  129.34550  137.08190   88.36880   24.77040
 3457.50000    7.94340   -0.06940   -9999.25   -9999.25   -0.00450    0.06320    3.23190    2.81980  144.57370  109.25780  106.64270   26.60050
 3458.00000    7.94370   -0.06660   -9999.25   -9999.25   -0.00350    0.06690    3.19740    2.81150  134.17670  113.18390   93.48440   28.28750
 3458.50000    7.94400   -0.05900   -9999.25   -9999.25   -0.00240    0.06930    3.16290    2.79750  114.45980  105.19060   92.84950   29.42150
 3459.00000    7.94430   -0.04790   -9999.25   -9999.25   -0.00140    0.07170    3.12830    2.78350  114.48190   97.76020   40.12200   30.86170
 3459.50000    7.94460   -0.04320   -9999.25   -9999.25   -0.00200    0.08570    3.15340    2.77430   24.18470   20.34580   17.13010   33.29050
 3460.00000    7.94490   -0.04160   -9999.25   -9999.25   -0.00280    0.09960    3.17430    2.78130  106.41840   79.09680   17.46600   35.58260
 3460.50000    7.94520   -0.04290   -9999.25   -9999.25   -0.00450    0.09880    3.18390    2.79230  106.08400   91.48450   75.24430   34.26390
 3461.00000    7.94550   -0.04740   -9999.25   -9999.25   -0.00630    0.07500    3.16540    2.80330   72.55380   66.89150   61.19780   31.03260
 3461.50000    7.94580   -0.05530   -9999.25   -9999.25   -0.00680    0.06470    3.14700    2.81430  118.97200  104.85510   72.54990   27.36610
 3462.00000    7.94610   -0.06510   -9999.25   -9999.25   -0.00510    0.05780    3.13910    2.82520  232.27340  183.31330  136.28260   23.69970
 3462.50000    7.94640   -0.07170   -9999.25   -9999.25   -0.00350    0.05250    3.21250    2.82690  342.45340  305.40020  247.07800   20.03320
 3463.00000    7.94670   -0.07170   -9999.25   -9999.25   -0.00340    0.04630    3.31640    2.82220  392.74810  430.22670  315.06040   16.36680
 3463.50000    7.94630   -0.06910   -9999.25   -9999.25   -0.00500    0.04500    3.38650    2.81680  382.84110  461.52880  265.94910   12.86920
 3464.00000    7.94510   -0.06550   -9999.25   -9999.25   -0.00660    0.04920    3.34340    2.81810  315.50080  416.70600  195.47110   11.60160
 3464.50000    7.94380   -0.06670   -9999.25   -9999.25   -0.00820    0.05700    3.30040    2.82870  213.63960  244.01640  140.92840   13.87030
