~Version ---------------------------------------------------
VERS.   2.0 : CWLS log ASCII Standard -VERSION 2.0
WRAP.    NO : One line per depth step
DLM . SPACE : Column Data Section Delimiter
~Well ------------------------------------------------------
STRT .FT                105.0 : START DEPTH
STOP .FT              10671.0 : STOP DEPTH
STEP .FT                  0.5 : STEP
NULL .               -9999.25 : NULL VALUE
COMP .                        : COMPANY
WELL .                        : WELL
FLD  .                        : FIELD
LOC  .                        : LOCATION
PROV .                        : PROVINCE
CNTY .                        : COUNTY
STAT .                        : STATE
CTRY .                        : COUNTRY
SRVC .                        : SERVICE COMPANY
DATE .                        : DATE
UWI  .                        : UNIQUE WELL ID
API  .                        : API NUMBER
SLAT .WGS84 2.846263619665301 : SURFACE LATITUDE
SLON .WGS84 8.627339803501002 : SURFACE LONGITUDE
DATUM.F                   nan : DEPTH DATUM ELEV
~Curve Information -----------------------------------------
DEPT   .FT    : 
CALD   .IN    : CALIPER FROM DENSITY LOG
DPHI_LS.DEC   : DENSITY POROSITY LIMESTONE
DTCO   .US/F  : DELTA-T COMPRESSIONAL
DTSM   .US/F  : DELTA-T SHEAR
HDRA   .G/C3  : HRDD SPINE AND RIBS DENSITY CORRECTION
NPHI_LS.DEC   : NEUTRON POROSITY LIMESTONE
PEFZ   .B/E   : HRDD STANDARD RESOLUTION FORMATION PHOTOELECTRIC FACTOR
RHOZ   .G/C3  : HRDD STANDARD RESOLUTION FORMATION DENSITY
RLA3   .OHMM  : APPARENT RESISTIVITY FROM COMPUTED FOCUSING MODE 3
RLA5   .OHMM  : APPARENT RESISTIVITY FROM COMPUTED FOCUSING MODE 5
RXO8   .OHMM  : MCFL INVADED FORMATION RESISTIVITY FILTERED AT 8 INCHES
SGRDD  .GAPI  : SPECTROSCOPY GAMMA RAY FROM DENSITY LOG
~Params ----------------------------------------------------
~Other -----------------------------------------------------
~ASCII -----------------------------------------------------
# ...
 10157.00000    7.72790    0.13280   82.95160  131.20630   -0.00600    0.22030    3.06860    2.49910  339.52300  821.63410  104.95850  108.63330
 10157.50000    7.72790    0.14090   83.25020  131.40930   -0.00710    0.22730    3.05380    2.48180  869.13190 1236.60250  162.26380  110.58170
 10158.00000    7.72790    0.14600   83.88760  132.75660   -0.00710    0.23060    3.06380    2.46940  870.52260 1264.01960  118.22680  114.82920
 10158.50000    7.72790    0.14640   84.48060  134.10400   -0.00710    0.22750    3.12430    2.47210  493.94740 1170.78740   87.48550  121.34230
 10159.00000    7.72790    0.13370   85.36720  134.84830   -0.00710    0.23430    3.11780    2.48650  249.04340  418.19090   92.48550  125.84130
 10159.50000    7.72790    0.11600   86.95310  137.59260   -0.00550    0.23620    3.08940    2.50100  312.76540  369.26350   97.20530  122.81340
 10160.00000    7.72790    0.09770   88.06820  139.46310   -0.00480    0.23480    3.07690    2.53870  320.04470  333.87790   99.08520  119.15700
 10160.50000    7.72790    0.10090   88.17640  140.12440   -0.00460    0.23370    3.12860    2.54980  266.97650  330.69550  118.43970  116.52020
 10161.00000    7.72300    0.11620   87.58330  140.44790   -0.00660    0.24270    3.17170    2.54980  230.67440  261.52990   77.98700  121.45010
 10161.50000    7.71950    0.13760   87.12600  139.42710   -0.00660    0.26860    3.18030    2.51540  359.14390  457.98390   78.73750  127.28890
 10162.00000    7.72060    0.15980   87.90700  138.74080   -0.00590    0.29960    3.18890    2.45800  427.84360  464.63220   85.41560  133.12770
 10162.50000    7.72320    0.15390   86.60840  137.71690   -0.00290    0.32160    3.19750    2.44500  402.02080  460.18230   75.68330  133.43450
 10163.00000    7.72580    0.13570   87.55760  129.11550    0.00020    0.27220    3.14930    2.46340  179.44260  305.02730   57.40100  122.03180
 10163.50000    7.72750    0.11300   87.11250  128.70450    0.00270    0.23970    3.12170    2.49310   69.67320   70.75440   59.64270  109.20150
 10164.00000    7.72520    0.08730   83.29310  127.80100   -0.00220    0.20730    3.25800    2.52290   69.34030   71.43540   56.04290   96.31280
 10164.50000    7.72290    0.04950   69.57230  121.58710    0.00610    0.17480    3.39420    2.56080  145.55130  298.65850   74.05720   76.53310
 10165.00000    7.72800   -0.00640   69.60220  119.38540    0.02680    0.12210    3.53050    2.61990  497.20080  604.60920  158.70930   62.62730
 10165.50000    7.72540   -0.05580   69.69340  118.42100    0.04750    0.09020    3.66680    2.71470  572.99240  613.35790  193.95890   50.91980
 10166.00000    7.72220   -0.07430   71.99650  119.54280    0.04250    0.09000    3.71160    2.80950  570.25500  616.30220  147.89900   59.71360
 10166.50000    7.71900   -0.02330   74.29970  124.70320    0.02730    0.13110    3.65920    2.82850  546.19980  477.00960   86.36380   75.30610
 10167.00000    7.72590    0.02500   75.54800  125.32930    0.01600    0.17190    3.52140    2.82850   69.00910   76.02380   40.46680   93.33910
 10167.50000    7.75170    0.07170   77.90850  126.31370    0.00310    0.22010    3.38360    2.72660   69.00910   79.37200   28.80300  108.54660
 10168.00000    7.74960    0.09900   82.78170  131.24870   -0.00220    0.22380    3.24580    2.62450   74.14560   79.75300   41.81880  123.12420
 10168.50000    7.75480    0.11900   86.13810  137.87460   -0.00500    0.25430    3.20640    2.56030   86.01500   98.93620   70.09920  136.59120
 10169.00000    7.74590    0.14320   87.50020  138.55570   -0.00660    0.27430    3.21130    2.51530  181.59940  434.48330   87.48550  143.78320
 10169.50000    7.73610    0.16700   89.28860  141.47920   -0.00810    0.25320    3.21130    2.48300  518.17260  604.60920  137.37680  146.47120
 10170.00000    7.74700    0.16690   90.15980  142.78850   -0.01000    0.24460    3.12250    2.45550  548.82160  718.38750  137.24850  143.55710
 10170.50000    7.74360    0.16600   90.44480  142.86440   -0.01030    0.24390    3.03370    2.44660  782.22470 1199.15890  131.91370  139.56940
 10171.00000    7.74030    0.16690   89.68080  142.18130   -0.00920    0.25390    2.96250    2.43900  801.18020  914.44020  165.99120  137.78270
 10171.50000    7.74160    0.16920   88.92400  141.30810   -0.00850    0.25950    2.94790    2.43650  610.15600  800.09300  183.77850  135.60020
 10172.00000    7.74510    0.16690   88.66820  141.20080   -0.00780    0.26100    2.93340    2.43630  419.13180  626.24660  138.22580  131.85010
 10172.50000    7.74170    0.16430   87.91580  140.86540   -0.00710    0.26470    2.91880    2.44170  263.77400  356.17660  120.00470  127.46910
 10173.00000    7.75440    0.15700   88.40370  140.22610   -0.00650    0.26170    2.91420    2.44900  360.88520  601.72080  156.73300  122.68910
 10173.50000    7.74440    0.14650   87.92170  140.32910   -0.00590    0.25360    2.94180    2.46140  417.72110  613.35790  123.63530  117.19720
 10174.00000    7.73440    0.13800   86.63370  139.59450   -0.00530    0.25060    2.96940    2.47450  446.68630  616.30220  106.61230  114.88970
 10174.50000    7.75560    0.13500   86.93030  138.29170   -0.00480    0.25980    2.94850    2.48490  603.98470  899.68960   97.44090  119.15120
 10175.00000    7.75260    0.13590   87.09900  137.41080   -0.00260    0.26910    2.93150    2.48970  624.57420  919.29040   96.74090  126.29720
 10175.50000    7.74960    0.13370   87.26500  137.42770    0.00040    0.26620    2.91600    2.49310  592.52540  904.00830  110.46870  132.65330
 10176.00000    7.75000    0.12870   87.40940  137.07440    0.00350    0.25960    2.91080    2.49850  419.04860  813.61370  122.32560  134.54370
 10176.50000    7.75270    0.12250   86.93870  136.59830    0.00650    0.25600    2.90780    2.50580  303.08300  398.60060  109.65690  134.85870
 10177.00000    7.75540    0.11730   87.30620  136.02770    0.00900    0.25740    2.89520    2.51600  236.40550  351.93690   86.23760  133.69880
 10177.50000    7.75810    0.11550   87.24640  136.35410    0.00850    0.25600    2.88250    2.52230  325.08970  579.10480  113.84690  133.04210
 10178.00000    7.75610    0.11730   86.84580  136.79230    0.00790    0.24320    2.89430    2.52130  382.69060  504.37290  105.34680  132.26430
 10178.50000    7.75300    0.11750   86.36930  137.16710    0.00730    0.22630    2.94290    2.51590  314.71120  428.28600   91.33840  131.69890
 10179.00000    7.74560    0.11500   86.29690  137.06150    0.00820    0.20830    2.99150    2.51740  288.89950  338.70920  140.48220  129.79060
 10179.50000    7.73760    0.11240   86.11170  137.38100    0.00550    0.19310    3.04000    2.52510  313.85880  494.00800  281.11750  131.01040
 10180.00000    7.74740    0.11620   86.48000  137.91990    0.00270    0.20130    3.03630    2.52680  330.35390  387.31070  182.68880  137.02030
 10180.50000    7.73860    0.12100   87.56130  138.54230    0.00310    0.22010    3.01920    2.51860  341.61550  526.21410  236.21940  140.49050
 10181.00000    7.72970    0.12350   88.31420  139.28810    0.00000    0.22920    3.00210    2.50850  396.28650  479.22360  306.42420  137.65310
 10181.50000    7.72980    0.12860   89.31950  140.64080   -0.00280    0.24830    2.98500    2.49850  385.30750  396.69630  127.56510  134.66230
 10182.00000    7.72350    0.13790   89.51450  142.03230   -0.00590    0.26610    2.96810    2.48770  348.32580  392.91510  106.85170  138.25560
 10182.50000    7.72700    0.14860   90.11150  141.54700   -0.00840    0.28590    2.99930    2.47270  405.87610  561.59650  118.72320  145.45060
 10183.00000    7.73630    0.16040   91.95410  137.45110   -0.01010    0.29410    3.03050    2.45110  515.69710  732.25800  129.95620  149.99970
 10183.50000    7.73550    0.17210   92.21230  131.75440   -0.01560    0.29030    3.15720    2.42280  533.27700  735.77300  129.46430  172.57660
 10184.00000    7.73210    0.18650   93.25330  127.65980   -0.02210    0.27490    3.45850    2.41190  472.82870  721.81340  125.74550  178.83430
 10184.50000    7.72860    0.15980   92.12980  126.29500   -0.02690    0.25250    3.88390    2.44320  321.70800  259.66020  144.47900  162.20410
