~Version ---------------------------------------------------
VERS.   2.0 : CWLS log ASCII Standard -VERSION 2.0
WRAP.    NO : One line per depth step
DLM . SPACE : Column Data Section Delimiter
~Well ------------------------------------------------------
STRT .FT                105.0 : START DEPTH
STOP .FT              10671.0 : STOP DEPTH
STEP .FT                  0.5 : STEP
NULL .               -9999.25 : NULL VALUE
COMP .                        : COMPANY
WELL .                        : WELL
FLD  .                        : FIELD
LOC  .                        : LOCATION
PROV .                        : PROVINCE
CNTY .                        : COUNTY
STAT .                        : STATE
CTRY .                        : COUNTRY
SRVC .                        : SERVICE COMPANY
DATE .                        : DATE
UWI  .                        : UNIQUE WELL ID
API  .                        : API NUMBER
SLAT .WGS84 2.846263619665301 : SURFACE LATITUDE
SLON .WGS84 8.627339803501002 : SURFACE LONGITUDE
DATUM.F                   nan : DEPTH DATUM ELEV
~Curve Information -----------------------------------------
DEPT   .FT    : 
CALD   .IN    : CALIPER FROM DENSITY LOG
DPHI_LS.DEC   : DENSITY POROSITY LIMESTONE
DTCO   .US/F  : DELTA-T COMPRESSIONAL
DTSM   .US/F  : DELTA-T SHEAR
HDRA   .G/C3  : HRDD SPINE AND RIBS DENSITY CORRECTION
NPHI_LS.DEC   : NEUTRON POROSITY LIMESTONE
PEFZ   .B/E   : HRDD STANDARD RESOLUTION FORMATION PHOTOELECTRIC FACTOR
RHOZ   .G/C3  : HRDD STANDARD RESOLUTION FORMATION DENSITY
RLA3   .OHMM  : APPARENT RESISTIVITY FROM COMPUTED FOCUSING MODE 3
RLA5   .OHMM  : APPARENT RESISTIVITY FROM COMPUTED FOCUSING MODE 5
RXO8   .OHMM  : MCFL INVADED FORMATION RESISTIVITY FILTERED AT 8 INCHES
SGRDD  .GAPI  : SPECTROSCOPY GAMMA RAY FROM DENSITY LOG
~Params ----------------------------------------------------
~Other -----------------------------------------------------
~ASCII -----------------------------------------------------
# ...
 5369.00000    8.26700    0.12090   -9999.25   -9999.25   -0.00760    0.10210    2.42760    2.51280    3.36840    4.09310    2.78510   48.31240
 5369.50000    8.25280    0.10830   -9999.25   -9999.25   -0.00770    0.09210    2.46050    2.52280    6.73320    7.96750    5.50240   50.74320
 5370.00000    8.23860    0.09660   -9999.25   -9999.25   -0.00790    0.08200    2.50390    2.54910    8.20470   10.83320    7.37260   51.39240
 5370.50000    8.23760    0.08250   -9999.25   -9999.25   -0.00800    0.07230    2.54740    2.57950    7.68410    6.66140    5.23520   48.50100
 5371.00000    8.24060    0.06980   -9999.25   -9999.25   -0.00870    0.06280    2.58550    2.59660    9.11540    6.73830    6.08500   44.00070
 5371.50000    8.24360    0.05840   -9999.25   -9999.25   -0.01000    0.05330    2.61820    2.61240   17.29480   21.81030   14.22080   38.78170
 5372.00000    8.24660    0.04700   -9999.25   -9999.25   -0.00980    0.04600    2.61580    2.63150   24.51200   33.01170   20.25460   35.65920
 5372.50000    8.24960    0.05340   -9999.25   -9999.25   -0.00950    0.04660    2.59150    2.63530   21.46230   29.63840   14.14720   35.68470
 5373.00000    8.25260    0.06470   -9999.25   -9999.25   -0.00930    0.04940    2.56720    2.60770   10.59490   17.13740    8.00660   37.66580
 5373.50000    8.25560    0.07600   -9999.25   -9999.25   -0.00860    0.05340    2.54280    2.58510    8.03860    7.02820    6.59560   39.05890
 5374.00000    8.25620    0.06850   -9999.25   -9999.25   -0.00760    0.05770    2.54360    2.58840    9.64300   16.21030    8.80380   39.21290
 5374.50000    8.25620    0.05690   -9999.25   -9999.25   -0.00710    0.06050    2.57730    2.60520   17.81570   29.99810   16.41190   37.96580
 5375.00000    8.29710    0.06540   -9999.25   -9999.25   -0.00760    0.06070    2.56900    2.61290   17.87260    7.70070    5.10720   37.51000
 5375.50000    8.31760    0.07530   -9999.25   -9999.25   -0.00930    0.06290    2.55070    2.58820    4.69400    4.52490    4.12130   39.21510
 5376.00000    8.33120    0.08530   -9999.25   -9999.25   -0.01100    0.06440    2.56580    2.56300    5.66530    5.52550    4.22450   40.35790
 5376.50000    8.33120    0.08960   -9999.25   -9999.25   -0.01260    0.05020    2.64550    2.56300    7.72200   10.11980    6.00080   40.49040
 5377.00000    8.33800    0.06950   -9999.25   -9999.25   -0.01110    0.03400    2.75280    2.60080   16.78190   18.80990   12.01860   40.36260
 5377.50000    8.33120    0.04640   -9999.25   -9999.25   -0.00860    0.02440    2.85080    2.64790   23.46550   26.82790   17.17370   40.03030
 5378.00000    8.31760    0.02580   -9999.25   -9999.25   -0.00700    0.01700    2.87060    2.67190   32.87540   33.60730   30.59580   39.67320
 5378.50000    8.30400    0.01280   -9999.25   -9999.25   -0.00650    0.01890    2.89050    2.68640   34.37710   35.63900   33.48270   39.11010
 5379.00000    8.30400    0.01520   -9999.25   -9999.25   -0.00610    0.02690    2.88280    2.68640   32.56220   35.09730   29.14250   39.51910
 5379.50000    8.29710    0.03020   -9999.25   -9999.25   -0.00560    0.03500    2.84890    2.67430   22.88200   26.77500   19.66210   39.49350
 5380.00000    8.24940    0.04520   -9999.25   -9999.25   -0.00600    0.04010    2.81790    2.65410   13.73730   14.88600   11.10500   38.88000
 5380.50000    8.20210    0.04700   -9999.25   -9999.25   -0.00580    0.04390    2.78680    2.63390   10.37960   10.22850    8.23640   37.72970
 5381.00000    8.15740    0.03900   -9999.25   -9999.25   -0.00560    0.04820    2.78410    2.63980   19.22990   22.60840   16.69150   37.04050
 5381.50000    8.11270    0.02820   -9999.25   -9999.25   -0.00540    0.05120    2.79390    2.65890   28.79450   31.16100   25.11260   36.06700
 5382.00000    8.07220    0.01570   -9999.25   -9999.25   -0.00240    0.05150    2.82760    2.67800   37.23200   41.66720   34.49010   34.86930
 5382.50000    8.03980    0.00700   -9999.25   -9999.25   -0.00530    0.05020    2.91710    2.69320   46.76390   52.79030   46.38140   30.75390
 5383.00000    8.01990   -0.00320   -9999.25   -9999.25   -0.00820    0.04480    2.97890    2.71070   67.74700   94.11440   70.93440   28.21690
 5383.50000    8.00400   -0.01670   -9999.25   -9999.25   -0.00710    0.03850    3.01600    2.72810  101.90980  135.92420  137.84740   24.64890
 5384.00000    8.01080   -0.02190   -9999.25   -9999.25   -0.00440    0.03410    3.05310    2.74220  118.18510  128.82950  139.51260   24.45750
 5384.50000    8.07490   -0.01190   -9999.25   -9999.25   -0.00170    0.03960    2.99310    2.74240  100.80090  114.82500  130.36160   27.65820
 5385.00000    8.14750    0.02650   -9999.25   -9999.25   -0.00250    0.04470    2.85050    2.71490   62.94350   78.84340   47.99710   36.09370
 5385.50000    8.22010    0.06740   -9999.25   -9999.25   -0.00200    0.06610    2.68030    2.64600   25.08600   22.91060   10.38130   44.52930
 5386.00000    8.29270    0.10750   -9999.25   -9999.25   -0.00580    0.08760    2.54230    2.57710    7.93580   10.39670    6.16270   52.96480
 5386.50000    8.36530    0.14750   -9999.25   -9999.25   -0.00960    0.10910    2.43020    2.50820    4.59040    5.14630    4.37770   55.65130
 5387.00000    8.40620    0.15760   -9999.25   -9999.25   -0.00870    0.14460    2.35880    2.46700    4.50330    4.26590    4.05670   57.35820
 5387.50000    8.43830    0.16600   -9999.25   -9999.25   -0.00780    0.15230    2.34330    2.44810    4.70910    3.85790    3.58010   55.46250
 5388.00000    8.47840    0.16540   -9999.25   -9999.25   -0.00690    0.15490    2.32780    2.44120    3.23150    2.92000    2.71780   53.92770
 5388.50000    8.51850    0.16210   -9999.25   -9999.25   -0.00630    0.15550    2.31540    2.44390    3.46230    3.85690    3.59750   54.61640
 5389.00000    8.54470    0.15890   -9999.25   -9999.25   -0.00730    0.15450    2.32280    2.45000    3.86380    5.66330    6.41240   55.64280
 5389.50000    8.55010    0.15560   -9999.25   -9999.25   -0.00830    0.15410    2.34210    2.45610    3.93850    2.99930    2.78710   56.74800
 5390.00000    8.55540    0.15310   -9999.25   -9999.25   -0.00930    0.15530    2.35240    2.46220    5.00340    5.70900    3.92160   54.19510
 5390.50000    8.56080    0.15450   -9999.25   -9999.25   -0.00860    0.15490    2.33400    2.46220    4.44420    5.70150    4.08850   51.20350
 5391.00000    8.56620    0.16270   -9999.25   -9999.25   -0.00740    0.15170    2.32540    2.44820    3.53880    2.98780    2.66890   49.01050
 5391.50000    8.57160    0.17100   -9999.25   -9999.25   -0.00610    0.15410    2.33160    2.43420    3.51110    4.09000    3.07710   47.02200
 5392.00000    8.57700    0.17550   -9999.25   -9999.25   -0.00580    0.15930    2.32590    2.42570    3.68320    3.34480    2.33410   49.01480
 5392.50000    8.57570    0.16920   -9999.25   -9999.25   -0.00500    0.16340    2.31620    2.42710    3.00290    3.35800    3.31430   50.91990
 5393.00000    8.56990    0.15720   -9999.25   -9999.25   -0.00430    0.15760    2.32240    2.44150    3.85150    3.98180    3.65920   53.84840
 5393.50000    8.56260    0.14250   -9999.25   -9999.25   -0.00380    0.14920    2.35720    2.46260    4.48240    5.75290    4.23040   56.28510
 5394.00000    8.55300    0.12780   -9999.25   -9999.25   -0.00310    0.14380    2.39890    2.48370    4.90850    5.28520    3.76860   56.50250
 5394.50000    8.54340    0.12170   -9999.25   -9999.25   -0.00360    0.14160    2.40670    2.50480    3.41170    3.77400    3.02680   53.28750
 5395.00000    8.53610    0.12800   -9999.25   -9999.25   -0.00410    0.14000    2.40620    2.50910    5.36720    6.07800    5.26060   51.30340
 5395.50000    8.53800    0.13860   -9999.25   -9999.25   -0.00560    0.14080    2.38460    2.49320    5.35010    5.83020    4.20310   50.29610
 5396.00000    8.53810    0.14930   -9999.25   -9999.25   -0.00610    0.14170    2.37680    2.47410    4.01460    4.67650    3.16730   51.77840
 5396.50000    8.53110    0.15590   -9999.25   -9999.25   -0.00740    0.14050    2.35960    2.45980    4.60500    5.03780    4.35140   51.50650
