~Version ---------------------------------------------------
VERS.   2.0 : CWLS log ASCII Standard -VERSION 2.0
WRAP.    NO : One line per depth step
DLM . SPACE : Column Data Section Delimiter
~Well ------------------------------------------------------
STRT .FT                105.0 : START DEPTH
STOP .FT              10671.0 : STOP DEPTH
STEP .FT                  0.5 : STEP
NULL .               -9999.25 : NULL VALUE
COMP .                        : COMPANY
WELL .                        : WELL
FLD  .                        : FIELD
LOC  .                        : LOCATION
PROV .                        : PROVINCE
CNTY .                        : COUNTY
STAT .                        : STATE
CTRY .                        : COUNTRY
SRVC .                        : SERVICE COMPANY
DATE .                        : DATE
UWI  .                        : UNIQUE WELL ID
API  .                        : API NUMBER
SLAT .WGS84 2.846263619665301 : SURFACE LATITUDE
SLON .WGS84 8.627339803501002 : SURFACE LONGITUDE
DATUM.F                   nan : DEPTH DATUM ELEV
~Curve Information -----------------------------------------
DEPT   .FT    : 
CALD   .IN    : CALIPER FROM DENSITY LOG
DPHI_LS.DEC   : DENSITY POROSITY LIMESTONE
DTCO   .US/F  : DELTA-T COMPRESSIONAL
DTSM   .US/F  : DELTA-T SHEAR
HDRA   .G/C3  : HRDD SPINE AND RIBS DENSITY CORRECTION
NPHI_LS.DEC   : NEUTRON POROSITY LIMESTONE
PEFZ   .B/E   : HRDD STANDARD RESOLUTION FORMATION PHOTOELECTRIC FACTOR
RHOZ   .G/C3  : HRDD STANDARD RESOLUTION FORMATION DENSITY
RLA3   .OHMM  : APPARENT RESISTIVITY FROM COMPUTED FOCUSING MODE 3
RLA5   .OHMM  : APPARENT RESISTIVITY FROM COMPUTED FOCUSING MODE 5
RXO8   .OHMM  : MCFL INVADED FORMATION RESISTIVITY FILTERED AT 8 INCHES
SGRDD  .GAPI  : SPECTROSCOPY GAMMA RAY FROM DENSITY LOG
~Params ----------------------------------------------------
~Other -----------------------------------------------------
~ASCII -----------------------------------------------------
# ...
 10633.00000    7.69050    0.05490   62.54720  102.84270   -0.00150    0.05860    2.61520    2.64130  175.56670  185.55810   94.10620   -9999.25
 10633.50000    7.69550    0.05880   64.65350  106.37940   -0.00260    0.05830    2.65010    2.61250  133.30940  151.23740   88.86070   -9999.25
 10634.00000    7.70060    0.05870   68.10210  110.55410   -0.00320    0.05870    2.74290    2.61690   84.64590  102.78250   33.04600   -9999.25
 10634.50000    7.70560    0.05290   69.54460  112.90000   -0.00340    0.05920    2.86200    2.62860   35.98240   54.32760   10.91810   -9999.25
 10635.00000    7.71110    0.04710   70.67230  116.02210   -0.00240    0.05970    2.95920    2.64030   16.36090   15.41560   12.08480   -9999.25
 10635.50000    7.70050    0.04130   71.75190  118.36190   -0.00200    0.05920    2.97650    2.65200   37.50930   73.55590   15.50080   -9999.25
 10636.00000    7.69000    0.03680   72.98440  123.78480   -0.00160    0.05810    2.97970    2.65310  136.73490  191.03260   92.85880   -9999.25
 10636.50000    7.68940    0.03520   74.32050  125.73000   -0.00120    0.05720    2.98290    2.65360  149.52450  180.39190  151.20670   -9999.25
 10637.00000    7.69860    0.04090   73.70500  127.74280   -0.00270    0.05810    3.03550    2.64640  110.45550   92.83690   58.92150   -9999.25
 10637.50000    7.70180    0.04670   73.32350  128.12670   -0.00410    0.05950    3.11120    2.63750   71.38650   15.95070   10.85340   -9999.25
 10638.00000    7.69990    0.05020   72.71010  127.90270   -0.00560    0.05890    3.19380    2.62850   32.31760   14.39640    8.16960   -9999.25
 10638.50000    7.70280    0.05410   71.53340  126.17280   -0.00430    0.05750    3.29740    2.62150   15.46100   14.15610    8.94820   -9999.25
 10639.00000    7.70570    0.05640   66.92830  123.72350   -0.00160    0.05660    3.40740    2.61560   12.84460   12.79940    8.37870   -9999.25
 10639.50000    7.68850    0.05580   57.03040  118.03140   -0.00110    0.05600    3.60870    2.61450   11.49580   12.34500    7.57060   -9999.25
 10640.00000    7.67920    0.03560   51.05070  112.33930    0.00000    0.05600    3.83840    2.62890   12.23500   12.50560    7.75510   -9999.25
 10640.50000    7.67520    0.01570   53.79410  106.64720    0.00000    0.05640    4.21040    2.70090  300.66490   36.66120  154.22980   -9999.25
 10641.00000    7.67120   -0.00040   52.44290  100.95510    0.00010    0.05660    4.50640    2.70460  623.36600 1083.38200  137.34510   -9999.25
 10641.50000    7.66720    0.00290   51.09170   98.95230    0.00050    0.05590    4.76810    2.70830  890.03990 1175.44290   93.25150   -9999.25
 10642.00000    7.65340   -0.00050   50.67200   97.72390    0.00200    0.05590    4.93870    2.71200  763.02960 1229.95670   63.37470   -9999.25
 10642.50000    7.64710   -0.00260   49.80190   95.05110    0.00350   -9999.25    4.94500    2.71370  753.13490  950.13270   54.44090   -9999.25
 10643.00000    7.61750    0.00070   49.37190   92.37820    0.00510   -9999.25    4.94430    2.70540  821.04340 1199.53360   48.96040   -9999.25
 10643.50000    7.61570    0.00710   50.27920   92.24170    0.00490   -9999.25    4.93690    2.69500  869.76680 1230.78030   47.17240   -9999.25
 10644.00000    7.61400    0.01400   51.25980   92.67070    0.00430   -9999.25    4.91910    2.68460  726.58350 1664.10350   46.66770   -9999.25
 10644.50000   -9999.25   -9999.25   52.06260   93.74310   -9999.25   -9999.25   -9999.25   -9999.25  441.06910  667.06080   46.46900   -9999.25
 10645.00000   -9999.25   -9999.25   52.45750   94.37740   -9999.25   -9999.25   -9999.25   -9999.25  210.12920  310.68980   46.47610   -9999.25
 10645.50000   -9999.25   -9999.25   52.29140   94.41710   -9999.25   -9999.25   -9999.25   -9999.25  125.95090  174.51640   46.70620   -9999.25
 10646.00000   -9999.25   -9999.25   52.33650   95.16530   -9999.25   -9999.25   -9999.25   -9999.25   99.01180  116.45140   46.39640   -9999.25
 10646.50000   -9999.25   -9999.25   51.97050   94.96280   -9999.25   -9999.25   -9999.25   -9999.25   68.64310   76.66720   46.08650   -9999.25
 10647.00000   -9999.25   -9999.25   51.85000   94.58290   -9999.25   -9999.25   -9999.25   -9999.25   38.27440  108.09400   45.83990   -9999.25
 10647.50000   -9999.25   -9999.25   51.32860   94.71680   -9999.25   -9999.25   -9999.25   -9999.25  204.38150  425.27820   46.06620   -9999.25
 10648.00000   -9999.25   -9999.25   50.41060   93.54220   -9999.25   -9999.25   -9999.25   -9999.25  377.16060  968.81810   45.63370   -9999.25
 10648.50000   -9999.25   -9999.25   50.20580   93.31240   -9999.25   -9999.25   -9999.25   -9999.25  921.00880 1410.44880   44.98880   -9999.25
 10649.00000   -9999.25   -9999.25   50.00110   93.16520   -9999.25   -9999.25   -9999.25   -9999.25 1055.81370 1338.44860   44.99570   -9999.25
 10649.50000   -9999.25   -9999.25   49.81730   92.70190   -9999.25   -9999.25   -9999.25   -9999.25  841.19350 1288.48880   45.00190   -9999.25
 10650.00000   -9999.25   -9999.25   49.73680   92.80910   -9999.25   -9999.25   -9999.25   -9999.25  549.44730  888.93520   45.00820   -9999.25
 10650.50000   -9999.25   -9999.25   49.61540   92.76390   -9999.25   -9999.25   -9999.25   -9999.25  617.27180  691.60220   45.21820   -9999.25
 10651.00000   -9999.25   -9999.25   49.50940   92.08460   -9999.25   -9999.25   -9999.25   -9999.25  909.07520 1111.94410   45.42940   -9999.25
 10651.50000   -9999.25   -9999.25   49.39090   91.68490   -9999.25   -9999.25   -9999.25   -9999.25 1025.68420 1364.08670   45.31390   -9999.25
 10652.00000   -9999.25   -9999.25   49.30590   91.47160   -9999.25   -9999.25   -9999.25   -9999.25  850.83250 1131.39500   45.19910   -9999.25
 10652.50000   -9999.25   -9999.25   49.21780   91.28790   -9999.25   -9999.25   -9999.25   -9999.25  647.22350  790.08920   44.21080   -9999.25
 10653.00000   -9999.25   -9999.25   49.23960   91.22260   -9999.25   -9999.25   -9999.25   -9999.25  443.61440  557.52960   43.58210   -9999.25
 10653.50000   -9999.25   -9999.25   49.18950   91.15720   -9999.25   -9999.25   -9999.25   -9999.25  585.46150 1611.22440   42.95330   -9999.25
 10654.00000   -9999.25   -9999.25   49.13970   91.06190   -9999.25   -9999.25   -9999.25   -9999.25 1132.86160 1608.33690   42.44920   -9999.25
 10654.50000   -9999.25   -9999.25   49.09440   90.95910   -9999.25   -9999.25   -9999.25   -9999.25 1100.52840 1713.84110   42.26520   -9999.25
 10655.00000   -9999.25   -9999.25   49.08530   90.87680   -9999.25   -9999.25   -9999.25   -9999.25  816.12850 1166.84530   42.08130   -9999.25
 10655.50000   -9999.25   -9999.25   -9999.25   -9999.25   -9999.25   -9999.25   -9999.25   -9999.25  685.01810  815.96930   41.89740   -9999.25
 10656.00000   -9999.25   -9999.25   -9999.25   -9999.25   -9999.25   -9999.25   -9999.25   -9999.25 1028.43990 1672.42740   41.22490   -9999.25
 10656.50000   -9999.25   -9999.25   -9999.25   -9999.25   -9999.25   -9999.25   -9999.25   -9999.25 1458.19190 3181.59810   40.67800   -9999.25
 10657.00000   -9999.25   -9999.25   -9999.25   -9999.25   -9999.25   -9999.25   -9999.25   -9999.25 1078.96880 2164.78520   40.04670   -9999.25
 10657.50000   -9999.25   -9999.25   -9999.25   -9999.25   -9999.25   -9999.25   -9999.25   -9999.25  673.51130 1115.82950   39.47100   -9999.25
 10658.00000   -9999.25   -9999.25   -9999.25   -9999.25   -9999.25   -9999.25   -9999.25   -9999.25  428.16620  554.14160   39.27680   -9999.25
 10658.50000   -9999.25   -9999.25   -9999.25   -9999.25   -9999.25   -9999.25   -9999.25   -9999.25 1256.01550 1952.56380   39.27150   -9999.25
 10659.00000   -9999.25   -9999.25   -9999.25   -9999.25   -9999.25   -9999.25   -9999.25   -9999.25 1085.74050 2105.45880   39.26610   -9999.25
 10659.50000   -9999.25   -9999.25   -9999.25   -9999.25   -9999.25   -9999.25   -9999.25   -9999.25  818.69230 1166.11630   39.26130   -9999.25
 10660.00000   -9999.25   -9999.25   -9999.25   -9999.25   -9999.25   -9999.25   -9999.25   -9999.25  664.35470  987.16500   38.69670   -9999.25
 10660.50000   -9999.25   -9999.25   -9999.25   -9999.25   -9999.25   -9999.25   -9999.25   -9999.25   27.26850  392.15670   35.22290   -9999.25
