~Version ---------------------------------------------------
VERS.   2.0 : CWLS log ASCII Standard -VERSION 2.0
WRAP.    NO : One line per depth step
DLM . SPACE : Column Data Section Delimiter
~Well ------------------------------------------------------
STRT .FT                105.0 : START DEPTH
STOP .FT              10671.0 : STOP DEPTH
STEP .FT                  0.5 : STEP
NULL .               -9999.25 : NULL VALUE
COMP .                        : COMPANY
WELL .                        : WELL
FLD  .                        : FIELD
LOC  .                        : LOCATION
PROV .                        : PROVINCE
CNTY .                        : COUNTY
STAT .                        : STATE
CTRY .                        : COUNTRY
SRVC .                        : SERVICE COMPANY
DATE .                        : DATE
UWI  .                        : UNIQUE WELL ID
API  .                        : API NUMBER
SLAT .WGS84 2.846263619665301 : SURFACE LATITUDE
SLON .WGS84 8.627339803501002 : SURFACE LONGITUDE
DATUM.F                   nan : DEPTH DATUM ELEV
~Curve Information -----------------------------------------
DEPT   .FT    : 
CALD   .IN    : CALIPER FROM DENSITY LOG
DPHI_LS.DEC   : DENSITY POROSITY LIMESTONE
DTCO   .US/F  : DELTA-T COMPRESSIONAL
DTSM   .US/F  : DELTA-T SHEAR
HDRA   .G/C3  : HRDD SPINE AND RIBS DENSITY CORRECTION
NPHI_LS.DEC   : NEUTRON POROSITY LIMESTONE
PEFZ   .B/E   : HRDD STANDARD RESOLUTION FORMATION PHOTOELECTRIC FACTOR
RHOZ   .G/C3  : HRDD STANDARD RESOLUTION FORMATION DENSITY
RLA3   .OHMM  : APPARENT RESISTIVITY FROM COMPUTED FOCUSING MODE 3
RLA5   .OHMM  : APPARENT RESISTIVITY FROM COMPUTED FOCUSING MODE 5
RXO8   .OHMM  : MCFL INVADED FORMATION RESISTIVITY FILTERED AT 8 INCHES
SGRDD  .GAPI  : SPECTROSCOPY GAMMA RAY FROM DENSITY LOG
~Params ----------------------------------------------------
~Other -----------------------------------------------------
~ASCII -----------------------------------------------------
# ...
 8701.00000    7.82140    0.02470   54.83380   97.64770   -0.00220    0.04870    4.45220    2.66680 1921.03610 2847.07180  462.08700   27.30040
 8701.50000    7.82340    0.02400   54.80700   98.07420   -0.00280    0.04580    4.55540    2.66890 1687.57770 2552.39970  456.88470   26.50800
 8702.00000    7.82530    0.01980   55.53480   98.51200   -0.00170    0.04250    4.66070    2.67910 1818.01670 3770.96360  433.91560   25.04940
 8702.50000    7.82680    0.01530   56.60790   99.12590   -0.00230    0.03920    4.66220    2.68530 2062.82880 6817.39540  367.03140   22.54870
 8703.00000    7.82560    0.01790   57.51570   99.91920   -0.00290    0.04220    4.51100    2.68330 2050.19580 8700.52040  307.05450   26.29450
 8703.50000    7.82440    0.02230   58.33950  100.88060   -0.00330    0.05470    4.28800    2.67500 1996.24460  316.12020  259.81470   33.94500
 8704.00000    7.82310    0.02450   59.32690  101.67540   -0.00360    0.06720    4.06200    2.67250  326.56580  368.17090  235.84520   41.45500
 8704.50000    7.82190    0.02630   59.52220  102.30900   -0.00390    0.07980    3.87060    2.67040  322.17130  395.15770  290.30210   48.52090
 8705.00000    7.82070    0.03320   59.71740  103.09450   -0.00500    0.09060    3.66850    2.66150  309.47290  274.27340  116.54470   56.95260
 8705.50000    7.82000    0.04280   59.82130  103.37650   -0.00640    0.10230    3.46640    2.63930  107.92770   89.19600   52.63650   67.43310
 8706.00000    7.81550    0.04930   59.84540  103.24780   -0.00790    0.11400    3.32060    2.62160  112.31120  206.56010   79.09840   71.62530
 8706.50000    7.81940    0.05160   59.64160  102.67240   -0.00940    0.11280    3.35100    2.62160  274.32110  326.00240  170.94850   62.25250
 8707.00000    7.82320    0.04620   59.06250  102.10920   -0.01000    0.09880    3.66180    2.64150  299.10360  336.54890  224.57050   49.69290
 8707.50000    7.82710    0.03450   58.49200  101.64720   -0.00850    0.08170    3.91990    2.66580  595.64520  384.74220  288.45200   39.27200
 8708.00000    7.83100    0.02630   57.97830  101.20840   -0.00700    0.06470    4.16580    2.66630 2027.91120 2036.81110  295.20910   35.51720
 8708.50000    7.83490    0.02790   57.64690  101.18460   -0.00580    0.06750    4.00430    2.65980  699.42170 1976.88900  132.52940   40.88360
 8709.00000    7.83880    0.03250   57.35220  100.94750   -0.00600    0.08320    3.80250    2.65170  163.26070  132.37420   67.13010   48.79660
 8709.50000    7.84260    0.03600   56.62240  100.59350   -0.00610    0.09940    3.60070    2.64520  379.49400  554.43400   84.46600   55.25480
 8710.00000    7.84650    0.03830   56.07780  100.25230   -0.00630    0.09170    3.84830    2.64880  910.58710 1074.45400  247.43060   46.43330
 8710.50000    7.84620    0.03200   55.47450   99.20610   -0.00550    0.07390    4.18040    2.67970 1097.56710 1539.50320  445.35580   36.26790
 8711.00000    7.84350    0.02140   54.84620   98.58080   -0.00440    0.05790    4.49230    2.68630 1688.76500 1958.14950  442.79290   29.19250
 8711.50000    7.84080    0.01480   54.20700   98.71270   -0.00340    0.05130    4.54690    2.68240 1899.00230 3791.63510  462.29400   27.92110
 8712.00000    7.83810    0.02000   54.41930   99.63900   -0.00240    0.05310    4.60080    2.67250 1771.90600 3378.31010  385.75970   30.22320
 8712.50000    7.83530    0.02190   54.58230   98.61560   -0.00130    0.05190    4.65930    2.66940 1729.83950 2899.75590  401.61080   28.20010
 8713.00000    7.83260    0.01650   54.65020   98.75240   -0.00030    0.04810    4.66520    2.67940 1729.83950 2881.30270  446.91550   25.73370
 8713.50000    7.82990    0.01310   55.37360   99.70800   -0.00130    0.04630    4.63630    2.68840 2025.98880 4957.83000  499.10740   23.78970
 8714.00000    7.82710    0.02090   55.73940   98.95770   -0.00400    0.05690    4.58370    2.68840 2882.74650 4957.83000  290.22790   32.86990
 8714.50000    7.82440    0.02900   55.64700   99.22120   -0.00660    0.06750    4.47790    2.67340 1974.72880 3842.90270  235.71780   39.11620
 8715.00000    7.82170    0.03480   55.32350   99.57240   -0.00720    0.07640    4.42440    2.65590  634.42270 1964.31060  199.90640   41.76930
 8715.50000    7.81900    0.03480   55.67070   99.55330   -0.00360    0.07350    4.47460    2.65140  448.65890  321.43380  107.29990   38.21330
 8716.00000    7.81620    0.02970   55.81160   99.54210    0.00060    0.06790    4.56180    2.65270  372.24650  795.00700  228.58570   34.05570
 8716.50000    7.80810    0.02260   55.45210   99.50630   -0.00220    0.06090    4.57920    2.66990 1609.82120 1376.57820  417.06960   32.17420
 8717.00000    7.80680    0.01900   56.18050   99.92180   -0.00210    0.05390    4.58530    2.68070 2580.20210 1970.69850  393.48790   32.13930
 8717.50000    7.80540    0.01930   55.37750   98.83860   -0.00240    0.05390    4.59290    2.68040 2606.08210 2703.07910  332.21300   33.33570
 8718.00000    7.80410    0.02080   54.58420   98.42490   -0.00280    0.05630    4.58900    2.67610 2530.98700 1951.80690  487.29880   34.38930
 8718.50000    7.80270    0.02110   54.82190   98.17830   -0.00200    0.05670    4.53900    2.67190 2503.92810 1933.30890  433.87550   33.80250
 8719.00000    7.80140    0.02060   54.60690   97.93170   -0.00090    0.05710    4.50400    2.67190 2079.71330 1961.35110  449.52550   32.39340
 8719.50000    7.80000    0.01940   54.24880   97.69770   -0.00110    0.05890    4.51450    2.68070 2051.79720 1990.18940  470.77710   30.98440
 8720.00000    7.79870    0.01590   54.25530   97.60970   -0.00120    0.05830    4.48990    2.68740 2111.58180 1975.61410  430.25140   30.05580
 8720.50000    7.79730    0.01420   54.08890   97.32050   -0.00140    0.05430    4.45230    2.68790 2404.31060 3889.72170  601.59420   27.32990
 8721.00000    7.79740    0.01370   53.85230   96.87400   -0.00160    0.05040    4.44260    2.68310 2284.33540 3767.50620  467.90680   27.04920
 8721.50000    7.79970    0.01570   53.77300   96.78520   -0.00170    0.04840    4.43870    2.67520 1975.93440 2120.73260  367.41900   29.89950
 8722.00000    7.80190    0.02090   53.72210   96.52120   -0.00190    0.04980    4.51210    2.66840 1946.56130 7456.28220  414.80690   29.92720
 8722.50000    7.80420    0.02410   53.69830   96.23090   -0.00200    0.04820    4.53790    2.66840 1995.77680 8640.53760  473.90770   29.33210
 8723.00000    7.80650    0.02390   53.57830   95.99170   -0.00300    0.04860    4.54260    2.67090 3452.98990 7190.65810  595.85990   29.27540
 8723.50000    7.80880    0.02200   52.99740   95.75240   -0.00230    0.05070    4.56590    2.68080 2365.35500 3489.62080  481.25070   29.79800
 8724.00000    7.81100    0.01590   52.18750   95.68240   -0.00160    0.04980    4.58930    2.69060 3024.91480 3489.62080  396.61280   29.05950
 8724.50000    7.81330    0.00990   52.08230   95.57110   -0.00090    0.04730    4.61260    2.69460 5212.57630 3602.82190  458.29040   26.05070
 8725.00000    7.81560    0.00630   52.43110   95.38740   -0.00020    0.04540    4.66080    2.69560 2222.59220 6785.46330  370.89460   23.01580
 8725.50000    7.81540    0.00730   51.30540   95.18250    0.00030    0.04540    4.73490    2.69660 4515.02760 12755.35460  397.98180   20.58610
 8726.00000    7.81530    0.00770   51.78190   94.71940    0.00080    0.04600    4.83690    2.69820 3836.61410 12513.35030  455.70000   19.65260
 8726.50000    7.85190    0.00630   52.05310   94.44010    0.00140    0.04330    5.02680    2.70130 3387.47710 6783.45610  468.91780   18.81740
 8727.00000    7.88920    0.00030   52.12540   94.38220    0.00080    0.04080    5.30280    2.71970 3967.41460 12354.57990  651.92340   17.18010
 8727.50000    7.92660   -0.00640   52.11370   94.27180    0.00130    0.03660    5.61880    2.73160 4005.59520 11446.79710  500.72870   15.05320
 8728.00000    7.96390   -0.01320   52.06310   94.19180    0.00170    0.03250    5.55290    2.73160 4713.87440 10204.01420  128.45510   13.05360
 8728.50000    7.96030   -0.01350   52.12860   94.25210    0.00220    0.03160    5.29130    2.71090 4897.96730 11226.21370  121.18340   14.89360
