~Version ---------------------------------------------------
VERS.   2.0 : CWLS log ASCII Standard -VERSION 2.0
WRAP.    NO : One line per depth step
DLM . SPACE : Column Data Section Delimiter
~Well ------------------------------------------------------
STRT .FT                105.0 : START DEPTH
STOP .FT              10671.0 : STOP DEPTH
STEP .FT                  0.5 : STEP
NULL .               -9999.25 : NULL VALUE
COMP .                        : COMPANY
WELL .                        : WELL
FLD  .                        : FIELD
LOC  .                        : LOCATION
PROV .                        : PROVINCE
CNTY .                        : COUNTY
STAT .                        : STATE
CTRY .                        : COUNTRY
SRVC .                        : SERVICE COMPANY
DATE .                        : DATE
UWI  .                        : UNIQUE WELL ID
API  .                        : API NUMBER
SLAT .WGS84 2.846263619665301 : SURFACE LATITUDE
SLON .WGS84 8.627339803501002 : SURFACE LONGITUDE
DATUM.F                   nan : DEPTH DATUM ELEV
~Curve Information -----------------------------------------
DEPT   .FT    : 
CALD   .IN    : CALIPER FROM DENSITY LOG
DPHI_LS.DEC   : DENSITY POROSITY LIMESTONE
DTCO   .US/F  : DELTA-T COMPRESSIONAL
DTSM   .US/F  : DELTA-T SHEAR
HDRA   .G/C3  : HRDD SPINE AND RIBS DENSITY CORRECTION
NPHI_LS.DEC   : NEUTRON POROSITY LIMESTONE
PEFZ   .B/E   : HRDD STANDARD RESOLUTION FORMATION PHOTOELECTRIC FACTOR
RHOZ   .G/C3  : HRDD STANDARD RESOLUTION FORMATION DENSITY
RLA3   .OHMM  : APPARENT RESISTIVITY FROM COMPUTED FOCUSING MODE 3
RLA5   .OHMM  : APPARENT RESISTIVITY FROM COMPUTED FOCUSING MODE 5
RXO8   .OHMM  : MCFL INVADED FORMATION RESISTIVITY FILTERED AT 8 INCHES
SGRDD  .GAPI  : SPECTROSCOPY GAMMA RAY FROM DENSITY LOG
~Params ----------------------------------------------------
~Other -----------------------------------------------------
~ASCII -----------------------------------------------------
# ...
 3913.00000    8.32320    0.12780   -9999.25   -9999.25   -0.00810    0.14100    2.47250    2.49840    3.97040    4.81390    3.69790   55.91980
 3913.50000    8.31700    0.12640   -9999.25   -9999.25   -0.00820    0.13370    2.52230    2.50150    4.20510    4.98910    3.72850   59.40660
 3914.00000    8.29730    0.12210   -9999.25   -9999.25   -0.00830    0.12740    2.56850    2.50520    4.61280    5.46930    4.34080   59.81560
 3914.50000    8.26990    0.11590   -9999.25   -9999.25   -0.00780    0.12250    2.59190    2.51560    5.54680    6.64350    4.92230   61.47680
 3915.00000    8.23980    0.10240   -9999.25   -9999.25   -0.00740    0.11820    2.62180    2.53440    6.53150    8.51580    6.18430   63.13800
 3915.50000    8.21940    0.08260   -9999.25   -9999.25   -0.00640    0.11270    2.66920    2.55330   10.53830   12.79150    8.27390   64.99890
 3916.00000    8.19040    0.06430   -9999.25   -9999.25   -0.00600    0.09760    2.72490    2.58140   14.50320   16.17320   12.21060   61.53970
 3916.50000    8.19050    0.05810   -9999.25   -9999.25   -0.00610    0.09670    2.78060    2.60960   15.75760   17.69660   13.23390   61.23480
 3917.00000    8.19790    0.05850   -9999.25   -9999.25   -0.00620    0.10850    2.80640    2.61560   20.93070   22.27010   16.18730   65.03030
 3917.50000    8.22370    0.06800   -9999.25   -9999.25   -0.00710    0.11930    2.79700    2.60420   22.38340   29.94130   20.95050   71.42080
 3918.00000    8.27730    0.08630   -9999.25   -9999.25   -0.00680    0.12870    2.76050    2.58190   19.41210   21.62810   13.17390   77.81140
 3918.50000    8.31080    0.10050   -9999.25   -9999.25   -0.00640    0.13480    2.71160    2.55960   14.81540    9.57910    8.16400   77.91360
 3919.00000    8.36060    0.10980   -9999.25   -9999.25   -0.00610    0.13680    2.65370    2.53740   10.21870    7.24380    6.38920   70.39830
 3919.50000    8.41050    0.11560   -9999.25   -9999.25   -0.00540    0.13940    2.58810    2.52800    5.62190    5.96560    4.80230   65.65860
 3920.00000    8.44900    0.11950   -9999.25   -9999.25   -0.00600    0.14130    2.53340    2.51860    5.03240    5.39200    4.23710   61.47790
 3920.50000    8.47040    0.12500   -9999.25   -9999.25   -0.00660    0.14280    2.50410    2.50920    4.68740    5.02910    4.13770   58.43360
 3921.00000    8.48720    0.12980   -9999.25   -9999.25   -0.00720    0.14360    2.51640    2.49990    4.59890    4.88900    4.00000   57.20820
 3921.50000    8.49370    0.13460   -9999.25   -9999.25   -0.00670    0.14380    2.52860    2.49130    4.58460    4.88940    4.04480   57.57250
 3922.00000    8.50620    0.13470   -9999.25   -9999.25   -0.00590    0.14320    2.54090    2.48910    4.72050    4.96530    4.19760   59.30430
 3922.50000    8.50900    0.12910   -9999.25   -9999.25   -0.00520    0.14070    2.55320    2.49550    4.80530    5.04240    4.35040   56.64590
 3923.00000    8.51600    0.12240   -9999.25   -9999.25   -0.00510    0.14390    2.54080    2.50580    4.89020    5.12060    4.49110   59.81560
 3923.50000    8.52590    0.11480   -9999.25   -9999.25   -0.00360    0.15600    2.50740    2.51610    4.97510    5.20580    4.53940   59.70650
 3924.00000    8.51930    0.11590   -9999.25   -9999.25   -0.00220    0.15490    2.50690    2.52410    5.06000    5.29090    4.54780   63.76220
 3924.50000    8.49480    0.12080   -9999.25   -9999.25   -0.00330    0.15560    2.50640    2.51990    5.14490    5.27940    4.79880   63.48100
 3925.00000    8.48630    0.12650   -9999.25   -9999.25   -0.00410    0.15820    2.54080    2.50780    5.17870    5.35990    4.80210   62.81600
 3925.50000    8.47780    0.12680   -9999.25   -9999.25   -0.00410    0.15820    2.55110    2.50490    5.33010    5.53290    4.77980   59.70050
 3926.00000    8.46930    0.11900   -9999.25   -9999.25   -0.00410    0.14790    2.54770    2.51360    5.89190    6.41670    5.12280   61.49420
 3926.50000    8.45410    0.11550   -9999.25   -9999.25   -0.00410    0.15120    2.54770    2.52150    7.21320    7.53910    6.43530   62.78140
 3927.00000    8.42890    0.11910   -9999.25   -9999.25   -0.00570    0.15980    2.54770    2.51740    6.95090    7.51100    6.25720   64.71890
 3927.50000    8.40370    0.12270   -9999.25   -9999.25   -0.00740    0.15930    2.53390    2.51170    5.83040    6.32240    5.17130   66.85230
 3928.00000    8.40670    0.12070   -9999.25   -9999.25   -0.00910    0.15030    2.52010    2.51360    6.41940    6.82640    6.19090   64.91650
 3928.50000    8.39070    0.11650   -9999.25   -9999.25   -0.00930    0.14220    2.51180    2.51860    7.60930    8.17370    7.45390   65.44400
 3929.00000    8.37460    0.11490   -9999.25   -9999.25   -0.00820    0.12800    2.52700    2.52290    7.60130    8.05100    7.40710   64.50040
 3929.50000    8.36050    0.11410   -9999.25   -9999.25   -0.00710    0.12980    2.54910    2.52590    7.20040    7.86810    6.84870   63.99980
 3930.00000    8.34250    0.11140   -9999.25   -9999.25   -0.00710    0.13170    2.57060    2.53380    7.87390    8.38380    7.17590   65.46720
 3930.50000    8.31080    0.10670   -9999.25   -9999.25   -0.00730    0.13460    2.60680    2.54280    9.81410    9.20620    8.66540   67.42090
 3931.00000    8.27930    0.09820   -9999.25   -9999.25   -0.00690    0.14000    2.66660    2.55190   15.54790   19.08550   11.00930   73.00730
 3931.50000    8.22390    0.09010   -9999.25   -9999.25   -0.00640    0.14580    2.71800    2.56990   25.16170   34.64400   26.80660   78.22020
 3932.00000    8.16860    0.07910   -9999.25   -9999.25   -0.00540    0.15480    2.73770    2.58790   52.59430   67.20040   50.02410   84.45170
 3932.50000    8.12780    0.07300   -9999.25   -9999.25   -0.00420    0.15890    2.72820    2.59510   47.65130   54.94350   40.92700   89.36530
 3933.00000    8.10980    0.07480   -9999.25   -9999.25   -0.00300    0.14970    2.70880    2.58980   34.46480   33.08650   27.47230   86.91130
 3933.50000    8.09290    0.08380   -9999.25   -9999.25   -0.00380    0.14010    2.69750    2.57790   26.38260   24.20260   21.45980   88.67510
 3934.00000    8.06560    0.09070   -9999.25   -9999.25   -0.00300    0.14530    2.68620    2.56600   39.18730   29.85700   34.23810   92.12600
 3934.50000    8.04420    0.09420   -9999.25   -9999.25   -0.00350    0.15650    2.67720    2.55630   40.45320   38.38700   49.98880   90.61760
 3935.00000    8.03240    0.09160   -9999.25   -9999.25   -0.00410    0.16290    2.69480    2.56050   39.80770   35.14530   48.96070   87.93320
 3935.50000    8.03520    0.08900   -9999.25   -9999.25   -0.00490    0.16480    2.71280    2.56560   50.24450   51.58710   51.45390   83.87780
 3936.00000    8.03810    0.08940   -9999.25   -9999.25   -0.00660    0.16500    2.76960    2.55940   97.25930  103.46510   71.58300   87.45740
 3936.50000    8.04090    0.09330   -9999.25   -9999.25   -0.00820    0.17050    2.81590    2.55050   98.49430  113.40720   91.24680   92.96720
 3937.00000    8.04370    0.10140   -9999.25   -9999.25   -0.00920    0.17180    2.83090    2.54150   65.24480  100.80130   67.22900   96.77830
 3937.50000    8.07220    0.10890   -9999.25   -9999.25   -0.00970    0.16340    2.75780    2.53030   45.80410   43.49140   37.67980   90.56630
 3938.00000    8.10060    0.11560   -9999.25   -9999.25   -0.01040    0.14170    2.66070    2.51910   23.56000   13.43090    8.13070   78.76050
 3938.50000    8.16690    0.12000   -9999.25   -9999.25   -0.01110    0.13270    2.57200    2.51370   10.11580    9.56320    7.86600   67.02400
 3939.00000    8.22110    0.11960   -9999.25   -9999.25   -0.01060    0.13350    2.51090    2.51650   10.48670    9.80880    9.47850   62.54370
 3939.50000    8.27180    0.11550   -9999.25   -9999.25   -0.00710    0.14030    2.44980    2.52250   10.38820    9.35040    9.08550   61.43540
 3940.00000    8.29310    0.10730   -9999.25   -9999.25   -0.00360    0.13830    2.44980    2.53480    9.11090    8.35920    8.10440   61.18990
 3940.50000    8.31840    0.10810   -9999.25   -9999.25   -0.00460    0.13620    2.45870    2.53460    8.08920    7.70570    7.12330   61.21640
