~Version ---------------------------------------------------
VERS.   2.0 : CWLS log ASCII Standard -VERSION 2.0
WRAP.    NO : One line per depth step
DLM . SPACE : Column Data Section Delimiter
~Well ------------------------------------------------------
STRT .FT                105.0 : START DEPTH
STOP .FT              10671.0 : STOP DEPTH
STEP .FT                  0.5 : STEP
NULL .               -9999.25 : NULL VALUE
COMP .                        : COMPANY
WELL .                        : WELL
FLD  .                        : FIELD
LOC  .                        : LOCATION
PROV .                        : PROVINCE
CNTY .                        : COUNTY
STAT .                        : STATE
CTRY .                        : COUNTRY
SRVC .                        : SERVICE COMPANY
DATE .                        : DATE
UWI  .                        : UNIQUE WELL ID
API  .                        : API NUMBER
SLAT .WGS84 2.846263619665301 : SURFACE LATITUDE
SLON .WGS84 8.627339803501002 : SURFACE LONGITUDE
DATUM.F                   nan : DEPTH DATUM ELEV
~Curve Information -----------------------------------------
DEPT   .FT    : 
CALD   .IN    : CALIPER FROM DENSITY LOG
DPHI_LS.DEC   : DENSITY POROSITY LIMESTONE
DTCO   .US/F  : DELTA-T COMPRESSIONAL
DTSM   .US/F  : DELTA-T SHEAR
HDRA   .G/C3  : HRDD SPINE AND RIBS DENSITY CORRECTION
NPHI_LS.DEC   : NEUTRON POROSITY LIMESTONE
PEFZ   .B/E   : HRDD STANDARD RESOLUTION FORMATION PHOTOELECTRIC FACTOR
RHOZ   .G/C3  : HRDD STANDARD RESOLUTION FORMATION DENSITY
RLA3   .OHMM  : APPARENT RESISTIVITY FROM COMPUTED FOCUSING MODE 3
RLA5   .OHMM  : APPARENT RESISTIVITY FROM COMPUTED FOCUSING MODE 5
RXO8   .OHMM  : MCFL INVADED FORMATION RESISTIVITY FILTERED AT 8 INCHES
SGRDD  .GAPI  : SPECTROSCOPY GAMMA RAY FROM DENSITY LOG
~Params ----------------------------------------------------
~Other -----------------------------------------------------
~ASCII -----------------------------------------------------
# ...
 4389.00000    7.79080    0.08950   -9999.25   -9999.25   -0.00690    0.13810    2.79710    2.56660  728.19610 4443.48300  686.68940   53.43620
 4389.50000    7.79150    0.08000   -9999.25   -9999.25   -0.00680    0.13090    2.84260    2.57880  768.79080 6744.81610  758.16600   49.76600
 4390.00000    7.79220    0.06570   -9999.25   -9999.25   -0.00660    0.11660    2.90550    2.61050  707.53490 5443.16160  658.89040   44.41330
 4390.50000    7.79300    0.05030   -9999.25   -9999.25   -0.00640    0.09380    2.96840    2.63580  615.87230 3518.74720  513.43940   38.55000
 4391.00000    7.79370    0.04810   -9999.25   -9999.25   -0.00630    0.09280    2.95490    2.62790  667.96380 3306.74170  477.53610   40.30410
 4391.50000    7.79440    0.05600   -9999.25   -9999.25   -0.00510    0.10910    2.89840    2.61750  773.69340 2032.81960  602.01740   51.44710
 4392.00000    7.79520    0.06720   -9999.25   -9999.25   -0.00510    0.12780    2.83560    2.60710  458.87450  502.94510  242.74310   63.86410
 4392.50000    7.79590    0.06610   -9999.25   -9999.25   -0.00510    0.14490    2.81560    2.60210  221.34190  237.81920  168.78650   68.83260
 4393.00000    7.79660    0.05820   -9999.25   -9999.25   -0.00510    0.14390    2.81160    2.61860  616.88440  887.71610  306.19090   63.59890
 4393.50000    7.79740    0.04760   -9999.25   -9999.25   -0.00500    0.12380    2.84570    2.62960  879.07740  914.81800  370.17470   58.36530
 4394.00000    7.79810    0.05150   -9999.25   -9999.25   -0.00460    0.12380    2.92680    2.61110  601.22010  629.28720  270.18650   61.42730
 4394.50000    7.79880    0.07020   -9999.25   -9999.25   -0.00430    0.14630    2.95820    2.58090  696.32940  886.37440  341.87720   68.56220
 4395.00000    7.79950    0.08820   -9999.25   -9999.25   -0.00620    0.15020    2.98250    2.55080  565.22560  667.81010  304.38300   75.00660
 4395.50000    7.80030    0.10290   -9999.25   -9999.25   -0.00630    0.18810    2.97630    2.54500  434.12180  430.65950  202.81340   77.86230
 4396.00000    7.79050    0.09320   -9999.25   -9999.25   -0.00580    0.17800    2.97010    2.55660  670.93040 1303.07210  477.53610   73.95390
 4396.50000    7.78160    0.08380   -9999.25   -9999.25   -0.00540    0.16230    2.94040    2.57050  848.73940  999.48390  427.89950   69.06770
 4397.00000    7.78310    0.07770   -9999.25   -9999.25   -0.00390    0.15780    2.93060    2.58300  557.55270  550.34290  388.49980   71.47510
 4397.50000    7.78460    0.07540   -9999.25   -9999.25   -0.00340    0.15780    2.90520    2.58610  265.51780  295.85780  199.90500   74.39260
 4398.00000    7.78610    0.07690   -9999.25   -9999.25   -0.00290    0.17570    2.88870    2.58050  332.07330  517.67560  230.76280   71.95330
 4398.50000    7.78760    0.08040   -9999.25   -9999.25   -0.00290    0.17080    2.91420    2.57200  664.85110  854.61770  376.76640   69.44040
 4399.00000    7.78920    0.08700   -9999.25   -9999.25   -0.00340    0.16010    2.92240    2.56160  958.21360 1158.65010  493.56920   67.24660
 4399.50000    7.79070    0.09260   -9999.25   -9999.25   -0.00400    0.17290    2.92620    2.55900  973.63480 1249.29980  297.09010   67.54020
 4400.00000    7.79130    0.09240   -9999.25   -9999.25   -0.00460    0.19580    2.96070    2.57220  766.61170 1268.59280  243.34720   69.65720
 4400.50000    7.78930    0.08640   -9999.25   -9999.25   -0.00540    0.20280    3.00320    2.58700  362.86950  467.05530  159.31030   69.60320
 4401.00000    7.79950    0.07270   -9999.25   -9999.25   -0.00710    0.18680    3.06850    2.60850  255.53810  321.11680  123.59950   63.45990
 4401.50000    7.82090    0.05380   -9999.25   -9999.25   -0.00890    0.14830    3.12760    2.63450  230.67270  306.68840  150.98810   54.75130
 4402.00000    7.83490    0.03150   -9999.25   -9999.25   -0.00910    0.10920    3.18670    2.66150  153.14900  128.85710   69.98010   46.71370
 4402.50000    7.86220    0.01760   -9999.25   -9999.25   -0.00910    0.09610    3.15020    2.67770   55.90940   73.50080   37.26830   41.63210
 4403.00000    7.91650    0.02370   -9999.25   -9999.25   -0.00890    0.10190    3.14400    2.66960   68.78900   85.50240   52.26450   47.24080
 4403.50000    7.97080    0.04360   -9999.25   -9999.25   -0.00880    0.11290    3.14940    2.62890   78.51750  104.56280   67.10690   60.02060
 4404.00000    8.02450    0.06700   -9999.25   -9999.25   -0.00780    0.12520    3.07410    2.58820   72.97230   78.52040   24.46350   70.73910
 4404.50000    8.03150    0.09120   -9999.25   -9999.25   -0.00620    0.13050    2.93110    2.54760   35.09050    8.60170    7.48450   75.25540
 4405.00000    8.14440    0.11290   -9999.25   -9999.25   -0.00470    0.12090    2.76670    2.52260    4.72430    6.11870    4.31020   64.87710
 4405.50000    8.21410    0.12350   -9999.25   -9999.25   -0.00520    0.11440    2.69310    2.50160    4.32610    5.19480    3.89000   54.14100
 4406.00000    8.27010    0.13200   -9999.25   -9999.25   -0.00590    0.12310    2.63980    2.49750    4.10520    4.73190    3.49210   50.67610
 4406.50000    8.31700    0.12870   -9999.25   -9999.25   -0.00490    0.12800    2.58660    2.51550    4.38130    5.08910    4.03480   52.54210
 4407.00000    8.32250    0.11460   -9999.25   -9999.25   -0.00400    0.13140    2.58020    2.52890    5.09570    5.34900    4.23960   53.16520
 4407.50000    8.33120    0.11450   -9999.25   -9999.25   -0.00340    0.13420    2.58550    2.51600    5.55380    6.45360    5.43090   55.05880
 4408.00000    8.34810    0.12920   -9999.25   -9999.25   -0.00600    0.13970    2.55440    2.48820    4.80520    5.02890    4.23730   55.78880
 4408.50000    8.37630    0.14110   -9999.25   -9999.25   -0.00870    0.14770    2.56610    2.46590    3.60660    3.89060    3.16340   57.46280
 4409.00000    8.39880    0.15020   -9999.25   -9999.25   -0.00910    0.15740    2.55390    2.46590    3.01740    3.53900    2.83680   57.50950
 4409.50000    8.39880    0.14850   -9999.25   -9999.25   -0.00880    0.16940    2.53860    2.47150    2.79480    3.46100    2.71490   58.94330
 4410.00000    8.39880    0.14580   -9999.25   -9999.25   -0.00850    0.16860    2.52510    2.47150    2.69670    3.34400    2.69260   61.34230
 4410.50000    8.39880    0.14840   -9999.25   -9999.25   -0.00860    0.16370    2.50830    2.46720    2.68290    3.33250    2.64850   65.54200
 4411.00000    8.39880    0.15340   -9999.25   -9999.25   -0.00920    0.17380    2.49800    2.46170    2.75230    3.44060    2.67060   69.15220
 4411.50000    8.39880    0.15430   -9999.25   -9999.25   -0.00920    0.17400    2.49120    2.45810    2.82350    3.32400    2.71490   72.18770
 4412.00000    8.39880    0.15530   -9999.25   -9999.25   -0.00920    0.17290    2.49120    2.46160    2.66920    3.04570    2.61770   69.45250
 4412.50000    8.39880    0.15400   -9999.25   -9999.25   -0.00920    0.17340    2.49120    2.47130    2.64210    3.26320    2.51010   65.69350
 4413.00000    8.38960    0.15220   -9999.25   -9999.25   -0.00860    0.17400    2.52020    2.48420    2.92460    3.66850    2.78430   63.64990
 4413.50000    8.33660    0.14550   -9999.25   -9999.25   -0.00810    0.17300    2.53990    2.49710    3.62850    4.96810    3.18900   66.37920
 4414.00000    8.28960    0.13140   -9999.25   -9999.25   -0.00750    0.16880    2.58020    2.51840    6.62900    6.09320    4.40010   70.62200
 4414.50000    8.20140    0.11720   -9999.25   -9999.25   -0.00590    0.16450    2.66840    2.53170   10.76950   11.32470    7.74980   76.49520
 4415.00000    8.11320    0.10920   -9999.25   -9999.25   -0.00260    0.15900    2.75660    2.54500   14.91000   20.67410   13.51030   83.34560
 4415.50000    8.07870    0.10290   -9999.25   -9999.25   -0.00010    0.16250    2.84300    2.55830   29.61930   36.15330   24.25200   90.64360
 4416.00000    8.02680    0.09350   -9999.25   -9999.25   -0.00160    0.17800    2.92690    2.56420   29.71390   40.09060   26.81920   97.97280
 4416.50000    8.03570    0.08930   -9999.25   -9999.25   -0.00340    0.19050    2.94900    2.55480   41.02010   56.53160   28.75470  101.73760
