~Version ---------------------------------------------------
VERS.   2.0 : CWLS log ASCII Standard -VERSION 2.0
WRAP.    NO : One line per depth step
DLM . SPACE : Column Data Section Delimiter
~Well ------------------------------------------------------
STRT .F                   29.0 : START DEPTH
STOP .F                 4847.0 : STOP DEPTH
STEP .F                    0.5 : STEP
NULL .                -9999.25 : NULL VALUE
COMP .                         : COMPANY
WELL .                         : WELL
FLD  .                         : FIELD
LOC  .                         : LOCATION
PROV .                         : PROVINCE
CNTY .                         : COUNTY
STAT .                         : STATE
CTRY .                         : COUNTRY
SRVC .                         : SERVICE COMPANY
DATE .                         : DATE
UWI  .                         : UNIQUE WELL ID
API  .                         : API NUMBER
SLAT .WGS84 2.5082509057824964 : SURFACE LATITUDE
SLON .WGS84  7.185372793652988 : SURFACE LONGITUDE
DATUM.F                3195.24 : DEPTH DATUM ELEV
~Curve Information -----------------------------------------
DEPT   .F     : 1 MEASURED DEPTH
LLD    .OHMM  : LATEROLOG DEEP RESISTIVITY
LLS    .OHMM  : LATEROLOG SHALLOW RESISTIVITY
MSFL   .OHMM  : MICRO SPHERICALLY FOCUSED RESISTIVITY
GRD    .GAPI  : GAMMA RAY FROM DENSITY LOG
NPHI_LS.DEC   : NEUTRON POROSITY LIMESTONE
PE     .B/E   : PHOTO ELECTRIC CROSS SECTION
CALX   .IN    : CALIPER FROM X AXIS OF X-Y CALIPER(S)
DPHI_LS.DEC   : DENSITY POROSITY LIMESTONE
DRHO   .G/C3  : BULK DENSITY CORRECTION
RHOB   .G/C3  : BULK DENSITY
DTCM   .MS/F  : DELTA-T COMPENSATED
DTSM   .US/F  : DELTA-T SHEAR
~Params ----------------------------------------------------
~Other -----------------------------------------------------
~ASCII -----------------------------------------------------
# ...
 3725.00000    7.77730    5.98490    1.42250   47.87900    0.13740    3.03060   11.59820    0.21350    0.01190    2.37220   59.68580  122.59100
 3725.50000   10.44240    7.50580    1.24790   46.65340    0.12140    3.03150   11.59820    0.21610    0.01050    2.36470   54.18290  118.24100
 3726.00000   13.96710    9.85820    2.58310   45.28460    0.10320    3.02230   11.60410    0.21560    0.00930    2.36440   51.16550  114.68270
 3726.50000   18.42300   12.75510    7.32840   43.33710    0.08950    3.01020   11.63480    0.21300    0.00810    2.36570   47.58460  112.50610
 3727.00000   24.31150   16.49430   12.61620   41.28600    0.07770    2.99800   11.65660    0.20830    0.00700    2.37410   44.94790  111.54560
 3727.50000   30.34080   20.25370   15.47090   39.92010    0.06600    2.93300   11.68530    0.20270    0.00520    2.38330   43.95870  111.04930
 3728.00000   35.68780   24.37600   17.35340   39.94410    0.05860    2.86280   11.73080    0.19820    0.00510    2.39010   43.65230  111.26020
 3728.50000   39.33230   26.95020   18.30230   40.48060    0.05450    2.83020   11.78090    0.19640    0.00510    2.39280   43.16290  111.68720
 3729.00000   41.07960   27.74930   19.45990   41.60950    0.05290    2.84090   11.84160    0.19700    0.00480    2.39420   42.47510  112.80090
 3729.50000   40.92500   26.90280   20.18300   42.89720    0.05510    2.90410   11.90620    0.19910    0.00320    2.39260   42.01050  115.31330
 3730.00000   37.68200   24.71240   20.01650   44.27000    0.06050    2.96730   11.93640    0.19940    0.00150    2.39160   42.76550  117.46580
 3730.50000   34.05930   21.21470   19.25920   45.30700    0.06890    3.01810   11.96790    0.19920    0.00010    2.39180   43.82100  120.21020
 3731.00000   28.30640   18.18740   17.97310   46.26570    0.07680    3.03510   12.02400    0.19770    0.00040    2.39200   45.54930  123.26740
 3731.50000   25.10920   15.53940   15.01320   46.62870    0.08420    3.05210   12.08210    0.19750    0.00080    2.39250   47.01430  125.44340
 3732.00000   24.78570   14.00530   12.29850   44.65620    0.08350    3.08860   12.14030    0.20250    0.00230    2.38790   47.60670  127.76920
 3732.50000   25.85250   14.26330    9.82840   37.75570    0.06670    3.15800   12.20250    0.22220    0.00510    2.35920   48.15520  130.76120
 3733.00000   32.60270   16.80670    8.59870   32.75480    0.04490    3.22740   12.27150    0.25390    0.00790    2.32350   49.37110  135.26870
 3733.50000   45.01740   21.43560    8.37220   25.09880    0.01390    3.38710   12.36090    0.29560    0.01070    2.25090   52.36370  140.53020
 3734.00000   61.69040   28.23220    8.56060   18.23720    0.00350    3.55820   12.51490    0.32330    0.01350    2.19900   55.68120  145.63080
 3734.50000   75.71550   37.63330    8.91490   13.42260   -0.00390    3.72770   12.66000    0.36950    0.01430    2.13740   61.39500  150.39490
 3735.00000   78.75280   50.16480   11.90630   11.31750   -0.00390    3.87640   12.88010    0.38430    0.01490    2.10150   67.69050  152.28810
 3735.50000   63.45330   53.42600   30.06840   11.66450    0.00080    3.99660   12.86470    0.37760    0.02400    2.09090   70.70320  149.30420
 3736.00000   36.06090   36.49850   11.21990   17.17260    0.01900    3.97280   12.84930    0.35270    0.03260    2.11500   68.54090  143.09530
 3736.50000   17.96480   23.51330    3.74560   29.39760    0.05270    3.68240   12.87300    0.33650    0.04240    2.16130   66.89600  137.31820
 3737.00000    9.93080   15.14790    1.93580   39.52580    0.11570    3.27590   12.91270    0.35970    0.06350    2.14920   65.78590  131.84910
 3737.50000    7.96180   11.67750    1.20610   44.52870    0.18350    2.86940   13.92930    0.38910    0.08460    2.10750   62.46510  126.54670
 3738.00000    8.06840   11.25870    0.78750   42.58860    0.20820    2.70360   14.83110    0.39700    0.10390    2.07240   57.52600  121.42620
 3738.50000    9.67360   12.17760    0.61790   35.96180    0.16370    2.64420   13.81420    0.37470    0.12000    2.07520   52.06010  120.06800
 3739.00000   11.59820   15.45180    0.78220   27.24190    0.09160    2.79220   12.73950    0.34540    0.12130    2.11390   52.12240  124.24820
 3739.50000   16.53500   20.23490    2.04640   20.40260    0.03710    3.21270   12.70990    0.32180    0.08810    2.16490   54.53990  127.20880
 3740.00000   24.98930   28.74230    7.93130   14.99120    0.01270    3.63310   12.68140    0.31490    0.04620    2.20300   50.86560  126.97550
 3740.50000   37.59810   42.19470    6.24340   12.09420    0.00290    4.09030   12.66560    0.32330    0.02530    2.18920   48.83540  125.78320
 3741.00000   55.51960   61.94350    4.70480   10.36210   -0.00240    4.25690   12.73820    0.34300    0.01400    2.15650   47.23110  124.87530
 3741.50000   81.98360   90.93540    5.02270    9.09590   -0.00800    4.31970   12.85040    0.37340    0.01150    2.12380   45.98460  124.49230
 3742.00000  127.63050  133.49670   16.97910    7.17490   -0.01370    4.37620   12.95680    0.39870    0.00890    2.09110   46.01590  125.06410
 3742.50000  240.87920  196.26500   81.63280    5.56000   -0.01430    4.40150   12.97470    0.41250    0.01150    2.06220   47.56910  126.84200
 3743.00000  454.61530  294.68530  322.21950    4.83840   -0.01480    4.39360   12.98690    0.41390    0.01480    2.04840   50.48920  129.70800
 3743.50000  858.00310  412.68840 1711.56600    4.99170   -0.01520    4.35480   12.94350    0.41470    0.01800    2.04160   54.14770  133.26860
 3744.00000  902.05810  405.32810  443.55490    6.38000   -0.01260    4.32560   12.85910    0.41520    0.01930    2.03900   58.12830  137.68480
 3744.50000  403.90670  224.08850   65.37120    8.52570   -0.00880    4.25510   12.76360    0.40840    0.01840    2.04120   63.60420  143.18220
 3745.00000  148.49060   92.13240   37.07200   12.60900   -0.00470    4.14670   12.66490    0.38960    0.01820    2.05830   68.24390  148.15060
 3745.50000   55.31970   45.33680   26.80070   18.63440    0.00430    4.00200   12.57430    0.36060    0.01860    2.09740   71.66280  151.46230
 3746.00000   32.90080   31.46350   17.24060   27.74810    0.03450    3.85730   12.50630    0.31160    0.01890    2.17050   73.54130  150.68720
 3746.50000   19.56740   21.83560    9.72060   38.17250    0.08530    3.61710   12.38820    0.26480    0.02320    2.24850   72.85850  147.18790
 3747.00000   12.53590   15.50120    6.64540   45.15050    0.12550    3.36360   12.36570    0.22180    0.02510    2.33190   69.17620  141.77500
 3747.50000   10.27480   14.09040    5.39810   46.40850    0.14010    3.11010   12.35630    0.20550    0.02380    2.37500   63.76230  137.54140
 3748.00000   10.46160   13.74750    4.97310   43.76900    0.11790    3.05310   12.34700    0.20530    0.02190    2.38700   58.91160  132.93990
 3748.50000   12.30450   15.48020    4.86920   36.40720    0.09260    3.18760   12.33880    0.22380    0.02080    2.37060   54.37480  128.80930
 3749.00000   18.45160   21.92990    6.18040   28.96640    0.05590    3.35260   12.33260    0.25350    0.02210    2.34490   51.53930  127.11320
 3749.50000   34.79830   33.25160   10.31490   22.45860    0.01460    3.51770   12.40300    0.29170    0.02370    2.30040   49.97030  127.07040
 3750.00000   65.61420   51.54330   13.40490   17.28600   -0.00020    3.68270   12.54220    0.33700    0.02530    2.23140   49.56780  127.54300
 3750.50000  121.65940   79.89730   17.25040   11.87440   -0.00820    3.91710   12.59010    0.36420    0.02850    2.16250   49.87080  128.50770
 3751.00000  225.57620  123.84860   26.60850    9.30180   -0.01370    4.07240   12.58420    0.38190    0.03170    2.10690   50.28300  129.41560
 3751.50000  379.26460  191.97750   43.37320    7.55670   -0.01510    4.21980   12.57680    0.39490    0.03430    2.08360   51.94610  131.29350
 3752.00000  606.93120  291.04370   35.90880    6.04720   -0.01540    4.29000   12.52620    0.40350    0.03180    2.06620   55.27430  132.38720
 3752.50000  661.18030  290.89460   17.61290    5.27870   -0.01530    4.33570   12.47050    0.40770    0.02910    2.05240   58.70390  133.03010
