~Version ---------------------------------------------------
VERS.   2.0 : CWLS log ASCII Standard -VERSION 2.0
WRAP.    NO : One line per depth step
DLM . SPACE : Column Data Section Delimiter
~Well ------------------------------------------------------
STRT .F                   29.0 : START DEPTH
STOP .F                 4847.0 : STOP DEPTH
STEP .F                    0.5 : STEP
NULL .                -9999.25 : NULL VALUE
COMP .                         : COMPANY
WELL .                         : WELL
FLD  .                         : FIELD
LOC  .                         : LOCATION
PROV .                         : PROVINCE
CNTY .                         : COUNTY
STAT .                         : STATE
CTRY .                         : COUNTRY
SRVC .                         : SERVICE COMPANY
DATE .                         : DATE
UWI  .                         : UNIQUE WELL ID
API  .                         : API NUMBER
SLAT .WGS84 2.5082509057824964 : SURFACE LATITUDE
SLON .WGS84  7.185372793652988 : SURFACE LONGITUDE
DATUM.F                3195.24 : DEPTH DATUM ELEV
~Curve Information -----------------------------------------
DEPT   .F     : 1 MEASURED DEPTH
LLD    .OHMM  : LATEROLOG DEEP RESISTIVITY
LLS    .OHMM  : LATEROLOG SHALLOW RESISTIVITY
MSFL   .OHMM  : MICRO SPHERICALLY FOCUSED RESISTIVITY
GRD    .GAPI  : GAMMA RAY FROM DENSITY LOG
NPHI_LS.DEC   : NEUTRON POROSITY LIMESTONE
PE     .B/E   : PHOTO ELECTRIC CROSS SECTION
CALX   .IN    : CALIPER FROM X AXIS OF X-Y CALIPER(S)
DPHI_LS.DEC   : DENSITY POROSITY LIMESTONE
DRHO   .G/C3  : BULK DENSITY CORRECTION
RHOB   .G/C3  : BULK DENSITY
DTCM   .MS/F  : DELTA-T COMPENSATED
DTSM   .US/F  : DELTA-T SHEAR
~Params ----------------------------------------------------
~Other -----------------------------------------------------
~ASCII -----------------------------------------------------
# ...
 4341.00000  116.62640  115.22330   67.49330   17.08120    0.05610    3.45720    9.38550   -0.08190    0.01380    2.84970   18.50270   93.07810
 4341.50000  115.17370  120.73310   64.44180   14.72980    0.04820    3.59370    9.38420   -0.08970    0.01370    2.85210   18.91070   93.16640
 4342.00000  125.93270  127.90880   58.66370   14.83510    0.04580    3.63510    9.38740   -0.08570    0.00930    2.84330   18.86160   92.82690
 4342.50000  145.99910  142.37720   60.26890   15.58340    0.04710    3.66300    9.39030   -0.07730    0.00360    2.82990   18.21200   92.35430
 4343.00000  169.26290  169.32530  112.87330   15.80440    0.04920    3.56430    9.39040   -0.07210   -0.00030    2.82720   17.47960   92.39470
 4343.50000  179.20640  190.91570  321.82770   14.71420    0.04810    3.60490    9.38950   -0.07330    0.00290    2.83080   17.73200   93.92970
 4344.00000  173.06760  189.41900  503.27420   12.45650    0.04670    3.86640    9.38800   -0.07860    0.00530    2.83990   19.62940   96.35330
 4344.50000  134.25100  108.31200  203.88500   10.58790    0.04450    4.09390    9.38510   -0.08360    0.00640    2.84530   22.96180   99.23010
 4345.00000   82.32320   70.95280   81.42570   12.02770    0.04740    4.22850    9.37990   -0.07680    0.00490    2.83280   26.31270  102.81670
 4345.50000   50.48090   47.94940   45.58260   16.38140    0.05590    3.99410    9.37990   -0.06050    0.00430    2.81050   30.05920  105.41040
 4346.00000   36.33630   32.40390   26.73180   23.69450    0.06890    3.59950    9.38010   -0.03700    0.00400    2.76920   32.43390  106.93550
 4346.50000   33.93630   29.43200   23.89880   31.70620    0.08290    3.17970    9.38040   -0.01160    0.00450    2.73550   34.19620  107.38240
 4347.00000   32.84000   28.00350   24.75080   37.57700    0.09540    2.94940    9.38070    0.00770    0.00460    2.69920   34.32140  107.41760
 4347.50000   32.64150   27.56490   26.24780   40.59600    0.10540    2.85940    9.38100    0.01570    0.00480    2.68720   33.87720  107.68020
 4348.00000   32.47860   27.98040   27.57280   40.58530    0.11270    2.80260    9.38090    0.01460    0.00590    2.68720   33.78020  108.58400
 4348.50000   32.21460   28.41340   28.22580   38.77330    0.11870    2.84840    9.37560    0.01040    0.00730    2.69250   34.13400  109.79930
 4349.00000   29.53080   28.33950   26.58460   36.41160    0.12340    2.89290    9.35520    0.00540    0.00810    2.70260   35.83740  112.06800
 4349.50000   27.07060   25.19050   23.22690   35.11140    0.12620    2.93670    9.32500    0.00630    0.00590    2.69600   37.99400  114.59480
 4350.00000   24.18510   22.08910   20.29330   37.30240    0.13060    2.97450    9.31350    0.01330    0.00390    2.68880   40.25280  116.04810
 4350.50000   21.56700   19.36950   17.73030   42.83120    0.13700    3.01110    9.30460    0.01870    0.00260    2.68160   41.31560  116.92610
 4351.00000   19.23230   17.40490   15.49180   48.95440    0.14200    3.03720    9.30530    0.02100    0.00310    2.67620   41.73800  116.35390
 4351.50000   19.18740   16.73770   13.99710   56.54520    0.14420    3.04450    9.31880    0.02090    0.00490    2.67650   40.86810  114.75990
 4352.00000   20.54440   17.42370   14.17830   62.83770    0.14580    2.99780    9.29390    0.01990    0.00670    2.67820   38.85830  112.29440
 4352.50000   23.09790   19.25640   15.40730   65.48440    0.14720    2.94700    9.26980    0.01760    0.00840    2.68270   36.47630  109.55910
 4353.00000   25.96880   21.44470   19.58640   64.11350    0.14770    2.83810    9.25150    0.00960    0.00980    2.69450   34.41800  107.81280
 4353.50000   27.91980   23.88180   25.56990   58.83570    0.14290    2.74700    9.23650   -0.00270    0.01120    2.71450   33.97880  107.51090
 4354.00000   27.92970   26.59580   29.13740   51.19090    0.13170    2.73410    9.23160   -0.01300    0.01070    2.72920   34.80830  108.17240
 4354.50000   27.61880   27.59300   26.99690   42.31260    0.11540    2.82570    9.20560   -0.01080    0.00940    2.72420   36.35900  109.07680
 4355.00000   27.30500   23.82660   22.59390   38.92570    0.10640    2.86040    9.19040   -0.00050    0.00810    2.70790   36.98020  109.29790
 4355.50000   27.09680   23.55750   21.52830   38.69490    0.10010    2.75470    9.19500    0.01250    0.00480    2.69250   36.33460  108.78240
 4356.00000   27.23240   23.52200   23.96750   39.29260    0.09950    2.69920    9.20340    0.02270    0.00480    2.67700   35.03730  107.69420
 4356.50000   28.77420   24.88600   26.60830   39.49320    0.10150    2.65210    9.20380    0.03030    0.00460    2.66570   32.85700  106.15730
 4357.00000   32.86890   27.76600   25.54540   38.41050    0.10630    2.68970    9.16400    0.03320    0.00330    2.65760   30.40920  104.20640
 4357.50000   38.02430   30.97930   24.47870   37.88130    0.11170    2.74600    9.12890    0.02580    0.00380    2.66810   27.77870  102.12430
 4358.00000   44.49160   35.51750   30.79580   36.23620    0.11470    2.80030    9.11410    0.00670    0.00510    2.69130   24.89960   99.83830
 4358.50000   53.81470   41.23170   40.69020   32.45030    0.10880    2.80780    9.09920   -0.02300    0.00850    2.73400   22.38740   98.14260
 4359.00000   64.01060   47.86530   49.85160   27.38020    0.09730    2.74820    9.08430   -0.04120    0.01060    2.77300   20.94150   96.80910
 4359.50000   73.45080   55.56610   51.64500   22.11270    0.09030    2.80010    9.06950   -0.04760    0.01190    2.78570   19.98260   95.58790
 4360.00000   84.28330   60.73240   62.91730   19.72950    0.08460    2.94590    9.05650   -0.04830    0.00980    2.78860   19.04100   94.71660
 4360.50000   93.47840   65.44620   87.43760   19.20640    0.07980    3.12870    9.04370   -0.05060    0.01010    2.79070   18.83520   95.09100
 4361.00000   93.46680   67.00040  112.10950   19.35930    0.07550    3.29850    9.02540   -0.05640    0.01040    2.79930   19.70570   96.36800
 4361.50000   83.44760   62.84640   91.69920   18.46220    0.06740    3.42780    9.00580   -0.06370    0.01290    2.81020   21.69800   98.61380
 4362.00000   69.04410   53.41050   69.04260   16.63360    0.05970    3.46580    8.99220   -0.06760    0.01660    2.81800   24.66960  101.67130
 4362.50000   57.35510   45.44290   52.02580   15.10000    0.05520    3.50140    8.99070   -0.06300    0.01870    2.81270   27.90300  104.23140
 4363.00000   47.64500   38.88160   40.19610   15.51760    0.05470    3.39100    8.98940   -0.04830    0.01940    2.79760   30.84620  106.72530
 4363.50000   39.57880   33.26760   31.05630   18.21580    0.05680    3.27400    8.98900   -0.02440    0.01510    2.76560   33.82050  110.28140
 4364.00000   32.87820   28.46430   26.52100   22.40660    0.06060    3.16180    8.98850   -0.00150    0.01080    2.72190   36.43560  113.34220
 4364.50000   27.31200   24.95140   23.21190   26.79430    0.06670    3.06560    8.98810    0.02250    0.00710    2.67850   39.06330  116.05530
 4365.00000   24.01540   22.59540   20.31580   29.48630    0.07700    3.01630    8.98760    0.03110    0.00490    2.66220   41.64790  118.63510
 4365.50000   21.41570   19.85010   17.53970   31.31860    0.08950    2.96700    8.98720    0.03360    0.00270    2.65760   43.72860  119.76500
 4366.00000   19.09740   17.43840   14.76950   33.64420    0.10440    2.91770    8.98670    0.03800    0.00430    2.65120   44.28300  117.31270
 4366.50000   18.87470   16.07740   12.30910   42.66590    0.12100    2.86130    8.96400    0.05360    0.00340    2.62800   42.19420  114.12240
 4367.00000   21.36680   18.49780   11.12670   63.01050    0.13650    2.78720    8.93930    0.07080    0.00250    2.60170   36.46830  107.93650
 4367.50000   27.16630   21.76230   11.91960   89.38770    0.15160    2.74190    8.92410    0.07680    0.00070    2.58130   28.85700  101.59420
 4368.00000   34.82370   27.44610   20.16970  100.91440    0.15680    2.80280    8.90930    0.05600    0.00650    2.62190   24.54810   98.15230
 4368.50000   45.30630   34.61430   47.58040   99.72440    0.14300    2.87830    8.90460    0.01200    0.01210    2.65660   21.85690   96.08130
