~Version ---------------------------------------------------
VERS.   2.0 : CWLS log ASCII Standard -VERSION 2.0
WRAP.    NO : One line per depth step
DLM . SPACE : Column Data Section Delimiter
~Well ------------------------------------------------------
STRT .F                   29.0 : START DEPTH
STOP .F                 4847.0 : STOP DEPTH
STEP .F                    0.5 : STEP
NULL .                -9999.25 : NULL VALUE
COMP .                         : COMPANY
WELL .                         : WELL
FLD  .                         : FIELD
LOC  .                         : LOCATION
PROV .                         : PROVINCE
CNTY .                         : COUNTY
STAT .                         : STATE
CTRY .                         : COUNTRY
SRVC .                         : SERVICE COMPANY
DATE .                         : DATE
UWI  .                         : UNIQUE WELL ID
API  .                         : API NUMBER
SLAT .WGS84 2.5082509057824964 : SURFACE LATITUDE
SLON .WGS84  7.185372793652988 : SURFACE LONGITUDE
DATUM.F                3195.24 : DEPTH DATUM ELEV
~Curve Information -----------------------------------------
DEPT   .F     : 1 MEASURED DEPTH
LLD    .OHMM  : LATEROLOG DEEP RESISTIVITY
LLS    .OHMM  : LATEROLOG SHALLOW RESISTIVITY
MSFL   .OHMM  : MICRO SPHERICALLY FOCUSED RESISTIVITY
GRD    .GAPI  : GAMMA RAY FROM DENSITY LOG
NPHI_LS.DEC   : NEUTRON POROSITY LIMESTONE
PE     .B/E   : PHOTO ELECTRIC CROSS SECTION
CALX   .IN    : CALIPER FROM X AXIS OF X-Y CALIPER(S)
DPHI_LS.DEC   : DENSITY POROSITY LIMESTONE
DRHO   .G/C3  : BULK DENSITY CORRECTION
RHOB   .G/C3  : BULK DENSITY
DTCM   .MS/F  : DELTA-T COMPENSATED
DTSM   .US/F  : DELTA-T SHEAR
~Params ----------------------------------------------------
~Other -----------------------------------------------------
~ASCII -----------------------------------------------------
# ...
 4817.00000  296.96590  226.89100  194.79000   13.66950    0.13900    3.11960    7.87000   -0.00990    0.04030    2.72710   17.67590   92.00230
 4817.50000  260.58020  208.36840  229.58340   13.38280    0.12660    3.06540    7.87270   -0.01870    0.03770    2.74200   17.57750   92.40470
 4818.00000  226.83300  173.99830  127.21320   13.54320    0.11910    3.06370    7.86890   -0.02360    0.03740    2.75030   18.04310   93.24570
 4818.50000  187.32810  145.29740   78.75250   13.77730    0.11380    3.13400    7.85990   -0.02870    0.03850    2.75500   18.87700   94.11800
 4819.00000  155.08560  121.33080   58.74110   13.82500    0.11600    3.27330    7.84960   -0.02970    0.03960    2.75960   19.73570   95.04850
 4819.50000  128.88220   99.75760   43.61480   13.96890    0.12190    3.38920    7.84870   -0.02640    0.04030    2.75880   20.26280   95.29140
 4820.00000  106.86990   86.66100   37.80790   13.91610    0.12920    3.34270    7.85340   -0.01770    0.04050    2.74600   20.26340   95.06500
 4820.50000   90.49650   74.81190   30.06580   13.95840    0.14290    3.28530    7.85810   -0.00290    0.04070    2.72640   19.81890   94.75860
 4821.00000   82.98280   67.10280   19.54380   14.14640    0.15150    3.17790    7.86280    0.00480    0.04650    2.70670   18.90170   94.34680
 4821.50000   81.95590   64.09170   15.76800   -9999.25    0.15210    3.11870    7.86750    0.00150    0.05360    2.69820   18.02300   94.19500
 4822.00000   84.50650   66.12690   16.13680   -9999.25    0.15130    3.09990    7.87220   -0.00690    0.06060    2.71280   17.48420   94.06880
 4822.50000   90.53300   68.76390   18.26560   -9999.25    0.15170    3.09490    7.87690   -0.01470    0.06500    2.73270   -9999.25   -9999.25
 4823.00000   97.87080   74.96000   23.94270   -9999.25    0.15880    3.07030    7.87310   -0.01840    0.06690    2.73760   -9999.25   -9999.25
 4823.50000  107.59730   82.24630   34.17810   -9999.25    0.16730    3.02120    7.85740   -0.01710    0.06590    2.73580   -9999.25   -9999.25
 4824.00000  118.52040   90.84130   34.80700   -9999.25    0.17030    2.95690    7.85560   -0.01620    0.05610    2.73720   -9999.25   -9999.25
 4824.50000  131.00710   99.63900   32.54660   -9999.25    0.16550    2.90930    7.89840   -0.01970    0.04620    2.74630   -9999.25   -9999.25
 4825.00000  143.18630  106.26610   41.11640   -9999.25    0.15910    2.92510    7.94140   -0.01960    0.04130    2.74310   -9999.25   -9999.25
 4825.50000  149.27720  112.62170   47.22100   -9999.25    0.15060    3.02860    7.94850   -0.00980    0.03750    2.71790   -9999.25   -9999.25
 4826.00000  154.33150  114.05400   33.25180   -9999.25    0.14350    3.11350    7.91010    0.00940    0.03390    2.69600   -9999.25   -9999.25
 4826.50000   -9999.25   -9999.25   24.43940   -9999.25    0.13610    3.16110    7.87650    0.01840    0.03100    2.68410   -9999.25   -9999.25
 4827.00000   -9999.25   -9999.25   19.10650   -9999.25    0.12950    3.15020    7.91390    0.01920    0.03810    2.68070   -9999.25   -9999.25
 4827.50000   -9999.25   -9999.25   15.67370   -9999.25    0.12570    3.13940    7.95130    0.01390    0.04510    2.68820   -9999.25   -9999.25
 4828.00000   -9999.25   -9999.25   14.88890   -9999.25    0.12490    3.10190    7.90140    0.01020    0.04740    2.69380   -9999.25   -9999.25
 4828.50000   -9999.25   -9999.25   14.46500   -9999.25    0.12480    3.02870    7.83220    0.01020    0.04270    2.69430   -9999.25   -9999.25
 4829.00000   -9999.25   -9999.25   14.49670   -9999.25    0.12640    2.95550    7.77430    0.01670    0.03790    2.68600   -9999.25   -9999.25
 4829.50000   -9999.25   -9999.25   20.91300   -9999.25    0.12880    2.92500    7.76160    0.02860    0.03050    2.66720   -9999.25   -9999.25
 4830.00000   -9999.25   -9999.25   26.19910   -9999.25    0.13150    2.93760    7.75250    0.04170    0.02620    2.64670   -9999.25   -9999.25
 4830.50000   -9999.25   -9999.25   21.33960   -9999.25    0.13380    2.96600    7.73230    0.05550    0.02290    2.61790   -9999.25   -9999.25
 4831.00000   -9999.25   -9999.25   14.32110   -9999.25    0.13410    2.99450    7.70240    0.06440    0.02080    2.60500   -9999.25   -9999.25
 4831.50000   -9999.25   -9999.25   10.29510   -9999.25    0.13080    3.01590    7.69250    0.06940    0.02390    2.59900   -9999.25   -9999.25
 4832.00000   -9999.25   -9999.25    7.14050   -9999.25    0.12570    3.03560    7.71100    0.07110    0.02690    2.59740   -9999.25   -9999.25
 4832.50000   -9999.25   -9999.25    5.28810   -9999.25    0.12290    3.06340    7.74380    0.06940    0.02980    2.59950   -9999.25   -9999.25
 4833.00000   -9999.25   -9999.25    4.35900   -9999.25    0.12250    3.16190    7.77660    0.06370    0.03130    2.60950   -9999.25   -9999.25
 4833.50000   -9999.25   -9999.25    4.20660   -9999.25    0.12330    3.27680    7.80940    0.05680    0.03280    2.62030   -9999.25   -9999.25
 4834.00000   -9999.25   -9999.25    4.18250   -9999.25    0.12610    3.31730    7.83770    0.05310    0.03480    2.62490   -9999.25   -9999.25
 4834.50000   -9999.25   -9999.25    3.89930   -9999.25   -9999.25    3.29600    7.84780    0.05590    0.03750    2.61980   -9999.25   -9999.25
 4835.00000   -9999.25   -9999.25    3.28030   -9999.25   -9999.25    3.23060    7.85790    0.05920    0.04020    2.61540   -9999.25   -9999.25
 4835.50000   -9999.25   -9999.25    2.54390   -9999.25   -9999.25    3.15280    7.93690    0.06110    0.04510    2.61310   -9999.25   -9999.25
 4836.00000   -9999.25   -9999.25    2.07650   -9999.25   -9999.25    3.07900    7.92680    0.06060    0.05060    2.61490   -9999.25   -9999.25
 4836.50000   -9999.25   -9999.25    1.87620   -9999.25   -9999.25    3.00530    7.91660    0.05440    0.05560    2.62530   -9999.25   -9999.25
 4837.00000   -9999.25   -9999.25    2.33230   -9999.25   -9999.25    3.00860    7.86170    0.04650    0.05320    2.63820   -9999.25   -9999.25
 4837.50000   -9999.25   -9999.25    3.29150   -9999.25   -9999.25    3.04970    7.81660    0.03700    0.04770    2.65300   -9999.25   -9999.25
 4838.00000   -9999.25   -9999.25    3.30240   -9999.25   -9999.25    3.12630    7.80690    0.03310    0.04220    2.65930   -9999.25   -9999.25
 4838.50000   -9999.25   -9999.25    3.01770   -9999.25   -9999.25    3.23460    7.79560    0.03480    0.03880    2.65430   -9999.25   -9999.25
 4839.00000   -9999.25   -9999.25    2.93680   -9999.25   -9999.25    3.29210    7.79060    0.03870    0.03210    2.64900   -9999.25   -9999.25
 4839.50000   -9999.25   -9999.25    3.26440   -9999.25   -9999.25    3.20650    7.78550    0.04520    0.03090    2.63940   -9999.25   -9999.25
 4840.00000   -9999.25   -9999.25    3.74340   -9999.25   -9999.25    3.14370    7.78050    0.06240    0.02890    2.60780   -9999.25   -9999.25
 4840.50000   -9999.25   -9999.25    4.14460   -9999.25   -9999.25    3.08350    7.77550    0.08100    0.02590    2.57550   -9999.25   -9999.25
 4841.00000   -9999.25   -9999.25    3.52730   -9999.25   -9999.25    3.01360    7.77400    0.09480    0.02290    2.56220   -9999.25   -9999.25
 4841.50000   -9999.25   -9999.25    2.92440   -9999.25   -9999.25    2.99560    7.78550    0.09470    0.02300    2.56540   -9999.25   -9999.25
 4842.00000   -9999.25   -9999.25    2.82660   -9999.25   -9999.25    3.00390    7.81520    0.07690    0.02780    2.58840   -9999.25   -9999.25
 4842.50000   -9999.25   -9999.25   -9999.25   -9999.25   -9999.25    3.01350    7.85150    0.05710    0.03260    2.62730   -9999.25   -9999.25
 4843.00000   -9999.25   -9999.25   -9999.25   -9999.25   -9999.25    3.06930    7.87810    0.04240    0.03870    2.65530   -9999.25   -9999.25
 4843.50000   -9999.25   -9999.25   -9999.25   -9999.25   -9999.25    3.14530    7.85730    0.03700    0.04420    2.64390   -9999.25   -9999.25
 4844.00000   -9999.25   -9999.25   -9999.25   -9999.25   -9999.25    3.14780    7.82820    0.04350    0.04960    2.62490   -9999.25   -9999.25
 4844.50000   -9999.25   -9999.25   -9999.25   -9999.25   -9999.25    3.13870    7.64610    0.05890    0.05500    2.60600   -9999.25   -9999.25
