~Version ---------------------------------------------------
VERS.   2.0 : CWLS log ASCII Standard -VERSION 2.0
WRAP.    NO : One line per depth step
DLM . SPACE : Column Data Section Delimiter
~Well ------------------------------------------------------
STRT .F                   29.0 : START DEPTH
STOP .F                 4847.0 : STOP DEPTH
STEP .F                    0.5 : STEP
NULL .                -9999.25 : NULL VALUE
COMP .                         : COMPANY
WELL .                         : WELL
FLD  .                         : FIELD
LOC  .                         : LOCATION
PROV .                         : PROVINCE
CNTY .                         : COUNTY
STAT .                         : STATE
CTRY .                         : COUNTRY
SRVC .                         : SERVICE COMPANY
DATE .                         : DATE
UWI  .                         : UNIQUE WELL ID
API  .                         : API NUMBER
SLAT .WGS84 2.5082509057824964 : SURFACE LATITUDE
SLON .WGS84  7.185372793652988 : SURFACE LONGITUDE
DATUM.F                3195.24 : DEPTH DATUM ELEV
~Curve Information -----------------------------------------
DEPT   .F     : 1 MEASURED DEPTH
LLD    .OHMM  : LATEROLOG DEEP RESISTIVITY
LLS    .OHMM  : LATEROLOG SHALLOW RESISTIVITY
MSFL   .OHMM  : MICRO SPHERICALLY FOCUSED RESISTIVITY
GRD    .GAPI  : GAMMA RAY FROM DENSITY LOG
NPHI_LS.DEC   : NEUTRON POROSITY LIMESTONE
PE     .B/E   : PHOTO ELECTRIC CROSS SECTION
CALX   .IN    : CALIPER FROM X AXIS OF X-Y CALIPER(S)
DPHI_LS.DEC   : DENSITY POROSITY LIMESTONE
DRHO   .G/C3  : BULK DENSITY CORRECTION
RHOB   .G/C3  : BULK DENSITY
DTCM   .MS/F  : DELTA-T COMPENSATED
DTSM   .US/F  : DELTA-T SHEAR
~Params ----------------------------------------------------
~Other -----------------------------------------------------
~ASCII -----------------------------------------------------
# ...
 4705.00000  869.29420  745.25050  223.75190   30.69960    0.08000    3.17400    8.08640   -0.02340    0.01910    2.74720   12.55590   85.80620
 4705.50000  935.39320  765.92170  169.24840   33.27670    0.08110    3.14110    8.07950   -0.01170    0.02190    2.73150   10.68950   84.67970
 4706.00000 1161.18100 1002.22800  207.04320   32.21620    0.08040    3.08030    8.06140   -0.00990    0.02460    2.72850    9.60970   83.96430
 4706.50000 1499.12720 1356.44950  375.29660   27.49470    0.07760    3.05200    8.04200   -0.01850    0.02770    2.74630    9.04810   83.91630
 4707.00000 1935.42910 1835.86380  694.29860   21.79560    0.07200    3.03050    8.02270   -0.03040    0.03140    2.76320    9.46780   84.20080
 4707.50000 2090.70360 1948.63310 1233.57900   17.54810    0.06260    3.15750    8.00340   -0.04550    0.03500    2.78810   11.00890   85.82290
 4708.00000 2079.48710 1724.01210 1651.95610   16.45910    0.05800    3.23150    7.98400   -0.05440    0.03610    2.80280   12.92600   87.79980
 4708.50000 1300.11210 1178.73230  794.25820   17.42950    0.05430    3.26750    7.96470   -0.05470    0.03200    2.79570   15.28030   90.18910
 4709.00000  803.71710  805.91690  227.67870   20.69480    0.05540    3.20370    7.96910   -0.03920    0.02790    2.76820   17.68950   92.57100
 4709.50000  496.85010  551.01720   80.76460   25.19440    0.05710    3.07520    7.98150   -0.01500    0.02520    2.73350   20.07840   93.64990
 4710.00000  327.75220  376.73870   46.34800   28.87820    0.06060    2.97920    7.99620    0.00370    0.02330    2.69640   21.31480   93.53940
 4710.50000  244.73610  257.58180   29.65330   31.21880    0.06420    2.90110    7.99240    0.02630    0.02210    2.66790   21.43150   92.99770
 4711.00000  224.47230  239.52500   23.63110   32.16330    0.06860    2.82300    7.98860    0.03040    0.02390    2.66460   20.44840   91.56320
 4711.50000  246.82590  270.76850   23.12410   32.08910    0.07170    2.77330    7.97390    0.02630    0.02660    2.67000   18.54330   90.03430
 4712.00000  368.67650  393.52810   27.16070   30.79590    0.07390    2.73460    7.97800    0.01810    0.02930    2.68680   16.32670   88.38410
 4712.50000  565.24210  625.58610   38.94220   27.95690    0.07040    2.69440    7.99030    0.00240    0.02610    2.70840   14.25910   87.53440
 4713.00000 1032.80090 1012.13750  105.91380   24.84000    0.06600    2.70210    8.02020   -0.00850    0.01980    2.72730   12.76010   87.50670
 4713.50000 1887.11790 1637.54090  343.62280   20.94830    0.05660    2.76020    8.04850   -0.01860    0.01370    2.74340   11.85670   87.58020
 4714.00000 2493.88870 1976.73850  231.11860   17.60790    0.04970    2.81830    8.07670   -0.02780    0.01120    2.76010   11.86970   87.89380
 4714.50000 3169.10230 2023.25010  141.18010   13.37360    0.04210    2.92270    8.10500   -0.04340    0.01190    2.78990   12.72450   88.33330
 4715.00000 3034.45340 2070.85740   85.67020   11.05040    0.03820    3.08780    8.12430   -0.06700    0.01370    2.83360   13.73490   88.67180
 4715.50000 2156.80470 1983.30290   63.46300   10.63610    0.04030    3.15830    8.12260   -0.08380    0.01910    2.85180   14.45300   88.78400
 4716.00000 1546.81820 1433.21880  103.09040   11.74360    0.04800    3.11990    8.08980   -0.08290    0.02250    2.83740   14.56580   88.39030
 4716.50000  911.73560 1035.70460  150.22010   14.00260    0.06510    3.03820    8.05620   -0.06330    0.02580    2.79510   14.45810   87.99480
 4717.00000  692.12600  778.78360  210.59560   16.09780    0.08110    2.98320    8.02340   -0.03860    0.02400    2.76620   14.05420   87.53420
 4717.50000  708.40910  739.32060  257.06320   17.08200    0.08720    2.93350    7.99240   -0.02470    0.02500    2.75340   13.54320   87.47550
 4718.00000  762.53850  781.57440  228.97070   17.11870    0.08610    2.88370    8.00500   -0.02480    0.02540    2.75440   13.26180   87.53530
 4718.50000  942.81560  888.92760  182.27250   16.35970    0.08450    2.84680    8.03940   -0.02910    0.02520    2.75880   13.42380   88.30930
 4719.00000 1092.94740 1011.02670  106.58580   15.36790    0.08280    2.85110    8.06260   -0.03180    0.02580    2.76140   14.19960   89.72230
 4719.50000  980.77210 1057.44700   61.13350   15.42880    0.08200    2.85530    8.06380   -0.02790    0.02630    2.75670   15.17120   90.79540
 4720.00000  881.44110  979.95890   38.46350   16.85340    0.08450    2.96210    8.06430   -0.01390    0.02880    2.72580   16.36420   91.54400
 4720.50000  792.17060  885.08890   40.00540   18.66710    0.08900    3.03580    8.05590    0.00330    0.03240    2.70070   17.10660   91.54020
 4721.00000  811.11720  860.24010   60.91900   19.95170    0.09330    3.02280    8.03270    0.01350    0.03590    2.68900   16.66720   90.79610
 4721.50000 1058.16770 1057.58170   98.24240   20.73570    0.09900    2.96170    8.01230    0.01500    0.03520    2.69010   15.57090   89.25640
 4722.00000 1694.90000 1502.24870  138.06760   16.73140    0.10310    2.93440    7.99180    0.00600    0.03450    2.70600   14.09000   88.02480
 4722.50000 2347.50200 1974.53030  267.93560   13.62690    0.10220    2.93630    7.97140   -0.00750    0.03320    2.72760   12.56190   86.01910
 4723.00000 4312.56880 1980.86550  589.20130   11.35110    0.09550    3.04080    7.97200   -0.01890    0.03020    2.74490   10.71120   84.76160
 4723.50000 6679.24760 1974.34700  932.00510    9.77930    0.08290    3.13020    7.97610   -0.03110    0.02710    2.77170    9.23760   84.11900
 4724.00000 10485.83890 1967.85020  751.92280    8.88570    0.06520    3.16960    7.98020   -0.04850    0.02390    2.80120    8.47680   83.72010
 4724.50000 16372.75680 1961.37480  453.23750    8.07370    0.04880    3.16730    7.99990   -0.06860    0.02160    2.83000    7.90000   83.79990
 4725.00000 23901.28910 1954.91940  272.12250    8.50940    0.03510    3.21120    8.03990   -0.08090    0.02030    2.84230    7.88830   84.15710
 4725.50000 34985.42190 1951.40580  262.70110    9.05940    0.02540    3.26610    8.07000   -0.08320    0.01830    2.84440    7.94990   84.48010
 4726.00000 51004.01950 1952.23290  528.22810    9.38140    0.02170    3.37700    8.07880   -0.08020    0.01470    2.83970    8.29170   84.69380
 4726.50000 72670.42190 1953.06150 1898.42000    9.30510    0.01890    3.50450    8.06690   -0.07860    0.01380    2.83900    8.93870   84.90270
 4727.00000 96366.43750 1953.89050 2014.96680    8.55940    0.01890    3.55880    8.06230   -0.08230    0.01280    2.84360    9.79670   85.11170
 4727.50000 101788.34380 1954.71880 2018.25480    7.74070    0.02000    3.55840    8.06360   -0.08850    0.01610    2.85340   10.40270   85.13110
 4728.00000 97180.54690 1955.54850  711.19560    7.22030    0.02300    3.55510    8.06660   -0.09560    0.02120    2.86520   10.79990   85.14870
 4728.50000 76493.08590 1956.37740  231.30900    6.97630    0.02890    3.52350    8.07270   -0.09760    0.02570    2.86890   10.88820   85.07760
 4729.00000 54456.91020 1957.20790  130.84390    6.99640    0.03400    3.48010    8.07380   -0.09190    0.03000    2.85990   10.56630   84.97940
 4729.50000 41187.16020 1958.03860   96.57180    7.17020    0.03990    3.43560    8.07010   -0.08390    0.03550    2.84690   10.37420   84.86660
 4730.00000 35684.47270 1958.86850  127.96820    7.46180    0.04480    3.39700    8.06900   -0.07820    0.04100    2.83960   10.55300   84.75380
 4730.50000 31296.46680 1959.70010  163.02570    7.89790    0.04910    3.36700    8.07030   -0.07750    0.05000    2.83680   10.88440   84.82480
 4731.00000 28566.45310 1960.53080  168.43320    8.64570    0.05490    3.33710    8.06500   -0.07880    0.06250    2.83780   11.29050   85.05600
 4731.50000 25209.63280 1961.36290  307.61160    9.89860    0.05900    3.36020    8.06530   -0.07870    0.06950    2.83700   11.47520   85.32000
 4732.00000 21673.80270 1961.72250  693.25050   11.01020    0.06230    3.40640    8.06300   -0.07530    0.06540    2.83260   11.41330   85.09010
 4732.50000 18664.08010 1962.06730 1384.61890   11.24990    0.06600    3.44720    8.04100   -0.06970    0.06040    2.82500   11.08200   84.86010
