~Version ---------------------------------------------------
VERS.   2.0 : CWLS log ASCII Standard -VERSION 2.0
WRAP.    NO : One line per depth step
DLM . SPACE : Column Data Section Delimiter
~Well ------------------------------------------------------
STRT .F                   29.0 : START DEPTH
STOP .F                 4847.0 : STOP DEPTH
STEP .F                    0.5 : STEP
NULL .                -9999.25 : NULL VALUE
COMP .                         : COMPANY
WELL .                         : WELL
FLD  .                         : FIELD
LOC  .                         : LOCATION
PROV .                         : PROVINCE
CNTY .                         : COUNTY
STAT .                         : STATE
CTRY .                         : COUNTRY
SRVC .                         : SERVICE COMPANY
DATE .                         : DATE
UWI  .                         : UNIQUE WELL ID
API  .                         : API NUMBER
SLAT .WGS84 2.5082509057824964 : SURFACE LATITUDE
SLON .WGS84  7.185372793652988 : SURFACE LONGITUDE
DATUM.F                3195.24 : DEPTH DATUM ELEV
~Curve Information -----------------------------------------
DEPT   .F     : 1 MEASURED DEPTH
LLD    .OHMM  : LATEROLOG DEEP RESISTIVITY
LLS    .OHMM  : LATEROLOG SHALLOW RESISTIVITY
MSFL   .OHMM  : MICRO SPHERICALLY FOCUSED RESISTIVITY
GRD    .GAPI  : GAMMA RAY FROM DENSITY LOG
NPHI_LS.DEC   : NEUTRON POROSITY LIMESTONE
PE     .B/E   : PHOTO ELECTRIC CROSS SECTION
CALX   .IN    : CALIPER FROM X AXIS OF X-Y CALIPER(S)
DPHI_LS.DEC   : DENSITY POROSITY LIMESTONE
DRHO   .G/C3  : BULK DENSITY CORRECTION
RHOB   .G/C3  : BULK DENSITY
DTCM   .MS/F  : DELTA-T COMPENSATED
DTSM   .US/F  : DELTA-T SHEAR
~Params ----------------------------------------------------
~Other -----------------------------------------------------
~ASCII -----------------------------------------------------
# ...
 3613.00000  260.79780  224.47880  133.13610    8.53390   -0.00330    4.27180   11.91570    0.42770    0.05100    2.01540   66.20470  138.86760
 3613.50000   63.62430   63.02400    7.67830   12.30260    0.00440    4.25580   11.90570    0.47700    0.04200    2.00010   74.16970  141.58630
 3614.00000   19.70620   37.87920    2.90840   16.30490    0.03210    3.83150   11.90890    0.52130    0.04150    1.98480   78.95820  136.91420
 3614.50000   15.70920   22.76650    1.31640   18.36550    0.07320    3.39150   12.45770    0.51270    0.04350    1.90890   78.88360  125.06560
 3615.00000   19.03460   21.34610    0.91940   17.86690    0.07640    3.06240   12.23200    0.46050    0.04610    1.86250   58.76180  117.06610
 3615.50000   25.74670   28.62110    1.14800   14.88760    0.04660    2.81450   11.39990    0.37870    0.04400    2.07280   41.58720  109.23130
 3616.00000   38.13740   45.65940    2.29750   11.22970    0.02730    2.80770   10.48430    0.18430    0.04850    2.34720   34.65070  106.08580
 3616.50000   60.53420   76.09560    6.68580    7.28950    0.01680    3.05690   10.15050    0.00320    0.05300    2.56860   29.91860  111.52040
 3617.00000   96.08400  129.34200   10.53050    5.48990    0.00630    4.63800   10.16280   -0.05540    0.04100    2.69040   30.24280  117.11650
 3617.50000  152.51110  202.23670   10.30090    4.83190    0.00380    4.90680   10.19660    0.07560    0.00610    2.69120   36.53310  121.46020
 3618.00000  171.08390  251.60560    6.05050    4.73250   -0.00130    4.65090   10.30000    0.24230   -0.01740    2.33900   40.69470  124.20130
 3618.50000  180.98750  239.62260    5.06780    4.98940   -0.00720    4.33550   10.83880    0.36080   -0.01500    2.15760   46.36330  125.26120
 3619.00000  186.60030  215.76560   10.20400    4.96700   -0.01090    4.31900   11.73910    0.41310   -0.00720    2.05750   50.34810  126.18130
 3619.50000  191.14930  204.01610   35.40120    4.76300   -0.01090    4.31940   11.95630    0.43210    0.00500    2.04060   52.75730  128.22460
 3620.00000  199.29930  202.57560   50.89020    4.66380   -0.00970    4.33770   11.95780    0.42700    0.01630    2.03240   54.14240  130.51210
 3620.50000  205.10610  199.98840   63.04040    4.81330   -0.00790    4.35890   11.95700    0.41980    0.02150    2.03240   55.24490  132.07150
 3621.00000  197.16870  181.44040   55.65180    5.25610   -0.00550    4.41320   11.90740    0.42050    0.02100    2.03420   55.77160  132.39010
 3621.50000  179.61180  161.79390   32.97160    5.95260   -0.00280    4.36060   11.86880    0.41770    0.01760    2.03750   55.33750  131.48540
 3622.00000  174.13750  155.58600   24.08750    6.87490   -0.00250    4.29220   11.83020    0.41310    0.01550    2.04540   53.75700  130.20240
 3622.50000  187.53660  157.94600   29.77220    7.75310   -0.00290    4.23070   11.81660    0.40840    0.01730    2.05270   51.84960  129.59930
 3623.00000  210.86910  168.10570   46.34520    8.34090   -0.00290    4.22200   11.84190    0.40410    0.01920    2.06020   49.41790  128.91170
 3623.50000  237.10460  187.10070   30.26330    9.18760   -0.00170    4.21760   11.84790    0.39450    0.01980    2.06950   47.80140  129.23300
 3624.00000  268.54240  214.55910   13.91790   11.43780   -0.00030    4.21320   11.79060    0.38920    0.01780    2.08530   46.90670  130.87400
 3624.50000  298.66620  231.27000    8.01550   15.14540    0.00110    4.19930   11.64450    0.37470    0.01690    2.10670   46.62780  133.09100
 3625.00000  323.06520  251.97660    6.59440   18.95000    0.00080    4.18270   11.31460    0.36990    0.01640    2.11450   47.55610  135.28900
 3625.50000  327.41750  264.32310    6.24440   20.89330   -0.00010    4.16630   11.24500    0.37790    0.01490    2.10350   49.52160  136.26580
 3626.00000  321.28810  266.69000    7.22620   20.45840   -0.00110    4.17570   11.47690    0.39290    0.01390    2.07680   51.67320  136.34060
 3626.50000  315.53010  268.83680   10.88300   17.37090   -0.00200    4.21470   11.71940    0.40510    0.01660    2.05400   53.60120  135.77840
 3627.00000  312.31740  252.36410   25.82030   14.20800   -0.00280    4.28350   11.76780    0.40730    0.02280    2.05400   54.86550  133.76920
 3627.50000  296.22650  232.45680  222.40690   13.62390   -0.00030    4.41650   11.77910    0.40220    0.02880    2.06500   56.05100  132.21020
 3628.00000  241.07190  214.90380 1626.37790   14.66320    0.00460    4.45600   11.79010    0.39580    0.03290    2.07600   56.42850  131.39580
 3628.50000  196.18660  183.89720  188.79390   16.21580    0.00910    4.49390   11.80070    0.38770    0.03490    2.08710   55.28580  131.38770
 3629.00000  185.94020  157.02250   26.05880   16.83070    0.00950    4.41670   11.81130    0.38030    0.03700    2.09860   53.23490  132.38670
 3629.50000  190.81390  160.06180   11.32270   15.85640    0.00810    4.21070   11.82860    0.37820    0.03790    2.09860   50.43860  134.43740
 3630.00000  193.72640  173.19830    9.42990   13.84120    0.00430    4.08310   11.83390    0.38190    0.03730    2.09140   47.94230  135.51930
 3630.50000  175.27070  171.99420   10.72580   13.09780    0.00120    4.05620   11.81490    0.39060    0.03650    2.08150   46.05640  134.83090
 3631.00000  127.99600  123.17230    8.17740   14.32600    0.00230    4.08720   11.75570    0.39570    0.03560    2.07260   44.56170  129.52020
 3631.50000   93.48380   88.20890    4.59540   17.97990    0.00520    4.07910   11.68450    0.39730    0.03630    2.07260   42.49060  123.05280
 3632.00000   71.11870   63.17010    2.59200   23.08510    0.01220    4.00570   11.57670    0.39100    0.03700    2.07490   39.83260  114.31350
 3632.50000   55.61950   55.01990    1.61590   26.59520    0.01660    3.93230   11.41760    0.35770    0.03760    2.12050   35.19710  102.32330
 3633.00000   56.82190   56.19430    1.47980   25.95430    0.01600    3.86650   11.01630    0.31750    0.03830    2.21260   27.90030   98.48710
 3633.50000   67.83880   64.14560    1.79450   20.72740    0.01250    3.86710   10.43120    0.20110    0.03900    2.36190   28.07890  102.86360
 3634.00000   80.99170   77.86870    3.50950   13.67550    0.01110    4.22850    9.87670    0.05230    0.05040    2.57180   37.57640  111.01600
 3634.50000   85.61990   94.25790    8.02820    8.09530    0.00860    4.70990    9.75050   -0.03620    0.06270    2.70150   46.82890  119.21100
 3635.00000   89.91360  105.79270   11.05090    6.17810    0.00610    5.19120    9.78220    0.01510    0.03760    2.78420   55.36300  125.95230
 3635.50000   94.18050  107.68150    4.72240    6.54760    0.00300    5.37170    9.80710    0.17260    0.00450    2.37670   64.24610  131.12800
 3636.00000   97.91610  114.50490    2.90630    7.13160   -0.00110    4.64070    9.87320    0.28790   -0.00430    2.18920   69.34930  132.90780
 3636.50000  130.42110  118.33140    1.55640    7.26130   -0.00640    3.62960   10.43490    0.40330    0.01290    2.06640   63.43380  126.36590
 3637.00000  192.38000  178.99280    1.41430    6.58520   -0.01240    3.50390   11.42730    0.43710    0.03760    2.00790   52.66950  122.00320
 3637.50000  318.02150  292.14350    3.33620    5.51690   -0.01490    3.63650   11.59730    0.42250    0.06470    2.02130   46.60900  120.63590
 3638.00000  538.87170  476.82290    9.50030    4.30010   -0.01460    3.81400   11.62900    0.38620    0.08730    2.08240   44.58890  120.49750
 3638.50000  695.70760  875.31030    8.74270    3.90060   -0.01320    4.05300   11.66110    0.37000    0.07860    2.11420   45.18540  120.66830
 3639.00000  650.56410 1032.90080    5.36640    4.35600   -0.01180    4.32580   11.67480    0.37450    0.05900    2.10670   46.30400  121.28740
 3639.50000  411.49350  882.30240    4.43860    5.68450   -0.01040    4.40070   11.58590    0.37770    0.04760    2.10310   47.70410  121.96550
 3640.00000  245.24220  480.50100    5.06110    7.47300   -0.00780    4.40810   11.50900    0.37860    0.03970    2.10280   48.64140  121.88670
 3640.50000  176.31050  261.68030    5.66240    9.04880   -0.00580    4.38550   11.55350    0.38040    0.03380    2.10200   49.08350  121.39550
