~Version ---------------------------------------------------
VERS.   2.0 : CWLS log ASCII Standard -VERSION 2.0
WRAP.    NO : One line per depth step
DLM . SPACE : Column Data Section Delimiter
~Well ------------------------------------------------------
STRT .F                   29.0 : START DEPTH
STOP .F                 4847.0 : STOP DEPTH
STEP .F                    0.5 : STEP
NULL .                -9999.25 : NULL VALUE
COMP .                         : COMPANY
WELL .                         : WELL
FLD  .                         : FIELD
LOC  .                         : LOCATION
PROV .                         : PROVINCE
CNTY .                         : COUNTY
STAT .                         : STATE
CTRY .                         : COUNTRY
SRVC .                         : SERVICE COMPANY
DATE .                         : DATE
UWI  .                         : UNIQUE WELL ID
API  .                         : API NUMBER
SLAT .WGS84 2.5082509057824964 : SURFACE LATITUDE
SLON .WGS84  7.185372793652988 : SURFACE LONGITUDE
DATUM.F                3195.24 : DEPTH DATUM ELEV
~Curve Information -----------------------------------------
DEPT   .F     : 1 MEASURED DEPTH
LLD    .OHMM  : LATEROLOG DEEP RESISTIVITY
LLS    .OHMM  : LATEROLOG SHALLOW RESISTIVITY
MSFL   .OHMM  : MICRO SPHERICALLY FOCUSED RESISTIVITY
GRD    .GAPI  : GAMMA RAY FROM DENSITY LOG
NPHI_LS.DEC   : NEUTRON POROSITY LIMESTONE
PE     .B/E   : PHOTO ELECTRIC CROSS SECTION
CALX   .IN    : CALIPER FROM X AXIS OF X-Y CALIPER(S)
DPHI_LS.DEC   : DENSITY POROSITY LIMESTONE
DRHO   .G/C3  : BULK DENSITY CORRECTION
RHOB   .G/C3  : BULK DENSITY
DTCM   .MS/F  : DELTA-T COMPENSATED
DTSM   .US/F  : DELTA-T SHEAR
~Params ----------------------------------------------------
~Other -----------------------------------------------------
~ASCII -----------------------------------------------------
# ...
 4565.00000   35.10380   34.39670   27.13220   37.51070    0.11830    3.01340    8.20360    0.03270    0.00780    2.65930   22.51360   95.30530
 4565.50000   40.92810   35.97020   22.74960   36.49440    0.12400    2.97080    8.20560    0.03690    0.00870    2.65270   20.25840   92.88320
 4566.00000   59.62330   53.75910   24.93510   36.07760    0.12620    2.90880    8.20190    0.03490    0.00960    2.65570   17.91050   90.43150
 4566.50000   89.92800   86.40530   33.18180   33.83950    0.12090    2.84680    8.19950    0.02200    0.01030    2.67350   15.82090   88.74180
 4567.00000  137.99750  138.77900   68.31420   29.85370    0.10840    2.83370    8.19820    0.00310    0.01170    2.70520   14.29280   87.98480
 4567.50000  213.83840  208.93710  123.82590   23.89080    0.09660    2.92830    8.19900   -0.01570    0.01220    2.73590   13.94440   87.97700
 4568.00000  334.09370  314.56280  254.08300   18.09960    0.08440    3.08930    8.19980   -0.03280    0.01270    2.76430   14.47650   88.27670
 4568.50000  402.10400  341.52480  404.75330   13.49330    0.07490    3.17020    8.20060   -0.05170    0.01350    2.78780   15.58260   89.02670
 4569.00000  391.07350  327.57020  464.93700   12.61710    0.07160    3.11390    8.20140   -0.05870    0.01460    2.80820   16.95260   90.07390
 4569.50000  352.20100  292.60400  335.57270   13.02540    0.07010    3.05760    8.20220   -0.05910    0.01570    2.80970   18.38670   90.85600
 4570.00000  350.90760  273.61330  239.74170   14.80310    0.07320    3.01100    8.20180   -0.05280    0.01490    2.78900   19.15740   91.10680
 4570.50000  373.01280  279.88100  211.76690   16.87320    0.08060    2.97370    8.19910   -0.04030    0.01350    2.77180   19.39060   91.07780
 4571.00000  396.51030  298.24730  225.20900   18.54290    0.08790    2.93640    8.20660   -0.03020    0.01220    2.76140   18.94850   90.77700
 4571.50000  427.01380  318.23840  274.75630   19.72880    0.09010    2.97000    8.20270   -0.02810    0.01240    2.75600   18.58160   90.83070
 4572.00000  439.44210  333.47050  297.28480   20.16770    0.08250    3.07190    8.20230   -0.03140    0.01310    2.76080   18.55510   91.24420
 4572.50000  427.85150  304.37360  307.19400   20.43960    0.07190    3.17450    8.20200   -0.03860    0.01380    2.76900   18.86500   91.79500
 4573.00000  377.00960  260.05060  278.80550   21.72750    0.06500    3.18670    8.20160   -0.04870    0.01320    2.78370   19.84260   92.44520
 4573.50000  316.01030  229.59360  235.17150   24.19530    0.06180    3.16210    8.20130   -0.05510    0.01230    2.79960   20.93530   93.47560
 4574.00000  246.38670  184.76070  186.87430   26.30980    0.06420    3.13760    8.20090   -0.05070    0.01140    2.79520   21.82040   94.34600
 4574.50000  195.16650  147.88930  145.60110   28.45860    0.06640    3.12330    8.20060   -0.03140    0.01000    2.77190   22.98600   95.23020
 4575.00000  154.87080  120.29610  113.37770   30.04890    0.06800    3.11620    8.20020   -0.00570    0.00790    2.74610   24.32720   96.24080
 4575.50000  123.01820   98.10490   86.41280   31.46610    0.06980    3.09710    8.19990    0.01660    0.00680    2.69520   25.77520   97.37400
 4576.00000   97.71680   80.00740   65.86110   32.95270    0.07360    3.00600    8.20080    0.03360    0.01050    2.65760   26.99990   98.35870
 4576.50000   76.82320   65.24840   45.19130   35.33370    0.08280    2.85520    8.18590    0.04300    0.01490    2.64600   28.45770   99.62210
 4577.00000   63.29190   53.21200   30.07850   37.03350    0.09430    2.77260    8.16440    0.04490    0.01910    2.63980   29.43890  100.53350
 4577.50000   55.18650   45.79000   21.78090   38.20590    0.10330    2.74350    8.14570    0.04260    0.02130    2.64210   30.31040  101.15340
 4578.00000   50.89960   43.34350   20.03920   39.02850    0.10570    2.74170    8.14810    0.04050    0.02030    2.64660   31.15060  101.70590
 4578.50000   47.43710   41.02770   18.49410   39.55220    0.10710    2.74670    8.16160    0.04150    0.01850    2.64240   31.74070  101.77030
 4579.00000   44.16670   38.45150   17.85120   38.52150    0.10570    2.73480    8.17440    0.04900    0.01480    2.63420   31.86710  101.67940
 4579.50000   41.22790   36.26390   15.93130   37.51950    0.10480    2.69850    8.18030    0.05790    0.01120    2.62470   31.16990  101.26990
 4580.00000   40.94520   35.56260   14.78810   37.86150    0.10410    2.64690    8.18270    0.06630    0.00760    2.60340   29.77400  100.23560
 4580.50000   41.48360   35.33680   13.99410   38.65560    0.10410    2.57820    8.18300    0.07500    0.00650    2.58520   28.03790   98.99200
 4581.00000   42.55600   36.14790   12.73200   38.58490    0.10690    2.52070    8.18320    0.07680    0.00740    2.58730   25.96600   97.71990
 4581.50000   46.37290   39.49550   12.56850   37.46930    0.11240    2.47190    8.17840    0.06860    0.00880    2.59810   24.32190   96.69670
 4582.00000   48.73060   43.04080   16.98890   34.64550    0.11790    2.47980    8.19510    0.04460    0.01290    2.65390   23.41230   96.33150
 4582.50000   50.88480   44.50830   25.70740   31.94970    0.11940    2.55860    8.19920    0.01120    0.01840    2.69670   22.94090   96.17610
 4583.00000   52.90320   44.32880   29.84450   31.07740    0.11640    2.69490    8.19980   -0.01120    0.02390    2.72340   22.76270   95.93980
 4583.50000   54.62930   44.24230   25.35530   30.84940    0.10750    2.84390    8.20190   -0.01470    0.01960    2.73070   22.33130   95.61730
 4584.00000   59.53270   45.92090   24.98140   29.97460    0.10120    2.90130    8.20160   -0.00440    0.01420    2.72150   22.11020   95.67740
 4584.50000   67.58540   49.13860   27.44390   28.21920    0.09630    2.92980    8.20030    0.00110    0.01040    2.71000   22.58610   96.12600
 4585.00000   78.12260   54.50630   39.16680   25.63820    0.09490    2.96820    8.19990   -0.00160    0.01140    2.71830   24.45820   97.59490
 4585.50000   82.52930   61.83550   61.73740   23.55900    0.09750    3.02570    8.20530   -0.01120    0.01250    2.73010   27.51340  101.21330
 4586.00000   82.70300   56.30230   69.87310   24.37910    0.10110    3.11770    8.20180   -0.01780    0.01360    2.73810   31.57990  104.45650
 4586.50000   62.01550   42.84040   50.04640   29.70020    0.10680    3.15020    8.20320   -0.01500    0.01270    2.73610   35.62010  107.39730
 4587.00000   46.50280   32.59720   27.42020   36.24960    0.11370    3.03060    8.20460    0.00620    0.00980    2.71080   38.87990  109.49820
 4587.50000   34.87050   24.80320   13.78150   43.58100    0.12290    2.89850    8.20470    0.04020    0.00640    2.64980   40.55060  110.70950
 4588.00000   26.36800   19.81080    9.09440   48.61590    0.13040    2.75490    8.20130    0.09130    0.00430    2.56890   41.36540  110.74430
 4588.50000   22.18740   18.28120    5.81170   50.51670    0.13690    2.58680    8.19660    0.11900    0.00420    2.51800   40.77130  109.08990
 4589.00000   22.80390   19.31020    4.82010   50.48040    0.13990    2.47810    8.19920    0.14510    0.00400    2.47580   39.43900  107.37240
 4589.50000   25.11680   20.84760    5.06910   49.88360    0.13750    2.46270    8.20110    0.14890    0.00650    2.47060   37.82650  105.45070
 4590.00000   28.95020   23.74980    5.79740   49.68940    0.12730    2.44720    8.19960    0.13540    0.00870    2.49130   36.63390  104.57570
 4590.50000   33.24010   26.86910    7.42260   49.29580    0.11350    2.46490    8.19850    0.11890    0.01000    2.51600   35.80160  104.90480
 4591.00000   34.80500   29.10740    9.65800   47.97680    0.10480    2.54570    8.19890    0.10210    0.01110    2.54070   36.06110  105.90990
 4591.50000   33.76550   28.36620   10.95790   46.20080    0.09780    2.62660    8.19980    0.09810    0.01270    2.55400   37.09610  107.51420
 4592.00000   30.70680   25.13190   10.31940   45.23450    0.10120    2.65290    8.20300    0.10510    0.01420    2.54580   38.38840  109.08570
 4592.50000   27.77900   22.64360    8.40180   45.55020    0.10560    2.64500    8.19710    0.11960    0.01560    2.52240   39.61020  109.58420
