~Version ---------------------------------------------------
VERS.   2.0 : CWLS log ASCII Standard -VERSION 2.0
WRAP.    NO : One line per depth step
DLM . SPACE : Column Data Section Delimiter
~Well ------------------------------------------------------
STRT .F                   29.0 : START DEPTH
STOP .F                 4847.0 : STOP DEPTH
STEP .F                    0.5 : STEP
NULL .                -9999.25 : NULL VALUE
COMP .                         : COMPANY
WELL .                         : WELL
FLD  .                         : FIELD
LOC  .                         : LOCATION
PROV .                         : PROVINCE
CNTY .                         : COUNTY
STAT .                         : STATE
CTRY .                         : COUNTRY
SRVC .                         : SERVICE COMPANY
DATE .                         : DATE
UWI  .                         : UNIQUE WELL ID
API  .                         : API NUMBER
SLAT .WGS84 2.5082509057824964 : SURFACE LATITUDE
SLON .WGS84  7.185372793652988 : SURFACE LONGITUDE
DATUM.F                3195.24 : DEPTH DATUM ELEV
~Curve Information -----------------------------------------
DEPT   .F     : 1 MEASURED DEPTH
LLD    .OHMM  : LATEROLOG DEEP RESISTIVITY
LLS    .OHMM  : LATEROLOG SHALLOW RESISTIVITY
MSFL   .OHMM  : MICRO SPHERICALLY FOCUSED RESISTIVITY
GRD    .GAPI  : GAMMA RAY FROM DENSITY LOG
NPHI_LS.DEC   : NEUTRON POROSITY LIMESTONE
PE     .B/E   : PHOTO ELECTRIC CROSS SECTION
CALX   .IN    : CALIPER FROM X AXIS OF X-Y CALIPER(S)
DPHI_LS.DEC   : DENSITY POROSITY LIMESTONE
DRHO   .G/C3  : BULK DENSITY CORRECTION
RHOB   .G/C3  : BULK DENSITY
DTCM   .MS/F  : DELTA-T COMPENSATED
DTSM   .US/F  : DELTA-T SHEAR
~Params ----------------------------------------------------
~Other -----------------------------------------------------
~ASCII -----------------------------------------------------
# ...
 3249.00000   46.97720   14.92860    1.59020   51.40970    0.10780    2.91140    9.03040    0.17570    0.02200    2.43220   46.57360  131.00220
 3249.50000   41.85410   18.15740    3.14220   49.18950    0.11060    2.86290    9.06210    0.17390    0.02240    2.42320   43.56140  137.11700
 3250.00000   38.09030   21.26240    7.92120   48.93880    0.12090    2.85250    9.20390    0.17850    0.01690    2.40100   40.63760  138.53590
 3250.50000   39.29310   24.61500   12.38750   50.18400    0.13280    2.85890    9.30090    0.18300    0.01100    2.41020   39.45020  137.83170
 3251.00000   43.94100   26.87170   11.09830   51.44540    0.13700    2.91170    9.35650    0.18170    0.00540    2.42160   40.89490  134.34270
 3251.50000   47.98740   26.79090    9.24840   51.61770    0.14180    2.95430    9.41820    0.17760    0.00280    2.43110   42.66750  129.71500
 3252.00000   45.28770   24.69180    8.35340   50.98350    0.14970    2.91460    9.47430    0.17380    0.00130    2.38450   48.99490  124.59200
 3252.50000   35.02650   20.10790    5.41500   49.70100    0.18400    2.85550    9.52820    0.25240   -0.00070    2.30790   55.38170  119.18900
 3253.00000   25.84520   16.02610    2.42910   47.93620    0.23400    2.67420    9.58560    0.36650   -0.00280    2.13520   56.46560  114.18840
 3253.50000   18.07700   12.18120    1.27530   45.49750    0.28400    2.49290    9.69750    0.46210   -0.00360    1.94260   54.99140  110.48600
 3254.00000   12.00000    9.65270    0.80700   42.39450    0.34080    2.40390    9.82490    0.50200    0.01250    1.89060   56.24630  110.83810
 3254.50000    7.96590    7.64900    0.63240   40.26830    0.35220    2.39280    9.73820    0.47860    0.03370    1.93580   60.22340  112.97650
 3255.00000    6.76790    6.06130    0.67540   40.14480    0.33840    2.44580    9.34350    0.44200    0.05490    1.98090   62.10700  110.62160
 3255.50000    7.87300    5.13530    0.75240   42.61060    0.31350    2.61010    9.35700    0.41420    0.05990    2.01080   65.47470  110.65400
 3256.00000   10.01730    5.08960    0.70410   47.64310    0.27240    2.67960    9.66010    0.40380    0.05100    2.04070   69.38460  118.10860
 3256.50000   13.29350    5.56470    0.66980   55.66440    0.24920    2.67400    9.67830    0.36270    0.03780    2.08420   68.66040  127.94780
 3257.00000   15.24230    6.53310    0.87640   63.21970    0.24490    2.71300    9.18240    0.29940    0.02450    2.12770   67.18080  137.91180
 3257.50000   16.48880    8.38440    1.81870   69.90490    0.23670    2.75200    9.14520    0.21020    0.01120    2.36090   70.27480  141.68560
 3258.00000   19.20230   10.24380    3.52190   74.59250    0.22850    2.79100    9.13570    0.17620    0.01040    2.42430   69.13040  148.80430
 3258.50000   23.15580   12.96350    4.09630   76.41100    0.22850    2.85110    9.14900    0.17610    0.00890    2.42750   80.50310  158.21250
 3259.00000   25.93630   13.96460    4.14910   75.28210    0.23480    2.91150    9.16240    0.17580    0.00530    2.42770   88.11800  164.72970
 3259.50000   24.76260   13.06790    3.93030   71.14500    0.24290    2.98620    9.17130    0.17000    0.00220    2.43300   91.34960  166.11700
 3260.00000   22.61720   11.96370    3.72250   66.28180    0.25060    3.00970    9.17080    0.16010   -0.00070    2.44260   93.95230  164.54250
 3260.50000   19.95010   10.16320    3.38360   62.49270    0.25660    2.99040    9.18080    0.15050   -0.00320    2.46120   93.73050  161.13630
 3261.00000   17.37500    8.81390    3.07810   61.81520    0.26250    2.97110    9.20690    0.14410   -0.00330    2.47350   89.23850  156.60860
 3261.50000   15.54870    7.83300    2.61520   61.70420    0.26030    2.95950    9.22530    0.15040   -0.00370    2.48070   81.04070  151.15340
 3262.00000   15.03270    7.42180    1.99840   60.71930    0.23770    2.94960    9.23870    0.19380   -0.00550    2.45290   73.80430  142.32770
 3262.50000   14.95420    7.11270    1.53330   57.48620    0.20180    2.93960    9.25020    0.24670   -0.00450    2.37830   66.29470  135.41420
 3263.00000   15.71850    7.57540    1.17060   52.35380    0.16250    2.92970    9.36190    0.29410    0.00790    2.29560   59.49190  124.07240
 3263.50000   17.53150    8.72710    1.03870   45.45240    0.11990    2.94250    9.67090    0.31690    0.04760    2.24420   51.86080  115.36090
 3264.00000   28.33940   12.94870    1.31240   36.45300    0.08850    2.95560    9.85740    0.31310    0.08730    2.20200   47.31740  106.64940
 3264.50000   58.70750   23.04610    2.85890   29.60070    0.05690    2.96870   10.04460    0.29650    0.11630    2.20760   44.28120   99.58740
 3265.00000  112.94620   43.93940    7.73850   24.32740    0.02990    3.14370   10.25700    0.27930    0.13300    2.23610   42.95560   94.42380
 3265.50000  169.75010   83.77430    8.07490   19.94610    0.01360    3.28980   10.35700    0.27320    0.13080    2.26460   42.66480   92.96560
 3266.00000  149.47200  128.16780   10.26940   16.30620    0.00740    3.37270   10.37060    0.29080    0.12850    2.27420   44.14730   99.14240
 3266.50000  129.04790  120.27630   19.80520   12.60350    0.00440    3.45670   10.37950    0.34160    0.12130    2.22430   46.03830  107.88430
 3267.00000  123.65080   92.09720   19.01430   10.94800    0.00390    3.48850   10.47360    0.37930    0.11780    2.15800   50.26960  123.76520
 3267.50000  114.42940   69.53820    7.26200   12.99310    0.01150    3.50410   10.55230    0.39450    0.11530    2.09180   59.25490  137.78470
 3268.00000  101.29190   51.46080    3.28150   20.83730    0.04100    3.44620   10.43740    0.37340    0.13730    2.07570   72.22760  146.55740
 3268.50000   89.66270   38.94490    1.83730   29.49640    0.11280    3.33250   10.16210    0.33540    0.16140    2.12290   72.80990  153.66850
 3269.00000   71.74170   32.26860    1.40270   38.05470    0.17470    3.19870    9.70650    0.28970    0.18560    2.19000   68.77090  155.89970
 3269.50000   61.12490   27.85820    1.77610   46.35510    0.21290    3.09200    9.52110    0.24400    0.19150    2.26630   71.33720  159.34750
 3270.00000   53.54660   25.02000    1.73530   49.90820    0.22880    2.98530    9.88520    0.25550    0.17330    2.31110   75.33030  158.85020
 3270.50000   46.93100   22.73710    1.35160   51.75060    0.24600    2.88370   10.09920    0.29820    0.14690    2.31020   75.34490  154.44310
 3271.00000   40.71400   20.57240    1.18950   52.67020    0.26320    2.78290   10.23700    0.36110    0.12040    2.19920   65.67460  145.74670
 3271.50000   36.03990   17.67900    1.55700   51.60290    0.27920    2.66550   10.31350    0.44790    0.09520    2.08510   55.37830  124.93320
 3272.00000   33.94670   15.60340    1.64920   49.07250    0.28900    2.53730   10.57050    0.49680    0.09080    1.98480   44.73210  109.83290
 3272.50000   28.76370   13.65930    1.07590   45.63040    0.29870    2.42240   11.09730    0.52850    0.09000    1.88440   34.73460   95.62300
 3273.00000   24.68420   11.75000    0.63110   43.00000    0.30730    2.40930   11.45940    0.55010    0.09990    1.84940   29.22870   90.36090
 3273.50000   22.27130   10.70490    0.46060   40.19910    0.30740    2.39370   11.97930    0.59450    0.11380    1.81280   29.83480   89.95500
 3274.00000   19.94140    9.99150    0.41420   37.95790    0.29980    2.38840   11.63080    0.62700    0.09660    1.74700   32.08040   92.07080
 3274.50000   18.43320    9.89450    0.40640   33.81000    0.18780    2.31820   11.67470    0.63330    0.06060    1.68130   34.31710   94.11680
 3275.00000   19.26850    9.89300    0.43010   29.88960    0.11540    2.24640   11.90180    0.57340    0.03850    1.73220   31.26290   95.49100
 3275.50000   23.03570   11.70210    0.49810   27.74080    0.11830    2.20670   10.42090    0.46650    0.02960    1.86780   31.07870   96.34210
 3276.00000   35.31550   15.22810    0.88500   21.65290    0.11540    2.31400    8.32100    0.32240    0.04130    2.14590   26.11010   98.63020
 3276.50000   64.75060   22.10220    1.88180   15.89640    0.07100    2.60230    8.29220    0.09220    0.06140    2.54440   22.32130  102.53220
