~Version ---------------------------------------------------
VERS.   2.0 : CWLS log ASCII Standard -VERSION 2.0
WRAP.    NO : One line per depth step
DLM . SPACE : Column Data Section Delimiter
~Well ------------------------------------------------------
STRT .F                   29.0 : START DEPTH
STOP .F                 4847.0 : STOP DEPTH
STEP .F                    0.5 : STEP
NULL .                -9999.25 : NULL VALUE
COMP .                         : COMPANY
WELL .                         : WELL
FLD  .                         : FIELD
LOC  .                         : LOCATION
PROV .                         : PROVINCE
CNTY .                         : COUNTY
STAT .                         : STATE
CTRY .                         : COUNTRY
SRVC .                         : SERVICE COMPANY
DATE .                         : DATE
UWI  .                         : UNIQUE WELL ID
API  .                         : API NUMBER
SLAT .WGS84 2.5082509057824964 : SURFACE LATITUDE
SLON .WGS84  7.185372793652988 : SURFACE LONGITUDE
DATUM.F                3195.24 : DEPTH DATUM ELEV
~Curve Information -----------------------------------------
DEPT   .F     : 1 MEASURED DEPTH
LLD    .OHMM  : LATEROLOG DEEP RESISTIVITY
LLS    .OHMM  : LATEROLOG SHALLOW RESISTIVITY
MSFL   .OHMM  : MICRO SPHERICALLY FOCUSED RESISTIVITY
GRD    .GAPI  : GAMMA RAY FROM DENSITY LOG
NPHI_LS.DEC   : NEUTRON POROSITY LIMESTONE
PE     .B/E   : PHOTO ELECTRIC CROSS SECTION
CALX   .IN    : CALIPER FROM X AXIS OF X-Y CALIPER(S)
DPHI_LS.DEC   : DENSITY POROSITY LIMESTONE
DRHO   .G/C3  : BULK DENSITY CORRECTION
RHOB   .G/C3  : BULK DENSITY
DTCM   .MS/F  : DELTA-T COMPENSATED
DTSM   .US/F  : DELTA-T SHEAR
~Params ----------------------------------------------------
~Other -----------------------------------------------------
~ASCII -----------------------------------------------------
# ...
 3361.00000 38641.26950   -9999.25   -9999.25    2.45020   -0.00060    4.89820    8.33400   -0.13540    0.00980    2.93200   21.01910   96.94990
 3361.50000 39385.72270   -9999.25   -9999.25    2.49260   -0.00060    4.80980    8.34380   -0.13460    0.00550    2.92830   19.88330   97.01900
 3362.00000 39907.03120   -9999.25 2002.06150    2.54430   -0.00080    4.81540    8.34150   -0.14890    0.00900    2.94980   18.48140   96.72810
 3362.50000 40435.23830   -9999.25 1490.69800    2.60420   -0.00100    4.94220    8.34140   -0.16290    0.01300    2.97720   16.84790   96.09080
 3363.00000 40970.44140   -9999.25  999.48350    3.09340   -0.00080    5.10840    8.34080   -0.15890    0.01410    2.96930   15.22040   94.95600
 3363.50000 44669.30080   -9999.25  725.13170    3.69080   -0.00030    5.27440    8.33890   -0.13560    0.01220    2.91710   13.77740   94.55210
 3364.00000 81091.90620   -9999.25  601.07710    4.15720   -0.00010    5.30640    8.33850   -0.11700    0.01200    2.89880   12.56320   95.20000
 3364.50000 81613.36720   -9999.25  867.30310    4.21570   -0.00010    5.32750    8.33890   -0.11210    0.01180    2.89290   11.79270   95.70290
 3365.00000 30503.26950   -9999.25 1683.60940    3.91690    0.00000    5.37490    8.34560   -0.11210    0.01160    2.89040   12.35280   98.81880
 3365.50000 15944.18750   -9999.25 2000.74100    3.72580    0.00010    5.44160    8.35270   -0.10520    0.01270    2.88150   15.75140  103.46230
 3366.00000 9550.87010 2037.63160 2000.55200    3.86460    0.00170    5.37290    8.34880   -0.09250    0.00770    2.86480   22.48090  113.15280
 3366.50000 2896.86740 2037.43920 2000.36320    4.20140    0.00930    5.26200    8.33960   -0.08890    0.00230    2.85160   33.38100  121.86920
 3367.00000  213.33560  175.01200 2000.17420    5.57520    0.01920    5.19890    8.33890   -0.09970   -0.00240    2.86350   48.82260  132.74540
 3367.50000   40.35370   39.61920  697.35420   10.19020    0.03410    4.99680    8.34740   -0.10170   -0.00510    2.73980   64.94280  146.09420
 3368.00000    7.93050   16.44730   15.64750   18.57500    0.08160    4.09500    8.35590    0.08900   -0.01570    2.52230   76.17470  151.92250
 3368.50000    4.56940    6.82790    2.06230   31.07900    0.12910    3.15310    8.36440    0.45180   -0.02620    2.20760   80.23560  147.70610
 3369.00000    3.06380    3.90010    0.98850   42.39200    0.17190    2.58660    8.68840    0.57840   -0.02720    1.71900   72.75260  140.90340
 3369.50000    2.55370    3.48490    0.55810   51.31290    0.21120    2.36280    9.55990    0.62310   -0.02230    1.71900   62.89610  131.37330
 3370.00000    2.43470    3.50540    0.46170   56.80470    0.24590    2.31190   10.22570    0.60800    0.01450    1.77290   56.92630  118.79880
 3370.50000    2.46850    3.63240    0.41820   59.15630    0.27090    2.30720   10.48750    0.55030    0.06080    1.83090   53.06990  114.77030
 3371.00000    2.57080    3.84980    0.42140   59.43910    0.28530    2.34770   11.03260    0.50830    0.10720    1.88900   48.31440  106.15410
 3371.50000    2.71150    4.08020    0.43580   59.52640    0.28170    2.44530   11.77170    0.48630    0.13350    1.94010   43.66190   96.80990
 3372.00000    3.20860    4.28730    0.48910   57.41050    0.27030    2.54280   11.50320    0.44790    0.14410    1.98070   33.61250   89.08810
 3372.50000    4.93420    4.95140    0.60190   54.78140    0.25370    2.64040   10.64950    0.32800    0.15690    2.08740   26.43320   85.95850
 3373.00000    7.47690    7.05880    0.76600   51.18580    0.22220    2.73220    9.66260    0.18590    0.17550    2.41270   22.65490   89.03260
 3373.50000   11.11830   10.06330    0.98010   45.24040    0.16580    2.74140    9.21360    0.10440    0.18270    2.56310   21.21950   93.11940
 3374.00000   16.44740   14.34650    1.71160   35.22730    0.09240    2.83500    8.83880    0.03410    0.14750    2.68090   22.44230   95.54780
 3374.50000   24.12720   19.49020    3.96380   25.08330    0.02570    3.33670    8.51730   -0.01820    0.09640    2.79870   23.58800   96.34210
 3375.00000   38.25330   25.71050   10.00640   15.17110    0.00400    3.94770    8.48400   -0.08290    0.05900    2.87860   20.94910   96.18180
 3375.50000   75.15730   43.76360   40.56560    8.03160    0.00060    4.87340    8.45060   -0.13810    0.04510    2.97750   20.88220   96.06640
 3376.00000  179.90920  106.61910 1572.19190    3.85380   -0.00110    5.83220    8.42290   -0.17810    0.03140    2.99580   20.69510   96.11860
 3376.50000  430.66050  259.96970 2002.31210    2.62570   -0.00150    6.15680    8.41920   -0.17220    0.01800    2.98520   20.27940   96.19760
 3377.00000  449.38140  357.03520 1444.20830    2.83520    0.00020    5.84450    8.42600   -0.16200    0.01080    2.96340   19.82320   96.25090
 3377.50000  228.48150  241.29080  464.26240    3.33130    0.00190    5.41050    8.41650   -0.14280    0.00900    2.92650   20.40460   96.14890
 3378.00000  158.69360  163.06860  168.09530    3.91880    0.00540    5.18490    8.41530   -0.12410    0.00750    2.90150   20.20380   96.08890
 3378.50000  193.18640  175.13350  105.49320    4.56940    0.01060    5.00860    8.41880   -0.11050    0.00510    2.88310   19.73140   96.01400
 3379.00000  283.36350  294.39540   81.59020    4.50940    0.01360    4.89570    8.42090   -0.10410   -0.00160    2.87920   20.56470   95.82300
 3379.50000  454.45580  493.41250   88.63490    4.02570    0.01220    4.94110    8.41680   -0.10420   -0.00190    2.88270   22.79230   95.78090
 3380.00000  728.85170  751.15000  175.93280    3.40460    0.00870    5.01630    8.41710   -0.11040   -0.00170    2.89350   26.94390   96.45950
 3380.50000 1168.92580 1120.64930  487.32750    3.02670    0.00630    5.08500    8.41940   -0.11630    0.00440    2.90520   37.15990   98.90820
 3381.00000 1920.39160 1536.77980 1821.89790    3.09640    0.00550    5.31420    8.41380   -0.12370    0.01050    2.91600   51.91820  101.19620
 3381.50000 3547.29030 1905.25350 2007.65490    3.37100    0.00650    5.57290    8.40490   -0.12900    0.01400    2.91660   66.34390  103.40700
 3382.00000 5407.12500 1920.13440 2007.35300    3.39720    0.00740    5.99360    8.41450   -0.12510    0.01190    2.91090   82.39300  105.61780
 3382.50000 2555.73880 1335.37050 2007.05100    3.70040    0.00990    6.22560    8.43740   -0.12280    0.00980    2.90980   96.68100  107.05730
 3383.00000  493.14060  483.30950  535.45950    5.23690    0.01590    5.98420    8.45590   -0.12340    0.00360    2.91020   97.17170  107.14510
 3383.50000   70.48430   61.46050   87.75250   10.06090    0.02450    5.57250    8.48940   -0.11230    0.00540    2.84390   64.07070  106.46090
 3384.00000   34.48310   39.50820   38.02020   20.90820    0.04030    4.85540    8.60310   -0.05870    0.00780    2.71370   56.11920  101.60180
 3384.50000   18.33390   25.39670   16.47290   36.86840    0.06250    4.00910    8.71670    0.05310    0.00680    2.59740   52.21270   94.98850
 3385.00000   12.17710   18.38170    7.93490   52.09030    0.09700    3.37910    8.84970    0.09990    0.00660    2.48200   48.79150   91.38200
 3385.50000    9.95220   14.75720    5.72490   62.42920    0.13140    3.06460    9.17870    0.14890    0.00640    2.43710   48.02080   91.94830
 3386.00000    8.14000   12.37980    4.64200   65.54530    0.17500    2.89770    9.33960    0.17000    0.00810    2.43480   46.64700   92.89840
 3386.50000    6.23380   10.47460    3.56350   62.81710    0.20470    2.85580    9.37830    0.17400    0.01030    2.42530   42.16350   93.91430
 3387.00000    4.77050    8.43870    2.56390   58.84050    0.21400    2.87870    9.40860    0.20110    0.01260    2.38520   37.94750   94.80800
 3387.50000    3.79320    6.58090    1.87100   54.94480    0.23670    2.91150    9.39840    0.24610    0.01350    2.29930   36.20800   94.92330
 3388.00000    4.42560    6.23880    1.30600   50.38850    0.26640    2.83640    9.33090    0.29540    0.01860    2.21380   33.76260   94.88910
 3388.50000    8.46130   10.35260    0.91140   43.35740    0.25050    2.72690    9.21250    0.30880    0.02360    2.21340   30.26450   95.50340
