~Version ---------------------------------------------------
VERS.   2.0 : CWLS log ASCII Standard -VERSION 2.0
WRAP.    NO : One line per depth step
DLM . SPACE : Column Data Section Delimiter
~Well ------------------------------------------------------
STRT .F                   29.0 : START DEPTH
STOP .F                 4847.0 : STOP DEPTH
STEP .F                    0.5 : STEP
NULL .                -9999.25 : NULL VALUE
COMP .                         : COMPANY
WELL .                         : WELL
FLD  .                         : FIELD
LOC  .                         : LOCATION
PROV .                         : PROVINCE
CNTY .                         : COUNTY
STAT .                         : STATE
CTRY .                         : COUNTRY
SRVC .                         : SERVICE COMPANY
DATE .                         : DATE
UWI  .                         : UNIQUE WELL ID
API  .                         : API NUMBER
SLAT .WGS84 2.5082509057824964 : SURFACE LATITUDE
SLON .WGS84  7.185372793652988 : SURFACE LONGITUDE
DATUM.F                3195.24 : DEPTH DATUM ELEV
~Curve Information -----------------------------------------
DEPT   .F     : 1 MEASURED DEPTH
LLD    .OHMM  : LATEROLOG DEEP RESISTIVITY
LLS    .OHMM  : LATEROLOG SHALLOW RESISTIVITY
MSFL   .OHMM  : MICRO SPHERICALLY FOCUSED RESISTIVITY
GRD    .GAPI  : GAMMA RAY FROM DENSITY LOG
NPHI_LS.DEC   : NEUTRON POROSITY LIMESTONE
PE     .B/E   : PHOTO ELECTRIC CROSS SECTION
CALX   .IN    : CALIPER FROM X AXIS OF X-Y CALIPER(S)
DPHI_LS.DEC   : DENSITY POROSITY LIMESTONE
DRHO   .G/C3  : BULK DENSITY CORRECTION
RHOB   .G/C3  : BULK DENSITY
DTCM   .MS/F  : DELTA-T COMPENSATED
DTSM   .US/F  : DELTA-T SHEAR
~Params ----------------------------------------------------
~Other -----------------------------------------------------
~ASCII -----------------------------------------------------
# ...
 3977.00000   75.79560   60.03340    0.98970   38.49990    0.06280    3.68470   10.62980    0.28880    0.00290    2.24510   47.27390  120.97930
 3977.50000   86.07140   68.55920    0.78220   38.29880    0.07220    3.43940   10.63700    0.26990    0.02790    2.27920   44.88880  118.35190
 3978.00000   95.64850   74.61600    1.30600   36.40880    0.07190    3.17770   10.64570    0.16620    0.05290    2.42450   42.75200  117.42500
 3978.50000   99.91260   75.44640   34.63670   34.22160    0.07020    3.26170   10.64950    0.04490    0.07790    2.61210   42.33210  117.88750
 3979.00000   94.22100   69.45740  491.26430   33.91070    0.07480    3.51680   10.65150   -0.02360    0.09790    2.73740   43.24220  118.58330
 3979.50000   86.73560   63.69620   19.04690   35.89620    0.07690    4.05810   10.66560   -0.02560    0.05390    2.75790   43.89640  117.39360
 3980.00000   79.84480   53.02470   11.86350   39.55660    0.06610    4.04530   10.66860   -0.00680    0.03760    2.70500   43.10530  116.03070
 3980.50000   79.68330   53.67950    9.30430   42.20110    0.05310    3.97750   10.66650    0.02430    0.02590    2.65990   41.90940  114.46070
 3981.00000   84.28390   52.61380    9.29510   43.48350    0.04310    3.80180   10.66500    0.06510    0.01660    2.61490   41.25550  114.36410
 3981.50000   89.15020   51.66220   12.15200   44.07930    0.04510    3.57880   10.66550    0.09980    0.00910    2.57260   41.09250  114.58430
 3982.00000   91.29560   49.08710   15.12310   44.67110    0.05310    3.47650   10.66670    0.10330    0.00720    2.53800   41.00530  114.26120
 3982.50000   89.62670   46.64030   17.04480   45.14230    0.06000    3.39750   10.66530    0.08400    0.00540    2.55470   40.23580  113.25140
 3983.00000   88.36410   44.38700   16.20930   44.34690    0.06040    3.42900   10.68050    0.05810    0.00940    2.60910   39.15580  112.38900
 3983.50000   89.33770   44.80800   15.40970   42.45140    0.05550    3.65570   10.70680    0.04820    0.01890    2.64070   38.46890  112.48470
 3984.00000  101.44810   47.76100   17.40350   41.07700    0.04740    3.69270   10.75170    0.11620    0.02860    2.56130   38.65300  113.66060
 3984.50000  122.36920   53.94430   21.06390   40.62770    0.03890    3.64420   10.84110    0.17140    0.04000    2.45380   40.00200  115.47750
 3985.00000  138.86900   62.78880   22.08350   41.88450    0.03050    3.42440   11.32690    0.20960    0.05350    2.38930   41.43600  117.74240
 3985.50000  146.88190   66.09610   20.24770   43.91100    0.02590    3.23510   12.11060    0.22570    0.06530    2.35150   43.04030  120.26160
 3986.00000  138.48080   67.01720   19.58190   45.94100    0.02580    3.09320   12.56810    0.23560    0.05560    2.33440   44.25020  122.48650
 3986.50000  127.29620   64.11890   18.93800   48.01800    0.02600    2.96800   12.83670    0.26760    0.04520    2.31460   45.49230  125.08250
 3987.00000   97.78020   56.11910   19.20270   49.72220    0.02510    3.17140   12.84510    0.30710    0.03470    2.20680   46.35630  127.11960
 3987.50000   86.66450   52.20430   22.42960   50.06050    0.02340    3.37500   12.85430    0.38680    0.03370    2.09780   46.86630  127.67420
 3988.00000   80.50020   48.83220   22.90890   49.21080    0.02080    3.58210   12.97090    0.43290    0.04100    2.03570   47.81460  127.66820
 3988.50000   74.87440   45.67780   15.35560   47.72440    0.02080    3.71950   13.14150    0.44620    0.07510    1.99100   48.80530  127.46830
 3989.00000   68.18540   42.72730    7.52690   46.12610    0.02380    3.72150   13.13910    0.44640    0.10910    1.98760   49.92040  127.84520
 3989.50000   60.63790   38.18390    3.11330   45.96430    0.03020    3.67550   13.10790    0.43910    0.13120    1.99970   50.74870  128.25330
 3990.00000   52.04520   34.85610    1.54770   47.01650    0.04990    3.45850   12.77240    0.41800    0.13270    2.01190   50.50140  125.09970
 3990.50000   46.63650   29.15660    0.88210   48.87710    0.06940    3.25170   12.26690    0.36520    0.12190    2.07090   48.59430  121.65140
 3991.00000   45.98820   26.86920    0.69640   50.40520    0.08770    3.09090   11.25140    0.29900    0.10490    2.18970   44.38640  115.98680
 3991.50000   52.43720   28.23840    0.71940   49.71070    0.09570    3.09090   10.28640    0.19810    0.08100    2.29890   38.87190  112.06070
 3992.00000   62.01260   33.29650    1.54540   43.10930    0.09310    3.15190   10.23670    0.12560    0.06310    2.48930   33.57900  109.15130
 3992.50000   82.83710   42.80030   10.21350   34.62650    0.06540    3.29400   10.22240    0.04210    0.04740    2.58580   29.52530  107.70460
 3993.00000  108.43540   56.15070   79.60260   26.16120    0.04340    3.55600   10.21440   -0.04730    0.03440    2.75590   27.80580  107.11100
 3993.50000  148.22330   73.66540 1460.10600   19.88130    0.03410    4.12060   10.21180   -0.07600    0.02800    2.84130   28.12470  108.59930
 3994.00000  173.35360   89.17280   36.97860   17.59420    0.02570    4.77110   10.21170   -0.10460    0.02120    2.89980   30.93420  111.55580
 3994.50000  179.52060  103.29850    5.83790   16.66910    0.02100    5.08600   10.21280   -0.00920    0.01480    2.73250   35.91180  115.40360
 3995.00000  179.46660  107.64810    2.27630   16.55290    0.01440    4.84330   10.21430    0.12400    0.01150    2.53770   42.20110  119.22830
 3995.50000  168.70480  104.74680    0.95930   16.98630    0.01030    4.46000   10.29120    0.23610    0.02410    2.38780   48.67450  122.31560
 3996.00000  115.01800   90.69680    0.64920   18.75990    0.01030    4.07680   10.44250    0.26600    0.04430    2.27990   52.66780  123.65340
 3996.50000   78.24710   77.37600    0.57000   22.61940    0.01630    3.84510   10.38080    0.23600    0.07630    2.31970   54.02640  123.47380
 3997.00000   57.72370   66.01160    0.76990   28.07680    0.02910    3.84890   10.02860    0.20870    0.11680    2.38240   52.80130  122.42360
 3997.50000   47.76700   56.31630    1.77890   33.55720    0.03630    4.12390    9.70230    0.23010    0.12560    2.36310   49.47470  120.87810
 3998.00000   43.68610   49.20730    6.50580   36.62370    0.02490    4.41390    9.69590    0.28730    0.08390    2.27010   47.15400  119.41930
 3998.50000   41.90530   49.16200   13.60360   35.65260    0.01420    4.46520    9.69650    0.34690    0.04390    2.17710   45.00100  117.81650
 3999.00000   43.83490   50.40070   13.53490   31.83210    0.01070    4.36230    9.69730    0.36640    0.04710    2.11830   43.04020  116.18980
 3999.50000   49.26520   54.42400   14.89180   28.06400    0.00920    4.36250    9.69800    0.36250    0.06750    2.11830   41.20080  114.78590
 4000.00000   55.41810   58.76840   17.74090   25.93540    0.01010    4.27280    9.69880    0.35380    0.07440    2.14240   39.41430  112.93050
 4000.50000   63.22450   65.27530   21.66900   25.10180    0.01210    4.07470    9.69960    0.33770    0.06220    2.18410   36.57940  110.60000
 4001.00000   74.37210   76.30750   24.53200   24.92660    0.01440    3.89950    9.70040    0.30930    0.04700    2.22590   33.93620  108.32690
 4001.50000   88.23570   89.20420   30.54680   23.69110    0.01640    3.86640    9.70120    0.28090    0.02660    2.26760   31.66600  106.49500
 4002.00000  108.26210  104.28070   45.36180   20.97600    0.01810    3.86720    9.70200    0.24570    0.00610    2.30940   30.01560  105.69520
 4002.50000  132.83370  121.90510   66.59470   17.72470    0.01980    3.89780    9.70270    0.21070   -0.01430    2.36710   28.63900  105.18040
 4003.00000  149.11860  142.50830   89.20250   15.54040    0.02120    4.06560    9.70250    0.17810   -0.03120    2.42020   27.53550  104.66550
 4003.50000  151.13430  143.64000  124.38600   14.31490    0.02200    4.26360    9.70200    0.14420   -0.02960    2.47290   26.56020  104.09690
 4004.00000  151.13510  137.99980  123.86180   13.58710    0.02100    4.58440    9.70210    0.10180   -0.02570    2.54580   25.22480  103.41810
 4004.50000  156.00200  139.69170  109.72330   12.59520    0.01500    4.95450    9.70250    0.01910   -0.01820    2.66250   23.67370  102.54530
