~Version ---------------------------------------------------
VERS.   2.0 : CWLS log ASCII Standard -VERSION 2.0
WRAP.    NO : One line per depth step
DLM . SPACE : Column Data Section Delimiter
~Well ------------------------------------------------------
STRT .F                   29.0 : START DEPTH
STOP .F                 4847.0 : STOP DEPTH
STEP .F                    0.5 : STEP
NULL .                -9999.25 : NULL VALUE
COMP .                         : COMPANY
WELL .                         : WELL
FLD  .                         : FIELD
LOC  .                         : LOCATION
PROV .                         : PROVINCE
CNTY .                         : COUNTY
STAT .                         : STATE
CTRY .                         : COUNTRY
SRVC .                         : SERVICE COMPANY
DATE .                         : DATE
UWI  .                         : UNIQUE WELL ID
API  .                         : API NUMBER
SLAT .WGS84 2.5082509057824964 : SURFACE LATITUDE
SLON .WGS84  7.185372793652988 : SURFACE LONGITUDE
DATUM.F                3195.24 : DEPTH DATUM ELEV
~Curve Information -----------------------------------------
DEPT   .F     : 1 MEASURED DEPTH
LLD    .OHMM  : LATEROLOG DEEP RESISTIVITY
LLS    .OHMM  : LATEROLOG SHALLOW RESISTIVITY
MSFL   .OHMM  : MICRO SPHERICALLY FOCUSED RESISTIVITY
GRD    .GAPI  : GAMMA RAY FROM DENSITY LOG
NPHI_LS.DEC   : NEUTRON POROSITY LIMESTONE
PE     .B/E   : PHOTO ELECTRIC CROSS SECTION
CALX   .IN    : CALIPER FROM X AXIS OF X-Y CALIPER(S)
DPHI_LS.DEC   : DENSITY POROSITY LIMESTONE
DRHO   .G/C3  : BULK DENSITY CORRECTION
RHOB   .G/C3  : BULK DENSITY
DTCM   .MS/F  : DELTA-T COMPENSATED
DTSM   .US/F  : DELTA-T SHEAR
~Params ----------------------------------------------------
~Other -----------------------------------------------------
~ASCII -----------------------------------------------------
# ...
 3837.00000  765.71780  697.91100   10.69420    5.14320   -0.00750    3.91260   12.44680    0.38690    0.06970    2.08460   71.21180  140.33250
 3837.50000  731.87490  632.10000    9.41370    4.99970   -0.00730    3.97050   12.46680    0.37800    0.07520    2.10240   73.61050  139.96380
 3838.00000  715.62190  610.64860    5.42700    5.17800   -0.00810    3.92480   12.46110    0.37110    0.08050    2.11120   73.57980  131.81670
 3838.50000  755.43600  733.05950    3.52400    5.67430   -0.00910    3.88730   12.23250    0.37160    0.08590    2.10940   66.54890  124.98360
 3839.00000 1093.79910 1032.92180    2.84950    6.00780   -0.01060    3.93030   12.19000    0.38000    0.08080    2.09970   57.46650  123.52060
 3839.50000 2048.23340 1455.44420    3.74970    5.88750   -0.01260    3.99100   12.61930    0.39410    0.06830    2.07970   49.89090  123.31690
 3840.00000 3292.04000 1936.37170   11.56730    5.06520   -0.01460    4.16050   12.64810    0.40660    0.05760    2.05870   45.60070  124.19130
 3840.50000 5143.33250 1992.22380  104.19090    4.13040   -0.01570    4.30070   12.65940    0.40610    0.04960    2.05450   45.41690  125.61210
 3841.00000 7760.68750 1989.92180 2056.25950    3.49710   -0.01550    4.41320   12.65820    0.40770    0.04160    2.05100   46.51990  128.61490
 3841.50000 9953.13380 1834.63950 2053.88480    3.21300   -0.01490    4.43460   12.66300    0.41120    0.03450    2.04750   48.33590  131.71700
 3842.00000 6858.59330 1309.61210 2051.51150    3.45280   -0.01320    4.42710   12.62780    0.41300    0.03710    2.04660   50.32800  133.82360
 3842.50000 3726.58720  679.43380 1671.41100    4.24880   -0.01070    4.35540   12.57310    0.40970    0.03960    2.04660   52.36060  136.01430
 3843.00000  594.58120  403.27060  395.97540    6.14540   -0.00820    4.22650   12.50210    0.40110    0.04470    2.06250   54.52700  138.40190
 3843.50000  239.21060  242.86850   90.33840    9.79550    0.00150    4.11230   12.40370    0.38050    0.06140    2.09420   56.41810  141.24200
 3844.00000  162.10570  155.31610   45.82530   13.30910    0.01470    4.02170   12.38430    0.35900    0.07720    2.13480   57.23520  140.77570
 3844.50000  156.52030  158.23530   35.16430   16.07310    0.02890    3.93090   12.40430    0.33460    0.09230    2.16700   56.57160  134.16850
 3845.00000  170.74020  187.57170   29.75630   15.99410    0.03180    3.84000   12.41990    0.33080    0.10030    2.17520   53.95720  129.61830
 3845.50000  248.01550  238.53520   26.85310   13.74130    0.02120    3.80470   12.45600    0.34050    0.09300    2.15390   52.01560  127.63090
 3846.00000  393.76210  292.75820   60.54140   10.83290    0.00890    3.88500   12.51630    0.36090    0.08570    2.12910   51.14600  127.03650
 3846.50000  592.45680  343.48030   88.00700    7.62520   -0.00220    3.92480   12.56100    0.38440    0.08070    2.09120   51.00810  125.59380
 3847.00000  943.41980  402.99040   37.98980    6.11200   -0.00880    3.94210   12.54630    0.40350    0.08050    2.06630   50.98390  121.73090
 3847.50000 1329.47710  423.35170   28.21450    5.35080   -0.00970    3.92020   12.39230    0.41710    0.08040    2.04540   50.77500  119.11070
 3848.00000 1453.14330  370.37230   24.65260    5.34610   -0.00830    3.83930   12.13470    0.41620    0.08660    2.04430   50.00040  117.97020
 3848.50000 1486.85340  332.65920   28.34610    5.64750   -0.00630    3.74010   11.84460    0.39060    0.09830    2.09500   48.05260  117.15670
 3849.00000 1438.60900  309.52380   38.02450    5.75610   -0.00520    3.68070   11.61400    0.36000    0.11630    2.13280   46.84630  117.62890
 3849.50000 1364.89400  328.79260   24.01690    5.68920   -0.00600    3.82450   11.51110    0.31540    0.13920    2.21190   46.44440  119.30410
 3850.00000 1325.10800  377.32120   12.27240    5.17930   -0.00760    4.07980   11.49530    0.28570    0.17480    2.27220   46.42280  121.29460
 3850.50000 1288.17920  477.56530    8.19110    4.62830   -0.00900    4.21480   11.47950    0.26930    0.19860    2.26740   45.83140  123.33230
 3851.00000 1252.71900  724.42350    8.20670    4.40240   -0.01000    4.10690   11.49710    0.29000    0.19700    2.23390   44.29550  125.52970
 3851.50000 1214.18480 1079.18540   10.75680    4.35710   -0.01080    3.95150   11.58190    0.33730    0.19330    2.17680   42.98630  126.19310
 3852.00000 1171.51220 1607.68100   10.32590    4.18670   -0.01300    3.68920   11.75490    0.37930    0.19300    2.11970   41.42790  125.14460
 3852.50000  970.68630 1718.66540   10.59350    4.20880   -0.01240    3.43250   12.23010    0.42570    0.16300    2.02600   40.26750  121.49960
 3853.00000  545.45140  756.39250    9.69950    4.56820   -0.01060    3.22860   12.38840    0.45210    0.13000    1.98300   38.04840  114.39420
 3853.50000  341.55760  270.88850    5.11010    5.07780   -0.00510    3.02690   12.17480    0.45350    0.10060    1.97110   34.16140  106.07910
 3854.00000  213.88080  122.61320    3.11770    5.42940    0.00810    2.96070   11.66710    0.40350    0.08860    2.12120   28.37420   99.53820
 3854.50000  167.99330   95.41350    2.18330    5.81010    0.02140    2.95050   11.15760    0.31400    0.07750    2.37270   24.26860   98.33430
 3855.00000  152.35170   95.05320    2.62110    5.90570    0.02290    3.20870   10.66440    0.08530    0.07570    2.62200   25.20330   98.03200
 3855.50000  156.75250  118.04380    9.39760    5.59840    0.01120    3.80030   10.65540   -0.08720    0.07000    2.74320   22.72030   97.68240
 3856.00000  188.02770  153.24980   84.17080    5.04300    0.00150    4.64260   10.65760   -0.18450    0.05730    3.02490   21.48430   98.00010
 3856.50000  228.76610  198.95570  145.36020    4.54350   -0.00370    4.91560   10.66470   -0.17840    0.03530    3.01380   21.09440   99.69310
 3857.00000  278.33090  258.29320  364.89500    3.94800   -0.00550    5.03290   10.69270   -0.17870    0.02120    3.00270   21.75800  102.20100
 3857.50000  301.55720  290.45790 1337.53550    3.58260   -0.00580    5.27060   10.71730   -0.17560    0.01830    2.99170   22.82870  106.22720
 3858.00000  295.87220  281.04430  423.45770    3.78590   -0.00540    5.38380   10.73670   -0.16010    0.02950    2.96610   24.16870  111.56100
 3858.50000  182.81520  166.44040  154.04460    5.05340   -0.00080    5.38920   10.76370   -0.13210    0.03850    2.93450   26.32430  117.42760
 3859.00000  112.95890   99.13550   85.77010    7.56750    0.00480    5.08390   10.76820   -0.10090    0.02930    2.85610   29.71880  124.37190
 3859.50000   85.11960   81.17850   60.93230   10.08300    0.01650    4.56810   10.79590   -0.08710    0.02000    2.84630   34.76630  130.45250
 3860.00000   83.64290   66.47420   69.12100   11.56860    0.02950    4.29360   10.82840   -0.08200    0.01080    2.85850   40.97870  135.12140
 3860.50000  102.66040   52.86030  103.61190   11.86890    0.04670    4.17120   10.85310   -0.08740    0.00720    2.86340   50.08010  135.37210
 3861.00000  122.28170   41.36570  118.82510   12.56800    0.05740    4.31260   10.86350   -0.08550    0.01250    2.83230   57.56950  132.80660
 3861.50000  126.36920   35.84090   63.61270   17.84880    0.06790    4.16170   10.89910   -0.04200    0.01700    2.70150   61.51660  129.68260
 3862.00000  122.83690   31.21500   21.89700   28.42560    0.08310    3.61170   11.00630    0.06370    0.00970    2.58660   58.10960  122.99890
 3862.50000  108.19000   27.18620    9.57880   40.76800    0.10050    3.16290   11.11340    0.13340    0.00540    2.49490   47.48980  118.85300
 3863.00000   92.45450   28.29060    5.64860   48.70480    0.12270    3.04670   11.22060    0.17580    0.00120    2.42000   51.26450  116.15090
 3863.50000   79.00760   31.22560    4.17230   56.05370    0.14500    2.87570   11.29360    0.19560   -0.00410    2.34500   57.82560  116.77970
 3864.00000   67.51650   34.07190    2.96900   60.41800    0.17310    2.68120   11.28980    0.26220   -0.00950    2.19960   67.65370  120.37770
 3864.50000   57.95410   35.94460    1.80430   62.52270    0.20390    2.48680   11.27470    0.45940   -0.01460    2.00750   73.84100  127.63530
