~Version ---------------------------------------------------
VERS.   2.0 : CWLS log ASCII Standard -VERSION 2.0
WRAP.    NO : One line per depth step
DLM . SPACE : Column Data Section Delimiter
~Well ------------------------------------------------------
STRT .F                   29.0 : START DEPTH
STOP .F                 4847.0 : STOP DEPTH
STEP .F                    0.5 : STEP
NULL .                -9999.25 : NULL VALUE
COMP .                         : COMPANY
WELL .                         : WELL
FLD  .                         : FIELD
LOC  .                         : LOCATION
PROV .                         : PROVINCE
CNTY .                         : COUNTY
STAT .                         : STATE
CTRY .                         : COUNTRY
SRVC .                         : SERVICE COMPANY
DATE .                         : DATE
UWI  .                         : UNIQUE WELL ID
API  .                         : API NUMBER
SLAT .WGS84 2.5082509057824964 : SURFACE LATITUDE
SLON .WGS84  7.185372793652988 : SURFACE LONGITUDE
DATUM.F                3195.24 : DEPTH DATUM ELEV
~Curve Information -----------------------------------------
DEPT   .F     : 1 MEASURED DEPTH
LLD    .OHMM  : LATEROLOG DEEP RESISTIVITY
LLS    .OHMM  : LATEROLOG SHALLOW RESISTIVITY
MSFL   .OHMM  : MICRO SPHERICALLY FOCUSED RESISTIVITY
GRD    .GAPI  : GAMMA RAY FROM DENSITY LOG
NPHI_LS.DEC   : NEUTRON POROSITY LIMESTONE
PE     .B/E   : PHOTO ELECTRIC CROSS SECTION
CALX   .IN    : CALIPER FROM X AXIS OF X-Y CALIPER(S)
DPHI_LS.DEC   : DENSITY POROSITY LIMESTONE
DRHO   .G/C3  : BULK DENSITY CORRECTION
RHOB   .G/C3  : BULK DENSITY
DTCM   .MS/F  : DELTA-T COMPENSATED
DTSM   .US/F  : DELTA-T SHEAR
~Params ----------------------------------------------------
~Other -----------------------------------------------------
~ASCII -----------------------------------------------------
# ...
 3473.00000   31.50190   40.73720   23.51040   23.40520    0.06660    3.95150   10.57750    0.36840    0.03630    2.11190   65.64660  133.77350
 3473.50000   28.65000   33.08870   18.55310   28.73040    0.10830    3.67190   10.55240    0.35360    0.03750    2.14000   59.90420  127.13320
 3474.00000   29.77360   30.06180   16.93330   31.80460    0.13000    3.49970   10.46150    0.34150    0.03880    2.16220   55.01520  123.23300
 3474.50000   32.30730   31.22630   14.68370   33.28650    0.13620    3.45970   10.36780    0.32390    0.04000    2.18760   51.38750  123.56030
 3475.00000   37.26560   36.15140   11.54250   33.30560    0.11970    3.46040   10.29490    0.29810    0.03860    2.22720   50.01930  126.64210
 3475.50000   43.04700   44.07980    8.69780   31.40670    0.09040    3.46120   10.19420    0.27770    0.03960    2.26430   49.19940  128.92670
 3476.00000   52.20090   53.74700    6.07060   27.72230    0.05690    3.47290   10.09750    0.26810    0.04680    2.27230   49.17810  129.64000
 3476.50000   66.19750   65.53430    4.87490   22.71310    0.02120    3.51950   10.11380    0.27920    0.05480    2.25200   51.06400  130.22040
 3477.00000   79.49870   79.90670    3.71740   18.35100    0.00670    3.56610   10.15030    0.29890    0.06290    2.22280   55.22280  130.45520
 3477.50000   95.47250   89.76000    3.13780   14.53390   -0.00070    3.61410   10.17640    0.32050    0.07200    2.19170   59.78120  130.89620
 3478.00000  113.22060   93.43650    2.71340   12.79710   -0.00430    3.68490   10.17720    0.34210    0.07640    2.16340   62.80470  131.79610
 3478.50000  107.94850   92.03880    2.42980   12.02800   -0.00490    3.78270   10.26500    0.35920    0.08050    2.13760   63.51570  132.65900
 3479.00000   83.66680   87.78670    3.03240   13.18050   -0.00240    3.87220   10.55010    0.37500    0.07710    2.11180   62.72870  132.69410
 3479.50000   64.87210   74.57080    3.81070   17.49450    0.00290    3.90610   10.71750    0.38040    0.06780    2.09890   61.25960  131.74950
 3480.00000   55.51060   63.34450    4.65260   22.48910    0.01980    3.86140   10.46660    0.36670    0.05910    2.09950   59.31550  129.51020
 3480.50000   47.50000   52.22430    5.99440   27.38280    0.04440    3.79840   10.09450    0.33490    0.05430    2.17070   56.79860  126.24990
 3481.00000   40.64540   42.36930    6.71270   31.02140    0.06490    3.65130   10.04010    0.30400    0.06190    2.20890   54.10630  123.73890
 3481.50000   38.41160   40.03830    5.51050   33.32650    0.07820    3.50410    9.83880    0.28030    0.07000    2.25550   51.48620  122.71640
 3482.00000   37.97570   39.75440    4.59560   32.72140    0.07710    3.43290    9.73030    0.24570    0.07820    2.31350   49.48740  122.58530
 3482.50000   41.41150   41.05580    4.29110   31.20750    0.06350    3.40500    9.62190    0.21780    0.08470    2.35190   47.81360  122.54910
 3483.00000   48.00080   44.90360    5.83400   27.26830    0.04260    3.43120    9.56890    0.22940    0.08430    2.36490   46.49510  122.56010
 3483.50000   67.91810   59.14610    7.65120   22.68550    0.02120    3.46620    9.78570    0.26820    0.08040    2.32580   45.71650  122.40050
 3484.00000   97.97580   82.49600    8.86340   17.92840    0.00710    3.50110   10.34040    0.31130    0.07640    2.25540   45.59370  122.40400
 3484.50000  141.33580  116.14250   11.19710   14.11550   -0.00150    3.62560   10.52880    0.35450    0.07290    2.14620   46.43320  122.93800
 3485.00000  200.19430  163.51200   23.53660   11.31790   -0.00700    3.82210   10.57490    0.37410    0.06940    2.11470   48.59540  123.92990
 3485.50000  216.20610  199.93040   45.01270    8.41420   -0.00990    4.02570   10.68250    0.38820    0.06560    2.09170   51.08160  124.60160
 3486.00000  199.38780  180.31650  219.37270    6.08900   -0.01060    4.10240   10.77030    0.40100    0.06040    2.07080   53.47490  124.10570
 3486.50000  136.85750  146.91350 1196.88460    4.27580   -0.01040    4.09500   10.86320    0.40670    0.05520    2.05770   54.26580  121.79980
 3487.00000   93.93740  119.69820 1006.50670    4.01000   -0.00890    4.07970   10.81440    0.39610    0.05420    2.05860   52.04900  117.96720
 3487.50000   90.12720   97.52450   41.99480    4.58410   -0.00270    4.06440   10.54650    0.35940    0.06290    2.10340   47.75450  114.19070
 3488.00000  138.65070   95.34480   15.39740    4.97740    0.00270    4.05770   10.16880    0.28750    0.07270    2.15490   43.71170  111.02590
 3488.50000  220.54440  137.85460    9.13860    4.85150    0.00720    4.05790    9.21360    0.22040    0.07150    2.37360   39.31210  108.39830
 3489.00000  366.91010  224.19020    7.30310    4.24520    0.00530    4.06730    9.06090    0.16630    0.06940    2.47510   35.92130  106.09610
 3489.50000  593.14020  358.07410    7.99520    3.16500    0.00330    4.24280    9.02470    0.12800    0.06720    2.51000   32.29010  103.98720
 3490.00000 1018.67560  567.06810   32.72430    2.51800    0.00200    4.43820    8.92750    0.10530    0.05670    2.54500   28.86960  102.16160
 3490.50000 1753.40480  898.04350  154.37170    2.21950    0.00050    4.51800    8.81940    0.07340    0.04170    2.61720   24.80420  100.02040
 3491.00000 2711.15060 1265.05990  896.25960    2.25110    0.00120    4.46130    8.75450    0.02830    0.03150    2.68930   22.80710   98.79450
 3491.50000 3318.44650 1670.12230  715.78500    2.47140    0.00190    4.40380    8.66190   -0.02410    0.03440    2.77630   21.14790   98.96210
 3492.00000 4361.59960 1983.80590  730.57350    2.65540    0.00070    4.48910    8.56500   -0.08330    0.03860    2.86010   20.77480   99.43820
 3492.50000 7563.54300 1985.15690  412.18460    2.73810   -0.00050    4.66960    8.53590   -0.11470    0.04520    2.90880   20.90940   99.57260
 3493.00000 19047.79690 1991.06360  561.45420    3.14220   -0.00090    4.92820    8.54120   -0.11370    0.04330    2.90780   21.20410   99.57340
 3493.50000 59515.23440 1997.80710 1910.09810    3.55650   -0.00090    5.16630    8.55390   -0.10170    0.04090    2.85780   20.75190   99.75070
 3494.00000 94719.31250 2004.57240 1924.03760    3.76830   -0.00090    4.89590    8.56020   -0.08970    0.04040    2.85920   20.05310  100.76720
 3494.50000 70076.82030 2011.36170 1938.07970    3.67290    0.00100    4.72710    8.55030   -0.10150    0.04170    2.88410   20.01720  101.80890
 3495.00000 48448.55080 2018.17380 1949.01390    3.49910    0.00270    4.65570    8.55000   -0.12090    0.04300    2.90960   20.97890  103.38420
 3495.50000 46963.09770 2025.00810 1949.03000    3.43880    0.00210    4.92950    8.57390   -0.10410    0.04400    2.89220   23.01200  103.84350
 3496.00000 60116.48830 1988.57630  673.47750    3.82320    0.00140    5.19710    8.60240   -0.07890    0.03990    2.82620   24.37850  102.29890
 3496.50000 3964.91110 1637.63340  112.42270    4.61180    0.00100    5.27970    8.63390   -0.03110    0.03500    2.74450   25.73730   97.65640
 3497.00000  248.46550  414.48570   39.60210    5.63100    0.00680    5.16840    8.69320    0.02450    0.03530    2.62240   26.06320   92.96030
 3497.50000   42.48090   93.59580   18.20960    7.68300    0.03540    4.97560    8.78930    0.09730    0.03240    2.48660   25.95070   90.86850
 3498.00000   12.14540   24.99150    8.37300   11.29360    0.07860    4.77920    8.85770    0.22570    0.02800    2.34570   26.35960   91.09790
 3498.50000    3.71010   10.98220    3.81580   15.35800    0.12190    4.44840    8.91590    0.34240    0.02310    2.24890   26.32060   92.38990
 3499.00000    4.10220    9.17170    1.83580   18.09490    0.14710    3.85590    8.92970    0.34950    0.03400    2.17080   24.76290   93.95730
 3499.50000   14.97710   32.98980    1.23620   17.89550    0.11640    3.26340    8.83940    0.31560    0.04030    2.14140   22.48670   94.77910
 3500.00000   53.15270   75.05360    1.40760   13.69220    0.07540    3.02390    8.59360    0.10630    0.04590    2.14170   20.46970   94.90330
 3500.50000  185.42840  168.91960    3.66470    8.58820    0.01610    3.00750    8.34990   -0.05410    0.05260    2.79430   18.98000   93.47220
