~Version ---------------------------------------------------
VERS.   2.0 : CWLS log ASCII Standard -VERSION 2.0
WRAP.    NO : One line per depth step
DLM . SPACE : Column Data Section Delimiter
~Well ------------------------------------------------------
STRT .F                   29.0 : START DEPTH
STOP .F                 4847.0 : STOP DEPTH
STEP .F                    0.5 : STEP
NULL .                -9999.25 : NULL VALUE
COMP .                         : COMPANY
WELL .                         : WELL
FLD  .                         : FIELD
LOC  .                         : LOCATION
PROV .                         : PROVINCE
CNTY .                         : COUNTY
STAT .                         : STATE
CTRY .                         : COUNTRY
SRVC .                         : SERVICE COMPANY
DATE .                         : DATE
UWI  .                         : UNIQUE WELL ID
API  .                         : API NUMBER
SLAT .WGS84 2.5082509057824964 : SURFACE LATITUDE
SLON .WGS84  7.185372793652988 : SURFACE LONGITUDE
DATUM.F                3195.24 : DEPTH DATUM ELEV
~Curve Information -----------------------------------------
DEPT   .F     : 1 MEASURED DEPTH
LLD    .OHMM  : LATEROLOG DEEP RESISTIVITY
LLS    .OHMM  : LATEROLOG SHALLOW RESISTIVITY
MSFL   .OHMM  : MICRO SPHERICALLY FOCUSED RESISTIVITY
GRD    .GAPI  : GAMMA RAY FROM DENSITY LOG
NPHI_LS.DEC   : NEUTRON POROSITY LIMESTONE
PE     .B/E   : PHOTO ELECTRIC CROSS SECTION
CALX   .IN    : CALIPER FROM X AXIS OF X-Y CALIPER(S)
DPHI_LS.DEC   : DENSITY POROSITY LIMESTONE
DRHO   .G/C3  : BULK DENSITY CORRECTION
RHOB   .G/C3  : BULK DENSITY
DTCM   .MS/F  : DELTA-T COMPENSATED
DTSM   .US/F  : DELTA-T SHEAR
~Params ----------------------------------------------------
~Other -----------------------------------------------------
~ASCII -----------------------------------------------------
# ...
 2997.00000  176.06840  270.64590  582.00940    2.95540   -0.01160    4.46410   10.34930    0.41300    0.02520    2.04840   -9999.25   -9999.25
 2997.50000  145.38070  193.90530 1485.65080    3.56040   -0.00840    4.43780   10.35160    0.41450    0.02900    2.04220   -9999.25   -9999.25
 2998.00000  120.04170  121.50020  549.66160    4.87890   -0.00260    4.41970   10.33460    0.41330    0.03270    2.04850   -9999.25   -9999.25
 2998.50000  100.94960   81.19910   14.31740    6.91760    0.00340    4.35620   10.29410    0.40980    0.03680    2.05490   -9999.25   -9999.25
 2999.00000  100.52550   71.24600    6.00970    7.92160    0.00940    4.10160   10.24270    0.40320    0.04430    2.06120   -9999.25   -9999.25
 2999.50000  108.95570   70.60670    3.78180    8.20050    0.01400    3.84720   10.12200    0.39350    0.05190    2.13230   -9999.25   -9999.25
 3000.00000  135.12710   92.21080    2.99220    8.53130    0.01810    3.64600    9.95180    0.36890    0.05580    2.21220   41.82340  123.35110
 3000.50000  192.64880  122.75170    2.72020   13.83910    0.02320    3.67590    9.67230    0.31310    0.05860    2.29210   37.43470  120.78440
 3001.00000  240.86320  163.40790    2.95170   25.25600    0.05730    4.04530    8.82130    0.21030    0.05680    2.37200   34.54460  117.04180
 3001.50000  202.46280  192.43660    7.06300   51.32130    0.08240    4.41470    8.56060    0.11940    0.05680    2.52580   34.15890  115.53430
 3002.00000  146.00870  160.72410   28.49910   97.94380    0.11200    4.78400    8.55870    0.06120    0.06510    2.66690   36.15670  114.57570
 3002.50000  105.09180  113.52820   15.97930  119.73040    0.14220    4.78370    8.59810    0.02610    0.07300    2.66380   40.17850  114.16660
 3003.00000   75.64140   80.19120    7.04800  133.97870    0.14840    4.42400    8.69750    0.12270    0.07620    2.43970   44.05550  112.47900
 3003.50000   65.43820   63.75520    3.12080  122.22070    0.11980    4.06430    8.87810    0.21790    0.08440    2.32240   45.65600  110.66470
 3004.00000   64.59960   66.06120    1.90240   99.34990    0.09190    3.70460    9.14780    0.28630    0.09280    2.19600   45.69090  109.22930
 3004.50000   76.67340   78.47180    1.68880   69.38920    0.06660    3.34490    9.48430    0.33740    0.09710    2.16620   44.24880  108.22790
 3005.00000  110.08640   93.21400    2.54560   62.81380    0.05610    3.32710    9.60710    0.32330    0.09560    2.22390   42.78880  109.65820
 3005.50000  129.99960  110.72570    4.29830   68.09910    0.07180    3.46390    9.23800    0.27260    0.08730    2.29930   43.08630  114.80610
 3006.00000  122.25070  112.75580    3.51140   77.72710    0.08750    3.60070    8.67840    0.22890    0.07720    2.34110   45.36200  123.22990
 3006.50000   93.55800   83.72350    2.94370   86.59540    0.09300    3.67840    8.45040    0.28250    0.06780    2.26740   50.58150  131.19560
 3007.00000   68.24320   58.06790    2.47850   81.95500    0.08820    3.68420    8.75590    0.31370    0.06760    2.13860   55.95940  137.57770
 3007.50000   56.08150   43.86350    1.53500   68.22990    0.08180    3.65500    9.31890    0.37250    0.07910    2.09350   60.19910  138.29540
 3008.00000   58.92190   42.95840    1.07250   47.71170    0.07190    3.61480    9.90080    0.38750    0.09500    2.08950   61.37270  136.68990
 3008.50000   70.35680   47.08970    1.04660   27.49200    0.06050    3.60740   10.39960    0.36980    0.10930    2.13090   60.52070  134.08580
 3009.00000   97.62960   61.47670    1.77420   16.85800    0.03610    3.81980   10.52290    0.36060    0.09570    2.12670   59.00580  130.29070
 3009.50000  169.99260   88.63610    5.93430   11.85010    0.01820    4.01710   10.54660    0.38190    0.05980    2.08180   57.34510  128.68150
 3010.00000  258.61970  123.10260   32.21120    9.42590    0.01060    4.17400   10.56980    0.40000    0.04200    2.06120   55.53150  127.14260
 3010.50000  279.69320  170.97140   82.64910    7.09440    0.00300    4.27190   10.59050    0.41240    0.02790    2.04920   53.84140  125.93270
 3011.00000  246.36620  213.16490   63.26450    5.71030   -0.00020    4.28670   10.60520    0.41420    0.02790    2.04360   51.84660  125.12630
 3011.50000  228.19760  235.00290   51.81740    4.97600   -0.00450    4.28170   10.59980    0.41550    0.02780    2.04110   50.27070  124.89340
 3012.00000  213.15950  260.22640  361.20800    4.49860   -0.00680    4.28010   10.59700    0.41970    0.03070    2.03510   49.23830  124.56280
 3012.50000  202.07580  288.15720 1987.31250    4.03880   -0.00830    4.28690   10.62760    0.42290    0.03530    2.03070   48.51860  123.37990
 3013.00000  195.81630  321.44790 1998.14610    3.74760   -0.00950    4.29370   10.64590    0.42400    0.03980    2.02880   48.13820  121.18020
 3013.50000  189.85120  353.03460 2009.03870    3.86020   -0.01010    4.30390   10.65520    0.42310    0.04260    2.02950   48.00990  119.56510
 3014.00000  175.85890  381.23750 2019.98950    4.88090   -0.01030    4.29680   10.66460    0.42010    0.04000    2.03380   47.46140  118.47620
 3014.50000  151.78590  403.57640 2029.65250    6.88050   -0.01000    4.28890   10.64570    0.41510    0.03720    2.03980   46.42420  117.33160
 3015.00000  131.00820  412.44900   91.24200    9.83220   -0.00980    4.30150   10.59180    0.40600    0.03230    2.05990   45.36180  117.39440
 3015.50000  122.11910  412.54100   19.99580   13.85770   -0.00960    4.28140   10.55120    0.39050    0.02900    2.08960   45.60490  117.92260
 3016.00000  115.87220  383.39380   11.95100   17.40440   -0.00880    4.21910   10.55890    0.37660    0.02650    2.10600   47.82450  118.56240
 3016.50000  122.47100  286.30730    9.25480   19.26500   -0.00760    4.17410   10.56810    0.36550    0.02480    2.12170   51.23080  120.33320
 3017.00000  125.88010  149.80820   14.76400   19.83300   -0.00580    4.20460   10.59300    0.36650    0.02080    2.11970   57.41940  126.65940
 3017.50000   88.85530   88.95280   73.46460   20.73580   -0.00200    4.23500   10.58170    0.36920    0.01660    2.11660   65.03500  136.11110
 3018.00000   60.53680   52.81830   53.28260   23.51040    0.00200    4.26540   10.49260    0.35780    0.01480    2.15370   74.53150  144.62950
 3018.50000   41.69710   31.36230   24.22070   29.38230    0.03960    4.28190   10.09810    0.32690    0.01740    2.21160   82.46090  151.02010
 3019.00000   28.72800   22.73780    8.61150   34.07890    0.08590    4.27790    9.79490    0.29140    0.02470    2.28220   85.06200  148.69240
 3019.50000   19.79260   19.25460    4.00420   38.30840    0.13970    4.12580    9.55420    0.24410    0.02690    2.35270   82.86020  141.85000
 3020.00000   17.10370   17.84390    3.03720   36.95250    0.19360    3.88930    9.54520    0.21260    0.02640    2.36500   76.46790  135.75800
 3020.50000   20.78190   19.41290    2.57200   33.03280    0.16170    3.65280    9.58040    0.21010    0.02410    2.32930   70.91770  130.74390
 3021.00000   27.29200   24.70570    2.27130   27.99890    0.10890    3.60940    9.60660    0.24010    0.02180    2.28530   68.64960  129.12450
 3021.50000   40.82020   31.44160    2.04230   22.40340    0.07400    3.84490    9.63550    0.28420    0.01850    2.22460   68.31680  129.66370
 3022.00000   53.50610   40.01400    2.06080   18.65760    0.05290    3.93410    9.80410    0.32770    0.01500    2.16910   70.47320  134.39710
 3022.50000   54.26340   46.14690    2.16080   17.91300    0.05250    4.01560   10.05660    0.33650    0.01340    2.17550   75.16110  138.33670
 3023.00000   42.55330   35.68770    2.45340   18.97790    0.07800    4.01610   10.09740    0.31420    0.01820    2.23160   78.35910  142.27630
 3023.50000   30.59760   25.13700    2.56800   21.16810    0.10960    3.81300    9.81050    0.27350    0.02780    2.27990   80.86040  143.39510
 3024.00000   22.00090   18.39580    1.74530   24.63740    0.14420    3.59720    9.40160    0.25830    0.03000    2.27840   80.91080  143.82210
 3024.50000   19.79250   17.31630    1.02350   28.35560    0.14920    3.41540    9.31430    0.28020    0.02950    2.23250   79.82620  140.83520
