~Version ---------------------------------------------------
VERS.   2.0 : CWLS log ASCII Standard -VERSION 2.0
WRAP.    NO : One line per depth step
DLM . SPACE : Column Data Section Delimiter
~Well ------------------------------------------------------
STRT .F                   29.0 : START DEPTH
STOP .F                 4847.0 : STOP DEPTH
STEP .F                    0.5 : STEP
NULL .                -9999.25 : NULL VALUE
COMP .                         : COMPANY
WELL .                         : WELL
FLD  .                         : FIELD
LOC  .                         : LOCATION
PROV .                         : PROVINCE
CNTY .                         : COUNTY
STAT .                         : STATE
CTRY .                         : COUNTRY
SRVC .                         : SERVICE COMPANY
DATE .                         : DATE
UWI  .                         : UNIQUE WELL ID
API  .                         : API NUMBER
SLAT .WGS84 2.5082509057824964 : SURFACE LATITUDE
SLON .WGS84  7.185372793652988 : SURFACE LONGITUDE
DATUM.F                3195.24 : DEPTH DATUM ELEV
~Curve Information -----------------------------------------
DEPT   .F     : 1 MEASURED DEPTH
LLD    .OHMM  : LATEROLOG DEEP RESISTIVITY
LLS    .OHMM  : LATEROLOG SHALLOW RESISTIVITY
MSFL   .OHMM  : MICRO SPHERICALLY FOCUSED RESISTIVITY
GRD    .GAPI  : GAMMA RAY FROM DENSITY LOG
NPHI_LS.DEC   : NEUTRON POROSITY LIMESTONE
PE     .B/E   : PHOTO ELECTRIC CROSS SECTION
CALX   .IN    : CALIPER FROM X AXIS OF X-Y CALIPER(S)
DPHI_LS.DEC   : DENSITY POROSITY LIMESTONE
DRHO   .G/C3  : BULK DENSITY CORRECTION
RHOB   .G/C3  : BULK DENSITY
DTCM   .MS/F  : DELTA-T COMPENSATED
DTSM   .US/F  : DELTA-T SHEAR
~Params ----------------------------------------------------
~Other -----------------------------------------------------
~ASCII -----------------------------------------------------
# ...
 4453.00000   31.16580   33.35780   28.98140   40.01480    0.06970    2.94250    8.43680    0.03270    0.01150    2.65000   33.60650  106.97130
 4453.50000   20.28620   24.42970   14.37270   45.04870    0.07670    2.84220    8.43170    0.05550    0.00940    2.62680   37.24050  108.45850
 4454.00000   17.00910   18.56000    7.56450   50.74380    0.08780    2.77530    8.43920    0.06700    0.00730    2.60370   40.01540  108.90820
 4454.50000   17.68730   18.54340    5.33500   55.04570    0.10170    2.74460    8.45180    0.07340    0.00640    2.59330   39.98470  106.10330
 4455.00000   20.42290   22.48740    4.41490   56.39390    0.11420    2.71390    8.45780    0.07230    0.00620    2.59580   36.63470  102.75610
 4455.50000   25.51810   27.28570    7.48770   54.15360    0.12230    2.68310    8.45600    0.06280    0.00610    2.61260   31.01110   98.89990
 4456.00000   31.10520   33.10800   13.73510   48.30730    0.12750    2.70390    8.45950    0.04290    0.00810    2.64330   26.69060   96.54050
 4456.50000   40.03710   40.17260   27.21980   42.04860    0.12640    2.74970    8.46730    0.01690    0.01110    2.68850   23.07910   94.91030
 4457.00000   48.04150   48.74470   32.90890   36.46500    0.12380    2.81570    8.48850   -0.00410    0.01410    2.72070   21.27370   93.81570
 4457.50000   57.16000   54.11430   37.85700   32.09440    0.11960    2.93340    8.50450   -0.01560    0.01640    2.73650   20.04480   92.74160
 4458.00000   66.82490   57.62100   43.03170   28.49990    0.11410    3.05920    8.50570   -0.02240    0.01540    2.74720   19.01840   91.86730
 4458.50000   67.86890   61.35490   50.33060   25.06210    0.10650    3.13860    8.50680   -0.03060    0.01440    2.76500   18.15940   91.30630
 4459.00000   68.13680   63.92710   67.37690   21.80810    0.09730    3.19170    8.50800   -0.04110    0.01350    2.77810   17.73430   91.39370
 4459.50000   68.12160   63.88470   80.87690   19.51920    0.09100    3.24490    8.50920   -0.05020    0.01250    2.79110   17.99740   91.82730
 4460.00000   63.65830   60.36940   71.62580   18.18660    0.08800    3.31110    8.51030   -0.05120    0.01150    2.78460   18.84580   92.89480
 4460.50000   60.10300   58.51490   55.60120   17.74550    0.08580    3.35490    8.51150   -0.04060    0.00960    2.76950   20.45160   94.22240
 4461.00000   56.74630   56.89630   44.06770   19.12580    0.08430    3.35630    8.51260   -0.03010    0.00660    2.75530   22.41360   95.65710
 4461.50000   52.21050   50.44140   46.80930   22.54720    0.08490    3.30920    8.51100   -0.02090    0.00350    2.74380   24.62630   97.21750
 4462.00000   43.35340   42.47010   46.70680   27.30490    0.08580    3.20520    8.50770   -0.01480    0.00260    2.73700   26.81830   98.75380
 4462.50000   35.99880   35.75850   37.61180   32.39350    0.08640    3.09020    8.50440   -0.01220    0.00400    2.73260   28.40620   99.95990
 4463.00000   29.89180   30.10750   30.11580   36.95120    0.08690    3.02380    8.50110   -0.00800    0.00540    2.72760   29.64590  100.82670
 4463.50000   24.82090   25.83040   23.13750   42.17130    0.08930    2.94810    8.49780    0.00210    0.00570    2.71200   30.02180  100.87360
 4464.00000   24.62340   25.43090   17.52740   48.92970    0.09290    2.87240    8.49450    0.01900    0.00550    2.68880   28.83770   99.35500
 4464.50000   27.68400   27.24460   15.99360   54.75020    0.09950    2.80790    8.49250    0.03370    0.00640    2.66380   26.51610   96.50580
 4465.00000   34.39670   32.39520   19.05370   56.39570    0.10470    2.73580    8.49310    0.03730    0.00850    2.64950   23.18300   93.88160
 4465.50000   45.31910   40.21290   24.68170   50.08800    0.10720    2.68580    8.49430    0.02760    0.01050    2.66270   19.75450   91.69920
 4466.00000   56.51930   50.31630   39.36770   39.17710    0.10280    2.70520    8.49470   -0.00060    0.01260    2.69740   17.55620   90.88870
 4466.50000   70.47190   62.95820   63.99720   27.00020    0.09790    2.78260    8.49520   -0.02390    0.01380    2.73940   16.75750   90.51060
 4467.00000   71.39500   75.60030   91.82500   19.11960    0.09200    2.85830    8.49560   -0.03930    0.01460    2.77000   17.20550   91.34190
 4467.50000   68.17560   71.45780   81.13680   15.03190    0.09100    2.91020    8.49610   -0.04840    0.01540    2.78720   17.96230   92.23280
 4468.00000   65.33630   63.86940   63.16660   14.46370    0.09330    2.88180    8.49650   -0.05170    0.01560    2.79480   18.57670   92.47820
 4468.50000   66.15890   59.99360   44.10670   15.02900    0.09860    2.85330    8.49700   -0.05170    0.01510    2.79400   18.79120   92.62290
 4469.00000   73.35810   64.83500   42.74250   16.65010    0.10430    2.87480    8.49740   -0.04810    0.01470    2.79030   18.38020   91.77190
 4469.50000   88.50230   77.25400   53.25470   17.86420    0.10550    3.00480    8.49680   -0.04330    0.01180    2.78330   17.49460   90.74470
 4470.00000  106.77310   92.05180   84.11980   17.75060    0.10060    3.18140    8.49640   -0.04050    0.00790    2.77600   16.79350   90.36570
 4470.50000  125.23900  109.68410  139.28480   16.58060    0.09090    3.38010    8.49650   -0.04140    0.00420    2.77560   16.43730   89.96660
 4471.00000  130.02430  117.07680  168.22260   15.62470    0.08110    3.44460    8.49460   -0.04900    0.00540    2.79080   16.33780   89.92870
 4471.50000  134.99250  119.84980  170.29800   15.64570    0.07460    3.35000    8.49110   -0.05980    0.00810    2.80660   16.63420   90.00800
 4472.00000  138.79990  125.35270  149.23700   16.33080    0.07340    3.21870    8.48290   -0.06730    0.01090    2.81840   17.03030   90.14180
 4472.50000  142.67580  130.03600  139.01400   17.53950    0.07460    3.10080    8.46390   -0.07120    0.01290    2.82390   17.28280   90.32150
 4473.00000  146.65990  134.89440  137.17920   18.10110    0.07720    3.05810    8.44120   -0.06970    0.01370    2.82310   17.86610   90.47900
 4473.50000  150.75530  139.94350  125.13100   18.19380    0.07850    3.03290    8.43160   -0.06940    0.01490    2.82310   18.29530   90.58110
 4474.00000  159.07060  145.23010  112.21540   18.10450    0.07880    3.00770    8.43110   -0.07110    0.01620    2.82560   18.51680   90.58060
 4474.50000  168.97380  153.70360  101.31590   18.82290    0.07890    2.99510    8.43150   -0.06890    0.01410    2.82250   18.12410   90.43340
 4475.00000  179.49360  175.92140  101.09760   20.58840    0.07820    3.02800    8.43190   -0.05710    0.01190    2.80310   17.43960   90.05390
 4475.50000  216.05170  205.97300  113.46800   21.52430    0.07860    3.06140    8.43030   -0.04470    0.00980    2.78270   16.46630   89.32350
 4476.00000  264.20050  239.56680  166.08270   20.74890    0.07830    3.09480    8.43120   -0.03090    0.00850    2.75940   15.14550   88.77440
 4476.50000  323.07960  287.16680  258.02380   17.94930    0.07670    3.11720    8.43480   -0.03120    0.00740    2.76590   14.48160   88.46990
 4477.00000  376.65270  344.44080  392.32760   14.88040    0.07260    3.11420    8.43770   -0.04150    0.00750    2.77840   14.23690   88.60660
 4477.50000  397.78380  404.67260  559.77660   13.15000    0.06880    3.08960    8.43280   -0.05410    0.01000    2.80030   14.38930   88.84530
 4478.00000  391.20500  387.37980  571.48270   12.61640    0.06530    3.08580    8.43370   -0.06440    0.01250    2.81620   15.10810   89.20790
 4478.50000  374.65250  370.82570  569.79410   12.61500    0.06230    3.10390    8.43490   -0.07050    0.01410    2.82440   15.58650   89.58460
 4479.00000  358.80040  354.97920  479.66130   13.07000    0.06140    3.12190    8.43800   -0.07220    0.01460    2.82730   16.25180   89.90980
 4479.50000  355.29380  350.64510  403.39940   13.97450    0.06340    3.15660    8.43560   -0.07150    0.01510    2.82710   16.72300   90.34680
 4480.00000  358.67810  349.67780  432.86890   15.04540    0.06780    3.27080    8.43570   -0.06390    0.01450    2.81440   17.14180   90.60990
 4480.50000  358.27690  347.16000  503.20460   15.99530    0.07350    3.34320    8.43680   -0.05730    0.01330    2.80270   17.63080   91.19150
