~Version ---------------------------------------------------
VERS.   2.0 : CWLS log ASCII Standard -VERSION 2.0
WRAP.    NO : One line per depth step
DLM . SPACE : Column Data Section Delimiter
~Well ------------------------------------------------------
STRT .F                   29.0 : START DEPTH
STOP .F                 4847.0 : STOP DEPTH
STEP .F                    0.5 : STEP
NULL .                -9999.25 : NULL VALUE
COMP .                         : COMPANY
WELL .                         : WELL
FLD  .                         : FIELD
LOC  .                         : LOCATION
PROV .                         : PROVINCE
CNTY .                         : COUNTY
STAT .                         : STATE
CTRY .                         : COUNTRY
SRVC .                         : SERVICE COMPANY
DATE .                         : DATE
UWI  .                         : UNIQUE WELL ID
API  .                         : API NUMBER
SLAT .WGS84 2.5082509057824964 : SURFACE LATITUDE
SLON .WGS84  7.185372793652988 : SURFACE LONGITUDE
DATUM.F                3195.24 : DEPTH DATUM ELEV
~Curve Information -----------------------------------------
DEPT   .F     : 1 MEASURED DEPTH
LLD    .OHMM  : LATEROLOG DEEP RESISTIVITY
LLS    .OHMM  : LATEROLOG SHALLOW RESISTIVITY
MSFL   .OHMM  : MICRO SPHERICALLY FOCUSED RESISTIVITY
GRD    .GAPI  : GAMMA RAY FROM DENSITY LOG
NPHI_LS.DEC   : NEUTRON POROSITY LIMESTONE
PE     .B/E   : PHOTO ELECTRIC CROSS SECTION
CALX   .IN    : CALIPER FROM X AXIS OF X-Y CALIPER(S)
DPHI_LS.DEC   : DENSITY POROSITY LIMESTONE
DRHO   .G/C3  : BULK DENSITY CORRECTION
RHOB   .G/C3  : BULK DENSITY
DTCM   .MS/F  : DELTA-T COMPENSATED
DTSM   .US/F  : DELTA-T SHEAR
~Params ----------------------------------------------------
~Other -----------------------------------------------------
~ASCII -----------------------------------------------------
# ...
 4089.00000  103.37450  101.21240   32.87140   12.59710    0.00130    5.56820   10.56510   -0.10400    0.00610    2.81870   27.36730  114.85460
 4089.50000  105.78710  101.48080  159.58510   21.52280    0.00290    5.84900   10.57360    0.01530    0.00360    2.65130   32.99330  121.69070
 4090.00000   72.47260   84.95350   75.66670   32.11170    0.02640    5.09960   10.58160    0.11020    0.00660    2.45520   39.11640  128.57660
 4090.50000   45.58490   59.92100   30.84290   42.48020    0.04990    4.44650   10.58970    0.17350    0.01140    2.40150   46.29600  134.49010
 4091.00000   29.05830   42.26460   15.47450   47.88700    0.07340    3.66550   10.59770    0.18520    0.02470    2.43220   52.33480  138.44040
 4091.50000   22.07340   29.81090    9.83050   51.27880    0.10390    3.14990   10.60580    0.16890    0.03910    2.46810   56.12020  139.91070
 4092.00000   16.76750   23.12730   10.03640   51.38490    0.12450    2.91790   10.61380    0.13670    0.03990    2.50390   58.03860  138.42870
 4092.50000   14.05830   19.43110   10.54530   50.38970    0.13080    2.86000   10.62190    0.10830    0.03640    2.54030   58.24120  135.97600
 4093.00000   12.22840   16.34930    8.83070   45.90580    0.13090    2.89680   10.62990    0.08570    0.03270    2.57730   56.56210  130.69760
 4093.50000   11.87140   14.48940    6.49570   40.89690    0.12720    2.95580   10.63790    0.05650    0.02690    2.61420   50.94270  123.40600
 4094.00000   12.64470   15.05580    4.95650   33.22120    0.08340    3.08050   10.64490    0.00850    0.03290    2.71360   44.73460  115.06480
 4094.50000   21.59390   24.92470    4.27360   21.84420    0.02160    3.32880   10.64920   -0.06630    0.03860    2.81660   36.42520  108.24360
 4095.00000   36.87700   47.05900    5.00820   12.98480    0.01050    4.09350   10.64690   -0.12700    0.03680    2.91110   29.41870  103.32700
 4095.50000   68.85870   88.84940   14.20750    7.64930    0.00260    5.21340   10.65920   -0.16440    0.03000    2.97510   24.95720  101.80980
 4096.00000  139.48800  137.21460  124.68690    5.57420    0.00090    6.03880   10.68460   -0.16220    0.02330    2.97070   23.21020  102.41650
 4096.50000  282.56320  207.19870  696.42220    4.56620   -0.00040    6.25110   10.70950   -0.16250    0.01480    2.97640   23.78020  104.35230
 4097.00000  404.03600  312.87690  948.87680    4.79810    0.00130    5.98540   10.73260   -0.16350    0.01050    2.97710   25.99920  107.67530
 4097.50000  403.03180  352.40850 1493.86840    6.90510    0.00300    5.49210   10.75460   -0.15670    0.01220    2.96260   29.26740  111.48960
 4098.00000  163.26580  202.72850  792.69700   12.67980    0.01330    5.05290   10.76990   -0.14160    0.01380    2.93090   32.56120  114.58610
 4098.50000   64.45110   81.19330  171.21370   18.52520    0.02790    4.66770   10.77990   -0.10630    0.01580    2.88660   35.67150  116.96020
 4099.00000   28.81290   32.51810   40.90770   23.90070    0.04820    4.58610   10.79050   -0.10130    0.02090    2.87220   37.00240  116.33650
 4099.50000   23.22330   24.89440   23.26570   25.05430    0.05160    4.52320   10.80310   -0.10920    0.02460    2.89730   35.46940  113.32460
 4100.00000   24.91120   25.73400   18.32070   21.56210    0.03370    4.65740   10.81650   -0.13070    0.02700    2.93700   32.35820  108.97470
 4100.50000   32.49220   35.06020   15.83130   16.57660    0.01420    5.14440   10.83720   -0.14700    0.03120    2.95520   28.30620  106.08900
 4101.00000   42.38020   47.76630   23.34910   13.27820    0.01050    5.82390   10.87090   -0.15010    0.02860    2.94750   25.32410  105.40690
 4101.50000   60.74100   63.76940   39.91840   11.51740    0.00780    6.40870   10.89410   -0.14360    0.02270    2.94170   24.81750  107.50070
 4102.00000   87.49670   82.91480   54.52480   10.98170    0.00760    6.71970   10.90840   -0.13920    0.01650    2.93580   25.18750  109.34940
 4102.50000  109.49420  107.80820   71.35340   11.47570    0.01030    6.69940   10.92270   -0.13660    0.01090    2.92670   26.97640  113.43690
 4103.00000  111.24850  116.66610  248.72520   14.39390    0.01710    6.53490   10.93700   -0.12110    0.00670    2.89520   30.64050  118.17240
 4103.50000   90.35680   90.06930 1981.69530   20.27520    0.03210    6.40340   10.95130   -0.08980    0.00390    2.84450   35.31880  122.48040
 4104.00000   55.74480   61.52490 1980.95350   28.03690    0.05430    5.73750   10.96560   -0.05850    0.00120    2.78820   39.37680  126.80550
 4104.50000   32.49320   42.02670 1487.08610   36.18230    0.08860    5.10680   10.98610   -0.02720    0.00080    2.73150   44.16540  130.10890
 4105.00000   23.49450   28.70780   52.55290   42.12950    0.12380    4.51100   11.01620    0.02090    0.00070    2.57340   47.51650  131.05890
 4105.50000   19.72200   20.42120   16.35350   44.77110    0.13850    3.83590   11.07940    0.09410    0.00070    2.38310   49.42440  130.25260
 4106.00000   19.40580   20.41650    6.16700   42.51720    0.09530    3.28050   11.21850    0.25320    0.00400    2.20330   51.41130  128.24240
 4106.50000   22.23580   21.41400    3.24010   36.34910    0.05220    3.14570   11.40140    0.39400    0.01460    2.08190   53.44680  125.68990
 4107.00000   27.08180   26.24370    2.06140   29.58230    0.02280    3.08610   11.64680    0.47040    0.03690    1.95750   55.18900  122.79200
 4107.50000   36.52700   34.53250    1.58270   26.61970    0.02690    3.01050   11.81550    0.45960    0.05920    2.00340   55.56410  120.46030
 4108.00000   49.26640   44.60370    1.30550   28.86640    0.04580    2.96170   11.63970    0.40100    0.08110    2.04920   53.50300  119.00380
 4108.50000   63.58220   57.30830    1.11260   32.09700    0.06140    2.97350   11.04870    0.29850    0.09640    2.21910   48.96050  118.61000
 4109.00000   81.42470   73.63170    1.31380   33.14360    0.05880    3.07080   10.85250    0.25950    0.09560    2.29470   44.62020  118.34710
 4109.50000  110.59940   94.60450    2.91190   29.05270    0.02500    3.19730   10.85250    0.31980    0.08780    2.22240   41.83440  119.11880
 4110.00000  171.12930  127.67300    5.78290   21.84330    0.00690    3.25310   11.15680    0.38050    0.08730    2.05950   43.30730  120.66070
 4110.50000  294.41980  183.81660    9.11700   14.83210   -0.00030    3.27760   11.72770    0.43120    0.10320    2.01010   46.04840  123.28930
 4111.00000  476.30620  281.06020   26.25770   11.97410   -0.00220    3.27760   12.13220    0.43830    0.12970    2.00170   48.42750  125.53910
 4111.50000  701.12260  435.52570 1507.85310   11.00940   -0.00270    3.27760   12.09210    0.43370    0.15630    2.01560   50.14950  128.08280
 4112.00000  828.52050  591.97660 1961.52870   10.78600   -0.00110    3.25390   12.04270    0.43160    0.16780    2.02050   51.28100  129.76590
 4112.50000  587.37110  415.82790   20.96940   11.59900    0.00510    3.08820   11.99350    0.43400    0.15070    2.00770   53.01200  132.05620
 4113.00000  259.89180  234.08640    7.84500   14.15110    0.01160    2.93990   11.94470    0.41970    0.12840    2.02950   54.60570  133.92280
 4113.50000  132.38060  131.77670    7.99780   17.44370    0.03510    2.96220   11.73270    0.38460    0.10610    2.09650   55.13120  132.14400
 4114.00000   99.44220   75.89860    4.96950   19.66260    0.05690    2.98470   11.00380    0.33960    0.08570    2.16350   51.21610  129.44580
 4114.50000  121.93250   76.08790    2.50020   19.31620    0.03280    3.00980   10.70320    0.36400    0.06590    2.16230   45.87250  127.92290
 4115.00000  180.80130  101.92130    1.83540   15.32360    0.01030    3.01730   10.81250    0.45230    0.04650    2.06400   43.48230  128.21780
 4115.50000  264.43880  176.42850    2.33150   11.82110   -0.00020    2.95160   11.44900    0.51610    0.03830    1.89610   45.81290  130.10330
 4116.00000  380.60990  305.40250    3.38760    8.51410   -0.00590    2.85240   11.84910    0.54080    0.05100    1.84170   50.29860  133.28560
 4116.50000  547.81650  528.65970    4.56250    6.70770   -0.00590    2.75320   11.83270    0.51200    0.06490    1.87620   56.92470  136.70700
