~Version ---------------------------------------------------
VERS.   2.0 : CWLS log ASCII Standard -VERSION 2.0
WRAP.    NO : One line per depth step
DLM . SPACE : Column Data Section Delimiter
~Well ------------------------------------------------------
STRT .F                   29.0 : START DEPTH
STOP .F                 4847.0 : STOP DEPTH
STEP .F                    0.5 : STEP
NULL .                -9999.25 : NULL VALUE
COMP .                         : COMPANY
WELL .                         : WELL
FLD  .                         : FIELD
LOC  .                         : LOCATION
PROV .                         : PROVINCE
CNTY .                         : COUNTY
STAT .                         : STATE
CTRY .                         : COUNTRY
SRVC .                         : SERVICE COMPANY
DATE .                         : DATE
UWI  .                         : UNIQUE WELL ID
API  .                         : API NUMBER
SLAT .WGS84 2.5082509057824964 : SURFACE LATITUDE
SLON .WGS84  7.185372793652988 : SURFACE LONGITUDE
DATUM.F                3195.24 : DEPTH DATUM ELEV
~Curve Information -----------------------------------------
DEPT   .F     : 1 MEASURED DEPTH
LLD    .OHMM  : LATEROLOG DEEP RESISTIVITY
LLS    .OHMM  : LATEROLOG SHALLOW RESISTIVITY
MSFL   .OHMM  : MICRO SPHERICALLY FOCUSED RESISTIVITY
GRD    .GAPI  : GAMMA RAY FROM DENSITY LOG
NPHI_LS.DEC   : NEUTRON POROSITY LIMESTONE
PE     .B/E   : PHOTO ELECTRIC CROSS SECTION
CALX   .IN    : CALIPER FROM X AXIS OF X-Y CALIPER(S)
DPHI_LS.DEC   : DENSITY POROSITY LIMESTONE
DRHO   .G/C3  : BULK DENSITY CORRECTION
RHOB   .G/C3  : BULK DENSITY
DTCM   .MS/F  : DELTA-T COMPENSATED
DTSM   .US/F  : DELTA-T SHEAR
~Params ----------------------------------------------------
~Other -----------------------------------------------------
~ASCII -----------------------------------------------------
# ...
 3109.00000  198.78130  500.45210 2016.78940    4.42560    0.00180    4.75070    8.30480   -0.17230    0.01470    2.99160   27.84720   95.67000
 3109.50000  186.51880  368.30420 2018.96730    4.71540    0.00480    5.03340    8.30330   -0.16580    0.01350    2.98770   29.48050   98.01920
 3110.00000  158.99180  192.27650  943.56020    5.77480    0.00850    5.37180    8.30820   -0.16030    0.01290    2.97950   28.36750  100.38330
 3110.50000   89.86470  106.56780  167.33670    8.26680    0.01920    5.47990    8.31180   -0.14940    0.01230    2.95710   26.54570  102.49860
 3111.00000   50.79300   64.71110   51.96800   11.61640    0.03710    5.14700    8.31040   -0.13100    0.01160    2.93130   28.19120  103.65800
 3111.50000   28.70900   39.29450   21.54080   15.12920    0.05970    4.34640    8.30890   -0.10730    0.01120    2.89740   29.99260  103.18380
 3112.00000   25.88560   28.04700   12.53550   17.47860    0.06520    3.85170    8.31030   -0.09060    0.01110    2.86830   30.30560  100.63960
 3112.50000   25.03570   26.14400    9.89200   17.17270    0.04900    3.63570    8.30850   -0.09530    0.01280    2.85480   27.35930   97.52790
 3113.00000   29.21750   30.32920    9.63770   14.88430    0.03000    3.81910    8.30510   -0.10540    0.01620    2.87070   22.39000   94.89230
 3113.50000   37.38790   40.32760   12.66230   10.73920    0.01510    4.28890    8.31190   -0.12950    0.02110    2.89890   17.96690   94.51760
 3114.00000   57.71770   56.12540   38.16330    7.43370    0.00470    5.13330    8.32450   -0.14960    0.02550    2.93920   16.91130   95.32640
 3114.50000  100.02760  102.55010  245.27950    4.82530    0.00060    5.47000    8.35130   -0.16270    0.02750    2.96250   17.61050   97.12590
 3115.00000  173.35250  211.23200  882.49470    4.31240   -0.00070    5.32460    8.41080   -0.16220    0.02490    2.97800   20.36180  100.13490
 3115.50000  212.60350  391.99590 2055.73460    4.14860   -0.00090    5.47040    8.47140   -0.14560    0.02230    2.94860   23.08450  104.25710
 3116.00000  218.47870  459.74230 2070.90060    4.60920    0.00180    5.94940    8.49640   -0.12280    0.01970    2.92630   27.22730  110.27100
 3116.50000  199.51660  227.23340 2082.08910    5.92230    0.00590    6.21270    8.49700   -0.09830    0.01930    2.88970   32.36020  117.25790
 3117.00000   94.88980  117.44320 2093.33810    7.42720    0.01460    6.01010    8.48650   -0.08820    0.01960    2.85850   38.32760  123.54690
 3117.50000   45.12950   60.69930  602.86790   10.03130    0.02960    5.07010    8.52050   -0.04860    0.02460    2.80780   43.87440  126.10980
 3118.00000   34.50290   31.37180   32.55050   14.09750    0.04930    4.10520    8.54870    0.03400    0.03160    2.66880   46.75790  123.11430
 3118.50000   28.25510   23.95200    4.88190   18.06620    0.06620    3.29320    8.60250    0.13430    0.04010    2.48500   45.41710  115.27960
 3119.00000   27.21000   21.64770    2.13440   18.64510    0.06520    3.18200    8.67330    0.20480    0.05730    2.37860   42.33730  108.47020
 3119.50000   29.93600   23.64530    1.32010   16.63110    0.05160    3.12740    8.71700    0.22610    0.07370    2.34620   38.54340  105.33170
 3120.00000   43.67160   35.78320    1.09990   11.97390    0.03680    3.16860    8.58940    0.18610    0.08770    2.45140   35.40580  104.08340
 3120.50000   73.98970   59.21270    1.28000    7.47050    0.02520    3.30480    8.38420    0.10360    0.09380    2.57370   33.78740  104.07230
 3121.00000  141.08450  100.80810    1.73000    5.50880    0.01360    3.57370    8.42790    0.04340    0.07850    2.63690   32.82730  105.73580
 3121.50000  168.87390  131.27140    6.06060    5.53520    0.01350    4.07520    8.50620    0.00330    0.05830    2.69690   34.10800  108.44110
 3122.00000  115.55590   89.77500 1546.50070    7.40380    0.01530    4.69620    8.53970    0.01370    0.02250    2.69690   36.41330  110.39860
 3122.50000   79.07180   55.70200  429.45400   11.02550    0.01870    4.90880    8.53960    0.01930    0.00940    2.69370   38.11250  112.30100
 3123.00000   58.31390   38.30560   44.89240   15.93020    0.02940    4.55520    8.53900    0.01160    0.01430    2.68250   39.16980  112.96590
 3123.50000   44.89070   27.04870   13.13730   21.55780    0.05040    4.07300    8.55160    0.02310    0.01780    2.66190   39.23190  111.89430
 3124.00000   41.28180   24.01780    5.99370   28.38100    0.07130    3.64500    8.66990    0.06830    0.02140    2.58430   37.99580  109.46630
 3124.50000   41.41250   22.33790    3.48710   34.79190    0.08130    3.31060    8.80800    0.11400    0.02060    2.50140   36.84020  107.46700
 3125.00000   48.86300   24.54780    2.56170   40.88070    0.08070    3.17730    8.94610    0.15380    0.01550    2.45020   37.62490  106.41350
 3125.50000   61.37100   30.14570    2.53290   45.55510    0.05790    3.06770    9.04540    0.17700    0.01050    2.42600   38.56720  106.03010
 3126.00000   82.10140   39.82210    6.03410   47.91590    0.04150    3.00000    9.12390    0.18610    0.00960    2.40950   37.61210  106.44520
 3126.50000  110.47720   55.45980   28.26800   48.69260    0.02960    2.98400    9.16760    0.19370    0.00670    2.39920   36.31920  107.21920
 3127.00000  134.43930   79.32310   65.27240   48.27630    0.02720    2.98590    9.17140    0.19990    0.00350    2.39090   35.37010  108.02020
 3127.50000  145.10510   94.41650   65.61630   48.43420    0.02740    3.00240    9.17360    0.20050   -0.00100    2.38890   36.96800  109.12340
 3128.00000  143.04550   98.76630   65.87950   49.34640    0.02760    3.00350    9.19210    0.19830   -0.00010    2.39300   38.50750  110.03240
 3128.50000  134.22180   95.41920   66.75760   49.39760    0.02750    3.03200    9.21330    0.19450   -0.00030    2.39670   38.64910  111.39860
 3129.00000  129.84860   89.83280   63.98390   47.83180    0.02840    3.04160    9.22910    0.19320    0.00270    2.39830   38.61030  113.41900
 3129.50000  124.76160   81.81680   61.67650   46.16160    0.03020    3.02720    9.22520    0.19590    0.00250    2.39610   38.30490  115.15090
 3130.00000  124.27090   76.21610   56.98940   44.36480    0.03270    3.01280    9.21330    0.20000    0.00250    2.39040   38.19070  118.52530
 3130.50000  130.85350   71.82170   50.97090   43.59750    0.03410    2.99600    9.20830    0.20160    0.00290    2.38680   38.39150  121.80730
 3131.00000  139.12290   68.58280   45.13410   44.13260    0.03380    2.96980    9.22490    0.20120    0.00350    2.38790   39.32340  125.16110
 3131.50000  143.61800   66.49340   42.41480   44.68140    0.03480    2.95290    9.24650    0.19690    0.00420    2.39560   41.16420  128.01810
 3132.00000  139.45470   63.57910   41.66970   44.84150    0.03650    2.90350    9.30250    0.18930    0.00620    2.40700   44.16970  131.53010
 3132.50000  128.85130   59.20400   40.93770   45.05230    0.04480    2.85490    9.37210    0.18220    0.00750    2.41670   49.67430  134.91910
 3133.00000  108.17590   51.28500   35.82160   45.61590    0.06190    2.83250    9.39480    0.17690    0.00880    2.42660   56.55250  138.03720
 3133.50000   92.20410   41.32570   26.29950   46.78910    0.08140    2.81010    9.43730    0.17290    0.00900    2.43240   63.74900  142.96340
 3134.00000   74.08140   31.46850   21.24650   48.63270    0.10160    2.82130    9.48970    0.17150    0.00900    2.43340   70.24340  146.74400
 3134.50000   60.94760   26.31560   14.58960   50.79380    0.12250    2.86260    9.53820    0.17460    0.00870    2.42730   74.05720  149.04310
 3135.00000   51.73730   22.01360    9.78820   52.86320    0.14520    2.90380    9.57530    0.18070    0.00790    2.41110   75.12160  148.96430
 3135.50000   47.45860   18.93940    6.91610   53.27560    0.15500    2.94270    9.61750    0.19020    0.00740    2.39710   73.93370  147.16040
 3136.00000   46.19950   19.20100    5.29160   51.33750    0.15120    2.96220    9.65590    0.19510    0.00730    2.38310   70.75810  144.12730
 3136.50000   50.32460   20.99100    4.58560   46.35440    0.13200    2.98020    9.71090    0.21480    0.00940    2.35400   65.78070  140.76910
