~Version ---------------------------------------------------
VERS.   2.0 : CWLS log ASCII Standard -VERSION 2.0
WRAP.    NO : One line per depth step
DLM . SPACE : Column Data Section Delimiter
~Well ------------------------------------------------------
STRT .F                   29.0 : START DEPTH
STOP .F                 4847.0 : STOP DEPTH
STEP .F                    0.5 : STEP
NULL .                -9999.25 : NULL VALUE
COMP .                         : COMPANY
WELL .                         : WELL
FLD  .                         : FIELD
LOC  .                         : LOCATION
PROV .                         : PROVINCE
CNTY .                         : COUNTY
STAT .                         : STATE
CTRY .                         : COUNTRY
SRVC .                         : SERVICE COMPANY
DATE .                         : DATE
UWI  .                         : UNIQUE WELL ID
API  .                         : API NUMBER
SLAT .WGS84 2.5082509057824964 : SURFACE LATITUDE
SLON .WGS84  7.185372793652988 : SURFACE LONGITUDE
DATUM.F                3195.24 : DEPTH DATUM ELEV
~Curve Information -----------------------------------------
DEPT   .F     : 1 MEASURED DEPTH
LLD    .OHMM  : LATEROLOG DEEP RESISTIVITY
LLS    .OHMM  : LATEROLOG SHALLOW RESISTIVITY
MSFL   .OHMM  : MICRO SPHERICALLY FOCUSED RESISTIVITY
GRD    .GAPI  : GAMMA RAY FROM DENSITY LOG
NPHI_LS.DEC   : NEUTRON POROSITY LIMESTONE
PE     .B/E   : PHOTO ELECTRIC CROSS SECTION
CALX   .IN    : CALIPER FROM X AXIS OF X-Y CALIPER(S)
DPHI_LS.DEC   : DENSITY POROSITY LIMESTONE
DRHO   .G/C3  : BULK DENSITY CORRECTION
RHOB   .G/C3  : BULK DENSITY
DTCM   .MS/F  : DELTA-T COMPENSATED
DTSM   .US/F  : DELTA-T SHEAR
~Params ----------------------------------------------------
~Other -----------------------------------------------------
~ASCII -----------------------------------------------------
# ...
 4201.00000   12.17480   12.18470    7.75880   65.48530    0.11050    2.80770    9.74770    0.05320   -0.00280    2.62660   46.92540  118.15040
 4201.50000   12.48410   12.81670    8.21500   64.88190    0.10360    2.79370    9.74700    0.04970   -0.00290    2.63070   45.37920  116.05200
 4202.00000   13.02980   13.71930    8.71480   62.63570    0.09740    2.85150    9.74630    0.04630   -0.00300    2.63990   43.64320  113.41910
 4202.50000   16.03410   14.70500    9.22240   59.83910    0.09000    2.90920    9.74380    0.03670   -0.00130    2.65510   41.79380  111.25890
 4203.00000   19.91170   17.34870   10.35340   57.66410    0.08150    2.94450    9.74230    0.02040    0.00330    2.68410   39.19920  108.29370
 4203.50000   31.98810   20.46780   12.37970   52.63480    0.06580    2.91010    9.74170   -0.00590    0.00790    2.72500   35.93770  104.64930
 4204.00000   51.38880   25.13100   15.89670   45.06610    0.04610    2.93550    9.74110   -0.03580    0.01180    2.77120   31.28520   99.55350
 4204.50000   82.55590   44.99450   23.64500   36.17720    0.03140    3.02140    9.74040   -0.06920    0.01520    2.82710   25.81240   96.19100
 4205.00000  142.53800   80.55790   57.14670   28.05280    0.02280    3.14250    9.74140   -0.09350    0.01870    2.85970   21.08330   92.31540
 4205.50000  255.23990  144.23060  176.62880   23.18410    0.02150    3.25880    9.75780   -0.10300    0.02010    2.87910   17.14320   89.59520
 4206.00000  457.05290  224.18730 1130.32690   21.23980    0.02230    3.29230    9.77420   -0.10280    0.02000    2.87750   14.82170   88.59050
 4206.50000  481.58030  266.15140 1215.08090   20.29290    0.02510    3.29770    9.79050   -0.09950    0.01990    2.86940   14.47290   88.87500
 4207.00000  287.04050  250.15540  600.83460   21.87900    0.03140    3.30900    9.80900   -0.08350    0.01680    2.83780   15.70430   89.86610
 4207.50000  157.73040   94.82070  272.54810   27.47150    0.04020    3.32410    9.85160   -0.05760    0.01360    2.77750   17.79640   92.00090
 4208.00000   86.54770   36.40360  112.29830   34.71840    0.05060    3.25170    9.88480   -0.01910    0.01070    2.71650   20.53320   94.35590
 4208.50000   47.48930   27.35830   46.37170   40.93530    0.06150    3.06350    9.91340    0.01490    0.00860    2.67560   23.38070   97.34400
 4209.00000   32.46370   20.56050   19.75770   43.12220    0.06820    2.85370    9.94190    0.03210    0.00650    2.65890   26.57010   99.55940
 4209.50000   30.15130   19.35970   17.61260   42.86850    0.06970    2.74040    9.97050    0.03660    0.00490    2.65100   28.87320  101.10700
 4210.00000   28.71590   19.26650   17.21990   41.86250    0.06980    2.64700    9.99910    0.03120    0.00610    2.67300   29.72480  101.78480
 4210.50000   27.93870   19.39040   18.61950   42.08430    0.06860    2.60770   10.02770    0.02500    0.00720    2.67180   30.08080  102.27580
 4211.00000   27.11410   19.35670   19.21560   42.03320    0.06800    2.67260   10.05860    0.02400    0.00840    2.66680   29.92880  103.14020
 4211.50000   25.45450   18.86050   18.97120   41.60250    0.06770    2.79380   10.08960    0.02890    0.00800    2.65860   30.34860  104.35210
 4212.00000   22.67290   16.34820   17.14230   41.21500    0.07000    2.80650   10.12060    0.03740    0.00700    2.64230   31.31800  106.23550
 4212.50000   18.49400   14.17050   15.08530   41.96100    0.07530    2.76960   10.14430    0.04830    0.00670    2.62650   33.90460  108.88210
 4213.00000   15.31150   12.28290   12.25060   44.40540    0.08330    2.73260   10.16710    0.05840    0.00630    2.61270   37.33950  111.70820
 4213.50000   12.93640   10.64670    9.84810   46.75920    0.09430    2.66070   10.18990    0.06790    0.00510    2.60040   40.67460  114.93880
 4214.00000   11.35100    9.22850    8.04610   48.25610    0.10240    2.62290   10.21270    0.07310    0.00410    2.59190   43.40030  117.33350
 4214.50000   10.36270    8.72370    7.01060   48.35850    0.10750    2.59470   10.23940    0.07680    0.00440    2.58720   45.54770  119.29690
 4215.00000    9.89270    8.14830    6.37590   49.06890    0.11010    2.64440   10.25020    0.07990    0.00430    2.58200   46.54630  119.51370
 4215.50000    9.47800    7.60470    6.25290   50.03780    0.10970    2.68970   10.24770    0.08170    0.00430    2.57860   46.60750  119.31470
 4216.00000    8.95720    7.19030    6.14490   51.50010    0.10810    2.65660   10.24710    0.08370    0.00440    2.57530   46.30440  118.99460
 4216.50000    8.92150    7.27380    5.70010   52.29850    0.10550    2.61840   10.24830    0.08270    0.00460    2.57730   45.79960  118.33180
 4217.00000    9.27780    7.48300    5.23160   52.75740    0.10570    2.58790   10.24960    0.07420    0.00470    2.59410   44.75440  116.88340
 4217.50000   10.43940    8.25200    5.43670   53.05590    0.10440    2.55750   10.25520    0.05960    0.00700    2.61460   43.23520  114.15640
 4218.00000   12.41250    9.76850    6.53210   54.27800    0.10110    2.59420   10.25730    0.04280    0.00940    2.64600   40.71190  111.09180
 4218.50000   15.50530   11.56360    8.19300   55.70530    0.09470    2.68700   10.25550    0.03040    0.01070    2.66050   37.61710  106.99120
 4219.00000   19.47810   13.78940   12.05020   56.31090    0.08930    2.77980   10.25020    0.02660    0.01010    2.66620   34.41180  103.72250
 4219.50000   24.18670   16.44760   16.59950   55.98750    0.08540    2.92250   10.24840    0.02830    0.00870    2.66670   32.11480  101.90640
 4220.00000   27.87370   18.60440   17.70670   53.85570    0.08140    2.93860   10.24960    0.02360    0.00740    2.67350   30.80060  100.76070
 4220.50000   32.14110   20.57330   18.91570   49.48490    0.07970    2.93290   10.25190    0.01190    0.00690    2.68850   29.49800   99.84560
 4221.00000   35.25370   22.75060   22.87160   45.59730    0.07830    2.89600   10.25410    0.00020    0.00800    2.71940   28.79900   99.24070
 4221.50000   33.51550   24.81400   28.36400   43.17600    0.07660    2.86620   10.25340   -0.00360    0.00910    2.70970   28.33940   99.25650
 4222.00000   28.68290   24.72990   34.63340   44.20800    0.07610    2.84480   10.25270    0.00870    0.00850    2.69180   28.51360  100.26040
 4222.50000   24.54710   21.90180   31.44850   47.20640    0.07900    2.82830   10.25200    0.02310    0.00600    2.67400   30.18720  102.44260
 4223.00000   21.00770   15.83730   18.77170   50.84050    0.08330    2.76520   10.25130    0.03020    0.00340    2.66330   33.20100  105.35510
 4223.50000   18.32250   13.55680   12.97620   52.60990    0.08580    2.71960   10.25130    0.02860    0.00620    2.66930   35.43620  107.21700
 4224.00000   17.30410   12.93550   10.53550   52.00370    0.07970    2.76960   10.25740    0.02410    0.00790    2.67560   36.26160  107.39580
 4224.50000   20.21120   14.72850   10.90590   49.34000    0.06310    2.93810   10.26050    0.01440    0.00850    2.68870   35.63910  106.67250
 4225.00000   29.36070   18.25150   13.94960   44.42680    0.03910    3.11630   10.26360   -0.00250    0.00890    2.72560   33.15220  104.87550
 4225.50000   53.03800   28.02250   17.06520   36.93410    0.02090    3.36220   10.26670   -0.03600    0.00930    2.77750   29.96130  102.68810
 4226.00000  100.31650   54.75330   24.11100   27.67730    0.00640    3.72800   10.26980   -0.08000    0.00980    2.84720   26.82070  101.00140
 4226.50000  200.01000  106.98280   40.84430   17.97740   -0.00010    4.11440   10.26220   -0.12130    0.00920    2.90660   23.49250   99.31880
 4227.00000  398.77750  209.03440  101.00390   11.49900   -0.00420    4.76220   10.25330   -0.14840    0.00690    2.95000   20.23920   98.21630
 4227.50000  795.07750  433.78830  362.69990    7.85920   -0.00610    5.24140   10.24810   -0.16020    0.00450    2.96880   18.14740   97.70710
 4228.00000 1592.89730  972.07870 1013.41170    6.31890   -0.00600    5.41710   10.25200   -0.16660    0.00330    2.97620   17.26020   97.35650
 4228.50000 2258.81860 1637.94090 1983.23960    5.12320   -0.00460    5.36400   10.23800   -0.17210    0.00570    2.98470   17.23830   97.34010
