~Version ---------------------------------------------------
VERS.   2.0 : CWLS log ASCII Standard -VERSION 2.0
WRAP.    NO : One line per depth step
DLM . SPACE : Column Data Section Delimiter
~Well ------------------------------------------------------
STRT .F                 775.0 : START DEPTH
STOP .F               11389.0 : STOP DEPTH
STEP .F                   0.5 : STEP
NULL .               -9999.25 : NULL VALUE
COMP .                        : COMPANY
WELL .                        : WELL
FLD  .                        : FIELD
LOC  .                        : LOCATION
PROV .                        : PROVINCE
CNTY .                        : COUNTY
STAT .                        : STATE
CTRY .                        : COUNTRY
SRVC .                        : SERVICE COMPANY
DATE .                        : DATE
UWI  .                        : UNIQUE WELL ID
API  .                        : API NUMBER
SLAT .WGS84 5.040639523549103 : SURFACE LATITUDE
SLON .WGS84 2.186754489779304 : SURFACE LONGITUDE
DATUM.F               1055.46 : DEPTH DATUM ELEV
~Curve Information -----------------------------------------
DEPT.F     : 
GRR .GAPI  : GAMMA RAY FROM RESISTIVITY
SPR .MV    : SPONTANEOUS POTENTIAL FROM RESISTIVITY
AT10.OHMM  : AIT TWO FOOT RESISTIVITY A10
AT30.OHMM  : AIT TWO FOOT RESISTIVITY A30
AT90.OHMM  : AIT TWO FOOT RESISTIVITY A90
DTCO.US/F  : DELTA-T COMPRESSIONAL
DTSM.US/f  : DELTA-T SHEAR
~Params ----------------------------------------------------
~Other -----------------------------------------------------
~ASCII -----------------------------------------------------
# ...
 1720.00000   92.67240   -5.06740    2.05230    2.82400    3.64250   95.38560  125.97230
 1720.50000   93.10610   -5.27810    2.03070    2.80740    3.54130   94.44710  125.50610
 1721.00000   95.66170   -5.61680    2.08370    2.79100    3.42760   93.39090  125.15730
 1721.50000   98.90270   -5.95690    2.16910    2.83830    3.41790   92.15860  125.16260
 1722.00000   97.97660   -6.59460    2.25790    2.92390    3.47940   91.95130  127.62580
 1722.50000   92.00010   -8.40350    2.32130    2.97990    3.45910   92.27780  132.33480
 1723.00000   88.48150   -9.78000    2.28780    2.99450    3.33240   93.04310  134.46530
 1723.50000   88.91540   -9.51310    2.19000    2.97040    3.18720   94.16440  135.19450
 1724.00000   92.61700   -9.71700    2.23550    2.94650    3.19210   95.06910  135.78860
 1724.50000   99.72610  -10.18760    2.26350    2.92630    3.22160   96.42670  138.78530
 1725.00000  107.06170  -10.75300    2.20190    2.86900    3.14760   98.70690  147.31700
 1725.50000  112.67780  -11.29750    2.11530    2.78700    3.12020  100.50610  153.60060
 1726.00000  116.45510  -10.58870    2.07680    2.75780    3.11960  102.31300  161.85250
 1726.50000  116.67660   -9.56670    2.03760    2.72500    3.08660  103.62360  169.76790
 1727.00000  114.38250   -8.68870    1.95800    2.69270    3.10250  104.73710  173.74730
 1727.50000  112.01460   -7.81080    1.91840    2.66210    3.14130  105.12920  176.14330
 1728.00000  110.17570   -6.93280    1.86500    2.63930    3.18730  105.29650  176.17330
 1728.50000  108.52710   -6.37720    1.80520    2.61370    3.25550  102.55990  173.67720
 1729.00000  105.68700   -5.45890    1.78860    2.56810    3.26990   99.72020  168.62030
 1729.50000   99.67650   -4.44340    1.80740    2.62950    3.32830   98.48650  164.64900
 1730.00000   94.91350   -3.97580    1.81860    2.69860    3.52610   98.23200  164.17920
 1730.50000   94.76110   -3.84950    1.83200    2.76130    3.66130   98.97040  164.64130
 1731.00000  100.61850   -4.06720    1.82190    2.72750    3.67930  100.48090  165.18620
 1731.50000  106.43600   -3.98980    1.77900    2.67070    3.63790  102.03120  165.86360
 1732.00000  109.01120   -3.46940    1.79260    2.64190    3.61720  103.03750  167.18660
 1732.50000  107.14000   -3.08250    1.82990    2.65230    3.60980  103.86510  168.55190
 1733.00000  102.29670   -2.98830    1.80690    2.65910    3.64090  103.82740  169.67940
 1733.50000   98.26310   -2.88440    1.78890    2.66010    3.60300  102.61900  168.93010
 1734.00000   95.21020   -2.91950    1.77440    2.64910    3.55530  100.87610  167.28490
 1734.50000   93.54420   -2.93920    1.79330    2.65750    3.53880  100.14450  167.94540
 1735.00000   92.20850   -2.99660    1.87570    2.71730    3.56780  100.27500  170.10030
 1735.50000   90.54620   -3.07690    1.94410    2.74940    3.55430  100.13850  170.34460
 1736.00000   91.92240   -3.19490    1.94410    2.76750    3.54670  100.32880  169.79900
 1736.50000   98.45050   -3.20050    1.94410    2.78580    3.52600   99.98240  167.76020
 1737.00000  104.65660   -3.17600    1.97690    2.81800    3.49690   97.73240  165.49900
 1737.50000  107.22840   -2.94530    2.02340    2.87180    3.54790   96.10050  163.54120
 1738.00000  106.27260   -2.37200    2.08390    2.90790    3.60320   95.34640  164.10280
 1738.50000  102.91570   -1.41710    2.14450    2.94280    3.64560   96.38690  166.11010
 1739.00000   98.26530   -0.83930    2.17870    2.96920    3.63520   98.56310  169.42730
 1739.50000   94.57840   -0.35500    2.19860    2.95200    3.66470  100.20160  172.77760
 1740.00000   93.37210    0.12940    2.07290    2.92530    3.68430  100.88600  173.12010
 1740.50000   93.35880    0.78250    2.03270    2.89130    3.66980   99.30510  171.33690
 1741.00000   93.26910    1.76200    2.11930    2.86420    3.40860   97.70200  168.94310
 1741.50000   91.98670    2.88350    2.25610    3.03840    3.81850   97.63560  168.80520
 1742.00000   90.57280    4.09460    2.38950    3.33510    4.19760   98.37500  169.36510
 1742.50000   88.39280    5.65970    2.41940    3.31060    4.09230   99.93130  171.75680
 1743.00000   85.59940    6.55830    2.30250    3.20410    3.86540  102.19250  172.96550
 1743.50000   84.13110    6.61710    2.19700    3.07510    3.72790  104.03150  171.91960
 1744.00000   84.36000    6.52850    2.14410    3.04070    3.67810  105.02860  170.26160
 1744.50000   86.43040    5.64590    2.10270    2.99640    3.62210  105.58280  168.64510
 1745.00000   88.33970    4.93200    2.06420    2.95270    3.61220  106.13630  168.25900
 1745.50000   87.04740    4.21810    2.05680    2.90490    3.60670  106.42890  169.23510
 1746.00000   83.42130    3.70540    2.02540    2.81270    3.55690  106.92570  170.47270
 1746.50000   81.02770    3.41410    1.91220    2.70650    3.43960  107.55090  170.80220
 1747.00000   80.52980    3.12030    1.81700    2.63930    3.34210  107.81040  170.53510
 1747.50000   82.34820    2.70010    1.79270    2.64350    3.46070  108.28250  169.50220
 1748.00000   85.99720    1.86980    1.81920    2.68610    3.65370  108.87170  168.14420
 1748.50000   90.81850    2.57100    1.80560    2.65730    3.69110  109.55690  167.03780
 1749.00000   91.96530    3.27090    1.78800    2.67310    3.79650  110.48100  166.43880
 1749.50000   90.09770    3.71190    1.76960    2.67870    3.93760  112.24380  166.69280
 1750.00000   85.49430    3.65140    1.73900    2.65760    4.01280  114.06200  168.52520
 1750.50000   82.93010    3.35700    1.72100    2.63340    4.09280  116.32850  170.62080
 1751.00000   86.62340    3.17350    1.68150    2.57330    4.19980  118.30600  174.44370
 1751.50000   92.07250    3.00110    1.64580    2.45670    4.35750  119.25210  176.72040
 1752.00000   97.40520    2.62350    1.64360    2.38080    4.59580  119.64770  176.98860
 1752.50000   99.08440    1.23590    1.62310    2.30220    4.76870  120.20940  174.18510
 1753.00000   97.66980   -1.01400    1.59200    2.21970    4.73900  120.71860  165.85000
 1753.50000   94.97970   -3.46670    1.62710    2.13320    4.60170  120.75080  156.63940
 1754.00000   93.13700   -5.71570    1.72260    2.05000    4.41920  117.65320  155.24440
 1754.50000   90.87490   -8.95660    1.82040    1.97020    3.66990  109.72860  155.02650
 1755.00000   87.22690  -12.06360    1.99810    1.95370    3.18220  102.06570  154.74890
 1755.50000   83.35830  -16.33800    2.21510    2.25490    2.81290   96.03840  153.00650
 1756.00000   80.67580  -22.19360    2.54940    2.73110    2.24700   93.15390  144.72740
 1756.50000   77.05420  -31.12080    2.86080    2.47760    1.69950   94.49600  140.51060
 1757.00000   70.81360  -41.79150    2.70320    1.73960    1.39580   97.67250  141.79850
 1757.50000   61.54690  -52.59500    2.34920    1.36560    1.15240   99.31120  141.46500
 1758.00000   53.77360  -59.63720    2.32630    1.21020    0.95760  100.20310  142.64960
 1758.50000   49.04770  -65.82210    2.81920    1.15730    0.89040  100.66690  144.36550
 1759.00000   47.28940  -69.52290    3.80250    1.21470    0.88360  100.57180  145.98230
 1759.50000   47.41180  -72.16190    4.47150    1.27430    0.90200  100.79220  146.92340
 1760.00000   47.26650  -73.11110    3.81940    1.12260    0.81630  101.12850  146.30130
 1760.50000   45.48990  -73.30670    2.81940    0.97080    0.75310  101.51860  146.23950
 1761.00000   42.10580  -72.91520    2.43230    0.92210    0.70260  102.07960  151.85700
 1761.50000   38.68630  -72.39340    2.44780    0.93030    0.68510  102.35160  152.17810
 1762.00000   37.64250  -72.12090    2.64300    0.96070    0.69390  102.44680  152.40190
 1762.50000   37.96210  -71.85260    2.92370    0.97700    0.69320  102.78990  152.79930
 1763.00000   39.97160  -70.31830    3.04170    0.98300    0.68050  103.27550  156.52080
 1763.50000   43.21710  -69.49570    3.05850    0.98960    0.67620  103.64020  157.16440
 1764.00000   46.30770  -68.47600    3.31910    1.01470    0.69290  103.86860  157.61010
 1764.50000   46.80740  -67.80330    3.75020    1.03490    0.70660  104.47850  158.19530
