~Version ---------------------------------------------------
VERS.   2.0 : CWLS log ASCII Standard -VERSION 2.0
WRAP.    NO : One line per depth step
DLM . SPACE : Column Data Section Delimiter
~Well ------------------------------------------------------
STRT .F                 775.0 : START DEPTH
STOP .F               11389.0 : STOP DEPTH
STEP .F                   0.5 : STEP
NULL .               -9999.25 : NULL VALUE
COMP .                        : COMPANY
WELL .                        : WELL
FLD  .                        : FIELD
LOC  .                        : LOCATION
PROV .                        : PROVINCE
CNTY .                        : COUNTY
STAT .                        : STATE
CTRY .                        : COUNTRY
SRVC .                        : SERVICE COMPANY
DATE .                        : DATE
UWI  .                        : UNIQUE WELL ID
API  .                        : API NUMBER
SLAT .WGS84 5.040639523549103 : SURFACE LATITUDE
SLON .WGS84 2.186754489779304 : SURFACE LONGITUDE
DATUM.F               1055.46 : DEPTH DATUM ELEV
~Curve Information -----------------------------------------
DEPT.F     : 
GRR .GAPI  : GAMMA RAY FROM RESISTIVITY
SPR .MV    : SPONTANEOUS POTENTIAL FROM RESISTIVITY
AT10.OHMM  : AIT TWO FOOT RESISTIVITY A10
AT30.OHMM  : AIT TWO FOOT RESISTIVITY A30
AT90.OHMM  : AIT TWO FOOT RESISTIVITY A90
DTCO.US/F  : DELTA-T COMPRESSIONAL
DTSM.US/f  : DELTA-T SHEAR
~Params ----------------------------------------------------
~Other -----------------------------------------------------
~ASCII -----------------------------------------------------
# ...
 11335.00000   38.54130  -25.26700  292.89980  238.86130  405.38550   48.89160   89.39560
 11335.50000   37.22230  -25.15720  170.04610  123.96150  230.96650   48.91370   89.26010
 11336.00000   37.52700  -24.75760  204.49220  286.41100  348.80750   48.88490   89.13350
 11336.50000   39.01670  -23.90900  582.42330  927.12150 1059.36040   48.80890   89.08400
 11337.00000   40.52030  -22.96570  610.63790  786.24370  798.30260   48.70810   89.01910
 11337.50000   40.34800  -22.43540  457.44780  599.95460  477.86070   48.59130   88.99900
 11338.00000   38.19590  -22.36150  494.88230  460.00180  430.40090   48.47850   89.05230
 11338.50000   34.47080  -22.22080  633.09950  438.56480  441.89930   48.43130   89.09570
 11339.00000   31.57830  -21.79150  255.94600  414.86410  470.72260   48.34500   89.12410
 11339.50000   30.29400  -21.86050  168.78370  396.73100  429.55210   48.35000   89.30950
 11340.00000   31.04850  -21.92950  279.18210  558.84000  443.22900   48.37300   89.37480
 11340.50000   31.46560  -22.29550  351.06090  451.69420  410.44840   48.45710   89.42710
 11341.00000   31.88630  -21.89590  226.98900  322.65010  292.05180   48.53890   89.47940
 11341.50000   33.30060  -21.26300  131.71180  280.05080  319.64380   48.46040   89.53170
 11342.00000   35.38030  -20.57120  205.09660  282.01630  269.88090   48.26350   89.22410
 11342.50000   36.11400  -19.75730  270.45430  319.55910  325.22020   48.06880   89.20420
 11343.00000   34.97530  -19.42900  272.15520  371.73450  426.26970   47.96960   89.16010
 11343.50000   33.20160  -19.09720  231.05410  432.42970  496.37960   47.89590   89.16140
 11344.00000   31.82080  -18.61070  205.33900  487.37300  604.71950   47.82850   89.16030
 11344.50000   31.39430  -18.51030  300.44660  507.81070  588.10450   47.81050   89.15600
 11345.00000   31.21110  -18.09020  449.03910  730.41150  728.98900   47.88600   89.14980
 11345.50000   31.17780  -17.67000  273.31770  837.86660  762.99370   47.94030   89.14370
 11346.00000   31.48650  -16.15230  173.31880  841.91720  748.14010   47.94080   89.11870
 11346.50000   32.06680  -15.06330  308.21650  861.67740  756.00230   47.89150   89.10000
 11347.00000   32.70160  -14.59640  588.43390  893.75280  806.89140   47.81190   89.08350
 11347.50000   32.63760  -13.53640  595.73850  787.23100  817.40080   47.73160   89.03430
 11348.00000   31.41820  -12.60740  369.83920  631.38100  702.06620   47.69800   89.04700
 11348.50000   28.19330  -12.05120  246.65740  597.35040  612.26290   47.70410   89.20740
 11349.00000   25.10430  -11.85080  237.81780  582.99720  607.46520   47.76410   89.40000
 11349.50000   23.45210  -11.16040  288.35900  584.33240  610.36310   47.79900   89.53050
 11350.00000   23.65290   -9.81490  376.46660  597.26640  674.13530   47.84990   89.65700
 11350.50000   24.77490   -8.18710  539.16880  569.05430  638.94160   47.89510   89.71710
 11351.00000   26.59990   -6.55940  641.87760  588.78640  559.53050   47.82930   89.63750
 11351.50000   27.96700   -5.62650  892.02100  743.19100  707.81820   47.61240   89.42620
 11352.00000   28.07920   -4.97730  374.74650  590.08170  627.75820   47.53380   88.46810
 11352.50000   28.15360   -3.19530  297.75170  467.97720  508.89150   47.50560   87.46880
 11353.00000   28.37450   -1.57370  283.24240  392.62690  422.23370   47.58170   87.13930
 11353.50000   -9999.25    0.11390  456.74890  381.43840  412.59670   47.60000   87.17990
 11354.00000   -9999.25    1.29020  377.59590  363.08840  375.22290   47.60000   87.50620
 11354.50000   -9999.25    1.88870  243.94360  305.06770  306.72260   47.60220   88.10200
 11355.00000   -9999.25    2.30910  246.58860  243.61400  274.88820   47.60700   88.62940
 11355.50000   -9999.25    4.09240  255.07390  194.54000  244.60870   -9999.25   -9999.25
 11356.00000   -9999.25    6.07700  322.28100  162.43540  206.57930   -9999.25   -9999.25
 11356.50000   -9999.25    8.24210  343.24220  158.54870  193.82710   -9999.25   -9999.25
 11357.00000   -9999.25   10.50210  225.03830  157.84320  164.87260   -9999.25   -9999.25
 11357.50000   -9999.25   12.41740  173.26280  144.22740  100.93600   -9999.25   -9999.25
 11358.00000   -9999.25   14.31880  138.55640   76.12340   62.32520   -9999.25   -9999.25
 11358.50000   -9999.25   16.33580   52.36560   43.05520   38.48410   -9999.25   -9999.25
 11359.00000   -9999.25   18.71910   36.11800   31.58350   28.15780   -9999.25   -9999.25
 11359.50000   -9999.25   20.53670   34.36010   30.03490   28.62170   -9999.25   -9999.25
 11360.00000   -9999.25   22.07400   38.30280   33.20330   31.51420   -9999.25   -9999.25
 11360.50000   -9999.25   23.54050   49.25950   36.70600   34.69910   -9999.25   -9999.25
 11361.00000   -9999.25   24.72000   63.35060   41.43200   38.20570   -9999.25   -9999.25
 11361.50000   -9999.25   25.53570   76.75780   47.12740   42.06680   -9999.25   -9999.25
 11362.00000   -9999.25   26.15770   79.23820   50.28290   45.89870   -9999.25   -9999.25
 11362.50000   -9999.25   26.59260   67.70650   52.88330   50.01810   -9999.25   -9999.25
 11363.00000   -9999.25   26.95900   62.31670   53.44870   51.44350   -9999.25   -9999.25
 11363.50000   -9999.25   26.80980   75.26200   53.87020   50.24860   -9999.25   -9999.25
 11364.00000   -9999.25   26.48670  110.79900   58.48060   53.33910   -9999.25   -9999.25
 11364.50000   -9999.25   26.23320  114.92170   60.58080   60.08650   -9999.25   -9999.25
 11365.00000   -9999.25   25.82790   92.38070   60.64240   58.79940   -9999.25   -9999.25
 11365.50000   -9999.25   24.95950   88.08900   64.64090   59.05990   -9999.25   -9999.25
 11366.00000   -9999.25   24.03810   83.79840   73.39510   66.18990   -9999.25   -9999.25
 11366.50000   -9999.25   23.13900   86.50300   80.28870   76.00320   -9999.25   -9999.25
 11367.00000   -9999.25   21.71710  122.70100   98.72460   92.28280   -9999.25   -9999.25
 11367.50000   -9999.25   20.10960  190.93150  119.78990  135.38260   -9999.25   -9999.25
 11368.00000   -9999.25   18.50220  225.98830  128.88690  173.63250   -9999.25   -9999.25
 11368.50000   -9999.25   16.34010  153.88670  138.67450  198.84650   -9999.25   -9999.25
 11369.00000   -9999.25   13.24700  105.39920  153.50510  243.14970   -9999.25   -9999.25
 11369.50000   -9999.25   10.78260  109.18970  178.27370  302.59940   -9999.25   -9999.25
 11370.00000   -9999.25    8.39770  126.78120  207.76760  344.22120   -9999.25   -9999.25
 11370.50000   -9999.25    6.35760  128.86310  226.87480  356.24620   -9999.25   -9999.25
 11371.00000   -9999.25    4.51160  196.50920  242.20280  413.50570   -9999.25   -9999.25
 11371.50000   -9999.25    3.40150  435.34900  291.40380  637.93010   -9999.25   -9999.25
 11372.00000   -9999.25    2.59710  702.75960  292.80270  804.61190   -9999.25   -9999.25
 11372.50000   -9999.25    1.57010  894.56910  236.73730  632.66000   -9999.25   -9999.25
 11373.00000   -9999.25    0.54320  439.70150  191.42780  389.71140   -9999.25   -9999.25
 11373.50000   -9999.25   -0.50150  185.43750  154.14410  200.97490   -9999.25   -9999.25
 11374.00000   -9999.25   -1.38510   79.65040  123.10690  150.28250   -9999.25   -9999.25
 11374.50000   -9999.25   -2.03790   25.53260   98.31910  137.60130   -9999.25   -9999.25
 11375.00000   -9999.25   -2.86800   17.93680   78.97020  107.51710   -9999.25   -9999.25
 11375.50000   -9999.25   -3.65740   19.42590   76.89330   90.16610   -9999.25   -9999.25
 11376.00000   -9999.25   -4.39600   20.74440   90.88870  106.05860   -9999.25   -9999.25
 11376.50000   -9999.25   -5.01210   28.01430  124.77890  136.24390   -9999.25   -9999.25
 11377.00000   -9999.25   -5.50690   66.30300  172.62900  212.04400   -9999.25   -9999.25
 11377.50000   -9999.25   -6.32660  179.40190  243.57470  370.64310   -9999.25   -9999.25
 11378.00000   -9999.25   -7.32980  204.19310  371.26110  588.18970   -9999.25   -9999.25
 11378.50000   -9999.25   -8.12380  197.71090  450.29710  913.61600   -9999.25   -9999.25
 11379.00000   -9999.25   -8.42600   77.92050  176.88200 1419.09010   -9999.25   -9999.25
