~Version ---------------------------------------------------
VERS.   2.0 : CWLS log ASCII Standard -VERSION 2.0
WRAP.    NO : One line per depth step
DLM . SPACE : Column Data Section Delimiter
~Well ------------------------------------------------------
STRT .F                 775.0 : START DEPTH
STOP .F               11389.0 : STOP DEPTH
STEP .F                   0.5 : STEP
NULL .               -9999.25 : NULL VALUE
COMP .                        : COMPANY
WELL .                        : WELL
FLD  .                        : FIELD
LOC  .                        : LOCATION
PROV .                        : PROVINCE
CNTY .                        : COUNTY
STAT .                        : STATE
CTRY .                        : COUNTRY
SRVC .                        : SERVICE COMPANY
DATE .                        : DATE
UWI  .                        : UNIQUE WELL ID
API  .                        : API NUMBER
SLAT .WGS84 5.040639523549103 : SURFACE LATITUDE
SLON .WGS84 2.186754489779304 : SURFACE LONGITUDE
DATUM.F               1055.46 : DEPTH DATUM ELEV
~Curve Information -----------------------------------------
DEPT.F     : 
GRR .GAPI  : GAMMA RAY FROM RESISTIVITY
SPR .MV    : SPONTANEOUS POTENTIAL FROM RESISTIVITY
AT10.OHMM  : AIT TWO FOOT RESISTIVITY A10
AT30.OHMM  : AIT TWO FOOT RESISTIVITY A30
AT90.OHMM  : AIT TWO FOOT RESISTIVITY A90
DTCO.US/F  : DELTA-T COMPRESSIONAL
DTSM.US/f  : DELTA-T SHEAR
~Params ----------------------------------------------------
~Other -----------------------------------------------------
~ASCII -----------------------------------------------------
# ...
 9280.00000   -9999.25 -110.30890  689.49710  808.23600  937.04410   78.91440  124.38890
 9280.50000   -9999.25 -109.72780  644.82140  850.78970 1048.31340   78.07080  123.53870
 9281.00000   -9999.25 -109.47430  702.47610  861.08300 1167.48410   77.12460  122.76240
 9281.50000   -9999.25 -109.26160  804.73700  831.83330 1138.16320   76.36100  122.35790
 9282.00000   -9999.25 -109.31980  719.63800  794.65770  913.76900   76.24530  122.06330
 9282.50000   -9999.25 -109.22170  551.46900  744.95520  886.50550   76.38950  121.87990
 9283.00000   -9999.25 -109.16920  422.59890  641.45030  822.33240   77.07360  122.16670
 9283.50000   -9999.25 -108.88790  311.20070  556.92680  697.49970   77.92800  122.98660
 9284.00000   -9999.25 -108.10000  523.98790  658.50980  770.87870   78.84850  124.07710
 9284.50000   -9999.25 -107.80400  678.69750  866.07080 1457.64720   79.45060  124.83570
 9285.00000   -9999.25 -107.15130  496.08670  813.09940 1070.31160   79.47770  124.84340
 9285.50000   -9999.25 -107.31060  348.38360  636.68380  785.90060   78.92900  124.19880
 9286.00000   -9999.25 -107.04610  428.09280  502.65980  591.96980   78.11470  123.02320
 9286.50000   -9999.25 -106.64590  417.64490  403.29210  613.69340   77.52440  121.95370
 9287.00000   -9999.25 -106.24570  349.65950  323.56790  595.35760   76.89620  121.23580
 9287.50000   -9999.25 -106.20320  309.21550  266.00020  583.97800   76.51060  120.75720
 9288.00000   -9999.25 -105.60700  292.43840  247.87920  579.72140   76.64480  120.76390
 9288.50000   -9999.25 -105.42140  363.00860  251.59460  601.83060   77.26820  121.04950
 9289.00000   -9999.25 -105.33750  419.71230  360.40160  879.38350   78.08750  121.72870
 9289.50000   -9999.25 -104.73850  446.87740  529.88010 1199.66390   78.80910  123.24740
 9290.00000   -9999.25 -104.13950  465.32670  779.05550 1014.53850   79.22210  124.06090
 9290.50000   -9999.25 -103.54040  546.43150  850.20420 1014.51950   79.18400  124.76310
 9291.00000   -9999.25 -102.79710  507.03120  612.06870 1002.93090   78.97910  125.38090
 9291.50000   -9999.25 -102.25100  585.34250  680.64000  912.63240   78.66950  125.38950
 9292.00000   -9999.25 -101.12750  670.60390  783.28140  907.55930   78.10590  125.30920
 9292.50000   -9999.25 -100.79350  502.75970  817.02030  989.78060   77.19150  124.92510
 9293.00000   -9999.25 -100.45950  438.32700  825.39340  985.04080   76.66120  124.42500
 9293.50000   -9999.25 -100.12550  451.05470  677.00020 1012.24020   76.65210  123.76430
 9294.00000   -9999.25  -99.50630  485.95700  546.60280  924.11220   76.80420  123.11140
 9294.50000   -9999.25  -99.16760  391.82640  441.32080  919.56770   77.01750  122.69990
 9295.00000   -9999.25  -98.81160  259.94100  384.62010  856.11960   77.24220  122.72500
 9295.50000   -9999.25  -97.84800  375.22600  565.31090  775.29330   77.60580  123.01770
 9296.00000   -9999.25  -97.20670  449.78120  849.67500  998.20320   77.88330  123.34050
 9296.50000   -9999.25  -96.67740  443.00490  752.07180 1135.60440   78.05560  123.82630
 9297.00000   -9999.25  -96.74800  436.96650  581.55430 1013.16930   78.32100  124.39620
 9297.50000   -9999.25  -96.53770  431.13190  564.57280  878.22620   78.76180  125.27670
 9298.00000   -9999.25  -95.92130  394.51550  510.87280  693.95180   78.85670  125.33030
 9298.50000   -9999.25  -95.46980  348.25880  448.27110  622.77520   78.80820  125.68710
 9299.00000   -9999.25  -95.27200  333.15760  443.66200  618.07600   78.58930  126.14130
 9299.50000   -9999.25  -94.88420  312.65510  417.46220  523.20660   78.59670  127.00100
 9300.00000   -9999.25  -94.75460  307.91150  377.95120  409.30290   78.99510  128.23090
 9300.50000   -9999.25  -94.89920  307.27340  350.53000  407.92620   79.60430  130.44970
 9301.00000   -9999.25  -94.21470  296.10960  325.29960  396.62650   80.51390  133.77570
 9301.50000   -9999.25  -93.53020  239.06940  263.11620  272.66480   82.16930  136.04640
 9302.00000   -9999.25  -92.84570  199.44800  210.98090  222.10790   83.94970  139.05550
 9302.50000   -9999.25  -92.16120  175.76870  198.81780  215.13140   85.96440  142.17800
 9303.00000   -9999.25  -91.41490  159.21250  191.25060  198.46860   87.68100  144.91260
 9303.50000   -9999.25  -90.94740  182.34060  195.14410  205.71290   88.76240  146.82320
 9304.00000   -9999.25  -90.92300  295.00370  336.73770  423.37480   88.16320  146.66420
 9304.50000   -9999.25  -90.79960  419.40350  519.52810  652.34480   87.06040  145.28350
 9305.00000   -9999.25  -90.08110  410.83460  475.81460  581.34780   85.13310  143.27910
 9305.50000   -9999.25  -89.83020  381.69300  418.47230  532.36080   83.39440  140.07780
 9306.00000   -9999.25  -89.68730  354.61840  408.92440  603.39500   81.71610  138.69260
 9306.50000   -9999.25  -89.90600  329.46440  399.16100  714.38040   80.52970  136.96380
 9307.00000   -9999.25  -90.12250  329.98530  389.90250  742.80760   79.82360  135.29400
 9307.50000   -9999.25  -90.49460  401.62810  386.23010  740.49570   79.42200  133.70430
 9308.00000   -9999.25  -91.26260  492.39940  361.30660  759.37450   79.34310  132.09410
 9308.50000   -9999.25  -91.60230  412.38720  317.15880  633.80190   79.41270  130.29560
 9309.00000   -9999.25  -91.42000  346.71990  292.18740  590.69620   79.08590  128.88210
 9309.50000   -9999.25  -90.73370  450.38580  291.13050  606.96690   78.23730  127.20950
 9310.00000   -9999.25  -90.04750  392.72950  272.24450  546.80330   76.87130  125.69000
 9310.50000   -9999.25  -89.70310  259.15810  261.94030  508.16900   76.07680  125.34760
 9311.00000   -9999.25  -89.27370  174.66860  253.18810  457.13270   75.75590  125.27470
 9311.50000   -9999.25  -88.97740  189.45760  238.26940  448.59070   75.86870  125.27640
 9312.00000   -9999.25  -88.98690  312.79460  216.91800  436.90380   76.28330  125.56710
 9312.50000   -9999.25  -89.29360  269.80860  197.94510  382.22310   76.85810  125.85780
 9313.00000   -9999.25  -89.35610  227.59350  179.42570  430.03230   77.31390  126.14850
 9313.50000   -9999.25  -89.41370  179.65010  128.36500  432.18790   77.56350  126.30480
 9314.00000   -9999.25  -89.47130  164.83300  109.89420  426.58970   77.54410  125.85540
 9314.50000   -9999.25  -89.52890  291.53660  195.22510  400.75070   77.38950  125.42410
 9315.00000   -9999.25  -89.58650  373.49590  286.72680  436.01030   76.85530  125.33940
 9315.50000   -9999.25  -89.64410  188.82010  256.69570  398.23300   76.52620  125.34790
 9316.00000   -9999.25  -89.70160  116.33480  229.80990  341.69830   76.11750  125.36970
 9316.50000   -9999.25  -90.07390  137.30990  205.74010  247.82710   75.77060  124.09070
 9317.00000   -9999.25  -90.62340  190.59650  219.36240  255.60570   75.18680  123.26010
 9317.50000   -9999.25  -91.50510  290.52570  315.79230  432.22940   74.48930  121.47790
 9318.00000   -9999.25  -92.21580  442.84740  454.61280  740.58640   73.28340  120.82400
 9318.50000   -9999.25  -92.54110  561.74770  654.45720  878.82900   71.87680  120.20360
 9319.00000   -9999.25  -92.55140  625.12120  782.13930  945.85610   70.85020  119.41260
 9319.50000   -9999.25  -92.74730  688.85880  881.31040 1253.60020   70.29400  118.07630
 9320.00000   -9999.25  -92.78520  976.56630 1257.94690 1863.35510   70.41280  116.51830
 9320.50000   -9999.25  -93.14570  816.98670 1051.20180 1154.11580   70.98460  114.30880
 9321.00000   -9999.25  -93.42410  301.95970  527.39670  563.81400   71.63160  113.80890
 9321.50000   -9999.25  -93.44280  197.58020  267.41600  454.95030   72.22940  113.66920
 9322.00000   -9999.25  -93.46150  233.66810  273.00390  289.33690   73.39130  114.25980
 9322.50000   -9999.25  -93.48020  519.80630  428.12760  362.28560   75.22190  116.01530
 9323.00000   -9999.25  -93.03460  887.64310  608.40000  549.53850   76.23380  116.66990
 9323.50000   -9999.25  -93.15720  620.98430  634.67930  515.96080   75.91070  116.60070
 9324.00000   -9999.25  -93.39770  455.20040  688.58440  656.16710   75.04640  116.39930
 9324.50000   -9999.25  -93.01990  684.24520  889.84740  913.05990   74.25690  116.17330
