~Version ---------------------------------------------------
VERS.   2.0 : CWLS log ASCII Standard -VERSION 2.0
WRAP.    NO : One line per depth step
DLM . SPACE : Column Data Section Delimiter
~Well ------------------------------------------------------
STRT .F                 775.0 : START DEPTH
STOP .F               11389.0 : STOP DEPTH
STEP .F                   0.5 : STEP
NULL .               -9999.25 : NULL VALUE
COMP .                        : COMPANY
WELL .                        : WELL
FLD  .                        : FIELD
LOC  .                        : LOCATION
PROV .                        : PROVINCE
CNTY .                        : COUNTY
STAT .                        : STATE
CTRY .                        : COUNTRY
SRVC .                        : SERVICE COMPANY
DATE .                        : DATE
UWI  .                        : UNIQUE WELL ID
API  .                        : API NUMBER
SLAT .WGS84 5.040639523549103 : SURFACE LATITUDE
SLON .WGS84 2.186754489779304 : SURFACE LONGITUDE
DATUM.F               1055.46 : DEPTH DATUM ELEV
~Curve Information -----------------------------------------
DEPT.F     : 
GRR .GAPI  : GAMMA RAY FROM RESISTIVITY
SPR .MV    : SPONTANEOUS POTENTIAL FROM RESISTIVITY
AT10.OHMM  : AIT TWO FOOT RESISTIVITY A10
AT30.OHMM  : AIT TWO FOOT RESISTIVITY A30
AT90.OHMM  : AIT TWO FOOT RESISTIVITY A90
DTCO.US/F  : DELTA-T COMPRESSIONAL
DTSM.US/f  : DELTA-T SHEAR
~Params ----------------------------------------------------
~Other -----------------------------------------------------
~ASCII -----------------------------------------------------
# ...
 2440.00000  111.68420   -0.28030    1.26060    2.13490    3.33650  106.18900  151.86080
 2440.50000  115.08880   -1.69780    1.21430    2.12640    3.23170  103.76860  148.07740
 2441.00000  116.79000   -2.36920    1.21330    2.14840    3.14710  101.05960  144.91740
 2441.50000  114.98620   -2.97870    1.23290    2.18190    3.06970   99.41310  144.67320
 2442.00000  109.85340   -2.88910    1.27130    2.26450    3.09560   97.92220  144.22230
 2442.50000  105.97830   -2.07600    1.33100    2.42400    3.28300   96.31880  143.04210
 2443.00000  105.90450   -1.49830    1.39090    2.62810    3.48480   94.84020  141.72450
 2443.50000  109.57030   -1.53100    1.41690    2.72150    3.58590   93.86850  140.40690
 2444.00000  113.14740   -1.79730    1.42930    2.74580    3.58630   94.48510  140.00650
 2444.50000  113.17680   -1.86880    1.42940    2.75110    3.64330   95.97870  139.98190
 2445.00000  110.64520   -1.88810    1.41280    2.64890    3.76510   99.49400  139.95720
 2445.50000  107.93050   -1.94050    1.37080    2.55540    3.80200  103.28710  139.93250
 2446.00000  107.67850   -2.11060    1.35230    2.45290    3.72800  106.89480  139.90780
 2446.50000  107.52440   -3.14280    1.28010    2.23030    3.47020  109.93740  139.88310
 2447.00000  107.43050   -3.49950    1.15690    1.98950    2.82620  112.75240  139.86170
 2447.50000  110.42820   -3.85610    1.11210    1.78660    3.01820  113.29490  139.86170
 2448.00000  115.97810   -4.67010    1.15940    1.86750    3.22170  112.25600  141.10530
 2448.50000  120.96170   -5.57870    1.21470    1.85870    3.09330  109.40510  145.70240
 2449.00000  122.76660   -6.13150    1.16750    1.81050    2.80050  106.63160  150.29960
 2449.50000  118.99920   -6.30770    1.12300    1.74490    2.77340  104.31520  154.89680
 2450.00000  113.17460   -4.71210    1.19190    1.89790    2.83750  102.84480  154.73900
 2450.50000  106.93050   -2.91710    1.32070    2.14100    2.95010  101.86480  154.15110
 2451.00000  106.53300   -0.97940    1.48080    2.41520    3.17390  102.80720  155.43730
 2451.50000  109.07830    0.37030    1.53120    2.64600    3.55860  104.65180  160.42030
 2452.00000  108.42430    1.27580    1.47290    2.49930    3.36470  106.40910  163.04970
 2452.50000  105.34750    2.17590    1.41670    2.39220    3.21150  107.23540  163.67380
 2453.00000   99.11040    3.07600    1.36230    2.41660    3.27880  107.62080  164.19840
 2453.50000   97.54840    3.26580    1.38180    2.48200    3.41410  108.56440  165.55720
 2454.00000  102.57780    3.28560    1.39760    2.39810    3.36060  110.23970  167.30350
 2454.50000  108.43120    3.56590    1.34290    2.25150    3.12790  111.65120  169.83580
 2455.00000  107.74890    4.29260    1.30790    2.16990    3.05270  111.65240  169.93160
 2455.50000  102.27400    5.01480    1.29350    2.09120    3.04580  109.55020  154.18390
 2456.00000   96.30190    5.21030    1.31040    2.09230    3.28370  107.55250  139.87570
 2456.50000   93.32520    5.42440    1.33860    2.20640    3.40270  105.41790  139.87690
 2457.00000   91.00950    5.74560    1.39950    2.32670    3.63210  102.87340  139.90150
 2457.50000   85.78060    5.67880    1.43060    2.36990    3.64380  100.61960  139.92640
 2458.00000   80.65030    6.25610    1.44520    2.44510    3.65760   97.45280  139.95130
 2458.50000   77.78260    7.10860    1.48930    2.58500    3.77050   93.76900  139.97620
 2459.00000   77.69390    7.79980    1.62670    2.82440    4.06170   92.17380  140.00110
 2459.50000   77.58100    7.90850    1.78760    3.04790    4.03470   91.69090  140.02600
 2460.00000   74.93230    8.12520    1.82040    3.04790    3.76700   91.63050  141.53120
 2460.50000   72.67850    9.02040    1.82380    3.03820    3.63890   91.94530  151.62820
 2461.00000   71.27980    9.67800    1.80900    3.02310    3.56710   93.07440  156.81070
 2461.50000   71.32800    9.57730    1.76230    2.93850    3.43070   94.41070  157.08100
 2462.00000   72.07320    8.61550    1.70340    2.85640    3.31440   97.06020  157.40250
 2462.50000   73.66570    7.41150    1.64650    2.77010    3.22640  100.86030  162.31120
 2463.00000   76.03190    6.64760    1.59110    2.65680    3.20950  104.43990  167.54860
 2463.50000   77.07040    5.74230    1.54790    2.61410    3.25460  106.37530  169.50910
 2464.00000   75.77170    5.80510    1.60270    2.64840    3.54170  107.58870  171.01340
 2464.50000   75.38100    5.86800    1.62180    2.63870    3.78330  109.20940  171.19340
 2465.00000   78.01310    6.04170    1.52020    2.45340    3.82450  111.55530  171.12150
 2465.50000   85.00900    6.12650    1.43940    2.36000    3.76830  113.87680  170.97400
 2466.00000   92.14520    5.96890    1.39440    2.23430    3.64370  114.36980  170.41520
 2466.50000   97.00760    5.14030    1.36320    2.11300    3.46570  112.40490  165.95330
 2467.00000   96.97090    4.38490    1.35710    2.01500    3.21040  108.84370  157.40520
 2467.50000   96.61190    3.71530    1.34360    2.01120    3.18030  102.99770  143.53800
 2468.00000   98.39690    2.43640    1.34410    2.03290    3.09740   93.50930  133.50070
 2468.50000  100.82150   -0.00470    1.40500    2.17710    3.00460   85.51380  125.25990
 2469.00000  100.38890   -2.55870    1.89790    2.60120    3.33640   81.63950  125.14310
 2469.50000   99.48250   -5.22900    2.57170    2.97040    5.18910   84.13430  127.44500
 2470.00000  100.37050   -6.54830    2.60630    3.15200    4.47560   87.48480  131.10910
 2470.50000  101.76690   -6.70920    2.25500    3.11650    3.45690   89.99430  134.29970
 2471.00000  103.38190   -6.47640    2.10300    2.95990    3.01050   92.28160  137.02390
 2471.50000  102.95850   -6.35610    2.07960    2.80570    2.87140   96.91180  142.42410
 2472.00000  101.54500   -6.68510    2.07280    2.66990    2.83660  101.70030  149.52660
 2472.50000   97.77270   -7.39000    2.06580    2.74910    2.86740  103.88240  151.98300
 2473.00000   93.51770   -7.84730    2.12110    2.87760    2.98400  104.61810  152.70730
 2473.50000   92.10640   -8.03360    2.19370    3.02390    3.10530  104.66060  152.96050
 2474.00000   92.63870   -8.72900    2.14460    3.13010    3.31030  103.58740  152.84320
 2474.50000   93.16340   -9.41480    1.97840    2.93890    3.47280  101.96530  152.00060
 2475.00000   92.78520  -10.10070    1.67350    2.72440    3.21460  100.70990  151.67770
 2475.50000   93.57490  -10.36300    1.53150    2.60850    3.19630  102.81070  156.00670
 2476.00000   95.62270   -9.14750    1.52500    2.55640    3.29380  105.33880  159.65640
 2476.50000   98.99670   -8.12550    1.51130    2.50380    3.40300  105.68380  159.88290
 2477.00000  104.02420   -7.52720    1.44150    2.43380    3.51590  105.73090  159.89500
 2477.50000  108.20570   -7.13530    1.36550    2.36520    3.59140  105.13650  158.80640
 2478.00000  109.55470   -5.78170    1.34340    2.32120    3.53500  103.82500  157.00050
 2478.50000  105.09020   -4.47340    1.37180    2.36710    3.46920  103.22650  155.15110
 2479.00000   99.72960   -3.38640    1.43620    2.47830    3.66350  102.93470  152.65800
 2479.50000   98.10250   -2.41480    1.45910    2.63470    3.77660  101.88420  149.95180
 2480.00000   99.11140   -2.03950    1.43030    2.53410    3.43380   99.99220  146.25180
 2480.50000  100.19690   -1.76860    1.37750    2.34730    3.10020   97.80310  142.28930
 2481.00000   99.11500   -1.54720    1.30870    2.12780    2.77220   95.83760  138.74050
 2481.50000   99.29090   -1.54700    1.33610    2.23930    2.99670   93.99270  134.36330
 2482.00000  100.41900   -1.33190    1.40420    2.50260    3.23200   91.98090  130.23740
 2482.50000  101.14090   -1.17730    1.46310    2.73870    3.43670   91.44930  130.07800
 2483.00000  100.17750   -1.96330    1.44950    2.77490    3.64700   91.94250  132.17110
 2483.50000  100.56600   -2.57510    1.42560    2.78240    3.68270   93.79650  135.56770
 2484.00000  101.78210   -2.91180    1.40200    2.74180    3.69910   96.27510  139.70950
 2484.50000  102.76940   -2.76200    1.36580    2.66270    3.72130   99.03860  143.13980
