~Version ---------------------------------------------------
VERS.   2.0 : CWLS log ASCII Standard -VERSION 2.0
WRAP.    NO : One line per depth step
DLM . SPACE : Column Data Section Delimiter
~Well ------------------------------------------------------
STRT .F                 775.0 : START DEPTH
STOP .F               11389.0 : STOP DEPTH
STEP .F                   0.5 : STEP
NULL .               -9999.25 : NULL VALUE
COMP .                        : COMPANY
WELL .                        : WELL
FLD  .                        : FIELD
LOC  .                        : LOCATION
PROV .                        : PROVINCE
CNTY .                        : COUNTY
STAT .                        : STATE
CTRY .                        : COUNTRY
SRVC .                        : SERVICE COMPANY
DATE .                        : DATE
UWI  .                        : UNIQUE WELL ID
API  .                        : API NUMBER
SLAT .WGS84 5.040639523549103 : SURFACE LATITUDE
SLON .WGS84 2.186754489779304 : SURFACE LONGITUDE
DATUM.F               1055.46 : DEPTH DATUM ELEV
~Curve Information -----------------------------------------
DEPT.F     : 
GRR .GAPI  : GAMMA RAY FROM RESISTIVITY
SPR .MV    : SPONTANEOUS POTENTIAL FROM RESISTIVITY
AT10.OHMM  : AIT TWO FOOT RESISTIVITY A10
AT30.OHMM  : AIT TWO FOOT RESISTIVITY A30
AT90.OHMM  : AIT TWO FOOT RESISTIVITY A90
DTCO.US/F  : DELTA-T COMPRESSIONAL
DTSM.US/f  : DELTA-T SHEAR
~Params ----------------------------------------------------
~Other -----------------------------------------------------
~ASCII -----------------------------------------------------
# ...
 3115.00000   99.08010  -15.73960    2.53770    2.55150    2.71300   82.31760  119.30590
 3115.50000   96.34230  -16.26140    2.58080    2.61540    2.84960   80.96660  119.85010
 3116.00000   95.50600  -15.58410    2.59940    2.69480    2.96700   80.60160  120.56840
 3116.50000   95.98470  -14.07490    2.55560    2.70240    2.93420   80.76670  123.56090
 3117.00000  103.23690  -12.42070    2.41990    2.61690    2.89030   81.51920  126.49880
 3117.50000  112.53650   -9.48840    2.26220    2.59090    2.88030   82.22030  129.99930
 3118.00000  121.80790   -6.66190    2.20070    2.69330    3.03140   83.58990  133.82280
 3118.50000  124.40550   -5.03440    2.13330    2.85770    3.32330   88.64580  145.10950
 3119.00000  123.30910   -4.08050    2.13440    3.23650    3.64340   95.86610  151.83970
 3119.50000  118.18580   -3.00540    2.02340    3.11680    3.66730  101.92150  155.06950
 3120.00000  111.06290   -1.82080    1.71080    2.76300    3.42500  105.55370  157.25650
 3120.50000  105.42530    0.47750    1.52820    2.44930    3.22780  110.81890  156.81000
 3121.00000  101.51870    2.77580    1.33170    2.19780    3.24890  120.75230  148.15060
 3121.50000   96.36310    5.19730    1.21210    2.09450    3.30620  128.22280  139.83560
 3122.00000   88.10300    5.61580    1.17210    1.97660    3.37070  132.92560  139.81220
 3122.50000   79.37330    4.73010    1.14510    1.85100    3.46380  137.12850  139.78880
 3123.00000   75.71540    3.76330    1.08660    1.70530    3.35680  139.71340  139.76540
 3123.50000   76.29550    1.90370    0.98980    1.49130    2.94310  139.68180  139.74200
 3124.00000   77.60210    0.65250    0.93040    1.40340    2.70730  139.65030  140.36440
 3124.50000   80.93640    0.31190    0.89430    1.40340    2.67250  136.12390  145.88400
 3125.00000   83.58070    0.99290    0.86830    1.43680    2.88670  127.60560  153.34680
 3125.50000   86.67060    2.12200    0.91760    1.49310    3.11790  117.84250  159.72100
 3126.00000   89.26670    3.68830    1.04670    1.62220    3.46320  111.85200  159.20620
 3126.50000   89.70280    5.61100    1.11120    1.89950    3.94520  108.72180  153.56740
 3127.00000   89.40830    6.19990    1.17960    2.10990    4.43480  107.01470  146.47620
 3127.50000   89.37820    5.58290    1.24660    2.28980    4.81380  104.18190  141.07990
 3128.00000   89.61430    5.37940    1.30600    2.51570    5.20410   99.01040  135.88590
 3128.50000   91.15950    5.37840    1.34610    2.60210    5.40810   95.02130  138.79850
 3129.00000   95.44330    4.94370    1.34490    2.58670    5.00020   93.28810  144.76340
 3129.50000  100.01330    3.88380    1.35290    2.60710    4.65900   92.46130  144.25370
 3130.00000  101.96630    2.42350    1.41000    2.62760    4.40940   92.48180  143.00690
 3130.50000   99.06110    1.68970    1.43800    2.63920    4.31520   92.83040  143.35360
 3131.00000   95.67840    0.91820    1.45230    2.61590    4.18240   93.22290  144.94610
 3131.50000   91.93570   -0.90670    1.48850    2.66920    4.09740   93.05830  146.94810
 3132.00000   89.95780   -3.10180    1.59000    2.84640    4.28850   92.21470  148.93140
 3132.50000   89.51260   -5.55780    1.68320    3.08870    4.40820   91.36740  148.89670
 3133.00000   92.49130   -8.02630    1.71780    3.23090    4.52770   89.79460  147.69760
 3133.50000   94.44120  -11.21820    1.81400    3.36670    4.62650   85.69620  144.90300
 3134.00000   93.91830  -13.80540    1.89610    3.47220    4.48760   80.99050  142.19430
 3134.50000   93.61820  -15.28060    1.95030    3.62390    4.47690   79.06990  141.95450
 3135.00000   96.98300  -16.07360    2.07930    3.79670    5.01590   81.18770  144.60110
 3135.50000  102.62640  -17.09990    2.13310    3.64430    5.08620   85.09730  147.27200
 3136.00000  105.78780  -18.98880    1.97900    2.94570    4.05380   90.92450  147.98160
 3136.50000  108.80420  -21.42520    1.77450    2.65100    3.49360   95.93210  151.75170
 3137.00000  111.42360  -23.70640    1.71460    2.44950    3.13410   99.47900  158.08600
 3137.50000  110.37790  -24.19460    1.82520    2.56150    3.08400   99.59530  162.66090
 3138.00000  106.94250  -23.88560    1.95680    2.86220    3.38730   97.72020  165.29100
 3138.50000   99.89170  -22.78240    2.15640    3.08120    3.84290   93.54980  163.36270
 3139.00000   94.83470  -21.67910    2.35780    3.28140    3.87880   88.03400  153.80210
 3139.50000   91.87380  -20.73000    2.33560    3.14990    3.42710   84.07050  142.10550
 3140.00000   89.44610  -21.57310    2.32220    3.01450    3.07940   80.47360  132.32790
 3140.50000   87.25740  -22.57360    2.25950    2.88490    2.91850   79.66160  128.16850
 3141.00000   87.44940  -23.26300    2.20510    2.76090    2.80910   80.85480  131.48910
 3141.50000   90.73310  -22.32220    2.22310    2.70080    2.76680   83.58450  138.14440
 3142.00000   96.96690  -20.67960    2.30440    2.70100    2.85990   85.96150  144.55340
 3142.50000  102.11130  -18.95580    2.33570    2.80370    2.99600   88.61900  148.28100
 3143.00000  103.58660  -19.13340    2.34480    2.91260    3.29170   90.74820  151.63530
 3143.50000  103.55490  -19.69900    2.36210    3.02560    3.50120   90.98370  151.41850
 3144.00000  105.40830  -20.32550    2.41520    3.10070    3.68130   89.72680  141.10660
 3144.50000  106.97400  -20.36740    2.44990    3.08780    3.82050   87.43360  127.28380
 3145.00000  105.53500  -20.34530    2.45010    3.13850    3.95130   85.54250  118.45780
 3145.50000  100.19820  -20.33160    2.61320    3.30070    4.11130   84.55280  113.22700
 3146.00000   94.02380  -20.81250    2.80510    3.35190    4.15310   83.58780  112.05120
 3146.50000   92.25490  -21.32360    2.86110    3.16920    3.97130   82.99580  113.90490
 3147.00000   91.83380  -22.09020    2.57350    2.88630    3.32190   82.84770  119.61160
 3147.50000   90.89820  -24.04830    2.31470    2.62860    2.99840   82.42050  129.33480
 3148.00000   90.40380  -25.07190    2.08800    2.39400    2.71840   81.99860  143.20590
 3148.50000   90.27620  -25.47530    2.11730    2.31760    2.57140   81.93740  154.23150
 3149.00000   90.43550  -25.76410    2.25530    2.34640    2.65060   82.27800  159.19840
 3149.50000   90.79880  -26.00700    2.40480    2.45200    2.83490   83.13070  160.19760
 3150.00000   92.95390  -24.87060    2.52740    2.56240    3.11710   85.12650  160.02790
 3150.50000   95.76400  -23.69540    2.64500    2.67780    3.18370   86.70850  159.72670
 3151.00000   96.87440  -22.43180    2.64800    2.78180    3.32030   88.26740  158.95420
 3151.50000   97.04840  -21.86460    2.57710    2.85790    3.41960   89.64220  157.44860
 3152.00000   98.43790  -21.66380    2.31190    2.94250    3.63750   90.36810  155.51510
 3152.50000  100.24030  -21.59840    2.12410    2.97660    3.85410   90.07740  153.53920
 3153.00000  102.84720  -22.07160    2.33120    2.87890    3.52860   89.13140  150.52390
 3153.50000  105.11700  -22.82300    2.43310    2.67160    3.10820   87.55340  146.44240
 3154.00000  105.96980  -23.48370    2.28940    2.45540    2.73780   86.49230  142.36100
 3154.50000  101.80870  -24.92320    2.15410    2.25670    2.41150   85.79640  139.08000
 3155.00000   92.96860  -26.36260    2.02690    2.07410    2.13190   85.21830  137.47030
 3155.50000   81.75860  -26.42810    1.90720    1.94290    1.96790   84.92370  135.85650
 3156.00000   75.89070  -24.93360    1.83910    1.89320    1.96330   84.79570  134.23750
 3156.50000   77.19570  -23.07420    1.86890    1.92160    2.00640   84.96930  131.59060
 3157.00000   83.56350  -20.20600    2.08770    2.13150    2.15840   86.25960  130.02400
 3157.50000   90.39900  -18.75500    2.33210    2.36440    2.87870   88.98960  132.11430
 3158.00000   95.85950  -19.16800    2.43380    2.62280    3.05370   90.54760  144.98800
 3158.50000   98.58170  -19.51030    2.34310    2.89470    2.98490   91.19620  150.73340
 3159.00000  100.10070  -19.85260    2.34100    2.76870    2.94430   90.55500  152.53710
 3159.50000  103.31620  -20.19490    2.37980    2.60770    3.90880   89.17080  151.61130
