~Version ---------------------------------------------------
VERS.   2.0 : CWLS log ASCII Standard -VERSION 2.0
WRAP.    NO : One line per depth step
DLM . SPACE : Column Data Section Delimiter
~Well ------------------------------------------------------
STRT .F                 775.0 : START DEPTH
STOP .F               11389.0 : STOP DEPTH
STEP .F                   0.5 : STEP
NULL .               -9999.25 : NULL VALUE
COMP .                        : COMPANY
WELL .                        : WELL
FLD  .                        : FIELD
LOC  .                        : LOCATION
PROV .                        : PROVINCE
CNTY .                        : COUNTY
STAT .                        : STATE
CTRY .                        : COUNTRY
SRVC .                        : SERVICE COMPANY
DATE .                        : DATE
UWI  .                        : UNIQUE WELL ID
API  .                        : API NUMBER
SLAT .WGS84 5.040639523549103 : SURFACE LATITUDE
SLON .WGS84 2.186754489779304 : SURFACE LONGITUDE
DATUM.F               1055.46 : DEPTH DATUM ELEV
~Curve Information -----------------------------------------
DEPT.F     : 
GRR .GAPI  : GAMMA RAY FROM RESISTIVITY
SPR .MV    : SPONTANEOUS POTENTIAL FROM RESISTIVITY
AT10.OHMM  : AIT TWO FOOT RESISTIVITY A10
AT30.OHMM  : AIT TWO FOOT RESISTIVITY A30
AT90.OHMM  : AIT TWO FOOT RESISTIVITY A90
DTCO.US/F  : DELTA-T COMPRESSIONAL
DTSM.US/f  : DELTA-T SHEAR
~Params ----------------------------------------------------
~Other -----------------------------------------------------
~ASCII -----------------------------------------------------
# ...
 1045.00000   88.51010   -4.29930    1.68810    2.62180    3.60880  113.58360  172.65930
 1045.50000   92.06020   -4.13630    1.62350    2.60140    3.63340  114.19300  174.74650
 1046.00000   94.44720   -3.98670    1.60770    2.56210    3.63340  113.80390  175.28500
 1046.50000   95.32050   -3.59940    1.62220    2.51840    3.56110  112.84790  175.00420
 1047.00000   95.12000   -3.61620    1.60350    2.45060    3.44000  111.86330  174.97700
 1047.50000   94.75860   -3.48590    1.53090    2.34450    3.30610  111.24590  176.36580
 1048.00000   94.26670   -3.38070    1.46990    2.28060    3.26410  110.46200  177.36260
 1048.50000   93.90400   -3.05070    1.48130    2.34760    3.33320  109.38380  178.21260
 1049.00000   95.97780   -3.13080    1.53860    2.43600    3.32600  107.79790  178.32080
 1049.50000   98.70050   -3.94720    1.57280    2.52780    3.46570  106.41980  177.57300
 1050.00000   97.90640   -4.65590    1.59930    2.59760    3.61520  105.79550  176.60970
 1050.50000   95.80010   -5.51240    1.62560    2.65450    3.79300  105.90420  176.93930
 1051.00000   93.83940   -6.74450    1.67270    2.71810    3.98930  106.69740  178.17250
 1051.50000   93.00790   -8.73310    1.70520    2.75960    4.03720  107.72790  178.08620
 1052.00000   90.62530  -11.27720    1.72930    2.71200    3.90650  109.63330  177.09450
 1052.50000   86.09400  -13.82040    1.72440    2.65910    3.89280  111.60790  174.35790
 1053.00000   83.07340  -15.99760    1.68530    2.58240    3.85790  113.70380  168.25780
 1053.50000   82.28710  -18.17820    1.59840    2.49970    3.59660  115.55500  162.15770
 1054.00000   82.41940  -20.99500    1.56890    2.42720    3.60580  113.35600  156.05760
 1054.50000   82.58950  -22.25530    1.60750    2.35110    3.35630  104.44290  149.95750
 1055.00000   83.85740  -22.68940    1.86790    2.39700    3.22710  102.25950  140.43510
 1055.50000   87.57900  -22.75450    2.11270    2.58710    3.19230   97.34130  144.20650
 1056.00000   92.12300  -21.74230    2.28360    2.79240    3.40980   93.74070  149.21230
 1056.50000   94.47910  -20.29520    2.25560    2.83750    3.27840   94.67290  156.00750
 1057.00000   93.75990  -19.14020    2.11480    2.73200    2.92280   97.09560  161.96470
 1057.50000   91.82830  -17.95280    2.01380    2.61100    2.71400   98.85320  168.04380
 1058.00000   90.48740  -16.92270    2.05890    2.59690    2.67780  100.23240  171.65940
 1058.50000   90.32600  -16.50900    2.10320    2.59690    2.65650  101.52500  174.57150
 1059.00000   94.39570  -16.09440    2.14480    2.58850    2.75450  103.62740  176.44150
 1059.50000   99.36800  -15.92170    2.15580    2.56460    2.77230  106.72470  176.94300
 1060.00000  102.50220  -15.38370    2.04020    2.51090    2.81790  111.12650  175.98080
 1060.50000  103.14590  -13.89530    1.88610    2.42100    2.82960  114.76760  174.76500
 1061.00000  101.91760  -12.58180    1.76170    2.26340    2.78360  117.08020  173.42150
 1061.50000   99.44530  -12.10310    1.76940    2.21240    2.73840  117.61170  173.35880
 1062.00000   96.14240  -11.56310    1.75310    2.21350    2.76390  115.96950  172.78290
 1062.50000   96.14110  -11.24690    1.69830    2.21830    2.80510  113.94910  170.09920
 1063.00000   98.72430  -11.95350    1.64200    2.20550    2.82480  112.87730  169.30240
 1063.50000   99.53830  -13.30300    1.64130    2.19020    2.82340  113.02850  170.14260
 1064.00000   93.92850  -14.38550    1.68350    2.22060    2.89890  113.68470  170.90870
 1064.50000   84.68910  -15.05840    1.74700    2.25730    3.00090  114.25890  171.77290
 1065.00000   78.56820  -15.10120    1.68880    2.25060    2.92310  114.63420  170.55340
 1065.50000   78.60020  -15.14400    1.64340    2.11720    2.81620  114.90630  169.99200
 1066.00000   79.95990  -14.66390    1.65000    2.07150    2.74070  114.28000  167.77660
 1066.50000   79.42730  -14.01950    1.68850    2.14330    2.70090  110.39890  162.08240
 1067.00000   79.55910  -12.60760    1.75120    2.23530    2.78140  105.02800  160.61690
 1067.50000   85.53860  -10.87740    2.02720    2.38890    3.21920  100.95020  159.31580
 1068.00000   95.14970   -8.91050    2.27650    3.18560    4.21350   97.61360  156.35620
 1068.50000  101.68880   -7.03930    2.48230    3.21220    4.04680   95.60870  154.00130
 1069.00000  101.40770   -5.99610    2.44470    3.22310    3.85430   95.55010  155.24440
 1069.50000   98.26420   -4.18510    2.43770    3.35240    3.76390   95.96210  157.97260
 1070.00000   95.54560   -2.15000    2.40770    3.24570    3.76390   97.07160  159.18330
 1070.50000   93.11260   -1.07900    2.34710    3.12100    3.76570  100.22530  160.40610
 1071.00000   91.10130   -0.78280    2.28660    3.06210    3.78160  105.74070  164.23220
 1071.50000   87.37740   -0.48650    2.24760    3.02080    3.83440  111.99940  169.14020
 1072.00000   85.83240   -0.19020    2.15690    2.98010    3.79930  114.92240  171.33660
 1072.50000   86.22740    0.11970    2.03210    2.85320    3.74150  117.43820  173.06340
 1073.00000   88.28600    0.61290    1.82220    2.47820    3.25140  120.33080  174.78860
 1073.50000   87.32160    1.28510    1.66280    2.35340    3.10290  122.24210  176.29820
 1074.00000   82.09160    1.84070    1.61510    2.39430    3.18100  123.96730  177.54400
 1074.50000   74.95600    2.10200    1.63390    2.40840    3.22500  125.44310  176.88490
 1075.00000   72.36340    1.38070    1.65250    2.39430    3.30850  125.68880  176.06420
 1075.50000   73.22090    0.73110    1.66540    2.36930    3.31950  124.96750  175.29990
 1076.00000   76.10320   -0.08350    1.60540    2.32100    3.26080  124.05620  174.31230
 1076.50000   78.78140   -1.64620    1.52660    2.26290    3.06580  122.37020  172.95970
 1077.00000   80.77860   -2.46400    1.48000    2.17120    3.15570  120.71920  170.80870
 1077.50000   80.32850   -1.15440    1.50090    2.22780    3.31370  119.82060  169.50350
 1078.00000   80.10100    0.15510    1.52820    2.29060    3.27970  119.55440  169.72470
 1078.50000   81.17860    1.67970    1.55600    2.28020    3.63640  120.32290  170.67170
 1079.00000   84.01390    2.99180    1.57100    2.26370    3.52890  122.52500  172.04140
 1079.50000   85.06500    2.73220    1.57060    2.24850    3.40700  123.81240  174.72840
 1080.00000   83.79970    2.27480    1.57380    2.25020    3.36340  123.47540  176.21860
 1080.50000   81.06700    1.50850    1.59760    2.25440    3.31570  121.94960  174.89310
 1081.00000   78.56650    0.86850    1.65450    2.26330    3.23560  120.78430  171.42520
 1081.50000   77.41820    0.55230    1.68610    2.25090    3.21270  117.77530  167.24040
 1082.00000   78.33790   -0.07840    1.70150    2.23870    3.11700  111.01110  162.58350
 1082.50000   79.72350   -0.81570    1.72220    2.25980    2.91640  104.71670  160.45520
 1083.00000   80.07870   -1.70120    1.87220    2.42440    3.05950  100.31720  158.87910
 1083.50000   79.42810   -2.62780    2.24020    2.94030    3.77290   96.88740  157.48900
 1084.00000   78.36270   -4.36190    2.69720    3.42380    4.50570   94.73570  156.09350
 1084.50000   78.19390   -5.43790    3.03240    3.57540    4.68470   93.89530  154.71590
 1085.00000   78.98490   -5.72900    3.02560    3.23550    4.27020   94.16020  153.40750
 1085.50000   78.89880   -6.32330    2.90980    3.06820    3.95300   95.43440  152.23190
 1086.00000   78.41430   -7.50800    2.79850    2.91960    3.69850   96.02830  150.68310
 1086.50000   78.01110   -9.93940    2.79020    2.77820    3.46040   95.87850  149.22190
 1087.00000   78.49570  -11.84290    2.81000    2.63820    3.17120   95.73830  147.92340
 1087.50000   79.06470  -13.55870    2.87420    2.55220    2.90600   96.05570  146.49240
 1088.00000   78.18610  -15.58640    2.94860    2.60880    2.66300   97.67010  144.96710
 1088.50000   73.27830  -18.06650    3.00410    2.69160    2.44030   99.06060  143.99440
 1089.00000   66.32320  -20.54650    2.94670    2.47410    2.23740  100.26550  145.43760
 1089.50000   61.49940  -24.31770    2.60800    2.17860    2.02400  101.70950  149.60780
