~Version ---------------------------------------------------
VERS.   2.0 : CWLS log ASCII Standard -VERSION 2.0
WRAP.    NO : One line per depth step
DLM . SPACE : Column Data Section Delimiter
~Well ------------------------------------------------------
STRT .F                 775.0 : START DEPTH
STOP .F               11389.0 : STOP DEPTH
STEP .F                   0.5 : STEP
NULL .               -9999.25 : NULL VALUE
COMP .                        : COMPANY
WELL .                        : WELL
FLD  .                        : FIELD
LOC  .                        : LOCATION
PROV .                        : PROVINCE
CNTY .                        : COUNTY
STAT .                        : STATE
CTRY .                        : COUNTRY
SRVC .                        : SERVICE COMPANY
DATE .                        : DATE
UWI  .                        : UNIQUE WELL ID
API  .                        : API NUMBER
SLAT .WGS84 5.040639523549103 : SURFACE LATITUDE
SLON .WGS84 2.186754489779304 : SURFACE LONGITUDE
DATUM.F               1055.46 : DEPTH DATUM ELEV
~Curve Information -----------------------------------------
DEPT.F     : 
GRR .GAPI  : GAMMA RAY FROM RESISTIVITY
SPR .MV    : SPONTANEOUS POTENTIAL FROM RESISTIVITY
AT10.OHMM  : AIT TWO FOOT RESISTIVITY A10
AT30.OHMM  : AIT TWO FOOT RESISTIVITY A30
AT90.OHMM  : AIT TWO FOOT RESISTIVITY A90
DTCO.US/F  : DELTA-T COMPRESSIONAL
DTSM.US/f  : DELTA-T SHEAR
~Params ----------------------------------------------------
~Other -----------------------------------------------------
~ASCII -----------------------------------------------------
# ...
 10667.50000   24.41910  -89.18040  192.22020  270.39310  309.41390   49.65390   95.78810
 10668.00000   24.69670  -88.61350  250.53140  307.30440  331.26440   49.57100   95.47250
 10668.50000   24.15440  -88.35870  351.04840  351.37560  376.44410   49.50850   95.37350
 10669.00000   22.67190  -88.35680  351.98320  375.57300  401.40240   49.44590   95.20250
 10669.50000   20.30230  -86.92050  344.34610  440.13670  419.57020   49.38260   94.79030
 10670.00000   18.67080  -85.18490  513.57930  739.02200  703.24320   49.20010   94.33300
 10670.50000   17.92060  -84.01090  834.48340 1022.35640 1261.79520   49.04010   93.98250
 10671.00000   18.05520  -83.54300  619.95720  757.90970  834.75190   48.98450   93.86510
 10671.50000   18.43400  -83.26800  235.55390  548.46460  629.25050   49.20750   94.11330
 10672.00000   18.70010  -82.97270  215.57560  514.88640  675.69700   49.48240   94.26950
 10672.50000   19.06310  -82.33970  600.62650  566.70480  738.28880   49.70140   94.30590
 10673.00000   19.44150  -82.12610  589.40310  482.57530  711.30260   49.75670   94.31110
 10673.50000   19.63500  -81.96870  308.03140  321.70830  531.91640   49.79690   94.29970
 10674.00000   19.64590  -81.83080  223.53260  214.46620  402.85750   49.80460   94.21020
 10674.50000   19.73880  -81.37860  279.12250  182.53660  344.88810   49.72050   94.01180
 10675.00000   20.40210  -80.41150  911.92380  213.04860  306.21020   49.55940   94.04740
 10675.50000   21.16030  -79.37990  596.53140  253.69290  314.42020   49.34560   94.12640
 10676.00000   20.98440  -78.62330  314.96680  246.84410  317.12360   49.14380   94.23710
 10676.50000   20.50280  -78.19930  142.75010  233.57430  243.30580   49.15150   94.30940
 10677.00000   20.53230  -76.76920  168.55520  236.42720  257.82750   49.24360   94.15200
 10677.50000   21.80360  -75.55350  228.70550  244.90570  284.09010   49.34030   93.89350
 10678.00000   22.93720  -74.73450  238.68530  279.03210  306.94900   49.40120   93.61690
 10678.50000   22.79060  -74.00570  313.33080  362.01300  399.18030   49.43610   93.47290
 10679.00000   21.27000  -73.37630  444.15580  510.12450  611.54140   49.33880   93.66290
 10679.50000   18.78970  -72.63480  616.40170  720.13560  990.10070   49.03860   93.93850
 10680.00000   16.81980  -71.60970  822.05840 1861.38600 1323.54050   48.53060   94.10090
 10680.50000   16.43650  -70.46970  769.56620 1952.08940  901.69230   48.25970   94.23500
 10681.00000   16.93820  -69.56610  628.20160 1961.50610  839.53840   48.41450   94.63670
 10681.50000   18.47710  -68.66250  454.43040 1962.18570  624.34610   48.80090   95.03830
 10682.00000   20.37040  -67.52930  349.45310 1948.92090  408.95540   49.21410   95.28620
 10682.50000   21.33370  -66.86510  390.78810 1142.99720  250.47180   49.75450   95.39450
 10683.00000   21.43760  -66.17740  641.10670  479.98530  230.16870   50.20260   95.53800
 10683.50000   21.47670  -65.44640  542.46040  351.39180  205.86350   50.59070   95.82490
 10684.00000   21.97950  -64.37290  285.45850  560.27550  154.51480   50.78830   95.81620
 10684.50000   23.31050  -62.76650  178.11910  333.25820  122.74860   50.73590   95.34190
 10685.00000   25.24720  -60.99550  182.53040  312.98770  131.48640   50.57440   94.78100
 10685.50000   25.34820  -59.31430  368.38510  370.60320  213.94360   50.35060   94.45400
 10686.00000   24.36920  -58.29550  596.84660  452.59100  348.11160   50.26120   94.99160
 10686.50000   24.28280  -57.27680  537.28360 1977.86100  497.28620   50.34920   96.04910
 10687.00000   27.64250  -56.25810  385.89180  968.65970  232.80160   50.87600   96.83710
 10687.50000   34.11580  -55.03360  197.60560  387.85090  175.78800   51.56030   97.60470
 10688.00000   41.18390  -53.52200  100.60120  223.73340  142.91440   52.36020   98.57430
 10688.50000   44.53610  -51.96240  104.00750  152.46230  129.55760   52.92770   99.62490
 10689.00000   45.30880  -50.44720  122.58600  159.78170  140.63020   53.02980  100.60350
 10689.50000   44.74080  -49.89890  137.83010  172.36880  160.33960   52.84730  100.45200
 10690.00000   42.83910  -49.55730  206.60670  194.17630  159.84130   52.56610   99.53930
 10690.50000   37.58690  -49.06300  395.27910  234.38200  157.83850   52.25530   98.62670
 10691.00000   31.73460  -48.39360  646.31230  257.90640  188.14560   51.80300   97.92140
 10691.50000   27.07660  -47.63980  605.46490  255.57540  230.34340   51.30580   97.19540
 10692.00000   25.98080  -47.39580  316.83980  219.28160  193.74970   50.97460   96.44590
 10692.50000   26.78230  -46.60450  205.04190  197.16560  167.15800   50.64180   96.51180
 10693.00000   28.92340  -45.85570  243.66300  206.36970  190.34410   50.30150   96.63070
 10693.50000   30.03340  -45.23640  361.46970  224.28970  213.22930   49.80300   96.86470
 10694.00000   30.43600  -44.84470  320.73430  217.75210  215.58390   49.91210   96.93660
 10694.50000   30.77720  -44.27980  200.22450  178.65770  183.82660   51.04950   97.03550
 10695.00000   31.71300  -43.58620  160.35720  146.58210  154.98680   52.47910   97.64830
 10695.50000   33.28890  -43.27960  148.12080  120.26530  130.67150   53.40470   99.08840
 10696.00000   34.99100  -43.03000  137.22430   98.67330  118.60740   54.35240  100.38410
 10696.50000   36.58230  -42.48240  128.99690   86.54110  110.87270   54.72290  101.65010
 10697.00000   37.29140  -41.96980  128.93930   83.22390  103.64250   54.42460  101.64780
 10697.50000   37.14880  -41.50550  150.94620   83.61460   96.88380   53.70220  100.89800
 10698.00000   36.57510  -41.35240  174.47490   84.77480   90.56590   53.33760  100.84180
 10698.50000   35.02650  -41.19940  166.99260   84.04470   88.41670   53.11080  102.00420
 10699.00000   32.93480  -41.03160  141.66750   82.89070   90.58070   53.10220  102.60160
 10699.50000   30.97910  -40.49080  125.89240   85.58070   95.99310   53.06410  101.76400
 10700.00000   30.96950  -40.14430  145.27670  104.22320  107.19220   52.99920   99.52500
 10700.50000   31.66050  -40.13330  222.73530  137.69850  110.49530   52.88500   97.81330
 10701.00000   34.11170  -40.07510  236.71630  169.66860  102.25330   52.68190   97.25200
 10701.50000   38.06040  -39.71130  125.08770  113.27990   97.18350   52.90820   97.69610
 10702.00000   41.05530  -39.36360  149.03750  128.88700  110.34380   53.00950   98.32760
 10702.50000   42.66690  -39.42000  228.33340  151.66320  144.27550   52.78290   98.95900
 10703.00000   42.11960  -39.63980  259.94900  175.43210  155.60270   52.67880   99.03900
 10703.50000   40.48990  -39.74260  204.66330  176.60380  158.66020   52.86030   99.18750
 10704.00000   39.65740  -39.72030  190.15980  172.44650  155.21890   53.09240   99.33410
 10704.50000   40.04320  -39.75680  221.02740  165.72630  139.50750   53.17650   99.13060
 10705.00000   42.16180  -40.03220  223.71330  139.14070  136.60880   52.91680   97.74380
 10705.50000   43.36000  -40.46380  145.29660  116.82000  100.34270   52.71520   95.69140
 10706.00000   42.51360  -40.55300  117.16140   98.08000   73.72040   52.75270   95.95170
 10706.50000   41.70500  -40.63960  129.14210   93.81840   78.33510   52.78680   96.69960
 10707.00000   41.66180  -40.89010  165.30440  104.56850   90.23930   52.55740   97.44840
 10707.50000   42.03670  -41.07020  187.39770  133.54820  110.95260   52.22220   98.12710
 10708.00000   42.11920  -41.76630  202.27240  170.55940  144.82690   51.84970   98.44840
 10708.50000   41.16260  -42.48400  251.09780  217.82770  210.27210   51.57620   98.68990
 10709.00000   39.45600  -43.04250  311.70900  277.32260  284.65400   51.43360   98.95840
 10709.50000   39.48060  -43.66600  324.25250  292.48830  195.34030   51.42660   99.60990
 10710.00000   41.95000  -44.28960  309.48150  248.41090  143.38440   51.69040  100.44470
 10710.50000   45.29450  -45.01340  303.83590  221.18670  188.01130   52.05820  100.79100
 10711.00000   47.45680  -45.71580  257.47960  210.23100  190.05190   52.86620  100.72730
 10711.50000   48.29720  -45.96490  202.76660  187.15160  172.08630   53.44030  100.63180
