~Version ---------------------------------------------------
VERS.   2.0 : CWLS log ASCII Standard -VERSION 2.0
WRAP.    NO : One line per depth step
DLM . SPACE : Column Data Section Delimiter
~Well ------------------------------------------------------
STRT .F                 775.0 : START DEPTH
STOP .F               11389.0 : STOP DEPTH
STEP .F                   0.5 : STEP
NULL .               -9999.25 : NULL VALUE
COMP .                        : COMPANY
WELL .                        : WELL
FLD  .                        : FIELD
LOC  .                        : LOCATION
PROV .                        : PROVINCE
CNTY .                        : COUNTY
STAT .                        : STATE
CTRY .                        : COUNTRY
SRVC .                        : SERVICE COMPANY
DATE .                        : DATE
UWI  .                        : UNIQUE WELL ID
API  .                        : API NUMBER
SLAT .WGS84 5.040639523549103 : SURFACE LATITUDE
SLON .WGS84 2.186754489779304 : SURFACE LONGITUDE
DATUM.F               1055.46 : DEPTH DATUM ELEV
~Curve Information -----------------------------------------
DEPT.F     : 
GRR .GAPI  : GAMMA RAY FROM RESISTIVITY
SPR .MV    : SPONTANEOUS POTENTIAL FROM RESISTIVITY
AT10.OHMM  : AIT TWO FOOT RESISTIVITY A10
AT30.OHMM  : AIT TWO FOOT RESISTIVITY A30
AT90.OHMM  : AIT TWO FOOT RESISTIVITY A90
DTCO.US/F  : DELTA-T COMPRESSIONAL
DTSM.US/f  : DELTA-T SHEAR
~Params ----------------------------------------------------
~Other -----------------------------------------------------
~ASCII -----------------------------------------------------
# ...
 6535.00000   35.26840  -33.17730   10.08580   12.64430   13.84750   56.41160  105.76780
 6535.50000   40.72630  -31.90470    9.39080   11.00640   12.95250   60.45380  102.84720
 6536.00000   54.94990  -29.39180    6.33520    7.37590    9.56930   67.76390  107.92610
 6536.50000   77.06390  -26.22300    4.79080    5.34500    5.86760   75.46640  119.31680
 6537.00000   99.41190  -24.22080    4.72200    5.48800    5.89850   79.04880  126.27700
 6537.50000  112.43770  -22.39420    4.86440    5.78270    6.38900   80.70790  135.30740
 6538.00000  116.20700  -20.58980    4.44190    5.33770    5.88370   81.35180  146.65400
 6538.50000  115.67620  -19.54460    3.69940    4.77980    5.09420   82.01970  156.54180
 6539.00000  112.20710  -18.61550    3.53730    4.61820    4.96900   81.88840  164.83140
 6539.50000  110.04830  -18.37990    3.97030    4.86890    5.39360   81.10610  165.44560
 6540.00000  110.25650  -17.87810    4.49270    5.17150    5.75190   80.00570  164.48980
 6540.50000  111.41210  -16.70600    4.50700    5.28280    5.76210   79.71120  162.95390
 6541.00000  112.91480  -15.52830    4.20380    5.07300    5.62480   80.20530  161.75250
 6541.50000  115.05790  -14.83710    3.92160    4.72050    5.16800   81.26990  160.43390
 6542.00000  116.89070  -15.07490    3.77190    4.48200    4.73630   81.73360  157.76540
 6542.50000  117.45930  -15.51890    3.77190    4.41120    4.65470   81.99390  155.72400
 6543.00000  116.36690  -15.13030    3.77190    4.34140    4.61690   82.36050  152.56760
 6543.50000  113.89930  -15.18160    3.77750    4.33790    4.57940   82.04400  149.41130
 6544.00000  111.04870  -15.18390    3.88230    4.36200    4.57540   80.45190  146.22220
 6544.50000  106.79160  -15.18620    4.11880    4.45770    4.73120   79.09560  145.00100
 6545.00000  102.85350  -15.18700    4.37750    4.61070    5.37380   78.27840  145.70920
 6545.50000  105.00580  -15.12610    4.39620    4.76360    5.38640   78.10250  146.96130
 6546.00000  112.73020  -15.07990    4.22060    4.74040    5.06230   78.76610  148.77410
 6546.50000  118.73790  -15.57020    4.22480    4.66140    4.99540   80.80470  151.58330
 6547.00000  123.95660  -15.25720    4.32480    4.57600    4.88890   83.27650  154.55260
 6547.50000  127.45120  -14.56850    4.25920    4.49200    4.78370   85.70460  158.03170
 6548.00000  128.35620  -14.02260    3.77550    4.40940    4.68060   86.93610  158.65090
 6548.50000  126.84470  -13.50000    3.45620    4.32840    4.60460   87.72650  158.57110
 6549.00000  122.60130  -13.06180    3.55320    4.24900    4.53750   88.35350  161.31140
 6549.50000  120.16310  -12.75540    3.70060    4.17100    4.47220   88.29550  169.96060
 6550.00000  119.69260  -12.44900    3.66340    4.17640    4.48960   87.67520  173.68630
 6550.50000  119.90720  -11.74020    3.49860    4.23380    4.59270   87.44140  173.62140
 6551.00000  123.35020  -11.10610    3.73770    4.34930    4.75910   87.97170  172.83150
 6551.50000  128.14630  -10.44140    4.09840    4.48780    4.97870   88.60570  170.64310
 6552.00000  131.26550   -9.84660    4.39260    4.65650    5.10590   88.90130  169.47530
 6552.50000  130.70050   -9.34170    4.33620    4.75300    5.16570   89.33650  168.57370
 6553.00000  123.77160   -9.33950    4.05410    4.45860    4.94870   89.74510  168.42510
 6553.50000  116.41960   -9.28390    3.75920    4.11760    4.44110   90.31630  169.13700
 6554.00000  112.39640   -9.23060    3.48630    3.99040    3.98560   90.72350  169.74020
 6554.50000  116.16150   -9.34650    3.40560    4.01560    3.83920   91.20510  171.07600
 6555.00000  122.12140   -9.46230    3.46680    4.15320    3.98680   91.26450  171.77330
 6555.50000  125.66450   -9.57820    3.68350    4.31220    4.35560   90.90490  172.53900
 6556.00000  126.65430   -9.69410    4.01960    4.52190    4.65510   90.48090  172.73400
 6556.50000  128.33200   -9.72750    4.35390    4.74140    5.27150   90.00880  173.18640
 6557.00000  131.16550   -9.23520    4.49290    4.97200    5.64860   89.37250  173.76490
 6557.50000  133.80680   -9.00750    4.70490    5.22540    5.80070   88.33400  172.56590
 6558.00000  137.36140   -9.60880    4.95470    5.52270    6.04080   87.21110  169.23100
 6558.50000  141.78780  -10.36850    5.11300    5.81530    6.17310   87.59190  167.77100
 6559.00000  143.08560  -10.61040    4.99500    5.72230    6.13840   88.51550  168.98130
 6559.50000  139.25100  -10.89630    4.56970    5.29380    5.64760   89.67480  171.18920
 6560.00000  131.80930  -11.06740    4.18050    4.89750    5.15540   90.60610  173.97920
 6560.50000  126.48530  -11.04050    3.86170    4.71380    4.97220   91.08360  175.85480
 6561.00000  124.04560  -11.01360    3.87950    4.77520    5.03620   90.61270  176.45250
 6561.50000  123.22300  -11.00950    3.98120    4.91410    5.13370   89.54780  176.08510
 6562.00000  122.23210  -10.53130    4.04770    5.03640    5.28910   87.81640  173.63290
 6562.50000  121.50030  -10.37090    4.42540    5.17420    5.52850   85.87650  169.72740
 6563.00000  121.32290  -11.19560    4.94570    5.42270    5.87240   83.68240  165.36970
 6563.50000  120.60340  -12.02010    5.49250    5.92390    6.32740   81.75690  159.84900
 6564.00000  116.29880  -12.82310    5.94480    6.46970    7.23590   79.78790  150.31340
 6564.50000  109.43650  -14.12070    6.15840    7.06690    7.85380   77.23610  142.82460
 6565.00000  102.96450  -15.41820    6.44620    7.75350    8.47860   75.05160  135.33590
 6565.50000   95.19370  -17.03230    7.99280    8.84580    9.51800   72.13070  132.45610
 6566.00000   86.25640  -18.26410    9.64060   10.08940   10.77800   68.86230  128.62320
 6566.50000   77.84220  -19.16890   10.36190   10.90120   11.68990   66.79050  122.39200
 6567.00000   71.65120  -20.07360    8.91250   11.21480   11.68570   65.74060  120.34470
 6567.50000   70.23790  -20.97830   12.80590   12.87250   12.87400   63.84960  117.22230
 6568.00000   60.46320  -21.88310   23.19420   16.70400   15.09030   57.26980  105.21160
 6568.50000   56.29650  -23.13910   26.57800   21.72150   16.34910   52.85820   92.98730
 6569.00000   48.46240  -25.19040   19.45510   31.47290   17.35570   51.43200   87.73330
 6569.50000   43.14370  -26.23250   21.61210   46.12600   19.51290   51.31400   87.68600
 6570.00000   38.83890  -27.26060   25.82160   53.44050   24.37370   51.66630   88.69400
 6570.50000   36.05780  -28.47300   26.71800   46.85630   27.12640   52.17200   90.41290
 6571.00000   36.85720  -29.24610   13.79960   40.09250   24.42750   52.85130   92.38550
 6571.50000   42.66390  -30.07630   10.44770   26.71210   18.31100   54.24020   95.60370
 6572.00000   52.67560  -30.71450    8.10060   16.50960   17.47600   56.11540   98.53840
 6572.50000   67.25080  -31.04620    6.43750    9.18820   17.11410   57.37500   99.44890
 6573.00000   83.36990  -31.00780    4.15540    5.85900    9.40810   58.47020   98.64200
 6573.50000   97.92660  -30.97150    2.67400    4.51950    5.08700   62.26330   97.70030
 6574.00000  100.13760  -32.04100    2.51970    4.70750    5.10930   68.72220   99.63680
 6574.50000   96.81160  -33.11050    3.00140    5.89770    7.39470   73.59410  105.73720
 6575.00000   93.75570  -34.21400    3.54480    7.38960   10.70220   76.08120  113.94970
 6575.50000   96.66730  -34.64260    3.45120    8.50310   11.33650   77.75310  120.32250
 6576.00000  100.63490  -35.53070    2.98050    6.74760    8.34620   79.23560  127.13760
 6576.50000  101.00190  -36.04180    2.56210    5.07780    6.15220   81.07810  128.43440
 6577.00000   98.58530  -35.92540    2.23220    4.08130    4.67640   80.02410  125.70020
 6577.50000   97.70420  -35.38540    2.39810    4.39550    4.78830   76.62280  119.19660
 6578.00000   99.57190  -34.69090    3.01620    5.96740    5.70180   72.15330  113.07920
 6578.50000  103.18390  -34.53590    3.02460    7.30520    6.36390   68.95380  109.44360
 6579.00000  104.98990  -34.72610    2.60790    6.45290    5.65100   65.81970  107.45260
 6579.50000  105.37310  -34.91590    2.61410    6.59510    5.39860   65.70560  107.96460
