~Version ---------------------------------------------------
VERS.   2.0 : CWLS log ASCII Standard -VERSION 2.0
WRAP.    NO : One line per depth step
DLM . SPACE : Column Data Section Delimiter
~Well ------------------------------------------------------
STRT .F                 775.0 : START DEPTH
STOP .F               11389.0 : STOP DEPTH
STEP .F                   0.5 : STEP
NULL .               -9999.25 : NULL VALUE
COMP .                        : COMPANY
WELL .                        : WELL
FLD  .                        : FIELD
LOC  .                        : LOCATION
PROV .                        : PROVINCE
CNTY .                        : COUNTY
STAT .                        : STATE
CTRY .                        : COUNTRY
SRVC .                        : SERVICE COMPANY
DATE .                        : DATE
UWI  .                        : UNIQUE WELL ID
API  .                        : API NUMBER
SLAT .WGS84 5.040639523549103 : SURFACE LATITUDE
SLON .WGS84 2.186754489779304 : SURFACE LONGITUDE
DATUM.F               1055.46 : DEPTH DATUM ELEV
~Curve Information -----------------------------------------
DEPT.F     : 
GRR .GAPI  : GAMMA RAY FROM RESISTIVITY
SPR .MV    : SPONTANEOUS POTENTIAL FROM RESISTIVITY
AT10.OHMM  : AIT TWO FOOT RESISTIVITY A10
AT30.OHMM  : AIT TWO FOOT RESISTIVITY A30
AT90.OHMM  : AIT TWO FOOT RESISTIVITY A90
DTCO.US/F  : DELTA-T COMPRESSIONAL
DTSM.US/f  : DELTA-T SHEAR
~Params ----------------------------------------------------
~Other -----------------------------------------------------
~ASCII -----------------------------------------------------
# ...
 9955.00000   62.01880   -5.81770   45.70580   37.60230   36.13690   57.75730  104.95890
 9955.50000   62.15220   -5.82180   46.65750   36.52290   37.37040   58.04660  105.51170
 9956.00000   62.14830   -5.82250   48.76870   36.52330   37.58810   58.46320  105.79890
 9956.50000   62.80540   -5.71720   45.03660   36.66330   37.45490   58.86160  105.98630
 9957.00000   63.67560   -5.40000   40.59880   36.80380   36.43590   59.07640  105.54330
 9957.50000   64.60820   -5.24440   39.54440   36.96010   35.28940   59.20110  105.38150
 9958.00000   65.05020   -5.12670   40.20180   37.57530   35.86030   59.05290  105.66930
 9958.50000   64.81900   -5.05380   42.02070   38.21940   37.05880   58.60940  107.23310
 9959.00000   62.65980   -5.04620   46.63360   43.42450   41.10210   58.03460  108.31890
 9959.50000   58.48670   -5.03530   53.34760   49.58430   45.94410   57.60560  109.37950
 9960.00000   52.52290   -5.05080   58.01140   57.31860   51.35660   57.31810  109.47770
 9960.50000   47.57250   -4.96000   59.22910   65.31830   51.34600   56.97610  109.52260
 9961.00000   46.96890   -4.47410   55.33650   56.91600   48.62410   56.58350  109.66790
 9961.50000   49.83610   -3.94320   51.52350   50.12360   47.73860   56.50550  109.90120
 9962.00000   51.53820   -3.85820   50.89160   50.32260   49.18640   56.67510  110.31740
 9962.50000   51.36420   -4.14930   50.90850   51.18870   50.30250   56.77100  110.14680
 9963.00000   47.53930   -4.71830   53.51370   52.10890   50.74530   56.49180  109.49840
 9963.50000   44.12080   -4.92930   63.61340   52.81290   50.04780   56.15330  108.96500
 9964.00000   43.80020   -4.67890   56.44730   48.72530   48.81100   56.24970  108.27020
 9964.50000   47.63720   -4.73040   43.24410   43.07120   45.95220   56.55610  107.94780
 9965.00000   53.50580   -4.78180   33.12910   38.07320   39.01300   57.24360  108.07380
 9965.50000   57.38940   -4.78370   29.81210   35.06890   38.38800   58.15230  107.96130
 9966.00000   59.04160   -4.57410   34.48100   39.77420   45.73950   58.71320  107.71260
 9966.50000   59.74450   -4.41140   39.18660   46.95350   52.24550   58.66560  107.42760
 9967.00000   60.13180   -4.32120   37.84520   53.47810   45.64030   58.30480  106.74270
 9967.50000   58.73020   -4.13910   40.78760   54.57180   46.97650   57.62410  105.80290
 9968.00000   52.77370   -4.04420   59.91220   51.93960   56.42070   56.98860  104.53660
 9968.50000   46.08670   -4.04730   74.07380   49.43430   59.72270   56.76020  103.73700
 9969.00000   43.41180   -4.07600   61.80590   46.47910   54.31940   56.89000  103.75350
 9969.50000   44.27190   -4.13310   49.99430   43.48640   46.45150   57.12090  104.43510
 9970.00000   48.02660   -4.21840   45.53330   40.68630   39.72330   57.36200  104.72120
 9970.50000   51.78800   -3.83290   45.55040   39.23730   38.31030   57.25390  104.73960
 9971.00000   52.79550   -3.44740   50.06250   41.46600   39.64880   56.79740  104.43090
 9971.50000   52.30130   -3.33490   53.69880   43.45170   41.06550   56.34280  104.88220
 9972.00000   51.53840   -3.24810   61.08360   44.44450   41.86140   55.88170  104.82470
 9972.50000   50.67250   -3.41050   67.64960   45.59750   43.45140   55.42640  104.07300
 9973.00000   49.60450   -3.65790   68.45920   46.78040   45.10180   55.10850  102.43250
 9973.50000   48.35620   -3.98480   62.41410   47.61270   45.96390   54.82130  101.63110
 9974.00000   49.05910   -4.51400   59.66780   46.60760   45.07410   54.55250  101.43480
 9974.50000   54.17080   -5.06230   57.22320   45.69960   43.81800   54.59640  101.07290
 9975.00000   57.80230   -5.16560   56.51090   44.88010   42.78470   55.11090   99.39640
 9975.50000   58.25070   -5.37550   67.15120   46.87080   45.33900   55.66170   97.43790
 9976.00000   56.76980   -5.73590   87.21540   50.77630   49.03970   55.78900   97.80710
 9976.50000   55.49630   -6.14780   80.16270   52.18250   51.16510   55.73340   99.32120
 9977.00000   56.78420   -6.28790   65.46580   49.56790   47.87630   55.61670  100.74650
 9977.50000   58.30550   -6.46600   53.63090   47.08440   45.06780   55.57690  101.40640
 9978.00000   58.03960   -6.08500   54.00160   46.83920   45.26580   55.61510  101.87070
 9978.50000   56.11560   -5.96520   56.91470   48.33510   46.96220   55.66600  102.01980
 9979.00000   54.03690   -6.12940   57.32850   50.11960   47.99530   55.69500  101.59520
 9979.50000   52.05740   -6.31600   58.80120   53.15830   50.55940   55.79660  101.02600
 9980.00000   50.67260   -6.36650   61.01440   57.84080   56.12710   55.97750  100.57030
 9980.50000   48.22220   -6.53360   65.54310   63.22390   61.72760   56.01710  100.18250
 9981.00000   44.75180   -6.91120   84.57410   78.97870   70.14790   55.68690   99.79460
 9981.50000   40.35620   -7.33150  121.22410  104.16300   84.38190   55.16010   99.48940
 9982.00000   35.99970   -7.73990  173.12800  137.05500  101.15950   54.36650   99.86350
 9982.50000   33.07440   -8.14830  174.73830  128.57160   98.75780   53.69780  100.41500
 9983.00000   32.16280   -8.45120  129.00210  104.92860   92.63500   53.54090  101.30150
 9983.50000   33.81130   -8.54310   98.16410   87.49080   93.09330   53.96950  102.63380
 9984.00000   36.61660   -9.02490  103.34950   86.09030   97.54970   54.97270  103.45710
 9984.50000   38.61960   -9.27750  111.47810   88.88300  103.39560   55.54520  104.09000
 9985.00000   38.42360   -8.98510  119.79500   96.29950  107.91110   55.52460  104.72290
 9985.50000   37.61780   -8.69400  144.30270  118.35750  109.30420   54.83450  104.57060
 9986.00000   37.51780   -8.48450  210.97330  129.66950  108.35700   53.99270  102.75610
 9986.50000   38.84550   -8.48880  159.29050  124.31530  105.55340   52.96800  101.08340
 9987.00000   40.61150   -8.50260   94.54510  117.11380  102.82230   52.23560   99.85610
 9987.50000   42.96740   -8.09160   76.57550  110.32950   98.82980   52.69270  100.24860
 9988.00000   44.13160   -7.61450   84.06360  103.93820   93.63770   54.50590  100.75710
 9988.50000   46.05810   -7.41250   83.77980   97.91720   88.71840   55.51540  101.01930
 9989.00000   45.91850   -7.24440   75.33610   92.24480   84.05740   55.86770  100.86960
 9989.50000   46.31380   -6.91540   69.17380   86.90120   79.62200   56.07480  100.85630
 9990.00000   47.20660   -6.84160   59.88080   81.86710   75.41960   56.21820  100.27590
 9990.50000   47.79590   -6.40270   58.29020   77.81460   73.57700   56.26050   97.90020
 9991.00000   46.50140   -6.16180   77.96490   78.78650   76.26520   56.26910   94.31200
 9991.50000   44.59530   -6.16250  122.61590   87.21420   83.28150   56.27090   94.35530
 9992.00000   44.30910   -6.47550  170.65990   98.84970   91.61680   55.93100   94.96210
 9992.50000   44.18970   -6.87590  125.40350  112.03750  101.33960   55.33130   95.91070
 9993.00000   44.49340   -7.00950   88.09470  126.98450  112.43030   54.99050   96.33340
 9993.50000   45.31930   -7.31010  104.37730  143.92580  125.66190   55.36350   96.62580
 9994.00000   46.89460   -7.56720  219.25040  157.85870  133.00730   57.12380   96.98810
 9994.50000   48.81860   -7.54960  349.79030  159.80910  133.88350   57.10220   97.89870
 9995.00000   50.25460   -7.51190  244.26840  133.31300  125.33040   55.97940   99.18360
 9995.50000   51.59830   -7.08430  120.16360   79.33980   86.20990   55.49970  100.23880
 9996.00000   52.04300   -6.89660   71.96340   51.88560   58.95860   55.66970  100.68830
 9996.50000   52.40010   -6.70890   50.62550   41.99210   42.07030   56.06360  100.71110
 9997.00000   52.41600   -6.52120   40.67110   36.71260   34.53130   56.51770  100.69960
 9997.50000   51.62210   -6.12970   50.71500   47.62400   39.07470   56.64570  100.63640
 9998.00000   50.14690   -5.88080   97.91030   65.63880   55.16510   56.45760  100.38600
 9998.50000   47.52670   -5.83150  254.84770   89.84350   77.30040   56.16620   99.74800
 9999.00000   43.66320   -5.64390  468.58310  117.25050   98.02580   55.36140   97.82750
 9999.50000   37.43700   -5.45630  790.17220  160.29610  132.61030   54.42320   96.29450
