~Version ---------------------------------------------------
VERS.   2.0 : CWLS log ASCII Standard -VERSION 2.0
WRAP.    NO : One line per depth step
DLM . SPACE : Column Data Section Delimiter
~Well ------------------------------------------------------
STRT .F                 775.0 : START DEPTH
STOP .F               11389.0 : STOP DEPTH
STEP .F                   0.5 : STEP
NULL .               -9999.25 : NULL VALUE
COMP .                        : COMPANY
WELL .                        : WELL
FLD  .                        : FIELD
LOC  .                        : LOCATION
PROV .                        : PROVINCE
CNTY .                        : COUNTY
STAT .                        : STATE
CTRY .                        : COUNTRY
SRVC .                        : SERVICE COMPANY
DATE .                        : DATE
UWI  .                        : UNIQUE WELL ID
API  .                        : API NUMBER
SLAT .WGS84 5.040639523549103 : SURFACE LATITUDE
SLON .WGS84 2.186754489779304 : SURFACE LONGITUDE
DATUM.F               1055.46 : DEPTH DATUM ELEV
~Curve Information -----------------------------------------
DEPT.F     : 
GRR .GAPI  : GAMMA RAY FROM RESISTIVITY
SPR .MV    : SPONTANEOUS POTENTIAL FROM RESISTIVITY
AT10.OHMM  : AIT TWO FOOT RESISTIVITY A10
AT30.OHMM  : AIT TWO FOOT RESISTIVITY A30
AT90.OHMM  : AIT TWO FOOT RESISTIVITY A90
DTCO.US/F  : DELTA-T COMPRESSIONAL
DTSM.US/f  : DELTA-T SHEAR
~Params ----------------------------------------------------
~Other -----------------------------------------------------
~ASCII -----------------------------------------------------
# ...
 3790.00000   44.49760  -68.10020   34.93850    7.20160    4.60180   69.64660  119.78570
 3790.50000   44.59400  -66.80050   36.80470    6.94220    4.20240   70.11040  121.01060
 3791.00000   44.61360  -64.86380   28.35520    6.69200    3.83760   70.86470  122.57210
 3791.50000   43.06430  -63.07900   17.38920    5.73650    3.38630   71.73390  124.07400
 3792.00000   40.52070  -61.14850   10.31370    4.49420    2.78160   72.67080  125.41110
 3792.50000   38.55450  -54.86550    6.88000    3.54860    2.32730   75.51110  126.89540
 3793.00000   39.81190  -49.94510    3.34530    2.80190    1.89480   78.80680  128.93500
 3793.50000   47.29640  -45.53240    2.77500    2.28510    1.54260   80.19050  130.52490
 3794.00000   61.18070  -42.66950    2.72100    2.25010    1.54670   80.48930  131.52240
 3794.50000   71.35440  -39.02560    2.83300    2.36740    1.68390   81.43540  133.78090
 3795.00000   77.35200  -35.48100    2.87700    2.53860    1.83340   82.63870  138.56970
 3795.50000   80.73120  -31.93790    2.74030    2.73490    1.99610   82.73080  145.63410
 3796.00000   85.48240  -28.11240    2.61010    2.85740    2.17720   82.32490  152.80970
 3796.50000   91.27400  -25.75370    2.51780    2.78050    2.37730   81.91490  156.78630
 3797.00000   96.59310  -23.64080    2.49550    2.74810    2.59590   81.31280  156.23340
 3797.50000   99.83940  -22.94490    2.46450    2.92120    2.87290   79.98540  153.99910
 3798.00000  100.67910  -22.81320    2.37860    3.11350    3.44420   78.67290  151.29940
 3798.50000  100.60330  -23.42950    2.21520    3.25880    3.55220   77.28740  146.81360
 3799.00000  100.04800  -24.21620    1.99270    3.28850    3.49300   77.03950  141.22470
 3799.50000  100.54450  -25.07470    1.79250    3.15270    3.64680   78.94910  138.84830
 3800.00000  102.22110  -26.09080    1.65390    2.99030    3.74800   83.49370  137.54080
 3800.50000  103.81910  -27.10690    1.51500    2.82550    3.71310   88.29420  137.36850
 3801.00000  105.69890  -28.12290    1.40500    2.51220    3.64560   91.70350  140.15370
 3801.50000  109.27790  -29.17800    1.30060    2.37550    3.70420   93.68030  142.27410
 3802.00000  113.41960  -29.79810    1.26170    2.38500    3.99550   94.51280  145.84320
 3802.50000  116.65720  -30.54840    1.23250    2.38530    4.18620   95.18720  149.01060
 3803.00000  118.32170  -31.16610    1.17640    2.20890    4.03010   95.62440  149.93030
 3803.50000  117.34460  -31.72140    1.15760    2.05980    3.83770   95.78940  149.43950
 3804.00000  111.95810  -32.38470    1.25240    2.17080    4.45180   94.25940  144.97960
 3804.50000  106.64260  -33.30390    1.39670    2.53390    6.15100   90.01910  138.92750
 3805.00000  104.16650  -32.86740    1.63910    2.95790    8.49870   87.12420  134.88350
 3805.50000  106.54350  -31.85430    2.05150    4.15540   11.32260   84.67790  130.01760
 3806.00000  110.18950  -30.34890    2.49160    5.49190   15.10530   83.62270  122.59590
 3806.50000  113.14580  -26.44620    3.36210    5.36370   15.65720   83.58160  119.46940
 3807.00000  114.67160  -24.13770    3.58880    5.04470   10.97510   83.27680  122.36740
 3807.50000  114.77330  -23.40330    4.01440    4.56760    7.59150   82.67590  129.36490
 3808.00000  113.57820  -23.24140    4.81920    3.91790    5.25410   82.90220  138.55310
 3808.50000  111.80160  -24.00800    5.59040    3.36070    3.63640   83.69290  141.07940
 3809.00000  110.51030  -27.22880    5.81370    2.88270    2.51680   83.89240  142.88640
 3809.50000  106.66010  -32.11880    6.01630    2.49460    1.90560   84.07390  143.89300
 3810.00000   96.27940  -40.71930    5.73020    2.27660    1.59700   84.29670  145.90560
 3810.50000   82.60410  -50.01640    5.16180    2.04120    1.39720   84.43470  148.25690
 3811.00000   72.33160  -59.31350    4.73770    1.81410    1.21600   84.19180  150.61430
 3811.50000   65.99580  -63.23680    4.98980    1.75500    1.08870   84.04110  154.08400
 3812.00000   59.00100  -66.72360    5.42050    1.71090    0.99470   84.15200  157.67580
 3812.50000   53.84360  -69.07160    5.74920    1.67170    0.96050   84.61800  163.05660
 3813.00000   51.34710  -71.79800    5.75640    1.63710    0.93230   85.26020  165.09400
 3813.50000   50.80910  -73.96040    5.63640    1.61400    0.90810   85.68700  165.06860
 3814.00000   49.00390  -76.88240    5.63980    1.59120    0.90350   85.77160  163.87370
 3814.50000   45.22270  -78.84000    5.84610    1.59870    0.90680   85.62890  161.20970
 3815.00000   42.84800  -79.55580    6.31390    1.64150    0.92130   85.06580  157.15690
 3815.50000   42.63610  -80.02480    7.19430    1.70260    0.94800   84.52660  153.59890
 3816.00000   43.32590  -80.12860    7.98130    1.74060    0.96230   84.10500  150.04100
 3816.50000   44.14200  -80.12310    7.94950    1.75610    0.98610   83.91990  149.58580
 3817.00000   44.58770  -80.11270    7.23820    1.77180    1.01050   83.91060  151.77140
 3817.50000   45.53610  -79.72550    6.57150    1.77190    1.02280   84.10360  154.83040
 3818.00000   46.59020  -78.94020    5.93480    1.76490    1.04160   85.17710  158.19600
 3818.50000   46.61960  -77.85640    5.32860    1.76190    1.04460   86.13040  160.47470
 3819.00000   45.74170  -76.24150    5.33230    1.80050    1.06840   86.50080  161.03700
 3819.50000   46.89730  -74.73230    5.77740    1.91240    1.11330   86.35550  161.14100
 3820.00000   50.18000  -73.04660    6.25380    2.02360    1.15880   85.80460  160.95090
 3820.50000   56.09850  -71.28160    6.07730    1.99530    1.17810   85.31990  160.33740
 3821.00000   61.38060  -69.51670    5.07710    1.91340    1.16160   84.95320  159.66900
 3821.50000   64.62140  -67.84280    4.31120    1.85730    1.14830   84.43500  158.66490
 3822.00000   65.52780  -66.24790    4.21120    1.93060    1.19100   83.82910  156.96730
 3822.50000   63.35710  -64.38780    4.25250    2.06260    1.27410   83.33890  155.04560
 3823.00000   61.18630  -62.52780    4.31150    2.20970    1.36310   82.87230  153.51400
 3823.50000   58.71550  -60.66780    4.36490    2.33830    1.46170   82.06430  151.40500
 3824.00000   57.58880  -58.37060    4.43250    2.65360    1.62890   80.12340  148.27020
 3824.50000   58.11280  -54.29660    4.46760    2.83720    1.84200   77.42180  142.49600
 3825.00000   59.74490  -50.39100    4.50730    3.10180    2.10070   76.57890  141.54390
 3825.50000   63.85790  -44.81460    4.52590    3.50040    2.39560   76.85640  141.44820
 3826.00000   72.35320  -38.45710    4.28390    3.57180    2.73200   82.45900  135.80910
 3826.50000   84.91130  -32.37680    3.12800    3.04570    2.75430   90.04050  128.67080
 3827.00000  100.68410  -30.04050    2.29350    2.59710    1.97830   97.16910  123.23740
 3827.50000  109.18180  -28.38230    1.89470    2.44910    1.80680   98.54580  117.89260
 3828.00000  106.40150  -27.69470    2.08750    2.68300    2.36250   97.18100  116.33240
 3828.50000   99.21890  -27.43130    2.39070    2.99970    3.15230   91.66620  122.30930
 3829.00000   95.70640  -27.40590    2.71640    3.27970    4.20610   85.02710  129.65000
 3829.50000   98.91870  -27.38050    2.68220    3.26480    5.14480   81.84040  138.90660
 3830.00000  103.64630  -26.30010    2.42350    3.01270    4.56080   80.76650  138.29280
 3830.50000  107.22120  -25.92740    2.19530    2.78010    3.48030   80.44720  132.75890
 3831.00000  109.75900  -26.16150    2.07950    2.58370    2.81530   80.12930  131.74480
 3831.50000  110.77650  -24.06060    2.25650    2.73850    3.13840   79.21790  131.70610
 3832.00000  111.00500  -22.46360    2.55160    3.15610    4.53410   76.15210  127.27110
 3832.50000  111.52940  -21.32220    2.62350    3.08530    4.23150   73.50660  123.49520
 3833.00000  113.78760  -22.05150    2.13710    2.53200    3.76030   75.71630  123.40440
 3833.50000  116.89670  -22.75800    2.28800    2.72690    3.46750   78.04730  124.37060
 3834.00000  118.49350  -23.24380    2.58370    3.45030    3.90590   80.03770  126.70590
 3834.50000  118.70490  -23.34310    2.91770    4.07030    4.57520   82.37430  130.47460
