~Version ---------------------------------------------------
VERS.   2.0 : CWLS log ASCII Standard -VERSION 2.0
WRAP.    NO : One line per depth step
DLM . SPACE : Column Data Section Delimiter
~Well ------------------------------------------------------
STRT .F                 775.0 : START DEPTH
STOP .F               11389.0 : STOP DEPTH
STEP .F                   0.5 : STEP
NULL .               -9999.25 : NULL VALUE
COMP .                        : COMPANY
WELL .                        : WELL
FLD  .                        : FIELD
LOC  .                        : LOCATION
PROV .                        : PROVINCE
CNTY .                        : COUNTY
STAT .                        : STATE
CTRY .                        : COUNTRY
SRVC .                        : SERVICE COMPANY
DATE .                        : DATE
UWI  .                        : UNIQUE WELL ID
API  .                        : API NUMBER
SLAT .WGS84 5.040639523549103 : SURFACE LATITUDE
SLON .WGS84 2.186754489779304 : SURFACE LONGITUDE
DATUM.F               1055.46 : DEPTH DATUM ELEV
~Curve Information -----------------------------------------
DEPT.F     : 
GRR .GAPI  : GAMMA RAY FROM RESISTIVITY
SPR .MV    : SPONTANEOUS POTENTIAL FROM RESISTIVITY
AT10.OHMM  : AIT TWO FOOT RESISTIVITY A10
AT30.OHMM  : AIT TWO FOOT RESISTIVITY A30
AT90.OHMM  : AIT TWO FOOT RESISTIVITY A90
DTCO.US/F  : DELTA-T COMPRESSIONAL
DTSM.US/f  : DELTA-T SHEAR
~Params ----------------------------------------------------
~Other -----------------------------------------------------
~ASCII -----------------------------------------------------
# ...
 8605.00000  104.59360   -8.51870    1.62340    1.92770    2.22780   98.72920  165.41650
 8605.50000  101.53020   -8.48630    1.55100    1.86420    2.12060   99.61850  162.11000
 8606.00000  101.23740   -8.57600    1.44920    1.82990    2.01500  100.21740  159.44330
 8606.50000  102.93810   -8.51490    1.38010    1.83230    1.96630  100.21120  159.18980
 8607.00000  104.19570   -8.23350    1.37640    1.87230    1.96850   99.35390  163.58680
 8607.50000  104.80160   -7.77840    1.40990    1.94520    1.99110   98.24750  167.82870
 8608.00000  106.51590   -7.21710    1.51930    1.97420    2.01610   96.87860  169.22490
 8608.50000  108.39190   -6.82690    1.63450    1.98950    2.04140   95.69200  166.40610
 8609.00000  109.09650   -6.72370    1.66850    1.98990    2.05560   95.38650  163.29570
 8609.50000  108.83090   -7.05940    1.63540    1.95170    2.03070   95.46700  163.05880
 8610.00000  107.20830   -7.71050    1.50370    1.89380    2.02000   96.12100  163.90510
 8610.50000  105.02190   -8.32540    1.42230    1.88400    1.99500   97.86650  163.78530
 8611.00000  104.10530   -8.34710    1.42520    1.90150    1.97620   98.90380  163.60270
 8611.50000  105.58150   -8.53700    1.47220    1.92430    1.98950   99.25180  163.36970
 8612.00000  111.09060   -8.78600    1.49860    1.94730    2.01000   99.64860  163.33910
 8612.50000  116.85810   -8.81420    1.50430    1.97070    2.03060   99.88060  163.44370
 8613.00000  121.45480   -8.04470    1.51000    1.99240    2.05150   99.84030  163.79720
 8613.50000  122.72790   -7.57030    1.49950    2.00680    2.06480   99.90920  164.18620
 8614.00000  126.04990   -7.66730    1.47960    2.01510    2.06950   99.77220  164.39340
 8614.50000  129.92740   -7.80740    1.47840    2.00760    2.06530   99.50800  164.49150
 8615.00000  131.63880   -7.56980    1.51680    2.00020    2.06110   99.23090  164.55220
 8615.50000  129.36150   -7.16710    1.53330    1.99280    2.05620   98.63420  164.55490
 8616.00000  121.97790   -6.95340    1.50950    1.97290    2.02800   97.58390  164.55760
 8616.50000  116.29740   -6.67640    1.44180    1.93270    1.97530   97.41380  165.36610
 8617.00000  114.94460   -6.39950    1.40130    1.88770    1.92340   97.90430  166.75030
 8617.50000  116.05830   -6.12250    1.37560    1.84370    1.87280   98.53650  168.20660
 8618.00000  116.80530   -5.84550    1.35580    1.80080    1.86530   98.58910  168.69310
 8618.50000  112.58280   -6.07270    1.32590    1.76490    1.85970   98.16490  169.51930
 8619.00000  108.03570   -6.34240    1.33600    1.76660    1.83350   97.38940  168.59110
 8619.50000  105.82060   -6.96750    1.39330    1.80990    1.86310   96.96100  166.52280
 8620.00000  105.77750   -6.98830    1.45010    1.88170    1.94430   96.39350  165.83960
 8620.50000  105.28900   -6.87000    1.49480    1.95510    2.01730   96.11120  166.08390
 8621.00000  104.34500   -6.75280    1.48460    1.97010    2.02870   96.72630  166.90700
 8621.50000  103.90760   -7.44190    1.47210    1.96680    2.03020   96.66360  166.49050
 8622.00000  106.35190   -7.88250    1.50560    1.94080    2.03860   95.97240  165.21640
 8622.50000  110.69360   -8.07920    1.57060    1.91510    2.06700   95.96380  165.24570
 8623.00000  116.66500   -8.24380    1.56600    1.92860    2.12960   96.43140  165.29110
 8623.50000  120.11140   -8.40830    1.53310    1.94550    2.07730   96.68190  165.41260
 8624.00000  119.69080   -8.43090    1.49730    1.96030    2.02880   96.51770  165.30450
 8624.50000  116.30010   -8.41870    1.46640    1.94180    2.02930   96.13610  164.27820
 8625.00000  115.05360   -8.40660    1.45030    1.93990    2.03460   95.61490  163.37270
 8625.50000  115.80590   -8.19110    1.46380    1.94680    2.04980   95.21250  162.65720
 8626.00000  115.75740   -7.78330    1.53260    1.96650    2.07350   94.95350  161.78590
 8626.50000  115.00450   -7.37540    1.57080    1.98510    2.08340   94.95270  161.92350
 8627.00000  113.73460   -7.24000    1.57340    1.97350    2.04290   95.80720  163.47970
 8627.50000  112.46470   -7.24000    1.53350    1.95100    2.02910   97.56770  165.38440
 8628.00000  111.09090   -7.24000    1.48750    1.96400    2.07070   98.67250  167.66970
 8628.50000  109.69040   -7.44130    1.47280    1.98590    2.10030   99.45020  167.77410
 8629.00000  109.69550   -8.02360    1.53290    2.01850    2.11240   98.97660  167.77410
 8629.50000  110.05850   -8.60590    1.67710    2.03140    2.16350   98.25500  167.77410
 8630.00000  111.15590   -9.18810    1.77070    2.02050    2.17420   97.15290  167.77410
 8630.50000  114.77580   -9.11020    1.66590    1.99580    2.11500   96.62930  167.86930
 8631.00000  119.05330   -8.92250    1.56060    1.96380    2.02160   96.60880  168.05240
 8631.50000  122.22670   -8.73480    1.47700    1.93240    1.97260   96.77260  168.23560
 8632.00000  122.08260   -8.26150    1.42360    1.91770    1.97230   96.72060  168.41870
 8632.50000  118.86270   -7.62270    1.41710    1.91250    1.97520   96.44540  168.48110
 8633.00000  115.82380   -7.41290    1.52580    1.90690    1.98520   96.09760  167.66500
 8633.50000  114.00940   -7.29210    1.61190    1.89070    2.01530   96.04000  166.38680
 8634.00000  114.37170   -7.17140    1.58880    1.88880    2.03600   96.23160  166.22120
 8634.50000  116.19760   -7.05060    1.52070    1.90700    2.01510   96.37460  165.66180
 8635.00000  114.25110   -6.92980    1.46230    1.92070    1.99960   96.24850  164.73630
 8635.50000  111.38170   -6.76560    1.43910    1.91990    1.99810   96.51650  165.23110
 8636.00000  109.55570   -6.63650    1.43250    1.91380    1.99520   97.48670  166.65230
 8636.50000  108.98600   -6.61570    1.45870    1.90760    1.99230   98.07120  167.49680
 8637.00000  109.05810   -6.37100    1.46550    1.86830    1.98940   98.25160  167.52370
 8637.50000  108.52530   -6.20080    1.42830    1.86000    1.98650   98.02160  166.64960
 8638.00000  107.94400   -6.07830    1.38480    1.85880    1.98580   97.65470  165.88020
 8638.50000  108.55110   -6.04770    1.38260    1.88870    2.00840   97.41290  165.22060
 8639.00000  109.16990   -6.21460    1.45690    1.91890    2.05820   97.85070  164.68830
 8639.50000  108.35460   -6.04230    1.45020    1.93040    2.06160   98.53580  164.68740
 8640.00000  106.58570   -6.77110    1.39400    1.82930    1.98910   98.94370  164.46010
 8640.50000  105.12760   -7.56610    1.34190    1.74310    1.86590   99.14770  164.16410
 8641.00000  105.84230   -8.18810    1.35860    1.76120    1.89650   99.17420  164.02940
 8641.50000  107.33540   -8.31160    1.37450    1.82080    1.94800   98.52340  163.94580
 8642.00000  109.16850   -7.40690    1.41970    1.88240    1.97190   97.48050  165.00660
 8642.50000  112.60860   -6.72660    1.44540    1.89400    1.96300   96.97040  167.14940
 8643.00000  116.46570   -6.47330    1.47190    1.90480    1.96930   96.83660  168.30660
 8643.50000  118.10910   -6.24490    1.48810    1.92880    1.99050   96.81420  168.24160
 8644.00000  117.97810   -5.94660    1.43610    1.95310    2.01780   96.73220  165.48620
 8644.50000  118.05610   -5.51190    1.40060    1.97780    2.04690   96.44210  162.45330
 8645.00000  119.44160   -5.43970    1.46000    2.00170    2.11860   96.32050  158.54170
 8645.50000  121.07350   -5.16810    1.54340    2.00790    2.14120   97.02820  155.96280
 8646.00000  122.61250   -4.85290    1.52310    2.01380    2.12330   97.66340  154.71640
 8646.50000  123.52070   -4.70420    1.43390    2.00730    2.07290   98.58160  156.22070
 8647.00000  123.64290   -4.75920    1.38430    1.99440    2.02370   99.49400  158.15480
 8647.50000  122.69890   -4.43100    1.37120    1.94760    1.98030   99.78780  160.48030
 8648.00000  120.57780   -4.10280    1.35770    1.86990    1.94270   99.69370  160.06450
 8648.50000  116.81780   -3.77460    1.29880    1.82010    1.95890   98.94630  159.65880
 8649.00000  113.81180   -3.75790    1.25920    1.80430    1.99580   97.79900  159.10400
 8649.50000  114.74890   -4.47790    1.27750    1.80430    1.97180   96.74750  158.36500
