~Version ---------------------------------------------------
VERS.   2.0 : CWLS log ASCII Standard -VERSION 2.0
WRAP.    NO : One line per depth step
DLM . SPACE : Column Data Section Delimiter
~Well ------------------------------------------------------
STRT .F                 775.0 : START DEPTH
STOP .F               11389.0 : STOP DEPTH
STEP .F                   0.5 : STEP
NULL .               -9999.25 : NULL VALUE
COMP .                        : COMPANY
WELL .                        : WELL
FLD  .                        : FIELD
LOC  .                        : LOCATION
PROV .                        : PROVINCE
CNTY .                        : COUNTY
STAT .                        : STATE
CTRY .                        : COUNTRY
SRVC .                        : SERVICE COMPANY
DATE .                        : DATE
UWI  .                        : UNIQUE WELL ID
API  .                        : API NUMBER
SLAT .WGS84 5.040639523549103 : SURFACE LATITUDE
SLON .WGS84 2.186754489779304 : SURFACE LONGITUDE
DATUM.F               1055.46 : DEPTH DATUM ELEV
~Curve Information -----------------------------------------
DEPT.F     : 
GRR .GAPI  : GAMMA RAY FROM RESISTIVITY
SPR .MV    : SPONTANEOUS POTENTIAL FROM RESISTIVITY
AT10.OHMM  : AIT TWO FOOT RESISTIVITY A10
AT30.OHMM  : AIT TWO FOOT RESISTIVITY A30
AT90.OHMM  : AIT TWO FOOT RESISTIVITY A90
DTCO.US/F  : DELTA-T COMPRESSIONAL
DTSM.US/f  : DELTA-T SHEAR
~Params ----------------------------------------------------
~Other -----------------------------------------------------
~ASCII -----------------------------------------------------
# ...
 4465.00000   39.55910  -92.08570    1.52770    0.86640    0.59220   80.75990  145.66300
 4465.50000   48.03060  -85.77300    2.68900    0.99820    0.73180   81.76380  147.49420
 4466.00000   59.84110  -80.11510    4.65570    1.24030    0.83660   82.34300  150.36800
 4466.50000   70.68220  -78.74300    5.85260    1.54330    0.92870   82.23030  151.78630
 4467.00000   66.57880  -82.91990    5.66050    1.63810    1.03100   81.81250  151.77430
 4467.50000   52.43690  -87.09680    3.32760    1.61220    0.91770   81.68370  150.65180
 4468.00000   37.13800  -89.64090    1.24990    1.59810    0.72870   81.55790  147.83230
 4468.50000   29.94000  -86.69900    0.88690    0.81510    0.57870   81.14680  142.74730
 4469.00000   27.98930  -82.89640    0.86900    0.69180    0.55530   79.44180  140.69650
 4469.50000   30.55540  -73.05880    1.05650    0.74930    0.66130   77.37520  142.11830
 4470.00000   40.40610  -59.94050    1.36490    0.96840    0.87150   76.06090  143.36340
 4470.50000   54.47930  -49.34930    1.84000    1.25160    1.14750   75.86220  143.95850
 4471.00000   69.95380  -39.78630    2.48210    1.61760    1.41700   75.92190  142.25350
 4471.50000   80.07980  -38.64010    2.75330    2.09060    1.74970   76.66290  139.20940
 4472.00000   84.52600  -38.68960    2.46320    2.31870    2.16060   78.36680  136.16520
 4472.50000   85.20140  -39.12930    2.20360    2.33850    2.54440   80.61630  132.87150
 4473.00000   83.14050  -39.49720    2.13130    2.41140    2.69710   82.67200  131.99640
 4473.50000   79.70040  -39.44060    2.28890    2.72100    2.85890   84.31200  132.97200
 4474.00000   78.51550  -38.61990    2.48180    2.84600    3.07640   84.46910  134.08690
 4474.50000   80.35720  -36.64970    2.38080    2.69860    3.46430   84.53280  133.86380
 4475.00000   88.91370  -34.49560    2.18480    2.65300    3.33600   83.06330  130.06720
 4475.50000   95.09870  -32.33930    2.35040    2.66490    3.28240   80.78510  123.54800
 4476.00000  100.62770  -30.79630    2.59310    2.84240    3.45840   79.35150  119.65510
 4476.50000   96.45570  -30.92610    2.75420    3.16100    3.55420   78.09410  117.90460
 4477.00000   87.74240  -31.05590    2.64270    3.09660    3.37970   78.47640  119.62620
 4477.50000   81.14720  -31.18570    2.42010    2.94990    3.38570   81.92370  126.09020
 4478.00000   81.30680  -31.24850    2.27700    2.92740    3.41390   86.62730  131.87080
 4478.50000   86.02350  -31.04200    2.19380    2.94520    3.24670   88.56840  134.59850
 4479.00000   93.76160  -30.91340    2.01820    2.76230    3.22930   90.06060  136.70900
 4479.50000  100.52410  -31.06390    1.90260    2.23920    3.46400   91.93840  141.27730
 4480.00000  103.40320  -31.87900    1.89800    2.27640    3.71580   92.79130  142.71650
 4480.50000  103.69970  -33.54400    1.84540    2.87860    3.98590   91.99500  144.06410
 4481.00000  103.51390  -35.54710    1.77760    3.02060    4.06720   90.98000  144.63310
 4481.50000  104.41410  -37.19540    1.76320    2.42930    2.96700   89.86870  143.72660
 4482.00000  106.88380  -38.20070    1.50730    2.33790    2.32620   88.47070  141.06710
 4482.50000  109.32070  -37.04720    1.83060    2.87190    2.50410   86.45830  138.47000
 4483.00000  109.53510  -34.90030    2.31410    3.52770    3.75530   84.00950  129.84560
 4483.50000  106.87990  -32.20550    2.60150    3.86660    5.11840   80.74240  120.73840
 4484.00000  102.63540  -31.25500    2.08180    3.34600    3.64060   80.22770  118.26040
 4484.50000   99.77050  -30.90040    1.71050    2.76790    2.85310   80.66670  120.11640
 4485.00000   98.04380  -30.82720    1.77070    2.69020    3.52770   81.59320  123.45870
 4485.50000   96.31710  -30.87010    2.13090    2.99110    5.48800   85.17930  130.45680
 4486.00000   95.20970  -30.91300    2.11030    3.29230    6.06010   92.94350  141.68010
 4486.50000   95.38050  -30.95590    1.81870    3.09130    4.36670  101.32000  150.35620
 4487.00000   97.33690  -30.92140    1.50290    2.43040    3.49530  104.21440  153.37140
 4487.50000  103.01580  -31.04850    1.36160    1.91090    3.58060   98.17120  148.86730
 4488.00000  108.17310  -32.05130    1.23310    1.60340    3.39820   91.43550  143.19980
 4488.50000  110.06390  -33.83130    1.11810    1.58170    2.93690   90.22640  139.02430
 4489.00000  108.49250  -34.98970    1.14620    1.74660    2.95290   87.52760  133.48380
 4489.50000  105.81240  -33.18600    1.84230    2.81970    5.17880   83.19860  129.85520
 4490.00000  105.36410  -29.71070    3.09520    6.74610    9.54500   83.44720  130.04790
 4490.50000  105.15620  -26.79840    3.12550    5.99230    9.98410   84.52180  130.16390
 4491.00000  104.07110  -25.67240    2.52800    4.89630    5.54260   84.39530  128.61200
 4491.50000  100.96860  -24.99270    2.47830    4.00070    3.37240   83.82500  127.67770
 4492.00000   98.11820  -25.07880    2.45490    3.26900    2.96260   83.46600  126.57490
 4492.50000   96.45160  -25.16490    2.42180    3.13520    2.91410   82.75180  125.05180
 4493.00000   99.48600  -25.25100    2.57950    3.39860    3.01960   81.14730  122.67380
 4493.50000  102.60190  -25.33710    3.16790    3.68420    3.33220   79.75290  119.67010
 4494.00000  102.42180  -25.56500    3.07500    3.75820    3.46550   77.94610  116.49850
 4494.50000   99.83080  -26.10680    2.94020    3.75820    3.41560   75.82430  114.95770
 4495.00000   95.90130  -26.87720    2.81020    3.71620    3.37660   75.48940  116.37550
 4495.50000   92.74850  -27.64770    2.71990    3.59620    3.39310   77.49360  119.47950
 4496.00000   90.11490  -28.41810    2.62140    3.50230    3.43060   78.50050  121.78030
 4496.50000   91.05940  -29.29710    2.43060    3.02370    3.38860   75.72970  117.91050
 4497.00000   92.66420  -30.61100    2.19130    2.58130    3.13680   72.36350  111.74570
 4497.50000   95.27870  -31.83830    1.86850    2.34150    2.90380   73.36090  112.10060
 4498.00000  100.94840  -32.55710    1.80040    2.34190    3.55430   76.53880  115.64320
 4498.50000  103.96090  -32.71460    2.35100    2.49650    5.76610   80.00320  120.90980
 4499.00000  105.61990  -33.45510    2.44830    2.63780    4.63530   86.81510  129.97310
 4499.50000  108.14620  -34.24270    1.82380    2.80600    3.12330   90.47850  135.98840
 4500.00000  112.92990  -34.05290    1.45690    3.23340    3.57450   91.92350  138.45100
 4500.50000  116.49330  -33.35010    1.52860    3.72600    4.03560   91.88070  139.29860
 4501.00000  116.37010  -33.65110    1.67960    3.91850    4.03500   89.37160  139.00260
 4501.50000  116.26940  -33.63920    1.69910    3.81320    3.85050   86.63510  137.31450
 4502.00000  116.96620  -33.51990    1.77540    3.67080    4.02690   84.05030  133.74170
 4502.50000  117.22810  -32.91150    2.13800    3.68420    5.10800   81.35890  127.52330
 4503.00000  115.98750  -31.26670    2.37700    3.81560    5.14440   77.98100  119.29870
 4503.50000  113.88310  -30.62630    2.47580    3.89130    4.41790   76.33830  116.64650
 4504.00000  111.57450  -30.22430    2.48870    3.59620    3.79400   76.62020  118.47360
 4504.50000  109.11340  -29.47590    2.39290    3.31800    3.44920   77.85920  122.84630
 4505.00000  106.21550  -28.44910    2.54610    3.45840    3.57600   78.57890  127.28320
 4505.50000  101.02320  -27.63600    2.80010    3.67910    3.79890   79.72170  129.03510
 4506.00000   96.87680  -27.41140    2.70120    3.46030    3.75980   80.74390  130.54810
 4506.50000   99.24120  -27.71140    2.56370    3.12330    3.42480   80.82690  131.81600
 4507.00000  106.87970  -28.01130    2.45300    2.81450    3.16320   80.11050  131.04340
 4507.50000  112.98620  -28.03590    2.51510    2.92250    3.37730   79.54450  130.92190
 4508.00000  111.50570  -27.70670    2.85060    3.53120    4.23630   79.61300  132.23990
 4508.50000  106.58490  -26.52830    2.90330    3.64910    4.59560   81.23730  135.72590
 4509.00000  102.29190  -25.65410    2.56610    3.29780    3.55890   83.89650  144.64640
 4509.50000  107.97720  -26.31830    2.30760    3.16130    3.61670   84.82830  155.11600
