~Version ---------------------------------------------------
VERS.   2.0 : CWLS log ASCII Standard -VERSION 2.0
WRAP.    NO : One line per depth step
DLM . SPACE : Column Data Section Delimiter
~Well ------------------------------------------------------
STRT .F                 775.0 : START DEPTH
STOP .F               11389.0 : STOP DEPTH
STEP .F                   0.5 : STEP
NULL .               -9999.25 : NULL VALUE
COMP .                        : COMPANY
WELL .                        : WELL
FLD  .                        : FIELD
LOC  .                        : LOCATION
PROV .                        : PROVINCE
CNTY .                        : COUNTY
STAT .                        : STATE
CTRY .                        : COUNTRY
SRVC .                        : SERVICE COMPANY
DATE .                        : DATE
UWI  .                        : UNIQUE WELL ID
API  .                        : API NUMBER
SLAT .WGS84 5.040639523549103 : SURFACE LATITUDE
SLON .WGS84 2.186754489779304 : SURFACE LONGITUDE
DATUM.F               1055.46 : DEPTH DATUM ELEV
~Curve Information -----------------------------------------
DEPT.F     : 
GRR .GAPI  : GAMMA RAY FROM RESISTIVITY
SPR .MV    : SPONTANEOUS POTENTIAL FROM RESISTIVITY
AT10.OHMM  : AIT TWO FOOT RESISTIVITY A10
AT30.OHMM  : AIT TWO FOOT RESISTIVITY A30
AT90.OHMM  : AIT TWO FOOT RESISTIVITY A90
DTCO.US/F  : DELTA-T COMPRESSIONAL
DTSM.US/f  : DELTA-T SHEAR
~Params ----------------------------------------------------
~Other -----------------------------------------------------
~ASCII -----------------------------------------------------
# ...
 7210.00000   42.65830  -20.17060   75.59940   70.90030   67.01920   52.27260   98.56290
 7210.50000   34.97220  -20.17530   90.70430   85.51370   82.54280   51.83280   97.81130
 7211.00000   30.52860  -19.97970  106.32750   98.39290   95.07930   51.44530   97.89680
 7211.50000   28.28780  -19.96880  116.62410  109.39820  101.73280   50.78050   97.62150
 7212.00000   26.96520  -19.97110  128.60590  111.09310  102.34670   50.61420   97.40380
 7212.50000   27.55180  -20.03590  130.97210  112.73010  102.35590   51.21080   97.29530
 7213.00000   30.12990  -20.10070  112.64280  110.85550   99.95310   52.43010   98.87150
 7213.50000   34.98200  -20.24620   86.84900   91.07540   84.93460   53.16470  101.18860
 7214.00000   41.77860  -20.62710   63.03240   71.17660   71.24940   53.52700  102.14000
 7214.50000   47.87360  -20.83650   47.53770   55.63700   59.77810   53.87180  102.63050
 7215.00000   51.71390  -20.87370   47.02600   52.33690   58.04660   54.17540  102.75760
 7215.50000   50.16060  -21.04910   71.23690   63.27040   65.06980   53.93760  102.83270
 7216.00000   45.78960  -22.07110  114.20530   76.52590   62.24120   53.62420  103.01890
 7216.50000   40.00640  -23.21250  107.49410   79.90470   53.10130   53.61270  103.09840
 7217.00000   37.49260  -23.49020   86.67820   63.31750   48.94390   54.33680  103.51300
 7217.50000   36.90290  -23.94420   66.08660   49.17290   43.78760   55.75280  104.31800
 7218.00000   37.61510  -25.07590   50.36140   37.77790   35.64670   57.19090  104.80320
 7218.50000   41.87620  -26.42300   32.80630   27.98120   25.94830   58.40560  105.61490
 7219.00000   50.62920  -27.77010   21.72430   20.71300   17.19280   59.33480  106.17240
 7219.50000   58.62580  -28.83280   15.20070   15.33710   11.40040   60.49450  106.78090
 7220.00000   60.09450  -29.40730   14.71840   13.28900   11.41000   61.82870  107.01040
 7220.50000   62.52240  -29.30690   16.16340   15.61080   13.64720   63.21420  108.94750
 7221.00000   64.75040  -28.37220   15.85850   14.07160   13.04240   64.04660  110.66250
 7221.50000   71.45430  -27.97660   11.87820   11.67380   10.56690   64.49350  111.64690
 7222.00000   80.15350  -27.94990   10.15080    9.87250    9.15510   64.83770  112.44310
 7222.50000   85.03100  -28.34330    9.95470    9.44040    8.73580   65.57710  113.04430
 7223.00000   80.68060  -29.34230    9.51100    9.09780    8.35120   65.71970  113.76450
 7223.50000   74.11270  -30.62690    9.21710    8.89340    8.31750   65.82150  115.23940
 7224.00000   70.63480  -30.40030    9.21710    8.69360    8.31690   66.09870  116.44390
 7224.50000   69.51670  -30.04220    8.79700    8.42910    8.13720   66.74960  116.95590
 7225.00000   69.85880  -29.06160    8.14540    7.79400    7.29400   67.57420  117.59610
 7225.50000   71.06270  -28.13800    7.54290    7.18370    6.66540   68.08200  119.55970
 7226.00000   72.99200  -27.35840    7.11230    6.90140    6.73530   68.89960  121.78380
 7226.50000   76.16760  -27.12210    7.10390    7.01050    6.83180   70.06530  124.08130
 7227.00000   76.84170  -26.95190    7.36460    7.19670    6.92920   70.96450  126.41550
 7227.50000   77.82120  -26.07340    7.63780    7.28770    7.01560   70.73010  128.59530
 7228.00000   80.46570  -25.11480    7.61670    7.36630    6.97150   70.35160  129.85770
 7228.50000   83.19750  -24.81180    7.64810    7.40320    7.00370   70.00670  130.03160
 7229.00000   81.80330  -25.11320    7.89510    7.43890    7.19870   69.37950  128.94670
 7229.50000   76.69850  -24.85130    8.13480    7.48640    7.40270   68.51970  128.08860
 7230.00000   72.93850  -24.34640    8.16190    7.59420    7.47690   67.95810  125.84400
 7230.50000   74.27050  -23.91000    8.15620    7.70390    7.54220   67.66140  125.78860
 7231.00000   79.63940  -22.67290    8.06760    7.81520    7.46970   68.28650  127.08710
 7231.50000   85.08970  -21.37380    8.04760    7.92790    7.36440   69.32410  130.08460
 7232.00000   85.46270  -22.27500    8.02820    7.93280    7.38860   70.21040  131.09390
 7232.50000   85.24840  -22.66980    7.84170    7.91440    7.53910   70.83240  131.45640
 7233.00000   87.44810  -21.96700    7.53900    7.89610    7.69600   71.36390  130.69800
 7233.50000   94.23890  -21.49990    6.99690    7.96800    7.88000   71.17810  130.63950
 7234.00000   96.28150  -22.38500    6.83520    8.05760    8.06910   70.57690  131.79040
 7234.50000   96.11370  -22.65240    7.13510    8.14830    8.42090   70.02500  132.07170
 7235.00000   93.28540  -22.08860    7.45830    8.20890    8.97300   69.44150  129.62600
 7235.50000   90.85720  -21.51850    7.71960    8.11960    9.46450   68.66460  126.89150
 7236.00000   89.50960  -20.94840    7.95160    8.05050    9.23190   67.72940  125.94630
 7236.50000   88.31210  -20.75580    7.99270    8.04840    8.59680   67.79690  126.10450
 7237.00000   87.30470  -20.78950    7.85030    8.04630    8.42900   69.43430  127.14310
 7237.50000   86.62100  -20.60270    7.61650    8.04420    8.27780   71.29960  129.07500
 7238.00000   89.17410  -20.36620    7.35930    7.97910    8.20160   72.11160  131.76520
 7238.50000   94.91660  -20.12980    7.20590    7.86460    8.12600   72.07800  133.87730
 7239.00000  102.48360  -19.89330    7.30760    7.96030    8.09290   71.31920  133.40080
 7239.50000  107.07780  -19.29210    8.22100    8.19980    8.25220   70.95960  131.49820
 7240.00000  104.24960  -18.58410    9.47100    8.44610    8.23750   70.26010  131.23130
 7240.50000  100.98180  -17.87600    9.88500    8.64870    8.21390   69.55330  131.57540
 7241.00000  100.29990  -17.16800    9.65420    8.50300    8.10100   69.75100  133.15150
 7241.50000  102.36540  -17.37480    9.00390    8.35650    7.89500   70.50790  134.67880
 7242.00000  105.61800  -17.83340    8.84350    8.21240    7.75940   71.01610  134.90710
 7242.50000  105.51150  -18.29200    8.46860    8.07100    7.75940   71.13400  133.92170
 7243.00000  101.29670  -18.75060    8.35270    7.99180    7.75940   70.72050  133.03320
 7243.50000   99.20440  -19.20920    8.35860    8.03210    7.83670   70.51790  133.33560
 7244.00000   99.51920  -19.66780    8.38120    8.04740    7.96560   70.96360  133.58510
 7244.50000  101.16610  -19.90550    8.26210    8.06160    8.06670   71.47620  133.30700
 7245.00000  101.16110  -19.89620    8.34510    8.07580    8.05160   71.49580  132.76950
 7245.50000   99.74710  -19.76680    8.39480    8.09010    7.84120   71.31460  135.03750
 7246.00000   98.90580  -19.71690    8.21520    8.10440    7.78940   71.26660  138.53200
 7246.50000   99.06190  -19.65760    8.25040    8.11860    7.96450   71.38290  140.46640
 7247.00000  101.50870  -19.59050    8.67210    8.13300    7.97370   71.62640  140.25970
 7247.50000  104.27020  -19.52340    8.50390    8.14730    7.81970   71.54700  139.28780
 7248.00000  105.89940  -19.45630    8.27610    8.11940    7.72540   70.53320  136.04230
 7248.50000  102.61570  -19.38910    8.26690    8.08350    7.76770   69.87860  135.28790
 7249.00000   99.80020  -19.32200    8.35360    8.04390    7.84770   70.10700  135.74090
 7249.50000  101.23180  -19.25490    8.42680    8.00460    7.91440   70.74470  135.98360
 7250.00000  105.55820  -19.18780    8.22080    7.96540    7.62340   70.91620  135.51530
 7250.50000  107.89620  -19.12060    8.23740    7.92640    7.49160   71.12270  134.64270
 7251.00000  105.57980  -18.92670    8.49980    7.88770    7.78450   71.62070  136.72470
 7251.50000  101.53970  -18.64760    8.38840    7.84910    7.49310   71.72030  140.81730
 7252.00000  100.41820  -18.69780    8.14880    7.81990    7.20900   71.63660  142.47590
 7252.50000  100.01940  -18.91930    8.07200    7.86930    7.37270   71.62850  142.30050
 7253.00000   99.30160  -19.14090    8.31110    7.98410    7.71880   71.84300  142.09300
 7253.50000   98.92190  -19.27660    8.54190    7.97130    7.84260   72.45250  142.11140
 7254.00000  100.90430  -19.27990    7.00470    7.54780    7.73160   73.10490  143.61680
 7254.50000  103.46970  -19.31640    6.10230    7.27870    7.62210   73.61680  145.12630
