~Version ---------------------------------------------------
VERS.   2.0 : CWLS log ASCII Standard -VERSION 2.0
WRAP.    NO : One line per depth step
DLM . SPACE : Column Data Section Delimiter
~Well ------------------------------------------------------
STRT .F                 775.0 : START DEPTH
STOP .F               11389.0 : STOP DEPTH
STEP .F                   0.5 : STEP
NULL .               -9999.25 : NULL VALUE
COMP .                        : COMPANY
WELL .                        : WELL
FLD  .                        : FIELD
LOC  .                        : LOCATION
PROV .                        : PROVINCE
CNTY .                        : COUNTY
STAT .                        : STATE
CTRY .                        : COUNTRY
SRVC .                        : SERVICE COMPANY
DATE .                        : DATE
UWI  .                        : UNIQUE WELL ID
API  .                        : API NUMBER
SLAT .WGS84 5.040639523549103 : SURFACE LATITUDE
SLON .WGS84 2.186754489779304 : SURFACE LONGITUDE
DATUM.F               1055.46 : DEPTH DATUM ELEV
~Curve Information -----------------------------------------
DEPT.F     : 
GRR .GAPI  : GAMMA RAY FROM RESISTIVITY
SPR .MV    : SPONTANEOUS POTENTIAL FROM RESISTIVITY
AT10.OHMM  : AIT TWO FOOT RESISTIVITY A10
AT30.OHMM  : AIT TWO FOOT RESISTIVITY A30
AT90.OHMM  : AIT TWO FOOT RESISTIVITY A90
DTCO.US/F  : DELTA-T COMPRESSIONAL
DTSM.US/f  : DELTA-T SHEAR
~Params ----------------------------------------------------
~Other -----------------------------------------------------
~ASCII -----------------------------------------------------
# ...
 5185.00000  119.55810  -10.65070    2.25660    3.48550    4.01740   90.25100  175.51850
 5185.50000  111.37660  -10.55600    2.37290    3.55770    4.08140   89.67710  175.23580
 5186.00000  107.60680  -10.46130    2.39430    3.50580    4.07570   88.72180  175.09560
 5186.50000  105.92950  -10.45290    2.35810    3.44580    4.02680   87.93760  175.09560
 5187.00000  105.94430  -10.32130    2.28870    3.38690    3.97850   87.90760  175.15830
 5187.50000  106.44300  -10.08780    2.27390    3.31220    3.93700   88.18740  175.25260
 5188.00000  107.81560   -9.86970    2.26370    3.29560    3.83400   88.32500  175.25450
 5188.50000  109.29370   -9.74830    2.27240    3.31920    3.88260   88.25690  175.09920
 5189.00000  110.19560   -9.61470    2.34660    3.31630    3.98160   87.43620  174.91490
 5189.50000  111.29990   -9.39670    2.42500    3.47130    4.10400   86.51740  174.09080
 5190.00000  112.40420   -9.50060    2.45460    3.59660    4.15570   85.98250  172.83730
 5190.50000  113.50840   -9.60460    2.46390    3.56180    4.08990   85.76800  172.05080
 5191.00000  114.71550   -9.39670    2.48700    3.57940    4.10160   86.01490  171.40100
 5191.50000  116.90050   -9.36590    2.55090    3.64960    4.24620   86.24300  170.70820
 5192.00000  117.80900   -9.61650    2.58870    3.66730    4.29190   86.23010  170.45220
 5192.50000  117.11170   -9.86710    2.61180    3.68500    4.16520   86.17890  170.44530
 5193.00000  114.64940  -10.11770    2.60730    3.64980    4.09130   86.11550  170.99100
 5193.50000  112.18090  -10.36830    2.57400    3.60520    4.01880   85.90680  171.44110
 5194.00000  109.77680  -10.61890    2.57860    3.60330    4.04110   85.46370  170.91700
 5194.50000  108.27020  -10.81700    2.67740    3.70140    4.10730   85.24080  170.19390
 5195.00000  108.87770  -10.77370    2.78350    3.78670    4.22400   85.58310  169.14370
 5195.50000  112.13040  -10.73050    2.80190    3.84490    4.22960   85.87560  168.74130
 5196.00000  119.45360  -10.68730    2.76750    3.90390    4.15910   85.84960  168.40940
 5196.50000  125.12650  -10.64400    2.74370    3.91770    4.08970   85.49650  167.71850
 5197.00000  129.00430  -10.60720    2.71920    3.99170    4.04110   85.34650  167.93920
 5197.50000  129.11490  -10.68820    2.67270    4.10120    4.02870   85.45580  168.28010
 5198.00000  125.98690  -11.02460    2.64020    4.21600    4.07780   85.75990  167.47850
 5198.50000  120.39900  -11.65180    2.63360    4.33410    4.08530   86.24490  166.07670
 5199.00000  119.36600  -12.77000    2.62760    4.45540    4.04230   87.23750  159.71600
 5199.50000  122.69230  -13.57500    2.57370    4.51640    3.94050   88.96210  156.09680
 5200.00000  123.65570  -14.25340    2.35150    3.67720    3.69090   90.62730  156.87010
 5200.50000  117.94510  -14.53030    2.12360    2.97410    3.56090   92.10960  155.90010
 5201.00000  107.80640  -14.17980    2.06660    2.97510    3.64240   92.46410  147.17530
 5201.50000   99.17930  -13.88740    2.11370    3.12360    3.91550   91.93790  137.95790
 5202.00000  100.43070  -13.73580    2.16430    3.32300    4.19260   90.12090  128.64760
 5202.50000  104.00450  -13.58890    2.18860    3.34420    4.21900   89.16750  123.25650
 5203.00000  107.89990  -13.55530    2.15480    3.26940    4.11530   89.12190  122.73180
 5203.50000  108.63570  -13.71240    2.17290    3.22180    4.01240   89.23170  123.10720
 5204.00000  106.47320  -13.84060    2.21400    3.23580    3.91200   89.32360  123.07870
 5204.50000  101.30950  -13.77290    2.25610    3.27030    3.81410   89.27880  122.67410
 5205.00000   98.59360  -13.54590    2.30890    3.33100    3.77320   88.72350  122.60200
 5205.50000  104.15890  -12.85940    2.33470    3.38580    3.75510   87.76880  129.28420
 5206.00000  110.89040  -12.20340    2.37830    3.38580    3.68730   87.22900  142.30170
 5206.50000  113.15290  -11.63040    2.43200    3.35600    3.61870   86.91110  165.22460
 5207.00000  113.06310  -11.67310    2.41750    3.33230    3.60440   86.75560  166.98800
 5207.50000  114.46090  -11.71580    2.40090    3.30060    3.59000   86.65430  167.56370
 5208.00000  117.27470  -11.75850    2.40770    3.31740    3.58310   86.41520  167.59040
 5208.50000  117.20400  -11.70000    2.39220    3.31400    3.60380   86.20490  167.63600
 5209.00000  112.89860  -11.25400    2.36280    3.31420    3.67830   86.11780  167.69380
 5209.50000  107.36840  -10.61880    2.37300    3.34720    3.77680   86.41320  168.27670
 5210.00000  107.79640   -9.58300    2.40730    3.42110    3.88070   86.91140  169.79080
 5210.50000  110.97990   -9.40060    2.46370    3.49660    4.01610   86.66470  171.03050
 5211.00000  116.47000   -9.73930    2.52580    3.62830    4.15620   86.19570  171.04640
 5211.50000  122.67580   -9.84210    2.61050    3.67880    4.13560   86.42040  171.89120
 5212.00000  125.83460  -10.01910    2.59640    3.63290    3.99860   87.02010  175.38580
 5212.50000  125.53170  -10.37620    2.50100    3.45140    3.91520   87.68690  176.57260
 5213.00000  120.21750  -10.66580    2.28590    3.17710    3.83550   88.87630  177.48470
 5213.50000  117.37530  -10.90580    2.26520    3.17690    3.84340   89.86740  176.11360
 5214.00000  117.13900  -11.14590    2.47290    3.27690    3.87430   90.11630  173.68930
 5214.50000  117.20050  -11.23300    2.62970    3.38670    3.91450   89.31400  170.20730
 5215.00000  114.87820  -10.98620    2.62440    3.50840    3.95500   88.38190  169.62330
 5215.50000  111.68460  -10.15060    2.60650    3.57680    3.99600   87.37010  169.93420
 5216.00000  108.72180   -9.31490    2.62650    3.62040    4.00760   86.27640  169.75520
 5216.50000  106.38910   -9.09540    2.75480    3.65560    3.98440   85.71040  169.16450
 5217.00000  105.61210   -9.24730    2.86240    3.66760    3.97590   85.56730  169.20950
 5217.50000  106.25250   -9.42890    2.83260    3.67180    3.94750   85.56060  170.26440
 5218.00000  106.06230   -9.46970    2.70070    3.57730    3.89820   85.91940  171.57830
 5218.50000  106.12020   -9.28360    2.64250    3.40690    3.87330   87.08730  172.07820
 5219.00000  108.61360   -8.76200    2.61450    3.43540    3.92880   88.02030  170.47930
 5219.50000  114.58660   -8.24050    2.61480    3.50330    3.96710   87.90530  168.89940
 5220.00000  120.58090   -7.71900    2.68830    3.57250    4.01650   87.06220  167.52080
 5220.50000  126.53240   -7.24400    2.82790    3.67880    4.05590   86.50230  166.39760
 5221.00000  128.51190   -6.93890    2.85570    3.67880    4.05090   85.97040  165.35170
 5221.50000  124.75130   -6.90550    2.80150    3.65710    4.04530   85.59050  164.49270
 5222.00000  117.01270   -6.96990    2.69510    3.58570    4.03760   86.16100  165.20920
 5222.50000  113.51840   -7.14230    2.68820    3.52100    3.99810   86.88860  166.43060
 5223.00000  115.92190   -7.31460    2.75000    3.46350    4.00830   87.29610  168.13540
 5223.50000  119.24330   -7.47450    2.74190    3.40680    3.80620   87.59130  170.18090
 5224.00000  122.57510   -7.88830    2.57190    3.38880    3.58170   88.35560  172.20650
 5224.50000  121.21770   -8.35640    2.40790    3.42490    3.59550   89.32280  174.03280
 5225.00000  117.27310   -8.82450    2.41480    3.51390    3.71400   89.67780  174.23030
 5225.50000  112.79820   -9.27020    2.49290    3.63230    3.83640   89.31480  173.69340
 5226.00000  109.75440   -9.36200    2.67390    3.74860    3.96290   88.66300  172.57320
 5226.50000  110.05620   -9.30120    2.81230    3.82500    4.06500   87.87150  170.52000
 5227.00000  112.98140   -8.64050    2.93220    3.80220    4.06320   87.26120  169.02970
 5227.50000  116.54940   -7.93280    2.88750    3.75320    3.99450   87.02480  168.65020
 5228.00000  121.44250   -7.37510    2.82950    3.70480    3.93440   86.95780  168.86800
 5228.50000  124.08170   -7.18190    2.78290    3.65710    3.84450   86.97050  168.99660
 5229.00000  123.19570   -7.05950    2.73270    3.61240    3.78030   87.49800  168.87660
 5229.50000  120.83980   -7.04330    2.66930    3.58730    3.76840   88.47070  168.48390
