~Version ---------------------------------------------------
VERS.   2.0 : CWLS log ASCII Standard -VERSION 2.0
WRAP.    NO : One line per depth step
DLM . SPACE : Column Data Section Delimiter
~Well ------------------------------------------------------
STRT .F                 775.0 : START DEPTH
STOP .F               11389.0 : STOP DEPTH
STEP .F                   0.5 : STEP
NULL .               -9999.25 : NULL VALUE
COMP .                        : COMPANY
WELL .                        : WELL
FLD  .                        : FIELD
LOC  .                        : LOCATION
PROV .                        : PROVINCE
CNTY .                        : COUNTY
STAT .                        : STATE
CTRY .                        : COUNTRY
SRVC .                        : SERVICE COMPANY
DATE .                        : DATE
UWI  .                        : UNIQUE WELL ID
API  .                        : API NUMBER
SLAT .WGS84 5.040639523549103 : SURFACE LATITUDE
SLON .WGS84 2.186754489779304 : SURFACE LONGITUDE
DATUM.F               1055.46 : DEPTH DATUM ELEV
~Curve Information -----------------------------------------
DEPT.F     : 
GRR .GAPI  : GAMMA RAY FROM RESISTIVITY
SPR .MV    : SPONTANEOUS POTENTIAL FROM RESISTIVITY
AT10.OHMM  : AIT TWO FOOT RESISTIVITY A10
AT30.OHMM  : AIT TWO FOOT RESISTIVITY A30
AT90.OHMM  : AIT TWO FOOT RESISTIVITY A90
DTCO.US/F  : DELTA-T COMPRESSIONAL
DTSM.US/f  : DELTA-T SHEAR
~Params ----------------------------------------------------
~Other -----------------------------------------------------
~ASCII -----------------------------------------------------
# ...
 5860.00000   77.80040  -24.20860    3.64450   15.15360    6.92710   68.00120  127.20750
 5860.50000   81.97530  -24.22620    2.77010    8.43690    4.60050   71.88890  129.38120
 5861.00000   86.99090  -24.37610    2.35470    5.03470    3.11750   73.88960  130.76690
 5861.50000   91.77320  -23.78720    2.01330    4.20010    3.05660   77.96650  133.47400
 5862.00000   95.26310  -23.19830    2.06460    4.58540    4.20600   81.68470  139.05460
 5862.50000   97.73850  -22.30190    2.09590    5.27790    5.71550   84.76500  141.93710
 5863.00000   99.81750  -21.18540    1.85990    4.35420    4.96390   88.15500  145.15770
 5863.50000  102.78730  -20.14570    1.54190    3.34960    4.19910   90.42630  146.66970
 5864.00000  105.06190  -19.72650    1.35770    2.87190    3.96370   91.22120  146.03500
 5864.50000  104.92550  -20.08330    1.28450    2.68090    3.74140   90.54140  143.80730
 5865.00000  102.95510  -20.44000    1.24740    2.72160    3.62290   89.61620  140.65040
 5865.50000   99.30080  -20.79680    1.24980    2.79950    3.83820   87.53950  137.49350
 5866.00000   96.81950  -21.15360    1.25110    2.90250    4.15390   84.75920  134.97510
 5866.50000   95.77930  -21.50350    1.24060    2.94310    4.39160   83.68860  133.21620
 5867.00000   96.77160  -21.99070    1.20580    2.91680    4.18220   83.84460  133.50150
 5867.50000   97.60130  -22.47780    1.15480    2.77360    3.98280   84.16730  136.92780
 5868.00000   97.99030  -22.72430    1.10120    2.60240    3.83550   84.27770  146.54340
 5868.50000   98.00960  -22.77350    1.06310    2.52290    3.96100   85.38610  154.32060
 5869.00000   97.74570  -23.43740    1.06430    2.57080    4.53160   86.94350  166.39290
 5869.50000   96.62490  -23.24280    1.06760    2.69390    5.07310   87.54220  172.47990
 5870.00000   94.54900  -22.10210    1.04650    2.64660    4.93240   88.14680  173.74430
 5870.50000   92.68050  -20.91950    1.00180    2.49450    4.55290   89.06220  173.84560
 5871.00000   90.38600  -20.33710    0.98790    2.32500    4.42580   90.05670  172.91500
 5871.50000   88.88830  -20.72760    0.97550    2.33700    4.90640   90.69460  153.80850
 5872.00000   89.65530  -21.66850    0.97690    2.33920    5.26740   91.40250  138.58990
 5872.50000   92.63140  -23.07890    0.98560    2.32820    5.65500   91.64700  129.62140
 5873.00000   94.92000  -24.46540    0.99430    2.33570    6.00550   91.12920  127.40270
 5873.50000   97.76210  -25.84660    1.00160    2.29460    5.86720   90.44700  127.56270
 5874.00000  100.32310  -26.67930    0.98490    2.25420    5.45930   89.89170  128.69100
 5874.50000   98.16680  -27.86380    1.02370    2.22090    5.03250   89.31700  128.66550
 5875.00000   93.65140  -29.98940    1.07050    2.23250    4.89160   87.58680  127.24350
 5875.50000   84.20560  -31.01160    1.12810    2.45170    5.61970   85.45250  124.36910
 5876.00000   77.91870  -31.77220    1.25430    3.00060    5.54320   82.91990  120.95320
 5876.50000   76.76800  -31.49010    1.47160    3.43270    5.43150   79.37000  110.49340
 5877.00000   77.06460  -29.84240    1.66860    4.03650    5.42930   76.65340  102.10410
 5877.50000   75.61010  -27.94280    1.78180    4.40130    5.49110   74.67050   97.79770
 5878.00000   72.85400  -25.83980    2.03270    4.61390    5.84360   72.73220   97.55670
 5878.50000   73.82080  -22.74200    2.34480    8.83490    7.37140   69.24080   95.23360
 5879.00000   78.18400  -20.31430    3.04820   10.43900    8.86780   70.99380   91.19120
 5879.50000   83.15020  -18.08390    2.46870    5.92350    8.06750   74.55680  101.65370
 5880.00000   83.91530  -16.42250    1.85740    3.36130    3.67990   76.05290  120.26400
 5880.50000   83.00210  -15.62870    1.63230    2.93780    2.71500   74.68090  119.21490
 5881.00000   81.46700  -16.24680    1.75050    3.52710    3.15650   73.16010  115.57440
 5881.50000   80.63860  -17.24430    1.90970    4.23470    4.85430   72.81120  112.96140
 5882.00000   78.74160  -18.30030    1.91180    4.23630    5.26460   73.55990  116.44220
 5882.50000   76.72090  -19.14330    1.69890    3.75920    4.24810   75.77290  121.72180
 5883.00000   76.79640  -18.72020    1.50290    3.40780    3.70910   78.72400  126.68960
 5883.50000   78.32040  -18.80680    1.36610    3.19900    3.77670   80.92550  136.94940
 5884.00000   78.76310  -19.26080    1.31570    3.18620    4.06880   81.85220  147.30920
 5884.50000   77.76280  -19.49970    1.27570    3.13760    4.32540   82.30180  152.69190
 5885.00000   76.37720  -19.71520    1.21610    3.05890    4.57910   82.55410  158.29400
 5885.50000   76.63260  -19.87520    1.17090    3.01000    4.84550   82.81290  161.69600
 5886.00000   78.21520  -19.21250    1.13650    2.93760    5.01730   83.57200  166.00840
 5886.50000   80.29180  -19.13510    1.11150    2.83150    5.29800   85.22150  168.32940
 5887.00000   80.98320  -19.86440    1.06000    2.55740    5.59440   88.49110  170.78770
 5887.50000   82.44090  -21.51090    1.02730    2.41500    5.82560   91.64630  171.43190
 5888.00000   85.90480  -23.69370    1.00430    2.30360    5.93070   93.43870  169.00640
 5888.50000   89.48620  -25.60650    0.99460    2.18580    5.96970   94.38860  165.54830
 5889.00000   90.15900  -27.30200    1.01000    2.05530    5.67370   95.09820  160.95410
 5889.50000   89.28030  -28.96780    1.04980    1.94770    4.83990   95.73380  156.75160
 5890.00000   86.84990  -32.14000    1.04910    1.97610    5.81960   96.22290  151.97820
 5890.50000   84.70250  -35.63960    1.03740    2.08080    5.84060   96.16220  146.98680
 5891.00000   84.57610  -38.40080    1.05660    2.15150    5.01960   91.35790  142.26610
 5891.50000   85.70680  -39.44050    1.27790    2.23760    4.68260   78.65530  128.99600
 5892.00000   84.51230  -39.33550    3.31260    4.73310    9.99070   68.70920  114.73350
 5892.50000   78.08190  -36.70200    5.16470   12.45930   23.39510   59.30350  103.84810
 5893.00000   68.05040  -30.61310    5.79600   14.35890   21.88280   61.71980  106.13190
 5893.50000   60.02290  -25.37800    4.76670    9.70570   13.41320   67.44740  115.05110
 5894.00000   59.92090  -20.90090    3.88790    6.56050    8.22170   73.12580  121.70060
 5894.50000   67.77490  -19.11780    3.17110    4.43450    5.03950   77.24670  129.63960
 5895.00000   73.27360  -18.78570    2.58640    2.99750    3.24450   80.03490  137.15890
 5895.50000   78.14430  -18.29750    2.30850    2.65220    3.16940   82.06540  141.79370
 5896.00000   83.17130  -17.80930    2.67080    2.91860    3.46710   82.88160  144.96910
 5896.50000   87.94010  -17.32120    3.27230    3.78590    4.01930   82.82210  145.88430
 5897.00000   90.23240  -16.69090    3.76520    4.91100    5.92780   80.20320  144.72230
 5897.50000   90.24710  -14.89710    4.35270    6.37030    7.59420   76.37820  140.11780
 5898.00000   88.13160  -14.18160    5.04950    8.26340    9.57640   73.41200  135.51340
 5898.50000   81.48860  -12.15520    5.85770   10.70180   11.68950   72.35360  131.82640
 5899.00000   75.64370  -11.02670    6.44610   13.41130   14.36560   71.15710  128.38200
 5899.50000   70.77540  -10.36860    6.55470   13.10440   16.89600   70.49020  125.44410
 5900.00000   66.02770  -10.45010    5.99310   10.90790   12.32330   71.70060  125.35770
 5900.50000   60.85890  -10.64130    5.32250    8.56080    8.03190   74.74690  128.17860
 5901.00000   56.42950  -10.67020    4.72700    6.71870    9.99920   79.42010  131.49380
 5901.50000   58.46100  -11.08630    4.19810    5.27300    7.93900   83.90950  135.56810
 5902.00000   64.61940  -11.78780    2.54110    4.52350    4.83060   85.48980  138.74880
 5902.50000   67.59100  -12.49810    2.61250    3.92050    4.77920   85.92260  138.41160
 5903.00000   66.52670  -13.02530    2.62930    3.87170    5.14640   84.79280  136.55190
 5903.50000   66.34700  -13.34530    2.60730    3.69010    5.54180   83.98180  134.69220
 5904.00000   68.23090  -13.13230    3.07380    4.55920    6.16950   80.99800  132.21200
 5904.50000   68.83920  -12.44290    3.72040    6.43380    7.98240   72.86590  124.29790
