~Version ---------------------------------------------------
VERS.   2.0 : CWLS log ASCII Standard -VERSION 2.0
WRAP.    NO : One line per depth step
DLM . SPACE : Column Data Section Delimiter
~Well ------------------------------------------------------
STRT .F                 775.0 : START DEPTH
STOP .F               11389.0 : STOP DEPTH
STEP .F                   0.5 : STEP
NULL .               -9999.25 : NULL VALUE
COMP .                        : COMPANY
WELL .                        : WELL
FLD  .                        : FIELD
LOC  .                        : LOCATION
PROV .                        : PROVINCE
CNTY .                        : COUNTY
STAT .                        : STATE
CTRY .                        : COUNTRY
SRVC .                        : SERVICE COMPANY
DATE .                        : DATE
UWI  .                        : UNIQUE WELL ID
API  .                        : API NUMBER
SLAT .WGS84 5.040639523549103 : SURFACE LATITUDE
SLON .WGS84 2.186754489779304 : SURFACE LONGITUDE
DATUM.F               1055.46 : DEPTH DATUM ELEV
~Curve Information -----------------------------------------
DEPT.F     : 
GRR .GAPI  : GAMMA RAY FROM RESISTIVITY
SPR .MV    : SPONTANEOUS POTENTIAL FROM RESISTIVITY
AT10.OHMM  : AIT TWO FOOT RESISTIVITY A10
AT30.OHMM  : AIT TWO FOOT RESISTIVITY A30
AT90.OHMM  : AIT TWO FOOT RESISTIVITY A90
DTCO.US/F  : DELTA-T COMPRESSIONAL
DTSM.US/f  : DELTA-T SHEAR
~Params ----------------------------------------------------
~Other -----------------------------------------------------
~ASCII -----------------------------------------------------
# ...
 7930.00000  100.46120  -11.43390    1.56380    1.86360    2.26230   97.92080  168.67840
 7930.50000  100.90860  -11.27600    1.54330    1.79780    2.19400   98.53770  169.99990
 7931.00000  100.16950  -11.18210    1.63610    1.94560    2.38930   97.90920  169.47470
 7931.50000   98.62390  -11.38160    1.69000    1.97940    2.47870   96.89760  168.69080
 7932.00000   98.21340  -11.80080    1.66500    2.00960    2.44360   94.48700  167.90680
 7932.50000   99.38810  -12.45610    1.70490    2.04000    2.54900   92.16100  167.12290
 7933.00000   98.78990  -13.04670    1.78560    2.07270    2.69510   89.98500  166.71380
 7933.50000   96.89910  -13.37380    1.82180    2.16380    2.85650   89.72960  166.01750
 7934.00000   95.81480  -12.66850    1.81870    2.19410    2.92780   89.99350  166.00340
 7934.50000  100.24450  -12.48750    1.81500    2.20680    2.97240   91.19760  166.56980
 7935.00000  105.10890  -13.09800    1.81130    2.21680    2.97350   92.66460  168.02930
 7935.50000  106.55080  -13.25080    1.79870    2.17610    2.95360   94.14480  167.66080
 7936.00000  105.50620  -12.67210    1.73100    2.11880    2.82900   95.00580  166.74270
 7936.50000  104.83160  -11.97340    1.71000    2.07010    2.69950   95.68590  165.86440
 7937.00000  105.64030  -12.43210    1.69380    2.05540    2.65760   96.19990  164.90690
 7937.50000  105.37900  -13.01770    1.67780    2.04900    2.61040   95.88480  160.94370
 7938.00000  104.62670  -12.88790    1.66170    2.04260    2.55780   95.50960  155.97020
 7938.50000  104.53590  -12.38680    1.68060    2.03620    2.52720   96.01140  154.90190
 7939.00000  106.06460  -11.90960    1.73330    2.02990    2.57750   97.13130  156.67410
 7939.50000  107.41140  -11.52640    1.73200    2.06660    2.63670   97.69070  158.72570
 7940.00000  107.13800  -11.34290    1.67430    2.02110    2.54600   97.47670  160.98920
 7940.50000  105.84360  -11.41800    1.59280    1.90520    2.37510   96.87560  161.84150
 7941.00000  105.78340  -11.80980    1.56040    1.88200    2.31320   95.98900  162.96460
 7941.50000  106.51340  -12.45340    1.56450    1.91760    2.40370   94.12350  165.45860
 7942.00000  107.03780  -13.32500    1.58680    1.95650    2.44530   91.92470  166.31150
 7942.50000  106.44160  -14.06270    1.66420    2.01270    2.50660   90.98540  166.23800
 7943.00000  102.31890  -13.78400    1.68720    2.08610    2.52970   90.96270  165.11230
 7943.50000   96.67110  -13.15550    1.68920    2.12090    2.60630   91.38030  164.90200
 7944.00000   94.93460  -12.30610    1.67640    2.15690    2.65590   92.39610  165.35530
 7944.50000   96.58750  -11.75580    1.65000    2.15030    2.64630   93.20800  165.93080
 7945.00000   99.95760  -11.44830    1.60670    2.06990    2.57010   93.83050  165.33720
 7945.50000  102.62920  -11.74270    1.54420    2.01870    2.49430   94.26320  164.83310
 7946.00000  103.39080  -11.71780    1.49700    2.02860    2.44370   94.27180  165.16160
 7946.50000  103.34490  -11.65170    1.46900    2.04400    2.49030   94.12440  165.53560
 7947.00000  102.95390  -11.55600    1.48290    2.07130    2.53750   93.88860  166.30050
 7947.50000  102.08760  -11.45220    1.51070    2.07420    2.55490   93.64980  168.03590
 7948.00000  102.11510  -11.22220    1.53380    2.12180    2.60800   93.92430  169.20650
 7948.50000  103.91740  -11.15030    1.54070    2.17120    2.66320   94.65710  169.42670
 7949.00000  105.56730  -11.29270    1.53590    2.13100    2.68160   96.09200  169.36760
 7949.50000  104.69290  -11.52800    1.49090    2.07270    2.59170   97.66670  169.11040
 7950.00000  102.17640  -11.52560    1.43830    2.03030    2.55560   98.90440  168.49620
 7950.50000  100.98570  -11.52070    1.39290    1.99110    2.54020   99.60420  167.96370
 7951.00000  103.53440  -11.57780    1.40130    1.96620    2.50050   99.42530  167.17100
 7951.50000  106.38470  -11.49050    1.41600    1.94180    2.45090   99.70270  166.22320
 7952.00000  107.53940  -11.22320    1.41840    1.89920    2.36280  100.10720  165.46780
 7952.50000  108.22860  -11.27000    1.35960    1.85180    2.29860   99.96470  165.62280
 7953.00000  109.42930  -11.48570    1.30150    1.79240    2.25390   98.50010  166.13250
 7953.50000  110.77810  -11.70150    1.30480    1.77140    2.23850   96.66740  166.15700
 7954.00000  109.67860  -11.91730    1.32520    1.79750    2.22550   95.95970  166.83940
 7954.50000  106.90240  -12.13300    1.34790    1.82280    2.21950   95.34190  168.78080
 7955.00000  104.62130  -12.34880    1.35570    1.87770    2.23510   94.72830  169.85580
 7955.50000  103.46580  -12.54930    1.34140    1.93750    2.25640   94.06450  169.33060
 7956.00000  103.43990  -12.08650    1.33920    2.01170    2.32760   93.79590  168.02920
 7956.50000  103.66560  -11.89300    1.36440    2.09640    2.42610   93.76370  166.88400
 7957.00000  102.82370  -11.63980    1.45370    2.16870    2.47470   93.88460  166.77020
 7957.50000  100.12240  -11.37320    1.47550    2.20870    2.42100   94.55460  167.41770
 7958.00000   96.65460  -11.10970    1.41840    2.21070    2.40530   95.67300  170.69600
 7958.50000   95.05300  -10.66400    1.33380    2.05450    2.38970   97.52830  172.92070
 7959.00000   96.30120  -10.10340    1.32930    1.99210    2.31430   99.01600  171.62200
 7959.50000   99.26980   -9.64820    1.32340    1.95300    2.21650   99.06690  169.89920
 7960.00000  104.45120   -9.99810    1.29660    1.93290    2.12330   98.53880  169.65990
 7960.50000  109.00150  -10.44240    1.26650    1.88710    2.08400   97.71750  169.66000
 7961.00000  110.59870  -10.88670    1.27420    1.85130    2.11420   97.63440  167.82140
 7961.50000  109.71600  -11.33100    1.31910    1.92350    2.20400   97.94980  165.98580
 7962.00000  107.13070  -11.75080    1.35910    2.03050    2.30020   97.95880  164.15030
 7962.50000  104.67330  -11.76460    1.38490    2.10580    2.37620   97.95810  162.77010
 7963.00000  102.50510  -11.57520    1.35510    2.07670    2.32180   98.64860  163.31100
 7963.50000  101.86980  -11.57870    1.33220    2.04530    2.27140   98.89760  164.08430
 7964.00000  101.07690  -11.63430    1.33890    2.01440    2.23040   98.22030  163.76340
 7964.50000   99.78680  -11.33620    1.35360    1.98470    2.22350   97.26830  162.16190
 7965.00000  100.14920  -10.59880    1.34330    1.99570    2.21770   96.59850  161.12720
 7965.50000  102.01410  -10.06880    1.30970    1.99610    2.22560   95.59760  160.72100
 7966.00000  102.21790   -9.74190    1.32370    1.99320    2.22720   95.13930  161.07250
 7966.50000  100.34350   -9.57320    1.37190    1.98530    2.21770   95.42800  161.87320
 7967.00000   99.48090   -9.81650    1.38680    1.97750    2.22540   95.73100  162.51510
 7967.50000  101.84730  -10.05980    1.34790    1.97440    2.24220   95.75070  162.69180
 7968.00000  106.73280  -10.48290    1.32850    1.96190    2.23080   95.91710  162.71040
 7968.50000  109.58990  -10.51080    1.32890    1.95270    2.21020   96.56460  162.44560
 7969.00000  109.66590  -10.35940    1.32430    1.94460    2.19720   97.16300  161.87410
 7969.50000  106.67530  -10.36170    1.31040    1.94560    2.19120   97.07470  161.19730
 7970.00000  101.63160  -10.28330    1.32060    1.96650    2.22330   97.34840  160.65060
 7970.50000  100.05440  -10.61740    1.36070    2.05370    2.33030   98.20010  160.26580
 7971.00000  102.47110  -11.49630    1.40030    2.10150    2.42580   98.64360  159.51240
 7971.50000  104.96170  -11.96430    1.36200    2.01580    2.42370   98.77220  158.65150
 7972.00000  104.57770  -12.38230    1.30030    1.98570    2.27950   99.02820  157.38780
 7972.50000  103.14310  -13.34780    1.27820    1.98900    2.30590   99.33850  156.55510
 7973.00000  103.04590  -14.13560    1.28090    1.98600    2.36200   99.11410  155.62450
 7973.50000  103.23730  -14.63430    1.24010    1.97130    2.32780   98.10880  153.19000
 7974.00000  102.39640  -14.31380    1.21910    1.95870    2.31630   96.78590  150.07540
 7974.50000  100.40120  -13.88570    1.23450    1.94730    2.30740   95.91930  147.99330
