~Version ---------------------------------------------------
VERS.   2.0 : CWLS log ASCII Standard -VERSION 2.0
WRAP.    NO : One line per depth step
DLM . SPACE : Column Data Section Delimiter
~Well ------------------------------------------------------
STRT .F                 497.0 : START DEPTH
STOP .F                9010.5 : STOP DEPTH
STEP .F                   0.5 : STEP
NULL .               -9999.25 : NULL VALUE
COMP .                        : COMPANY
WELL .                        : WELL
FLD  .                        : FIELD
LOC  .                        : LOCATION
PROV .                        : PROVINCE
CNTY .                        : COUNTY
STAT .                        : STATE
CTRY .                        : COUNTRY
SRVC .                        : SERVICE COMPANY
DATE .                        : DATE
UWI  .                        : UNIQUE WELL ID
API  .                        : API NUMBER
SLAT .WGS84 2.612432138377798 : SURFACE LATITUDE
SLON .WGS84      7.3655865084 : SURFACE LONGITUDE
DATUM.F                   nan : DEPTH DATUM ELEV
~Curve Information -----------------------------------------
DEPT   .F     : 
SGRDD  .GAPI  : SPECTROSCOPY GAMMA RAY FROM DENSITY LOG
TNPH_LS.DEC   : THERMAL NEUTRON POROSITY [LIMESTONE]
CALD   .IN    : CALIPER FROM DENSITY LOG
DPHZ_LS.DEC   : HGRD STANDARD RESOLUTION DENSITY POROSITY
HDRA   .G/C3  : HRDD SPINE AND RIBS DENSITY CORRECTION
PEFZ   .B/E   : HRDD STANDARD RESOLUTION FORMATION PHOTOELECTRIC FACTOR
RHOZ   .G/C3  : HRDD STANDARD RESOLUTION FORMATION DENSITY
CGRD   .GAPI  : CORRECTED GAMMA RAY FROM DENSITY LOG
TEND   .LB    : TENSION FROM DENSITY LOG
TENR   .LB    : TENSION FROM RESISTIVITY LOG
TENS   .LB    : TENSION FROM SONIC LOG
RLA5   .OHMM  : APPARENT RESISTIVITY FROM COMPUTED FOCUSING MODE 5
RLA3   .OHMM  : APPARENT RESISTIVITY FROM COMPUTED FOCUSING MODE 3
RLA4   .OHMM  : APPARENT RESISTIVITY FROM COMPUTED FOCUSING MODE 4
RXOZ   .OHMM  : INVADED FORMATION RESISTIVITY FILTERED AT 18 INCHES
DTCO   .US/F  : DELTA-T COMPRESSIONAL
DTSM   .US/F  : DELTA-T SHEAR
GRS    .GAPI  : GAMMA RAY FROM SONIC LOG
SPHI_LS.DEC   : SONIC POROSITY [LIMESTONE]
~Params ----------------------------------------------------
~Other -----------------------------------------------------
~ASCII -----------------------------------------------------
# ...
 4289.50000   50.68390    0.04850   11.36610   -9999.25   -0.00140   -9999.25   -9999.25   -9999.25 3175.54910   -9999.25   -9999.25   -9999.25   -9999.25   -9999.25   -9999.25   -9999.25   -9999.25   -9999.25   -9999.25
 4290.00000   56.04810    0.06720   11.36610   -9999.25   -0.00130   -9999.25   -9999.25   -9999.25 3236.86040   -9999.25   -9999.25   -9999.25   -9999.25   -9999.25   -9999.25   -9999.25   -9999.25   -9999.25   -9999.25
 4290.50000   57.86470    0.07680   11.36280   -9999.25   -0.00030   -9999.25   -9999.25   -9999.25 3298.17190   -9999.25   -9999.25   -9999.25   -9999.25   -9999.25   -9999.25   -9999.25   -9999.25   -9999.25   -9999.25
 4291.00000   55.34940    0.07490   11.35940   -9999.25   -0.00080   -9999.25   -9999.25   -9999.25 3312.41360   -9999.25   -9999.25   -9999.25   -9999.25   -9999.25   -9999.25   -9999.25   -9999.25   -9999.25   -9999.25
 4291.50000   51.57930    0.06480   11.35610   -9999.25   -0.00150   -9999.25   -9999.25   -9999.25 3294.37060   -9999.25   -9999.25   -9999.25   -9999.25   -9999.25   -9999.25   -9999.25   -9999.25   -9999.25   -9999.25
 4292.00000   50.88710    0.05460   11.35270   -9999.25   -0.00210   -9999.25   -9999.25   -9999.25 3269.67310   -9999.25   -9999.25   -9999.25   -9999.25   -9999.25   -9999.25   -9999.25   -9999.25   -9999.25   -9999.25
 4292.50000   54.22700    0.05300   11.35440   -9999.25   -0.00270   -9999.25   -9999.25   -9999.25 3244.42460   -9999.25   -9999.25   -9999.25   -9999.25   -9999.25   -9999.25   -9999.25   -9999.25   -9999.25   -9999.25
 4293.00000   56.52430    0.05300   11.35850   -9999.25   -0.00310   -9999.25   -9999.25   -9999.25 3218.05320   -9999.25   -9999.25   -9999.25   -9999.25   -9999.25   -9999.25   -9999.25   -9999.25   -9999.25   -9999.25
 4293.50000   56.30810    0.05290   11.36250   -9999.25   -0.00270   -9999.25   -9999.25   -9999.25 3191.68190   -9999.25   -9999.25   -9999.25   -9999.25   -9999.25   -9999.25   -9999.25   -9999.25   -9999.25   -9999.25
 4294.00000   49.76970    0.03810   11.36660   -9999.25   -0.00090   -9999.25   -9999.25   -9999.25 3165.31050   -9999.25   -9999.25   -9999.25   -9999.25   -9999.25   -9999.25   -9999.25   -9999.25   -9999.25   -9999.25
 4294.50000   28.22440    0.01980   11.37180   -9999.25    0.00180   -9999.25   -9999.25   -9999.25 3206.84910   -9999.25   -9999.25   -9999.25   -9999.25   -9999.25   -9999.25   -9999.25   -9999.25   -9999.25   -9999.25
 4295.00000   28.96420    0.01420   11.37760   -9999.25    0.00600   -9999.25   -9999.25   -9999.25 3262.39140   -9999.25   -9999.25   -9999.25   -9999.25   -9999.25   -9999.25   -9999.25   -9999.25   -9999.25   -9999.25
 4295.50000   36.25110    0.01920   11.38860   -9999.25    0.01010   -9999.25   -9999.25   -9999.25 3308.08840   -9999.25   -9999.25   -9999.25   -9999.25   -9999.25   -9999.25   -9999.25   -9999.25   -9999.25   -9999.25
 4296.00000   43.53800    0.02740   11.39950   -9999.25    0.01220   -9999.25   -9999.25   -9999.25 3316.35110   -9999.25   -9999.25   -9999.25   -9999.25   -9999.25   -9999.25   -9999.25   -9999.25   -9999.25   -9999.25
 4296.50000   53.12380    0.03980   11.40210   -9999.25    0.00600   -9999.25   -9999.25   -9999.25 3281.13160   -9999.25   -9999.25   -9999.25   -9999.25   -9999.25   -9999.25   -9999.25   -9999.25   -9999.25   -9999.25
 4297.00000   51.32040    0.04140   11.39810   -9999.25   -0.00100   -9999.25   -9999.25   -9999.25 3210.23930   -9999.25   -9999.25   -9999.25   -9999.25   -9999.25   -9999.25   -9999.25   -9999.25   -9999.25   -9999.25
 4297.50000   44.33810    0.03910   11.39750   -9999.25    0.00050   -9999.25   -9999.25   -9999.25 3142.24370   -9999.25   -9999.25   -9999.25   -9999.25   -9999.25   -9999.25   -9999.25   -9999.25   -9999.25   -9999.25
 4298.00000   37.35580    0.02770   11.39660   -9999.25    0.06090   -9999.25    2.81720   -9999.25 3165.27170   -9999.25   -9999.25   -9999.25   -9999.25   -9999.25   -9999.25   -9999.25   -9999.25   -9999.25   -9999.25
 4298.50000   26.52480    0.01540   11.39990   -9999.25    0.07280   -9999.25    2.92510   -9999.25 3230.91140   -9999.25   -9999.25   -9999.25   -9999.25   -9999.25   -9999.25   -9999.25   -9999.25   -9999.25   -9999.25
 4299.00000   15.36770    0.00110   11.40570   -9999.25    0.04410   -9999.25    2.95280   -9999.25 3296.55130   -9999.25   -9999.25   -9999.25   -9999.25   -9999.25   -9999.25   -9999.25   -9999.25   -9999.25   -9999.25
 4299.50000    8.19580   -0.01020   11.41160   -9999.25    0.01540   -9999.25    2.95640   -9999.25 3297.00000   -9999.25   -9999.25   -9999.25   -9999.25   -9999.25   -9999.25   -9999.25   -9999.25   -9999.25   -9999.25
 4300.00000   10.64010   -0.01980   11.39420   -0.10020    0.00490    5.06480    2.96170    7.09170 3334.24850 2913.39060 2770.81230  541.87080  136.99390  458.14180  254.23680   99.48740  100.95480   11.69030    0.36170
 4300.50000   10.53660   -0.02000   11.39600   -0.10020    0.00450    5.08540    2.96740    7.65050 3290.52470 3020.43070 2756.55200  247.29440  107.76880  194.53870  256.59400   98.81770  101.35680   11.08300    0.35570
 4301.00000   10.25130   -0.02020   11.39890   -0.10020    0.00400    5.10580    2.96760    6.81180 3249.34500 3127.47070 2735.90890  726.35720  161.75050  467.48480  249.58720   97.48580   96.92230    9.86840    0.34440
 4301.50000    9.32220   -0.02250   11.40200   -0.10020    0.00250    5.13750    2.96810    5.50280 3204.27100 3265.11060 2715.26610 1266.58170  174.75550  762.41660  408.16160   96.76710   97.60840    8.71760    0.34280
 4302.00000    8.39600   -0.02520   11.40820   -0.10020    0.00480    5.19970    2.97250    4.73260 3175.91110 3266.74830 2725.40580 1157.92220  172.54480  737.32460  390.94190   96.22800  100.15070    8.41630    0.34200
 4302.50000    7.46980   -0.02760   11.42480   -0.10030    0.00410    5.25110    2.97730    3.96240 3210.28930 3259.66550 2750.84690 2104.13750  193.64310 1220.67810  371.16500   96.64920   98.71360    8.33420    0.34810
 4303.00000    6.69820   -0.02830   11.42360   -0.10030    0.00320    5.34820    2.98150    3.24930 3256.84590 3256.07640 2759.00830 2394.34280  205.61460 1144.31350  463.19030   98.66460   95.72860    8.90460    0.36080
 4303.50000    6.17560   -0.02610   11.41100   -0.10030    0.00240    5.38960    2.98240    2.81880 3276.82400 3254.28590 2735.83790 1624.98610  203.72580 1024.35110  463.19030  101.51930   97.30900    7.92930    0.37910
 4304.00000    6.71990   -0.02340   11.41140   -0.10030    0.00160    5.36720    2.97280    2.84570 3206.30220 3252.49540 2712.66750  637.58340  172.54480  341.58200  561.99840  103.02290   99.01880    7.18090    0.39740
 4304.50000    8.37430   -0.00980   11.41870   -0.10030    0.00080    5.25560    2.93740    5.17030 3182.64110 3252.31520 2733.99830  330.72490  142.14560  326.17810  570.87260  105.15790  100.72850    9.00420    0.41270
 4305.00000   17.56080    0.00770   11.41760   -0.10030    0.00130    5.06470    2.87560   11.23670 3236.81760 3252.33080 2773.59570   63.68480   67.31070   96.91720   21.46090  106.09250  102.06030   11.61390    0.40940
 4305.50000   29.41040    0.04480   11.40880   -0.07030    0.00490    4.85000    2.81030   16.86580 3290.99390 3252.34640 2770.29960   26.50180   27.49830   27.75330   23.04770  105.59090  102.36180   17.51890    0.40790
 4306.00000   36.74210    0.07270   11.40400   -0.06120    0.00920    4.77000    2.85110   19.27610 3296.15870 3252.36210 2758.76440   24.61560   26.83390   26.99540   13.19030  105.91650  101.85930   24.86080    0.41320
 4306.50000   30.28720    0.04900   11.40010   -0.10020    0.01510    4.85880    2.91570   15.86240 3239.78440 3237.65990 2747.22920   99.17920   56.83700   92.17060   42.44170  106.10010  104.07040   26.39320    0.41490
 4307.00000   20.01890    0.01030   11.38490   -0.10020    0.01750    4.99580    2.93990    9.63050 3188.28440 3218.64650 2735.69410  217.32120  118.28310  237.04160  611.56680  105.58140  103.29430   21.21140    0.40860
 4307.50000   11.03600   -0.01640   11.36490   -0.10010    0.00970    4.99580    2.96150    6.18260 3174.63720 3196.45750 2724.15890  734.78500  174.38690  670.00820  565.53030  104.64170  101.89280   15.63380    0.39470
