~Version ---------------------------------------------------
VERS.   2.0 : CWLS log ASCII Standard -VERSION 2.0
WRAP.    NO : One line per depth step
DLM . SPACE : Column Data Section Delimiter
~Well ------------------------------------------------------
STRT .F                 497.0 : START DEPTH
STOP .F                9010.5 : STOP DEPTH
STEP .F                   0.5 : STEP
NULL .               -9999.25 : NULL VALUE
COMP .                        : COMPANY
WELL .                        : WELL
FLD  .                        : FIELD
LOC  .                        : LOCATION
PROV .                        : PROVINCE
CNTY .                        : COUNTY
STAT .                        : STATE
CTRY .                        : COUNTRY
SRVC .                        : SERVICE COMPANY
DATE .                        : DATE
UWI  .                        : UNIQUE WELL ID
API  .                        : API NUMBER
SLAT .WGS84 2.612432138377798 : SURFACE LATITUDE
SLON .WGS84      7.3655865084 : SURFACE LONGITUDE
DATUM.F                   nan : DEPTH DATUM ELEV
~Curve Information -----------------------------------------
DEPT   .F     : 
SGRDD  .GAPI  : SPECTROSCOPY GAMMA RAY FROM DENSITY LOG
TNPH_LS.DEC   : THERMAL NEUTRON POROSITY [LIMESTONE]
CALD   .IN    : CALIPER FROM DENSITY LOG
DPHZ_LS.DEC   : HGRD STANDARD RESOLUTION DENSITY POROSITY
HDRA   .G/C3  : HRDD SPINE AND RIBS DENSITY CORRECTION
PEFZ   .B/E   : HRDD STANDARD RESOLUTION FORMATION PHOTOELECTRIC FACTOR
RHOZ   .G/C3  : HRDD STANDARD RESOLUTION FORMATION DENSITY
CGRD   .GAPI  : CORRECTED GAMMA RAY FROM DENSITY LOG
TEND   .LB    : TENSION FROM DENSITY LOG
TENR   .LB    : TENSION FROM RESISTIVITY LOG
TENS   .LB    : TENSION FROM SONIC LOG
RLA5   .OHMM  : APPARENT RESISTIVITY FROM COMPUTED FOCUSING MODE 5
RLA3   .OHMM  : APPARENT RESISTIVITY FROM COMPUTED FOCUSING MODE 3
RLA4   .OHMM  : APPARENT RESISTIVITY FROM COMPUTED FOCUSING MODE 4
RXOZ   .OHMM  : INVADED FORMATION RESISTIVITY FILTERED AT 18 INCHES
DTCO   .US/F  : DELTA-T COMPRESSIONAL
DTSM   .US/F  : DELTA-T SHEAR
GRS    .GAPI  : GAMMA RAY FROM SONIC LOG
SPHI_LS.DEC   : SONIC POROSITY [LIMESTONE]
~Params ----------------------------------------------------
~Other -----------------------------------------------------
~ASCII -----------------------------------------------------
# ...
 6158.00000   54.87440    0.12050    8.50060    0.03430   -0.00640    3.07480    2.65460   30.74900 3906.02710 3907.67410 3606.55760   12.03810   14.61820   12.26920   12.40430   56.78160  100.42920   43.29080    0.06510
 6158.50000   53.72530    0.14860    8.53210    0.04880   -0.00710    3.04840    2.63170   31.40440 3909.25020 3898.20140 3583.95530    6.92740    7.66680    7.60040    7.88180   57.37390  101.85000   47.30300    0.06780
 6159.00000   51.37640    0.15450    8.56130    0.04720   -0.00780    3.02240    2.63410   31.80610 3891.79080 3888.72880 3637.85030    7.80950    8.33010    6.86480    8.59970   59.53000  103.55540   47.51950    0.08620
 6159.50000   53.58500    0.14700    8.57210    0.03840   -0.00780    2.99650    2.64820   35.02980 3873.47530 3900.32860 3569.80570   11.05200   10.58650   12.69960   11.15120   60.43000  105.40360   46.59890    0.09080
 6160.00000   62.77130    0.13720    8.58290    0.02990   -0.00750    2.97050    2.66200   41.11310 3975.11130 3935.56150 3593.91770   13.08720   14.35110   11.82500   14.08890   61.03000  107.30790   53.20170    0.09600
 6160.50000   74.90590    0.12720    8.59380    0.02990   -0.00730    2.94460    2.66180   53.29590 3808.39790 3934.36380 3741.41670   13.70460   13.70460   13.23450   14.10760   61.75000  108.27510   61.91560    0.10060
 6161.00000   86.67980    0.11800    8.60460    0.03400   -0.00700    2.92080    2.65530   62.54420 3908.98630 3933.06300 3732.93850   15.30780   14.05000   14.08890   14.02220   62.47000  109.50000   75.61260    0.10530
 6161.50000   89.95190    0.11730    8.61910    0.03680   -0.00650    2.91960    2.65080   66.72910 3805.11720 3931.76220 3611.42430   13.70460   14.48670   13.57880   13.97420   62.80000  110.85000   86.30360    0.10730
 6162.00000   91.19620    0.12230    8.61400    0.03460   -0.00610    2.92460    2.65470   64.59640 3849.11790 3930.46140 3739.73780   14.21940   14.39270   12.84810   13.94630   63.10750  111.40000   92.02390    0.10950
 6162.50000   86.22120    0.12630    8.59960    0.02840   -0.00560    2.91350    2.66430   62.58070 3931.46510 3929.16060 3730.63280   15.66480   14.33680   15.09760   15.09830   63.67570  111.90000   87.01770    0.11290
 6163.00000   83.71930    0.12230    8.59790    0.02640   -0.00570    2.88640    2.66750   61.25630 3895.49270 3934.73830 3582.52290   17.82300   16.63220   19.45440   16.33980   63.91130  111.65000   82.30810    0.11570
 6163.50000   81.84160    0.11840    8.60670    0.02980   -0.00650    2.83660    2.66200   60.15170 3772.13600 3968.13430 3723.20830   15.73710   15.73710   13.33070   16.32830   64.23900  111.75000   80.19200    0.11780
 6164.00000   83.71140    0.11820    8.61950    0.04210   -0.00730    2.79960    2.64220   60.63530 4041.64970 3995.98610 3636.20140   16.17850   13.01200   15.30780   14.20430   64.49870  112.58330   80.46170    0.11900
 6164.50000   85.77470    0.11950    8.63400    0.05890   -0.00800    2.79520    2.61510   63.06850 3922.38890 3984.15160 3658.11650   12.15660   10.03530    9.73360   11.36060   64.63000  114.05000   79.22740    0.12020
 6165.00000   85.43640    0.12570    8.66810    0.06780   -0.00800    2.78690    2.60090   58.91280 3861.23270 3950.67500 3723.20830    9.52160    7.95480    8.17790    8.88540   64.63000  113.86590   80.34650    0.11960
 6165.50000   80.07380    0.12560    8.67680    0.06240   -0.00800    2.77850    2.60960   52.95270 3886.56010 3934.34330 3646.39260    8.88540    7.95480    9.20760   10.02450   64.15000  113.66140   79.29940    0.11780
 6166.00000   74.97950    0.12630    8.64290    0.05210   -0.00800    2.81340    2.62640   49.94500 3911.88750 3953.43040 3611.24880   14.82180   12.90740   13.25830   12.52640   63.91000  113.45680   77.27950    0.11660
 6166.50000   72.31700    0.13280    8.62170    0.03810   -0.00790    2.92980    2.64860   47.07710 3919.01760 3972.51730 3634.66850   17.90530   15.02820   18.40750   15.30780   63.91000  113.25230   75.08260    0.11550
 6167.00000   69.69430    0.15840    8.60910    0.03120   -0.00780    3.03460    2.65980   45.51130 3908.10010 3986.02440 3575.72580   13.97570   12.53880   12.90740   14.08890   63.91000  112.71380   74.34340    0.11380
 6167.50000   65.44450    0.17290    8.59650    0.02540   -0.00760    3.09390    2.66920   43.17240 3919.57930 3968.24630 3697.94560   12.15660   10.63550   10.98420   10.58650   62.26000  111.88520   71.04080    0.10400
 6168.00000   63.30520    0.15980    8.59590    0.02020   -0.00750    3.11010    2.67750   40.64140 3939.98490 3950.46830 3663.45750   10.88340    9.47780    9.62910   10.56900   61.57750  111.48720   67.67690    0.09940
 6168.50000   59.68230    0.14600    8.59340    0.02020   -0.00740    3.10990    2.67750   36.88460 3960.39040 3932.69040 3605.93480   15.59270   14.21940   14.51300   11.80890   61.33000  111.55000   65.62610    0.09730
 6169.00000   53.23440    0.14900    8.59350    0.02790   -0.00730    3.11680    2.66570   33.09960 3980.79570 3930.37500 3801.19340   14.61820   12.77990    9.92490   12.61720   60.81140  109.90000   64.71540    0.09290
 6169.50000   45.65200    0.16270    8.59430    0.03540   -0.00730    3.13580    2.65290   27.55190 3970.04930 3933.00120 3732.27660   11.71650   10.97260   12.61330   11.07140   60.25000  108.55000   55.18640    0.08890
 6170.00000   40.01400    0.16560    8.59500    0.03790   -0.00740    3.14120    2.64910   24.36250 3952.74850 3935.62740 3672.31860   10.68460    9.56550    9.13460   10.44110   60.11870  107.81250   48.00760    0.08850
 6170.50000   39.94690    0.16120    8.59580    0.03430   -0.00760    3.14950    2.65470   25.09810 3935.44780 3950.77340 3672.60450   11.32910    9.87920   10.29770   10.20320   60.07090  107.86110   41.13280    0.08860
 6171.00000   44.48430    0.15990    8.59650    0.02970   -0.00780    3.15770    2.66220   28.63920 3923.24050 3966.04300 3710.47610    9.40830    7.25420   10.01680   10.83340   60.31420  108.08330   41.45250    0.08980
 6171.50000   49.02180    0.16370    8.59730    0.02310   -0.00800    3.16510    2.67200   32.18630 3931.50730 3981.31230 3618.06180   13.15630   11.39690   11.71650   11.34450   60.43000  107.91670   44.63160    0.09060
 6172.00000   53.55920    0.16670    8.59750    0.01760   -0.00810    3.16280    2.68120   35.41660 3921.57350 3997.55830 3633.40870   11.97790   10.20320   10.01680   11.87970   60.45250  108.65000   48.91160    0.09100
 6172.50000   56.69960    0.16500    8.59970    0.01570   -0.00810    3.16100    2.68470   37.06460 3964.67020 4037.82670 3598.66700   13.70460   11.98940   12.39560   12.43690   60.49000  108.35000   53.94890    0.09200
 6173.00000   57.39480    0.16910    8.60430    0.01980   -0.00800    3.16300    2.67810   36.24370 4074.82400 4058.59500 3477.56030   14.61820   13.14720   13.45420   12.73640   60.79000  108.90000   57.19040    0.09260
 6173.50000   54.32400    0.17130    8.60900    0.02110   -0.00770    3.15170    2.67600   33.27880 3994.82320 4043.70310 3659.48290   12.84810   11.16810   11.50240   12.57160   60.94000  109.53500   58.78240    0.09510
 6174.00000   49.86030    0.16840    8.61370    0.02070   -0.00700    3.12320    2.67670   30.92330 3909.18870 4028.81130 3660.92970   14.55100   12.38940   12.73600   12.49860   60.97000  109.48500   56.11730    0.09560
 6174.50000   46.40140    0.16520    8.61830    0.01770   -0.00630    3.07900    2.68150   28.50540 4072.13700 4013.91920 3551.64870   13.95960   11.94100   13.45420   12.62300   61.09000  109.65000   52.21930    0.09540
 6175.00000   47.04910    0.16700    8.62300    0.01340   -0.00570    3.04110    2.68850   29.81410 3971.21390 3992.88530 3677.34450   12.49760   10.48810   11.62090   11.78110   61.15000  110.31670   48.45490    0.09560
 6175.50000   51.65090    0.16150    8.62650    0.01040   -0.00660    3.03110    2.69330   33.27300 3957.49340 3970.39750 3766.90210   12.15660   10.48940   10.97620   11.18430   61.15000  110.59120   48.72780    0.09580
 6176.00000   56.56820    0.15290    8.62450    0.01450   -0.00820    3.06040    2.68670   36.49000 4073.21530 3947.90940 3733.49190   14.21940   11.49360   11.57320   12.18870   61.15000  110.47350   51.93520    0.09640
