~Version ---------------------------------------------------
VERS.   2.0 : CWLS log ASCII Standard -VERSION 2.0
WRAP.    NO : One line per depth step
DLM . SPACE : Column Data Section Delimiter
~Well ------------------------------------------------------
STRT .F                 497.0 : START DEPTH
STOP .F                9010.5 : STOP DEPTH
STEP .F                   0.5 : STEP
NULL .               -9999.25 : NULL VALUE
COMP .                        : COMPANY
WELL .                        : WELL
FLD  .                        : FIELD
LOC  .                        : LOCATION
PROV .                        : PROVINCE
CNTY .                        : COUNTY
STAT .                        : STATE
CTRY .                        : COUNTRY
SRVC .                        : SERVICE COMPANY
DATE .                        : DATE
UWI  .                        : UNIQUE WELL ID
API  .                        : API NUMBER
SLAT .WGS84 2.612432138377798 : SURFACE LATITUDE
SLON .WGS84      7.3655865084 : SURFACE LONGITUDE
DATUM.F                   nan : DEPTH DATUM ELEV
~Curve Information -----------------------------------------
DEPT   .F     : 
SGRDD  .GAPI  : SPECTROSCOPY GAMMA RAY FROM DENSITY LOG
TNPH_LS.DEC   : THERMAL NEUTRON POROSITY [LIMESTONE]
CALD   .IN    : CALIPER FROM DENSITY LOG
DPHZ_LS.DEC   : HGRD STANDARD RESOLUTION DENSITY POROSITY
HDRA   .G/C3  : HRDD SPINE AND RIBS DENSITY CORRECTION
PEFZ   .B/E   : HRDD STANDARD RESOLUTION FORMATION PHOTOELECTRIC FACTOR
RHOZ   .G/C3  : HRDD STANDARD RESOLUTION FORMATION DENSITY
CGRD   .GAPI  : CORRECTED GAMMA RAY FROM DENSITY LOG
TEND   .LB    : TENSION FROM DENSITY LOG
TENR   .LB    : TENSION FROM RESISTIVITY LOG
TENS   .LB    : TENSION FROM SONIC LOG
RLA5   .OHMM  : APPARENT RESISTIVITY FROM COMPUTED FOCUSING MODE 5
RLA3   .OHMM  : APPARENT RESISTIVITY FROM COMPUTED FOCUSING MODE 3
RLA4   .OHMM  : APPARENT RESISTIVITY FROM COMPUTED FOCUSING MODE 4
RXOZ   .OHMM  : INVADED FORMATION RESISTIVITY FILTERED AT 18 INCHES
DTCO   .US/F  : DELTA-T COMPRESSIONAL
DTSM   .US/F  : DELTA-T SHEAR
GRS    .GAPI  : GAMMA RAY FROM SONIC LOG
SPHI_LS.DEC   : SONIC POROSITY [LIMESTONE]
~Params ----------------------------------------------------
~Other -----------------------------------------------------
~ASCII -----------------------------------------------------
# ...
 7397.50000   14.34230    0.10040    8.57760    0.11180   -0.00390    4.71590    2.53000    0.20230 4269.73490 4257.78370 3912.66600  617.33300  628.82170  646.45680  142.52230   57.40000  105.20000   16.86790    0.06890
 7398.00000   14.24920    0.12700    8.61920    0.14120   -0.00270    4.79660    2.48260    0.03760 4360.43600 4277.10840 4053.84500  423.01460  430.88690  442.97100  114.23170   58.93000  107.29290   17.60000    0.08010
 7398.50000   13.85230    0.15370    8.64670    0.16940   -0.00150    4.85310    2.43720    0.00040 4315.09720 4285.23630 3946.23950  330.15960  356.27120  361.64900   89.05920   59.93000  108.55000   17.64630    0.08690
 7399.00000   13.79200    0.16160    8.64900    0.17810   -0.00140    4.85920    2.42330    0.00040 4260.68990 4278.62010 3920.12040  459.78190  326.77080  573.43930  113.18340   60.88890  109.95620   16.31550    0.09380
 7399.50000   13.60160    0.16350    8.64840    0.18660   -0.00140    4.86010    2.40960    0.00040 4384.94090 4272.00390 3968.97560  641.49880  634.64590  660.47250  101.32920   62.05230  113.04060   14.96700    0.10340
 7400.00000   13.38340    0.17270    8.65010    0.19120   -0.00180    4.87510    2.40220    0.00040 4303.94190 4265.38770 3990.58350  430.86500  500.91270  605.99680  101.32920   62.39620  113.98010   14.02190    0.10420
 7400.50000   12.58930    0.18620    8.65330    0.19290   -0.00240    4.89460    2.39950    0.18820 4240.05810 4258.77150 3971.10640  586.62920  423.01460  571.23550   89.80290   62.52820  114.74600   13.07520    0.10540
 7401.00000   12.86210    0.18610    8.65410    0.18060   -0.00300    4.88020    2.41920    0.38380 4224.78320 4252.15530 3951.62920  575.02860  552.67710  558.06220  107.84250   61.99000  114.18750   14.02870    0.10150
 7401.50000   13.32290    0.17160    8.64600    0.16620   -0.00350    4.82880    2.44940    0.57930 4248.80520 4245.53960 3934.41970  504.75450  407.69870  419.69230  120.03070   61.39000  113.56250   14.31690    0.09700
 7402.00000   13.95870    0.15150    8.63110    0.14680   -0.00380    4.77730    2.48040    0.77490 4263.65770 4239.85690 3934.29270  434.52560  581.42470  417.84050  115.28980   60.97000  112.21430   14.88390    0.09360
 7402.50000   14.35970    0.13140    8.58750    0.12750   -0.00360    4.74960    2.51390    0.83690 4243.43510 4236.74320 3934.16580  676.58030  676.95460  658.44980  145.17470   58.00000  110.14290   16.24200    0.07590
 7403.00000   14.74700    0.11040    8.53440    0.09710   -0.00340    4.70920    2.54840    0.83310 4223.21290 4233.62990 3934.03860  652.44440  527.77810  562.96250  177.15270   56.47000  108.07140   18.80230    0.06220
 7403.50000   16.99520    0.07780    8.48140    0.05730   -0.00320    4.70250    2.58500    0.82940 4216.35400 4230.51610 4029.72610  415.28600  382.21810  389.33130  172.53420   55.81000  106.69170   21.53680    0.05500
 7404.00000   20.06560    0.04510    8.42830    0.02330   -0.00350    4.70970    2.66460    0.83920 4236.02730 4229.13620 4056.82540  499.37570  527.77810  479.08150  215.46880   54.13000  104.90000   21.97360    0.04350
 7404.50000   21.57810    0.02030    8.38880    0.00050   -0.00370    4.72500    2.70900    0.87700 4266.24510 4244.22510 3947.59640  457.06290  447.07390  438.90580  260.57220   52.39000  102.40000   22.00800    0.03370
 7405.00000   21.51170    0.01060    8.36550   -0.00500   -0.00400    4.76990    2.71800    0.88640 4284.63380 4259.64310 3929.66800  494.17710  459.61200  472.50170  258.76550   51.73000  100.11150   21.12770    0.02900
 7405.50000   21.14650    0.00940    8.35750   -0.00850   -0.00370    4.77870    2.72360    0.86160 4233.75880 4268.42430 3981.29350  595.86260  597.27150  540.08420  505.72730   50.90500   98.02580   22.33890    0.02430
 7406.00000   20.87620    0.00910    8.34610   -0.01080   -0.00280    4.75010    2.72930    0.83680 4231.33450 4269.97270 3865.13530  955.79970  757.89420  791.21390  825.00210   49.93000   95.77950   23.83040    0.01930
 7406.50000   19.10700    0.01070    8.34420   -0.01120   -0.00190    4.68020    2.72850    0.49660 4227.05960 4271.52150 3936.88920 1367.04860  814.02850 1134.44580  814.02850   49.81000   94.96820   23.95470    0.01580
 7407.00000   17.79380    0.01480    8.34230   -0.00180   -0.00090    4.60480    2.71340    0.79060 4223.42530 4277.32760 4007.26810  435.90590  346.68540  310.22380  356.68200   50.05000   94.45830   22.70640    0.01720
 7407.50000   17.81350    0.01900    8.32840    0.00500    0.00040    4.54240    2.70220    0.83960 4204.72220 4284.31050 3951.52510  133.61490  126.42440  122.41000  156.28700   50.23000   94.25000   21.44050    0.01850
 7408.00000   18.45680    0.02310    8.32830    0.00980    0.00140    4.52100    2.69430    1.00410 4212.39550 4288.37110 3926.89620  139.91840  172.47080  124.11460  152.02350   50.23000   94.25000   20.11930    0.01840
 7408.50000   20.60240    0.02680    8.33350    0.01790   -0.00210    4.53420    2.68130    1.16860 4268.62060 4292.43160 4031.36620  258.30990  257.12190  239.94350  187.93300   50.23150   92.35000   20.81530    0.01820
 7409.00000   19.76860    0.03110    8.33870    0.02910   -0.00700    4.55120    2.66330    1.30360 4292.17190 4294.59080 4106.57960  226.81450  146.85740  200.46150  108.58370   50.39320   94.75000   21.63430    0.01920
 7409.50000   18.10890    0.03500    8.34390    0.03920   -0.00980    4.52570    2.64700    1.08540 4318.01610 4296.60350 3968.54760   61.63690   78.81800   77.19990   56.80140   50.53180   94.41250   20.42200    0.02010
 7410.00000   15.64960    0.03500    8.34910    0.03800   -0.00800    4.57840    2.64880    0.86720 4320.67190 4283.61620 3975.16360   96.36620   57.74180   75.44080   51.80330   50.52950   94.15000   18.20510    0.02100
 7410.50000   14.78930    0.02860    8.35440    0.02500   -0.00780    4.73870    2.66980    0.64900 4113.23240 4264.61620 4017.18990  227.91820  224.15120  320.70710   89.67360   50.53090   94.65000   17.52570    0.02090
 7411.00000   19.25660    0.02210    8.35960    0.01200   -0.00760    4.86670    2.69060    0.91640 4375.01420 4245.61570 4059.02560  594.98150  606.05420  632.08990  326.77080   50.35060   94.38750   24.40280    0.01990
 7411.50000   24.09180    0.02190    8.36480    0.00690   -0.00680    4.87240    2.69890    1.20040 4258.55220 4226.61570 3712.78960  312.04930  215.80580  344.09480  263.11710   50.17000   94.05000   30.79040    0.01890
 7412.00000   30.10740    0.02480    8.37000    0.00720   -0.00580    4.71480    2.69850    1.45020 4238.48240 4223.04050 3861.80930  228.07990  221.85800  244.12950  188.36660   50.37250   94.35000   35.65330    0.02010
 7412.50000   32.03870    0.03090    8.37520    0.01000   -0.00480    4.53480    2.69440    1.46780 4230.84180 4226.62300 3950.63230  235.55970  228.07990  253.59060  165.17600   50.48500   94.05000   33.62080    0.02220
 7413.00000   29.51690    0.03970    8.38040    0.01250   -0.00380    4.41750    2.68980    1.32940 4223.20070 4230.20560 3864.71310  177.00150  169.56390  209.91870  157.73460   51.01000   94.67700   30.81310    0.02430
 7413.50000   25.12010    0.04840    8.38560    0.02110   -0.00330    4.37890    2.67610    1.19100 4223.46190 4231.27590 3764.34670  107.51640  111.01950  112.14470  106.55520   51.28000   95.24620   28.08430    0.02620
 7414.00000   23.48530    0.05710    8.39080    0.03250   -0.00470    4.42810    2.65710    1.01400 4224.90430 4228.21190 3900.85030   71.05270   72.68850   76.49140   68.56070   51.43000   95.35410   26.43660    0.02720
 7414.50000   22.47130    0.06090    8.39530    0.04640   -0.00610    4.50150    2.63540    0.81080 4224.84520 4225.14790 4040.96560   59.63540   58.81640   63.31850   53.37590   51.55000   95.45000   24.45570    0.02820
 7415.00000   21.06220    0.06450    8.38420    0.04670   -0.00660    4.53490    2.63490    0.65230 4182.49900 4222.62300 4017.55420   76.13960   75.70210   87.43200   52.20620   51.55000   94.55000   21.44930    0.02730
 7415.50000   19.96220    0.06700    8.37320    0.03000   -0.00540    4.48090    2.66170    0.49380 4192.35060 4222.13280 3919.22510   98.11170  100.20660  103.69190   70.02780   51.55000   96.25000   20.64150    0.02640
