~Version ---------------------------------------------------
VERS.   2.0 : CWLS log ASCII Standard -VERSION 2.0
WRAP.    NO : One line per depth step
DLM . SPACE : Column Data Section Delimiter
~Well ------------------------------------------------------
STRT .F                 497.0 : START DEPTH
STOP .F                9010.5 : STOP DEPTH
STEP .F                   0.5 : STEP
NULL .               -9999.25 : NULL VALUE
COMP .                        : COMPANY
WELL .                        : WELL
FLD  .                        : FIELD
LOC  .                        : LOCATION
PROV .                        : PROVINCE
CNTY .                        : COUNTY
STAT .                        : STATE
CTRY .                        : COUNTRY
SRVC .                        : SERVICE COMPANY
DATE .                        : DATE
UWI  .                        : UNIQUE WELL ID
API  .                        : API NUMBER
SLAT .WGS84 2.612432138377798 : SURFACE LATITUDE
SLON .WGS84      7.3655865084 : SURFACE LONGITUDE
DATUM.F                   nan : DEPTH DATUM ELEV
~Curve Information -----------------------------------------
DEPT   .F     : 
SGRDD  .GAPI  : SPECTROSCOPY GAMMA RAY FROM DENSITY LOG
TNPH_LS.DEC   : THERMAL NEUTRON POROSITY [LIMESTONE]
CALD   .IN    : CALIPER FROM DENSITY LOG
DPHZ_LS.DEC   : HGRD STANDARD RESOLUTION DENSITY POROSITY
HDRA   .G/C3  : HRDD SPINE AND RIBS DENSITY CORRECTION
PEFZ   .B/E   : HRDD STANDARD RESOLUTION FORMATION PHOTOELECTRIC FACTOR
RHOZ   .G/C3  : HRDD STANDARD RESOLUTION FORMATION DENSITY
CGRD   .GAPI  : CORRECTED GAMMA RAY FROM DENSITY LOG
TEND   .LB    : TENSION FROM DENSITY LOG
TENR   .LB    : TENSION FROM RESISTIVITY LOG
TENS   .LB    : TENSION FROM SONIC LOG
RLA5   .OHMM  : APPARENT RESISTIVITY FROM COMPUTED FOCUSING MODE 5
RLA3   .OHMM  : APPARENT RESISTIVITY FROM COMPUTED FOCUSING MODE 3
RLA4   .OHMM  : APPARENT RESISTIVITY FROM COMPUTED FOCUSING MODE 4
RXOZ   .OHMM  : INVADED FORMATION RESISTIVITY FILTERED AT 18 INCHES
DTCO   .US/F  : DELTA-T COMPRESSIONAL
DTSM   .US/F  : DELTA-T SHEAR
GRS    .GAPI  : GAMMA RAY FROM SONIC LOG
SPHI_LS.DEC   : SONIC POROSITY [LIMESTONE]
~Params ----------------------------------------------------
~Other -----------------------------------------------------
~ASCII -----------------------------------------------------
# ...
 8610.50000   48.96160    0.01810    8.08450   -0.00250   -0.00290    4.62500    2.71430   11.53340 4768.94380 4736.00780   -9999.25  268.97970  259.50340  252.42430  220.37690   -9999.25   -9999.25   -9999.25   -9999.25
 8611.00000   46.67300    0.01620    8.07770   -0.00400   -0.00690    4.66710    2.71470   11.28010 4707.51370 4698.04440   -9999.25  286.01030  274.26290  265.55420  230.19240   -9999.25   -9999.25   -9999.25   -9999.25
 8611.50000   45.90880    0.01870    8.07250   -0.00590   -0.00650    4.63960    2.71800   10.42420 4715.11620 4644.35300   -9999.25  259.68260  274.26290  243.28490  217.80460   -9999.25   -9999.25   -9999.25   -9999.25
 8612.00000   45.13890    0.02340    8.07770   -0.00320   -0.00600    4.53130    2.72040   10.43160 4538.83500 4594.04880   -9999.25  253.59060  238.84000  241.81620  243.28490   -9999.25   -9999.25   -9999.25   -9999.25
 8612.50000   45.02290    0.02810    8.08300    0.00190   -0.00550    4.39790    2.71230   10.48510 4495.09570 4543.08640   -9999.25  268.01380  252.42430  247.09110  250.10770   -9999.25   -9999.25   -9999.25   -9999.25
 8613.00000   46.35930    0.03860    8.08830    0.00900   -0.00770    4.28030    2.70340   10.52760 4533.32130 4509.59470   -9999.25  139.27490  103.93110   97.64780   85.04690   -9999.25   -9999.25   -9999.25   -9999.25
 8613.50000   48.54350    0.04950    8.09360    0.00890   -0.00800    4.26580    2.69590   10.52940 4554.27200 4509.76900   -9999.25   41.05920   45.33000   39.17140   45.43460   -9999.25   -9999.25   -9999.25   -9999.25
 8614.00000   47.93820    0.05590    8.09880    0.00360   -0.00840    4.25120    2.70090   10.52960 4554.64940 4492.32280   -9999.25   51.01860   39.56640   47.59660   39.93280   -9999.25   -9999.25   -9999.25   -9999.25
 8614.50000   45.00700    0.05480    8.10410   -0.00190   -0.00750    4.29240    2.71010   10.17760 4557.48730 4474.87600   -9999.25   62.25200   50.74980   56.28990   43.38770   -9999.25   -9999.25   -9999.25   -9999.25
 8615.00000   40.95390    0.04670    8.10940   -0.00480   -0.00500    4.35320    2.71930    8.67870 4564.16650 4474.26030   -9999.25   61.54800   69.59400   54.63440   65.26820   -9999.25   -9999.25   -9999.25   -9999.25
 8615.50000   38.39180    0.03980    8.11470   -0.00780   -0.00450    4.38700    2.72170    8.39750 4571.98970 4484.88380   -9999.25  102.26780   98.84300   78.99990   94.60530   -9999.25   -9999.25   -9999.25   -9999.25
 8616.00000   36.48620    0.03040    8.11990   -0.00610   -0.00410    4.47440    2.72150    8.46490 4484.59280 4495.50730   -9999.25  119.62080  140.38500  109.08540  137.12900   -9999.25   -9999.25   -9999.25   -9999.25
 8616.50000   36.18910    0.02930    8.12420   -0.00160   -0.00440    4.59460    2.71440    8.53230 4485.92870 4518.85840   -9999.25  217.80460  179.46630  157.73460  177.81930   -9999.25   -9999.25   -9999.25   -9999.25
 8617.00000   37.63630    0.03070    8.12420    0.00300   -0.00530    4.63940    2.70720    8.40480 4599.40820 4554.74070   -9999.25  132.38870  126.55390  112.14470  123.77180   -9999.25   -9999.25   -9999.25   -9999.25
 8617.50000   41.75100    0.03390    8.12420    0.00310   -0.00630    4.60540    2.70480    8.39770 4565.55420 4590.62260   -9999.25  124.90380  101.32920  109.16930  100.39930   -9999.25   -9999.25   -9999.25   -9999.25
 8618.00000   45.31130    0.03850    8.12420    0.00250   -0.00730    4.59670    2.70470    8.33740 4622.47070 4613.39940   -9999.25  119.17780  109.08540   92.99240   83.54810   -9999.25   -9999.25   -9999.25   -9999.25
 8618.50000   46.29040    0.04230    8.15120    0.00270   -0.00750    4.64860    2.70470    8.07370 4644.12010 4602.03080   -9999.25   82.14750   76.84480   68.16520   75.44080   -9999.25   -9999.25   -9999.25   -9999.25
 8619.00000   45.46580    0.04260    8.19170    0.00130   -0.00760    4.70050    2.70490    7.39940 4568.68120 4582.37740   -9999.25  114.78440   89.64760   96.76420   78.99990   -9999.25   -9999.25   -9999.25   -9999.25
 8619.50000   45.55520    0.04120    8.19810   -0.00700   -0.00760    4.66110    2.71680    7.31750 4559.48240 4554.94530   -9999.25  121.84700   99.36330  105.13580   92.16170   -9999.25   -9999.25   -9999.25   -9999.25
 8620.00000   48.92350    0.03960    8.19630   -0.01660   -0.00670    4.56200    2.73170    7.23550 4632.01320 4534.42480   -9999.25   97.66040   81.21540   86.23120  111.00990   -9999.25   -9999.25   -9999.25   -9999.25
 8620.50000   54.52570    0.03820    8.19450   -0.01960   -0.00570    4.45370    2.74220    8.67720 4575.36230 4515.81740   -9999.25  147.87640  124.11460  110.60450  134.59440   -9999.25   -9999.25   -9999.25   -9999.25
 8621.00000   64.59880    0.03660    8.19270   -0.01790   -0.00480    4.40080    2.74180   13.56040 4474.27640 4497.21000   -9999.25  147.87640  120.72880  125.26420  168.41550   -9999.25   -9999.25   -9999.25   -9999.25
 8621.50000   79.96640    0.03200    8.19050   -0.00970   -0.00120    4.31310    2.73280   19.28080 4429.59520 4490.24660   -9999.25  138.63440  120.72880  124.11460  148.24860   -9999.25   -9999.25   -9999.25   -9999.25
 8622.00000  109.33620    0.03540    8.19610    0.04630    0.00610    3.99800    2.69430   30.15200 4413.33790 4486.17970   -9999.25  196.79910  143.26340  152.99020  112.14470   -9999.25   -9999.25   -9999.25   -9999.25
 8622.50000  127.15940    0.04060    8.20740    0.19240    0.02160    3.65500    2.41140   39.09010 4434.27830 4480.66020   -9999.25  181.12860  162.15820  189.67360    1.03690   -9999.25   -9999.25   -9999.25   -9999.25
 8623.00000  139.66970    0.07590    8.24170    0.29950    0.04020    3.28090    2.28130   47.99680 4418.21880 4428.67920   -9999.25  234.47640  171.24950  209.91870    0.42400   -9999.25   -9999.25   -9999.25   -9999.25
 8623.50000  131.08460    0.17270    9.91790    0.29960    0.05860    2.90620    2.14680   47.55070 4522.03660 4471.78270   -9999.25  163.66010  174.57050   71.52210    0.35260   -9999.25   -9999.25   -9999.25   -9999.25
 8624.00000  105.93740    0.24160   10.08280    0.29960    0.07590    2.61590    2.14860   42.59090 4563.60450 4512.64700   -9999.25   11.39690    8.80390   16.94170    0.45900   -9999.25   -9999.25   -9999.25   -9999.25
 8624.50000   84.89460    0.25630   10.84190    0.29960    0.06440    2.59090    2.16510   37.97290 4502.93210 4514.80420   -9999.25   13.33070   13.45420   11.71650    0.56950   -9999.25   -9999.25   -9999.25   -9999.25
 8625.00000   75.23650    0.32010   11.36360    0.29970    0.05210    2.66570    2.18520   38.06580 4415.22750 4510.11040   -9999.25   13.83150   12.38290   13.95960    0.67850   -9999.25   -9999.25   -9999.25   -9999.25
 8625.50000   73.76560    0.34970   11.64070    0.29970    0.04940    2.75780    2.20560   42.12520 4254.72750 4502.73540   -9999.25   12.96710   13.57880   14.08890    0.68260   -9999.25   -9999.25   -9999.25   -9999.25
 8626.00000   73.25470    0.37850   12.50450    0.28960    0.06490    2.84390    2.23210   48.21760 4330.51220 4517.89890   -9999.25   12.96220   15.33700   15.02820    0.69270   -9999.25   -9999.25   -9999.25   -9999.25
 8626.50000   71.00530    0.42440   13.49900    0.27430    0.08720    2.91070    2.25870   50.19040 4425.10550 4543.58840   -9999.25   12.72490   16.26320   14.89030    0.71050   -9999.25   -9999.25   -9999.25   -9999.25
 8627.00000   68.39320    0.45080   14.49110    0.26840    0.08890    2.94130    2.27950   49.21970 4551.95120 4569.27780   -9999.25   13.46910   17.73210   15.59270    0.77660   -9999.25   -9999.25   -9999.25   -9999.25
 8627.50000   65.51360    0.47210   14.71580    0.30000    0.07440    2.91330    2.25590   48.17570 4565.43600 4580.36230   -9999.25   14.18050   19.45440   16.94170    0.81590   -9999.25   -9999.25   -9999.25   -9999.25
 8628.00000   62.70660    0.42890   14.50580    0.29990    0.04160    2.76940    2.02270   45.61750 4559.16800 4548.10550   -9999.25   12.35070   16.32830   15.02820    0.41350   -9999.25   -9999.25   -9999.25   -9999.25
 8628.50000   58.86830    0.29070   13.59940    0.29980    0.03130    2.71790    1.78940   43.40520 4550.38670 4515.84860   -9999.25   12.36310   18.40750   13.83150    0.28070   -9999.25   -9999.25   -9999.25   -9999.25
