~Version ---------------------------------------------------
VERS.   2.0 : CWLS log ASCII Standard -VERSION 2.0
WRAP.    NO : One line per depth step
DLM . SPACE : Column Data Section Delimiter
~Well ------------------------------------------------------
STRT .F                 497.0 : START DEPTH
STOP .F                9010.5 : STOP DEPTH
STEP .F                   0.5 : STEP
NULL .               -9999.25 : NULL VALUE
COMP .                        : COMPANY
WELL .                        : WELL
FLD  .                        : FIELD
LOC  .                        : LOCATION
PROV .                        : PROVINCE
CNTY .                        : COUNTY
STAT .                        : STATE
CTRY .                        : COUNTRY
SRVC .                        : SERVICE COMPANY
DATE .                        : DATE
UWI  .                        : UNIQUE WELL ID
API  .                        : API NUMBER
SLAT .WGS84 2.612432138377798 : SURFACE LATITUDE
SLON .WGS84      7.3655865084 : SURFACE LONGITUDE
DATUM.F                   nan : DEPTH DATUM ELEV
~Curve Information -----------------------------------------
DEPT   .F     : 
SGRDD  .GAPI  : SPECTROSCOPY GAMMA RAY FROM DENSITY LOG
TNPH_LS.DEC   : THERMAL NEUTRON POROSITY [LIMESTONE]
CALD   .IN    : CALIPER FROM DENSITY LOG
DPHZ_LS.DEC   : HGRD STANDARD RESOLUTION DENSITY POROSITY
HDRA   .G/C3  : HRDD SPINE AND RIBS DENSITY CORRECTION
PEFZ   .B/E   : HRDD STANDARD RESOLUTION FORMATION PHOTOELECTRIC FACTOR
RHOZ   .G/C3  : HRDD STANDARD RESOLUTION FORMATION DENSITY
CGRD   .GAPI  : CORRECTED GAMMA RAY FROM DENSITY LOG
TEND   .LB    : TENSION FROM DENSITY LOG
TENR   .LB    : TENSION FROM RESISTIVITY LOG
TENS   .LB    : TENSION FROM SONIC LOG
RLA5   .OHMM  : APPARENT RESISTIVITY FROM COMPUTED FOCUSING MODE 5
RLA3   .OHMM  : APPARENT RESISTIVITY FROM COMPUTED FOCUSING MODE 3
RLA4   .OHMM  : APPARENT RESISTIVITY FROM COMPUTED FOCUSING MODE 4
RXOZ   .OHMM  : INVADED FORMATION RESISTIVITY FILTERED AT 18 INCHES
DTCO   .US/F  : DELTA-T COMPRESSIONAL
DTSM   .US/F  : DELTA-T SHEAR
GRS    .GAPI  : GAMMA RAY FROM SONIC LOG
SPHI_LS.DEC   : SONIC POROSITY [LIMESTONE]
~Params ----------------------------------------------------
~Other -----------------------------------------------------
~ASCII -----------------------------------------------------
# ...
 7083.00000   15.00810    0.04670    8.32600   -0.06220   -0.00710    3.31930    2.81020    3.35700 4141.90580 4153.57370 3902.30420  196.79910  120.72880  129.66740   72.70940   49.99000   89.43640   15.03110    0.01730
 7083.50000   18.12310    0.04010    8.32740   -0.07150   -0.00680    3.37670    2.82510    3.47140 4141.51270 4144.89450 3766.18990  276.80320  237.16370  242.94040   86.45870   49.36000   88.20910   13.47100    0.01280
 7084.00000   25.38900    0.03680    8.32940   -0.08180   -0.00650    3.52230    2.84170    3.82320 4143.41460 4152.32960 3783.69120  261.90700  212.83440  218.34290  140.20870   48.73000   87.23000   21.44760    0.00800
 7084.50000   34.00450    0.03580    8.33140   -0.09490   -0.00600    3.65130    2.86270    3.99380 4163.39790 4154.24900 3889.20850  862.31240  605.36420  587.31350  158.91250   48.43000   86.57500   33.42810    0.00580
 7085.00000   42.62000    0.03690    8.33340   -0.09410   -0.00470    3.81620    2.86190    4.79680 4162.42290 4156.15480 3885.53740 1640.37790 1312.17100 1339.23210  319.71530   48.37000   84.95000   45.92460    0.00540
 7085.50000   45.66390    0.03420    8.33550   -0.09390   -0.00340    3.85860    2.86150    4.42040 4161.44730 4177.42820 3794.55640 1595.62890 1107.33000 1267.16100  401.11800   47.59000   85.45000   52.39350    0.00220
 7086.00000   41.87570    0.03000    8.33750   -0.09990   -0.00210    3.78740    2.87710    4.04410 4156.44190 4168.58150 3640.39230 5193.31200 3940.43160 4162.44340  556.43800   47.41000   85.15000   46.01230   -0.00120
 7086.50000   33.16970    0.02670    8.33950   -0.09990   -0.00080    3.68030    2.89340    3.14300 4111.09080 4139.43210 3878.14330 4846.34570 3711.69870 3773.41240  758.48610   47.22140   85.45000   37.37770   -0.00300
 7087.00000   24.47280    0.02690    8.34190   -0.09980   -0.00050    3.54110    2.89660    1.96960 4164.10890 4114.46730 3942.67430 4048.89310 1954.02690 3014.45070  777.61860   47.23000   85.31500   25.41040   -0.00220
 7087.50000   21.89400    0.03160    8.34690   -0.09530   -0.00300    3.45430    2.86330    1.22870 4147.61960 4141.86670 3807.13870 1537.85670 2004.74180 1364.15540  917.68080   47.59000   85.15000   22.33810   -0.00070
 7088.00000   21.22410    0.03680    8.35190   -0.07270   -0.00340    3.44080    2.82720    0.96220 4155.72020 4170.08840 3816.69680 1448.40440 1140.61270 1221.28150  557.79610   47.65750   86.17860   21.35040    0.00090
 7088.50000   21.27850    0.04400    8.36620   -0.04830   -0.00240    3.50250    2.78850    1.16840 4187.27830 4197.53220 3837.77150  685.19590  526.38980  472.99970  503.39660   48.10000   87.89290   21.56060    0.00260
 7089.00000   21.82420    0.05270    8.37900   -0.01470   -0.00170    3.64970    2.73380    1.40300 4204.73830 4202.43990 3798.96360  112.85780   59.91100   54.93100   79.85670   49.84000   89.99240   22.14150    0.01430
 7089.50000   23.72780    0.06380    8.38650    0.01860   -0.00480    3.87920    2.68020    1.63770 4149.54740 4202.59420 3827.33810   55.14050   52.65630   55.81770   33.81760   50.47000   91.30170   25.82460    0.02020
 7090.00000   25.64950    0.07430    8.39730    0.05280   -0.00820    4.24580    2.62610    1.91170 4202.91110 4202.74800 3757.07200   39.20330   35.50220   36.08160   23.47450   50.59000   93.12000   28.51890    0.02180
 7090.50000   25.55590    0.07790    8.40810    0.06180   -0.00950    4.47870    2.61050    2.02080 4173.90430 4179.47460 3665.32180   43.18810   42.99080   39.93280   26.86320   51.61000   93.34870   29.25540    0.02780
 7091.00000   23.32540    0.07170    8.41880    0.05980   -0.00900    4.60140    2.61380    1.75190 4165.04150 4143.98290 3906.22170   58.00860   55.89220   56.42620   31.27690   52.81170   95.27860   25.67690    0.03780
 7091.50000   20.01290    0.06830    8.42960    0.05790   -0.00810    4.64790    2.61680    0.92210 4146.09810 4193.74610 3955.42040   60.74530   63.31850   49.82260   33.82660   53.59160   97.12080   22.13250    0.04150
 7092.00000   17.34550    0.07200    8.44150    0.05960   -0.00710    4.70320    2.61400    0.85390 4072.87160 4158.74170 3840.59470   36.41580   36.41580   34.45610   31.85900   53.93450   98.66250   17.28990    0.04580
 7092.50000   14.86020    0.07520    8.45410    0.06280   -0.00700    4.74890    2.60890    0.78650 4080.37110 4116.07030 3773.51950   34.45610   32.93420   35.42240   31.13310   54.07440  100.26720   16.24050    0.04580
 7093.00000   13.87960    0.07510    8.45730    0.06040   -0.00700    4.72310    2.61270    0.71910 4098.92580 4153.19530 3840.66650   30.56430   29.34010   32.45190   31.71250   53.70900   99.60710   15.85750    0.04350
 7093.50000   15.49310    0.06830    8.44870    0.04970   -0.00700    4.63820    2.63000    0.76670 4121.24320 4155.58400 3953.04000   35.58610   32.99050   39.38440   27.83710   53.47680   98.68410   16.59020    0.04020
 7094.00000   18.38990    0.06140    8.43590    0.03710   -0.00700    4.48520    2.65020    0.82280 4161.67380 4157.97220 3859.51830   39.56640   37.87030   42.20410   28.09260   53.00500   97.76320   18.46510    0.03660
 7094.50000   21.19340    0.05460    8.42360    0.02090   -0.00720    4.35110    2.67630    0.77330 4220.28760 4158.52250 3813.27000   43.58810   39.12170   49.13830   30.02790   52.75000   96.75000   20.41800    0.03640
 7095.00000   21.73840    0.04770    8.41350    0.00500   -0.00750    4.27020    2.70160    0.50530 4190.94580 4151.86230 3884.43460   59.91100   52.91130   69.43370   39.77090   52.66000   97.39290   22.18200    0.03620
 7095.50000   21.45610    0.04090    8.40670   -0.00160   -0.00770    4.28170    2.71240    0.40080 4164.62300 4145.20170 3766.35210   92.40480   76.03660  103.69190   67.53480   52.33000   97.81250   21.54570    0.03360
 7096.00000   21.19620    0.03490    8.40600    0.00120   -0.00780    4.38010    2.70810    0.29630 4140.23580 4142.48780 3736.12040  122.97550  116.35760  127.59530  165.56640   51.85000   95.95000   23.16370    0.03130
 7096.50000   22.55290    0.03510    8.40640    0.00650   -0.00730    4.45940    2.69950    0.19180 4119.24070 4145.73290 3831.60670   83.49310   86.74950  127.59530  100.26490   51.61000   96.45630   24.28230    0.02890
 7097.00000   24.87640    0.04070    8.40590    0.01100   -0.00540    4.44970    2.69240    0.08730 4127.30520 4151.05270 3918.38840   57.91950   57.02760   52.65630   50.52330   51.61000   96.85000   27.96150    0.02820
 7097.50000   26.92910    0.04640    8.40550    0.01570   -0.00360    4.41530    2.68480    0.02000 4155.78470 4156.37300 3890.00730   49.74010   45.94000   47.02860   32.82250   51.88000   96.91250   28.22860    0.03000
 7098.00000   27.16390    0.05130    8.40980    0.01930   -0.00310    4.36350    2.67890    0.00880 4197.68260 4167.98050 3892.40630   39.90800   32.30270   38.05420   31.21220   52.21000   96.55000   27.40350    0.03220
 7098.50000   26.51700    0.05440    8.41810    0.02870   -0.00330    4.39120    2.66360    0.16220 4229.17480 4180.77880 3936.52830   44.36200   40.52630   40.92010   36.75720   52.03000   96.55000   26.36610    0.03140
 7099.00000   26.11790    0.05560    8.41770    0.03940   -0.00360    4.47420    2.64670    0.36250 4215.57230 4193.57670 3846.52000   48.61250   49.82260   44.19510   43.56480   52.25500   97.37500   25.71850    0.03160
 7099.50000   29.69950    0.05440    8.40960    0.04690   -0.00390    4.55740    2.63450    0.56290 4198.91460 4211.63570 3938.87990   56.44660   55.39520   41.81670   48.30730   52.33000   97.61360   30.43360    0.03280
 7100.00000   33.16310    0.04940    8.40160    0.03900   -0.00330    4.62060    2.64720    0.75540 4181.43510 4218.05760 3960.99780   81.32160   76.13960   65.62990   52.65630   52.33000   97.15910   33.36640    0.03320
 7100.50000   35.31790    0.04190    8.39360    0.02460   -0.00260    4.59740    2.67020    0.92490 4193.82370 4211.92090 3865.77340  102.74030   92.75880   88.24190   55.65120   52.27000   96.75000   36.47190    0.03290
 7101.00000   33.55890    0.03450    8.38210    0.01150   -0.00190    4.52190    2.69140    1.09430 4216.72460 4205.78470 3884.37720   98.56500   89.97090   83.49310   55.65120   52.09000   96.95000   36.42840    0.03170
