~Version ---------------------------------------------------
VERS.   2.0 : CWLS log ASCII Standard -VERSION 2.0
WRAP.    NO : One line per depth step
DLM . SPACE : Column Data Section Delimiter
~Well ------------------------------------------------------
STRT .F                 497.0 : START DEPTH
STOP .F                9010.5 : STOP DEPTH
STEP .F                   0.5 : STEP
NULL .               -9999.25 : NULL VALUE
COMP .                        : COMPANY
WELL .                        : WELL
FLD  .                        : FIELD
LOC  .                        : LOCATION
PROV .                        : PROVINCE
CNTY .                        : COUNTY
STAT .                        : STATE
CTRY .                        : COUNTRY
SRVC .                        : SERVICE COMPANY
DATE .                        : DATE
UWI  .                        : UNIQUE WELL ID
API  .                        : API NUMBER
SLAT .WGS84 2.612432138377798 : SURFACE LATITUDE
SLON .WGS84      7.3655865084 : SURFACE LONGITUDE
DATUM.F                   nan : DEPTH DATUM ELEV
~Curve Information -----------------------------------------
DEPT   .F     : 
SGRDD  .GAPI  : SPECTROSCOPY GAMMA RAY FROM DENSITY LOG
TNPH_LS.DEC   : THERMAL NEUTRON POROSITY [LIMESTONE]
CALD   .IN    : CALIPER FROM DENSITY LOG
DPHZ_LS.DEC   : HGRD STANDARD RESOLUTION DENSITY POROSITY
HDRA   .G/C3  : HRDD SPINE AND RIBS DENSITY CORRECTION
PEFZ   .B/E   : HRDD STANDARD RESOLUTION FORMATION PHOTOELECTRIC FACTOR
RHOZ   .G/C3  : HRDD STANDARD RESOLUTION FORMATION DENSITY
CGRD   .GAPI  : CORRECTED GAMMA RAY FROM DENSITY LOG
TEND   .LB    : TENSION FROM DENSITY LOG
TENR   .LB    : TENSION FROM RESISTIVITY LOG
TENS   .LB    : TENSION FROM SONIC LOG
RLA5   .OHMM  : APPARENT RESISTIVITY FROM COMPUTED FOCUSING MODE 5
RLA3   .OHMM  : APPARENT RESISTIVITY FROM COMPUTED FOCUSING MODE 3
RLA4   .OHMM  : APPARENT RESISTIVITY FROM COMPUTED FOCUSING MODE 4
RXOZ   .OHMM  : INVADED FORMATION RESISTIVITY FILTERED AT 18 INCHES
DTCO   .US/F  : DELTA-T COMPRESSIONAL
DTSM   .US/F  : DELTA-T SHEAR
GRS    .GAPI  : GAMMA RAY FROM SONIC LOG
SPHI_LS.DEC   : SONIC POROSITY [LIMESTONE]
~Params ----------------------------------------------------
~Other -----------------------------------------------------
~ASCII -----------------------------------------------------
# ...
 8004.00000   29.94020    0.01330    8.18070   -0.01480   -0.00310    4.89030    2.73390    6.40000 4483.35840 4475.03170 4167.57370 20895.32030 11475.95310 16747.61330 2006.80810   50.35000   93.35000   33.94080    0.01890
 8004.50000   29.94020    0.01510    8.18390   -0.01940   -0.00300    4.88010    2.74050    6.39500 4494.40870 4477.94780 4154.41800 29662.05080 15700.91210 20703.55860 2013.49060   50.29000   92.80000   32.88800    0.01940
 8005.00000   31.21920    0.01720    8.18700   -0.01960   -0.00300    4.87280    2.74150    6.61400 4437.37990 4453.20900 4184.02980 18196.54490 8623.12400 14719.62890 1847.87920   50.41000   93.35000   39.04780    0.01980
 8005.50000   38.61890    0.02050    8.19020   -0.00940   -0.00330    4.90650    2.72530    7.51930 4356.03960 4478.06050 4242.54250 21680.28710 12354.37500 19055.00000 2048.96660   50.29000   94.45000   46.77350    0.01940
 8006.00000   42.15730    0.03080    8.19340    0.00200   -0.00450    4.86510    2.70700    8.01010 4416.84720 4476.37160 4271.30710 26231.61910 2288.87430 18449.93950  921.21720   50.53000   95.15000   54.04050    0.02020
 8006.50000   38.43400    0.03620    8.19660    0.00680   -0.00580    4.76200    2.70090    6.83740 4391.27980 4454.36620 4239.50830  364.78210  625.73720 1990.80160  286.08240   50.59000   94.45000   42.78400    0.02090
 8007.00000   26.81850    0.03560    8.19980    0.00770   -0.00690    4.71190    2.69650    4.73460 4410.33640 4432.36040 4259.07030  385.80470  238.84000  211.61450  121.53030   50.73700   93.75000   28.23570    0.02180
 8007.50000   17.63840    0.03500    8.20290    0.01140   -0.00500    4.70110    2.69200    2.98950 4384.67580 4412.80810 4280.68800  182.80620  215.80580  214.31980   85.17550   50.94700   93.65000   19.31620    0.02320
 8008.00000   14.78090    0.03540    8.20610    0.01430   -0.00310    4.75440    2.68760    1.96200 4454.79590 4418.11230 4274.04930  124.68800  176.18740  156.79450   71.55090   51.01000   93.45000   17.15890    0.02460
 8008.50000   15.00090    0.03650    8.20630    0.01730   -0.00150    4.83340    2.68400    1.82160 4400.88380 4423.41650 4264.95410  105.13580  138.63440  125.62390   70.67890   50.92000   94.57020   16.59520    0.02380
 8009.00000   15.30600    0.03490    8.20520    0.01730   -0.00270    4.87220    2.68140    1.60230 4439.05180 4428.72070 4239.68410  100.39930  128.65170  116.35760   72.70570   50.56000   93.79020   16.23190    0.02230
 8009.50000   15.23340    0.03240    8.20630    0.02100   -0.00400    4.92530    2.67870    1.37290 4440.75150 4428.23000 4209.74560  107.58720  138.98610  126.92490   71.58690   50.29000   93.85210   15.90430    0.02060
 8010.00000   15.23150    0.03010    8.20230    0.02020   -0.00520    4.96200    2.68110    1.14350 4328.07670 4421.47310 4185.58010  115.28980  160.38220  141.21440   70.07680   50.17000   94.25000   16.72150    0.01890
 8010.50000   15.22980    0.02540    8.19720    0.01280   -0.00550    4.98850    2.69770    0.91410 4485.76220 4414.71630 4153.87890  163.24060  230.92780  196.79910   77.77140   49.99000   93.61880   18.27540    0.01700
 8011.00000   16.95210    0.01930    8.19180   -0.00330   -0.00480    4.95120    2.71800    1.43870 4497.72610 4412.46090 4211.96000  244.49650  228.66810  340.61300  110.55810   50.08000   93.15000   20.27530    0.01740
 8011.50000   18.54310    0.01400    8.18580   -0.01580   -0.00410    4.90540    2.73530    2.24710 4460.27780 4416.22850 4241.79590 1037.86910 1012.37530 1232.59330  227.31650   50.11000   93.85000   21.25580    0.01780
 8012.00000   25.40130    0.01220    8.17380   -0.01780   -0.00330    4.87170    2.73860    4.19670 4422.82960 4419.99610 4170.40230 4649.39400 2774.41970 3360.77980  434.87790   50.26000   92.55000   31.82240    0.01980
 8012.50000   33.73950    0.01330    8.15680   -0.00970   -0.00410    4.84940    2.72560    6.45610 4403.46830 4420.34910 4154.14260 6130.79050 3866.48460 8344.36720  578.75060   50.56000   93.81000   40.49200    0.02160
 8013.00000   39.94170    0.01600    8.14630    0.00220   -0.00640    4.84870    2.70670    8.17760 4502.30470 4415.20750 4177.13180 5963.54440 8550.55470 19347.64060 1154.89230   50.89000   94.30830   47.30090    0.02340
 8013.50000   42.05970    0.01880    8.14630    0.00620   -0.00780    4.84250    2.70000    8.36980 4348.54000 4410.06590 4203.12890 38398.41410 23125.60350 27049.61720 1733.67600   51.10000   94.15000   49.57820    0.02500
 8014.00000   42.97840    0.02100    8.14630    0.00580   -0.00750    4.86820    2.70060    8.43690 4348.35500 4384.04300 4192.07080 14534.20800 8623.12400 11617.89450 1717.76570   51.25000   94.10000   49.07640    0.02620
 8014.50000   42.97840    0.02410    8.14440   -0.00050   -0.00580    4.90800    2.71070    8.50430 4371.86180 4393.11130 4158.82570 13177.97950 7304.53470 10086.31930 1851.91060   51.49000   94.15000   49.55370    0.02740
 8015.00000   43.53960    0.02660    8.13780   -0.01280   -0.00410    4.95260    2.73050    9.22790 4406.78560 4506.20460 4129.60990 16441.63090 9113.57230 11582.24510 1831.74550   51.61000   94.25000   48.40350    0.02740
 8015.50000   40.77350    0.02660    8.13370   -0.01240   -0.00350    4.91380    2.72980    8.63590 4433.95610 4438.90920 4194.73190 6661.20070 3624.83520 4086.39450 2009.24080   51.55000   93.80000   46.10920    0.02740
 8016.00000   37.32520    0.02200    8.13650   -0.00630   -0.00360    4.86190    2.72020    8.00580 4430.52250 4461.07860 4173.67870 13547.55180 13275.53420 6361.10400 2001.15280   51.31000   93.64940   40.02590    0.02600
 8016.50000   36.46000    0.01400    8.13560   -0.00240   -0.00390    4.82980    2.71390    7.39310 4437.15330 4483.24760 4157.46440 75267.16410 38398.41410 21240.62300 1990.80160   50.92000   93.45110   35.80380    0.02400
 8017.00000   38.86210    0.00880    8.13540   -0.00390   -0.00380    4.81120    2.71620    7.69020 4451.93600 4494.89990 4158.81250 42496.90630 46173.55860 45749.81640   -9999.25   50.71000   93.75020   40.65640    0.02270
 8017.50000   47.56490    0.00990    8.13530   -0.00370   -0.00300    4.79250    2.71620    8.43430 4343.05180 4489.66600 4167.67970 59224.50780 33132.12110 32526.79100   -9999.25   50.59000   93.45090   49.71620    0.02180
 8018.00000   50.43690    0.01180    8.13510    0.00280   -0.00320    4.78800    2.70570    8.02580 4442.29790 4484.43210 4196.86570 46173.55860 38046.02340 37008.14060   -9999.25   50.50300   93.24450   50.51930    0.02080
 8018.50000   48.27710    0.01330    8.13490    0.00520   -0.00350    4.78120    2.70170    7.76600 4494.44870 4463.71580 4181.78610 44913.96090 33012.67970 28588.08980   -9999.25   50.41300   92.95110   50.04880    0.01990
 8019.00000   46.96150    0.01230    8.13480    0.00380   -0.00350    4.83110    2.70280    7.55750 4472.88770 4434.31450 4162.68360 100168.15630 70301.76560 66152.99220   -9999.25   50.38000   93.35000   45.59490    0.01960
 8019.50000   48.22590    0.01200    8.13460    0.00360   -0.00430    4.96390    2.70490    7.34910 4433.49610 4423.12160 4154.85300 54008.41410 40403.08590 49025.20310   -9999.25   50.59430   92.45000   50.84760    0.02180
 8020.00000   50.21370    0.01270    8.13440    0.00200   -0.00610    5.08030    2.70710    6.78150 4501.01900 4430.65720 4031.30250 82536.41410 47032.85940 58680.99610   -9999.25   50.71000   92.60000   50.83330    0.02240
 8020.50000   48.09090    0.01370    8.13430    0.00160   -0.00760    5.22310    2.70880    6.09960 4479.67240 4440.52690 3946.81050 42106.90630 32228.28520 53512.76950   -9999.25   51.01000   91.35000   51.08360    0.02390
 8021.00000   48.03310    0.01480    8.13410    0.00040   -0.00760    5.21720    2.70580    5.95460 4430.24900 4431.48440 3946.13940 49707.89840 64348.36330 103931.14840   -9999.25   51.16000   92.33180   49.49540    0.02580
 8021.50000   48.01720    0.01580    8.13400    0.00800   -0.00740    5.07740    2.69990    6.02900 4427.37840 4419.12260 3998.66460 63172.70700 47908.14840 38398.41410   -9999.25   51.46000   93.42270   53.60790    0.02780
