~Version ---------------------------------------------------
VERS.   2.0 : CWLS log ASCII Standard -VERSION 2.0
WRAP.    NO : One line per depth step
DLM . SPACE : Column Data Section Delimiter
~Well ------------------------------------------------------
STRT .F                 497.0 : START DEPTH
STOP .F                9010.5 : STOP DEPTH
STEP .F                   0.5 : STEP
NULL .               -9999.25 : NULL VALUE
COMP .                        : COMPANY
WELL .                        : WELL
FLD  .                        : FIELD
LOC  .                        : LOCATION
PROV .                        : PROVINCE
CNTY .                        : COUNTY
STAT .                        : STATE
CTRY .                        : COUNTRY
SRVC .                        : SERVICE COMPANY
DATE .                        : DATE
UWI  .                        : UNIQUE WELL ID
API  .                        : API NUMBER
SLAT .WGS84 2.612432138377798 : SURFACE LATITUDE
SLON .WGS84      7.3655865084 : SURFACE LONGITUDE
DATUM.F                   nan : DEPTH DATUM ELEV
~Curve Information -----------------------------------------
DEPT   .F     : 
SGRDD  .GAPI  : SPECTROSCOPY GAMMA RAY FROM DENSITY LOG
TNPH_LS.DEC   : THERMAL NEUTRON POROSITY [LIMESTONE]
CALD   .IN    : CALIPER FROM DENSITY LOG
DPHZ_LS.DEC   : HGRD STANDARD RESOLUTION DENSITY POROSITY
HDRA   .G/C3  : HRDD SPINE AND RIBS DENSITY CORRECTION
PEFZ   .B/E   : HRDD STANDARD RESOLUTION FORMATION PHOTOELECTRIC FACTOR
RHOZ   .G/C3  : HRDD STANDARD RESOLUTION FORMATION DENSITY
CGRD   .GAPI  : CORRECTED GAMMA RAY FROM DENSITY LOG
TEND   .LB    : TENSION FROM DENSITY LOG
TENR   .LB    : TENSION FROM RESISTIVITY LOG
TENS   .LB    : TENSION FROM SONIC LOG
RLA5   .OHMM  : APPARENT RESISTIVITY FROM COMPUTED FOCUSING MODE 5
RLA3   .OHMM  : APPARENT RESISTIVITY FROM COMPUTED FOCUSING MODE 3
RLA4   .OHMM  : APPARENT RESISTIVITY FROM COMPUTED FOCUSING MODE 4
RXOZ   .OHMM  : INVADED FORMATION RESISTIVITY FILTERED AT 18 INCHES
DTCO   .US/F  : DELTA-T COMPRESSIONAL
DTSM   .US/F  : DELTA-T SHEAR
GRS    .GAPI  : GAMMA RAY FROM SONIC LOG
SPHI_LS.DEC   : SONIC POROSITY [LIMESTONE]
~Params ----------------------------------------------------
~Other -----------------------------------------------------
~ASCII -----------------------------------------------------
# ...
 5547.50000   14.51720    0.08420    8.49730   -0.00370   -0.00520    3.55290    2.71610    2.29890 3726.14720 3747.17900 3351.50420   21.73030   16.47960   28.05290   27.87240   52.15000   94.65000   20.63450    0.03410
 5548.00000   12.11810    0.11360    8.51650    0.02090   -0.00750    3.43770    2.67650    1.79910 3745.36300 3724.29930 3342.27510   13.70460   13.26940   12.96710   20.47980   52.18380   93.95000   19.19120    0.03320
 5548.50000   10.22720    0.15030    8.55110    0.04650   -0.00980    3.29230    2.63510    1.29930 3800.94920 3755.05810 3333.17430   15.73710   12.84810   14.89030   15.61670   52.29620   95.15000   15.90510    0.03290
 5549.00000   10.50980    0.16230    8.56030    0.05320   -0.00890    3.22000    2.62440    0.79940 3720.71780 3752.07010 3397.21880   14.28510   16.47960   13.70460   12.78900   52.30000   95.15000   14.30200    0.03380
 5549.50000   11.31330    0.14530    8.55360    0.05320   -0.00770    3.26630    2.62430    0.68440 3802.03370 3727.83370 3504.38480   15.16740   13.04330   14.61820   11.07580   52.09000   95.15000   11.76110    0.03170
 5550.00000   12.06590    0.13410    8.54700    0.04660   -0.00640    3.56880    2.63500    0.42690 3705.19090 3736.15310 3426.60550   34.13990   23.64740   29.73050   10.58650   51.94000   95.02500   11.74590    0.03020
 5550.50000   12.88740    0.07130    8.53540    0.03310   -0.00550    3.95240    2.65830    0.35740 3660.37770 3753.79710 3395.69900   62.73740   55.14050   57.74180   17.57820   51.88000   94.75000   11.86570    0.02910
 5551.00000   14.41040    0.04180    8.51130    0.01980   -0.00480    4.37310    2.68420    0.42320 3833.01810 3771.44140 3411.55440  202.85190  158.46340  142.25980   63.75780   51.61000   95.95000   12.04650    0.02800
 5551.50000   15.83530    0.03120    8.50110    0.00740   -0.00410    4.51170    2.71020    0.48900 3693.55220 3772.91600 3281.40040  328.28060  291.20120  304.93910  184.78310   51.28000   95.38330   11.72580    0.02700
 5552.00000   16.87830    0.03440    8.50040   -0.00500   -0.00340    4.48770    2.72870    0.55480 3747.08420 3771.12620 3285.52490  339.04650  306.34810  323.77190  207.99220   50.77860   94.49440   16.58920    0.02180
 5552.50000   18.18550    0.04500    8.50060   -0.01130   -0.00270    4.27020    2.72900    0.62060 3718.40820 3767.84010 3492.94920  111.01310   81.97810  139.40340   99.59260   50.59000   93.93890   19.89540    0.02140
 5553.00000   19.00890    0.06690    8.50070   -0.00750   -0.00330    3.81280    2.72010    0.68640 3659.52540 3718.16850 3389.64700   37.09350   38.79200   51.21990   46.53680   50.40860   93.69760   21.36110    0.01990
 5553.50000   18.15240    0.09270    8.50510    0.00230   -0.00470    3.46780    2.70640    0.75890 3720.81300 3733.35230 3303.85860   37.09350   33.44390   36.58410   26.13040   50.20070   92.67230   19.77060    0.01850
 5554.00000   16.01430    0.11920    8.50790    0.00570   -0.00580    3.30440    2.70090    0.90330 3682.95530 3738.45610 3288.96680   52.17310   47.57800   49.82260   26.13040   49.98480   92.74260   19.38630    0.01710
 5554.50000   13.77240    0.11690    8.50230    0.00670   -0.00650    3.29370    2.69920    1.04770 3739.87990 3727.62770 3286.91240   51.69430   47.14140   49.36540   42.59500   49.81000   92.68570   18.81660    0.01580
 5555.00000   14.08540    0.10160    8.50220    0.00270   -0.00720    3.42150    2.70570    1.19210 3660.73750 3718.58080 3307.45310   89.05920   72.70940   76.84480   49.82260   50.26000   92.36880   17.50810    0.01860
 5555.50000   17.59120    0.08970    8.49200   -0.00230   -0.00790    3.55370    2.71350    1.33660 3718.09500 3708.49490 3342.80200   68.79650   66.91980   66.30560   49.36540   50.59000   91.75000   14.86830    0.01980
 5556.00000   21.71430    0.07840    8.48730    0.00650   -0.00730    3.54990    2.69940    1.48100 3715.57250 3712.59420 3424.77080  204.19210  169.80830  127.88980   75.44080   50.59000   92.05000   14.63530    0.02040
 5556.50000   22.96500    0.07480    8.48270    0.02860   -0.00660    3.37340    2.66360    1.22340 3706.70850 3716.69360 3466.85570   80.75910   86.23120  159.19550   12.14860   50.68000   91.85000   14.87230    0.02100
 5557.00000   19.49060    0.07830    8.49080    0.05380   -0.00600    3.09760    2.62420    1.01740 3741.33690 3719.03980 3456.87500   20.78320   27.74420   12.49760    4.79080   51.79000   93.35000   17.76790    0.03100
 5557.50000   14.80260    0.07930    8.50140    0.04380   -0.00340    2.88530    2.63950    0.88660 3653.08180 3719.42970 3381.77370   12.84810   16.63220   12.49760    4.24970   52.30000   93.35000   19.85230    0.03370
 5558.00000   11.79700    0.07630    8.48790    0.02110   -0.00100    2.90230    2.68970    0.75580 3645.31930 3719.49490 3417.45830  245.53820  259.50340  250.10770    8.30820   52.66000   92.15000   19.84130    0.03700
 5558.50000   10.58170    0.07620    8.45930    0.01230    0.00140    3.00530    2.68660    0.63100 3667.61230 3719.55980 3455.70480   69.30580   94.99630  252.42430   36.41580   52.87000   92.67000   17.51460    0.03710
 5559.00000   11.30320    0.09130    8.47090    0.02450    0.00170    3.10830    2.66800    0.67110 3686.76070 3719.26270 3445.65260   26.73970   31.13310   28.91950   19.34260   53.77000   93.55000   13.15340    0.04290
 5559.50000   12.37980    0.11010    8.49380    0.03790   -0.00190    3.20800    2.64900    1.11820 3700.79690 3717.33330 3336.78000   28.52230   31.71250   30.28380   10.93370   53.83000   93.66250   11.14340    0.04350
 5560.00000   13.51330    0.12220    8.53120    0.03880   -0.00550    3.32400    2.64760    1.58010 3721.84030 3715.40410 3515.81710   23.82900   26.55030   25.18430    9.35620   53.83000   93.70420   10.66080    0.04380
 5560.50000   13.78510    0.12820    8.54170    0.02900   -0.00710    3.42980    2.66330    1.50440 3737.76730 3715.99680 3434.12650   23.93910   28.48300   26.61670    8.88540   53.41000   93.75000   11.19710    0.04220
 5561.00000   15.62690    0.10170    8.52330    0.01610   -0.00610    3.50940    2.68420    1.38940 3844.56880 3746.82960 3384.58810   21.13750   23.35070   22.54660   11.55560   52.60000   94.35000   13.41480    0.03460
 5561.50000   17.33660    0.07230    8.50440   -0.00320   -0.00520    3.46510    2.71520    1.38440 3693.46530 3782.42500 3420.60470   83.05800   92.71650  104.64300   18.75000   51.22000   93.63120   14.92970    0.02660
 5562.00000   18.11550    0.04950    8.49000   -0.02450   -0.00430    3.42090    2.74880    1.38070 3790.88400 3806.23630 3270.87960  229.69780  232.83150  293.64190  157.73460   50.78500   92.05000   15.96340    0.02250
 5562.50000   15.53820    0.04040    8.46360   -0.02620   -0.00440    3.34250    2.75210    1.37690 3674.88960 3786.04000 3478.29220  468.16550  441.15270  504.86750  126.86220   50.70520   92.05000   16.27190    0.02340
 5563.00000   13.30600    0.04040    8.43640   -0.00920   -0.00490    3.29310    2.72360    1.37310 3819.26540 3806.42190 3419.34890  124.11460  114.36220  119.58620   92.40480   51.01040   92.51000   17.25100    0.02420
 5563.50000   12.39170    0.04400    8.43490    0.01310   -0.00550    3.26270    2.68880    1.36940 3833.67090 3844.30100 3279.37300  159.19550  146.24540  148.62910   94.12450   51.39890   92.35000   17.88050    0.02620
 5564.00000   12.34020    0.06060    8.45230    0.03390   -0.00710    3.22130    2.65530    1.36560 3795.19360 3777.33760 3292.91940  189.67360  146.31130   48.39330   22.96620   51.49000   91.77260   16.15400    0.02790
 5564.50000   11.32740    0.07760    8.45480    0.04800   -0.00930    3.16610    2.63280    1.36190 3765.08330 3765.63110 3439.57420   19.45440   33.39100   15.23740    9.92490   51.85000   91.33740   15.04330    0.02970
 5565.00000   10.42870    0.08780    8.46900    0.04730   -0.01110    3.18360    2.63390    1.40940 3723.85330 3753.92460 3306.15280   13.57880   13.08720   12.84810    8.64300   52.21000   91.89900   13.94420    0.03150
 5565.50000   10.22940    0.08300    8.48560    0.02660   -0.00970    3.32100    2.66730    1.51640 3780.47310 3742.21800 3320.25070   68.79650   49.71830   48.57530   12.49760   52.33000   92.54160   12.62310    0.03330
