~Version ---------------------------------------------------
VERS.   2.0 : CWLS log ASCII Standard -VERSION 2.0
WRAP.    NO : One line per depth step
DLM . SPACE : Column Data Section Delimiter
~Well ------------------------------------------------------
STRT .F                 497.0 : START DEPTH
STOP .F                9010.5 : STOP DEPTH
STEP .F                   0.5 : STEP
NULL .               -9999.25 : NULL VALUE
COMP .                        : COMPANY
WELL .                        : WELL
FLD  .                        : FIELD
LOC  .                        : LOCATION
PROV .                        : PROVINCE
CNTY .                        : COUNTY
STAT .                        : STATE
CTRY .                        : COUNTRY
SRVC .                        : SERVICE COMPANY
DATE .                        : DATE
UWI  .                        : UNIQUE WELL ID
API  .                        : API NUMBER
SLAT .WGS84 2.612432138377798 : SURFACE LATITUDE
SLON .WGS84      7.3655865084 : SURFACE LONGITUDE
DATUM.F                   nan : DEPTH DATUM ELEV
~Curve Information -----------------------------------------
DEPT   .F     : 
SGRDD  .GAPI  : SPECTROSCOPY GAMMA RAY FROM DENSITY LOG
TNPH_LS.DEC   : THERMAL NEUTRON POROSITY [LIMESTONE]
CALD   .IN    : CALIPER FROM DENSITY LOG
DPHZ_LS.DEC   : HGRD STANDARD RESOLUTION DENSITY POROSITY
HDRA   .G/C3  : HRDD SPINE AND RIBS DENSITY CORRECTION
PEFZ   .B/E   : HRDD STANDARD RESOLUTION FORMATION PHOTOELECTRIC FACTOR
RHOZ   .G/C3  : HRDD STANDARD RESOLUTION FORMATION DENSITY
CGRD   .GAPI  : CORRECTED GAMMA RAY FROM DENSITY LOG
TEND   .LB    : TENSION FROM DENSITY LOG
TENR   .LB    : TENSION FROM RESISTIVITY LOG
TENS   .LB    : TENSION FROM SONIC LOG
RLA5   .OHMM  : APPARENT RESISTIVITY FROM COMPUTED FOCUSING MODE 5
RLA3   .OHMM  : APPARENT RESISTIVITY FROM COMPUTED FOCUSING MODE 3
RLA4   .OHMM  : APPARENT RESISTIVITY FROM COMPUTED FOCUSING MODE 4
RXOZ   .OHMM  : INVADED FORMATION RESISTIVITY FILTERED AT 18 INCHES
DTCO   .US/F  : DELTA-T COMPRESSIONAL
DTSM   .US/F  : DELTA-T SHEAR
GRS    .GAPI  : GAMMA RAY FROM SONIC LOG
SPHI_LS.DEC   : SONIC POROSITY [LIMESTONE]
~Params ----------------------------------------------------
~Other -----------------------------------------------------
~ASCII -----------------------------------------------------
# ...
 6768.50000   22.39890    0.07460    8.34670   -0.04000   -0.00960    3.22090    2.77440    5.67330 4199.17970 4136.43600 3852.53100   58.27660   70.07680   65.39500   56.03730   52.30000   96.70000   35.13250    0.03240
 6769.00000   16.69950    0.06930    8.35100   -0.04080   -0.00980    3.25090    2.77570    3.66130 4067.10570 4130.62160 3879.12960   50.51640   50.69130   53.55080   62.73740   51.40000   95.13330   20.02090    0.02730
 6769.50000   16.27430    0.07130    8.34910   -0.03300   -0.00910    3.31100    2.76320    3.46680 4161.66410 4124.80710 3849.82640   39.93280   44.65590   45.20880   43.38770   50.65000   93.27220   15.67310    0.02210
 6770.00000   16.17720    0.07210    8.34560   -0.03220   -0.00850    3.37220    2.76190    3.27240 4136.97020 4118.99320 3814.17940   38.48700   42.20410   46.71660   42.20410   50.16820   91.71670   14.34020    0.01840
 6770.50000   15.94440    0.07150    8.34200   -0.03600   -0.00770    3.49770    2.76790    3.07790 4106.30080 4113.17870 3883.74630   44.19510   47.27170   46.20970   51.69430   49.80360   90.35000   13.71900    0.01500
 6771.00000   16.40800    0.07240    8.34650   -0.03850   -0.00390    3.56400    2.77190    3.06600 4160.89360 4107.36430 3885.43770   45.64450   49.87360   48.84760   63.37370   49.57340   90.55000   14.03080    0.01410
 6771.50000   19.91350    0.07060    8.34770   -0.03870    0.00330    3.48390    2.77230    3.47040 4082.93240 4115.87790 3775.20680   38.84350   40.20200   42.77050   66.40990   49.51000   89.90000   15.95880    0.01380
 6772.00000   23.33000    0.06890    8.34840   -0.03800    0.01130    3.39710    2.77130    4.20890 4072.82420 4129.69140 3787.63500   47.55850   48.51930   51.13060   43.69540   49.57000   89.25000   22.92170    0.01380
 6772.50000   25.92360    0.06450    8.34820   -0.04080    0.00950    3.38950    2.77570    4.22070 4168.31490 4147.39400 3955.89480   58.27850   59.75340   64.45920   48.01870   49.54000   89.65000   27.67690    0.01380
 6773.00000   25.43950    0.05820    8.34710   -0.04640    0.00180    3.49220    2.78470    4.13720 4168.58250 4151.46290 3796.55300   80.66370   84.26640   83.55000   49.36540   49.33000   89.60000   29.47360    0.01220
 6773.50000   24.11440    0.05510    8.35110   -0.04870   -0.00700    3.60810    2.78840    4.03810 4132.95070 4150.57520 3780.61330   73.71000   74.44280   76.84480   47.14140   48.79000   89.38000   26.43820    0.00810
 6774.00000   25.28830    0.05600    8.37660   -0.05110   -0.00650    3.61670    2.79220    3.93900 4155.84380 4137.38040 3857.09230   74.01010   68.79650   68.16520   46.28010   48.61000   88.90000   25.53730    0.00720
 6774.50000   26.97890    0.05480    8.37080   -0.05410   -0.00620    3.60290    2.79710    4.09180 4014.42900 4099.83840 3886.60820  142.70040  117.07500  107.65810   56.16660   48.49000   88.05000   24.59640    0.00630
 6775.00000   27.62000    0.04950    8.35400   -0.06440   -0.00580    3.51050    2.81370    4.67570 4166.10940 4100.15230 3776.08720  287.20180  253.59060  317.85660  109.58940   48.37000   87.84230   25.39600    0.00540
 6775.50000   26.58280    0.04560    8.34760   -0.06800   -0.00570    3.45370    2.81950    3.45710 4085.91820 4100.46680 3899.10450  340.61300  348.55490  257.12190  162.15820   48.14500   87.61150   24.56940    0.00450
 6776.00000   26.48360    0.04630    8.34320   -0.06250   -0.00640    3.43160    2.81070    3.13050 4116.34570 4105.32910 3819.97410  105.13580  122.53540   85.04690   99.20320   48.10420   87.25550   25.51250    0.00360
 6776.50000   26.38270    0.04810    8.33630   -0.05380   -0.00710    3.41940    2.79710    3.15640 4093.73000 4115.90140 3693.22090   80.30570   78.72720   76.84480   63.90490   47.94460   86.12900   27.32760    0.00260
 6777.00000   25.50070    0.04840    8.32930   -0.05460   -0.00770    3.40710    2.79790    3.25240 4107.37350 4126.47360 3848.50830   77.94240   76.84480   75.44080   64.77640   47.72010   87.13180   27.56810    0.00160
 6777.50000   24.85240    0.04720    8.33810   -0.05680   -0.00790    3.39490    2.80180    3.34830 4183.84720 4137.04640 3821.09590  110.03280  107.23360   97.66040   83.77310   47.56000   87.55000   26.16010    0.00050
 6778.00000   24.31050    0.03970    8.34740   -0.07030   -0.00640    3.45300    2.82260    4.32420 4137.58590 4122.03610 3761.08940  151.03270  148.25560  134.23220  107.30460   47.48500   86.56000   24.32610   -0.00070
 6778.50000   22.94820    0.03220    8.34650   -0.07900   -0.00480    3.61430    2.83720    4.74200 4091.32420 4105.87740 3749.19290  283.63060  214.03090  233.59490  150.69790   47.35000   85.70000   24.27830   -0.00190
 6779.00000   21.80700    0.02730    8.34570   -0.09140   -0.00350    3.70030    2.85660    3.56150 4085.07640 4110.04350 3845.57080  725.42000  261.22590  705.52980  270.62090   47.31840   85.97500   23.34950   -0.00320
 6779.50000   21.86970    0.02660    8.34680   -0.09550   -0.00390    3.77270    2.86390    3.13050 4138.29830 4114.14990 3864.00980  676.95460  495.80660  608.95590  481.29500   47.06270   86.62500   24.62530   -0.00460
 6780.00000   23.15430    0.02890    8.34390   -0.09510   -0.00470    3.77490    2.86450    3.76390 4149.79050 4113.89750 3779.33370  405.82360  396.10450  426.93260  555.23070   46.69440   86.75000   24.66170   -0.00700
 6780.50000   24.34990    0.03110    8.34100   -0.09650   -0.00550    3.70940    2.86450    4.67610 4147.94340 4099.53810 3786.98750  419.13250  412.58190  434.87790  640.52420   46.50640   86.30000   27.42040   -0.00780
 6781.00000   24.40960    0.03240    8.34360   -0.09440   -0.00540    3.63250    2.86360    4.99760 4072.87160 4085.17900 3785.18330  426.93260  423.36900  430.88690  506.62160   46.99000   85.05000   26.32700   -0.00420
 6781.50000   21.39350    0.03510    8.34870   -0.09470   -0.00490    3.55180    2.86080    4.20580 4076.65450 4084.34350 3796.00680  434.87790  359.63030  451.21480  317.36850   47.05000   85.89000   23.49160   -0.00150
 6782.00000   19.93900    0.03880    8.35790   -0.08600   -0.00430    3.46420    2.84840    3.30070 4080.43770 4086.89330 3868.00930  208.84620  215.87680  200.46150  172.70290   47.63800   87.20500   20.45460    0.00100
 6782.50000   19.01000    0.04260    8.35770   -0.07640   -0.00400    3.38490    2.83310    3.30860 4110.60600 4089.44290 3911.63010  120.72880  129.58530  138.63440  122.53540   49.27000   90.05500   19.35500    0.01110
 6783.00000   23.63790    0.05170    8.35640   -0.07050   -0.00350    3.35480    2.82350    3.90550 4155.20260 4090.24630 3745.68900   91.97640  101.02860  103.21500  103.21500   51.85000   92.26820   24.33840    0.02890
 6783.50000   33.76650    0.06090    8.35500   -0.05940   -0.00250    3.28050    2.80570    6.75640 4133.38670 4090.74070 3807.27420  133.32030  145.14690  169.80830  163.35860   52.60000   92.99550   33.54430    0.03520
 6784.00000   52.54060    0.07050    8.35370   -0.02790   -0.00170    3.14350    2.75500    9.65580 4062.19020 4092.22120 3851.39530  183.78770  228.07630  206.08340  276.80320   53.83000   93.68190   52.61050    0.04370
 6784.50000   74.85130    0.11890    8.35240    0.02230   -0.00190    3.08070    2.67410   12.75840 4076.31760 4106.54930 3768.64600   81.96770  121.10040  102.74030  135.60050   55.45000   96.44920   72.76270    0.05620
 6785.00000   81.86750    0.16350    8.35110    0.05240   -0.00210    3.05020    2.62560   13.52660 4105.14500 4120.87740 3735.35720   39.20330   45.43460   44.19510   56.68690   55.39000   99.23010   89.99680    0.05620
 6785.50000   62.01750    0.17330    8.35050    0.02900   -0.00240    3.07490    2.66200   10.76670 4137.52690 4125.92140 3865.53710   35.09730   39.20330   38.48700   48.01870   55.40030   99.47730   78.06780    0.05540
 6786.00000   41.26020    0.10160    8.35030   -0.01790   -0.00320    3.12500    2.72480    5.76680 4139.67480 4117.34130 3861.71660   76.84480   93.39440   83.49310   52.65630   55.56050   98.84210   45.62230    0.05700
 6786.50000   24.85220    0.06640    8.35020   -0.05120   -0.00460    3.20670    2.79060    3.84260 4155.83690 4108.76120 3812.81250   82.49840   94.32640   92.83180   87.43200   53.82580   97.56940   29.29940    0.04180
