~Version ---------------------------------------------------
VERS.   2.0 : CWLS log ASCII Standard -VERSION 2.0
WRAP.    NO : One line per depth step
DLM . SPACE : Column Data Section Delimiter
~Well ------------------------------------------------------
STRT .F                 497.0 : START DEPTH
STOP .F                9010.5 : STOP DEPTH
STEP .F                   0.5 : STEP
NULL .               -9999.25 : NULL VALUE
COMP .                        : COMPANY
WELL .                        : WELL
FLD  .                        : FIELD
LOC  .                        : LOCATION
PROV .                        : PROVINCE
CNTY .                        : COUNTY
STAT .                        : STATE
CTRY .                        : COUNTRY
SRVC .                        : SERVICE COMPANY
DATE .                        : DATE
UWI  .                        : UNIQUE WELL ID
API  .                        : API NUMBER
SLAT .WGS84 2.612432138377798 : SURFACE LATITUDE
SLON .WGS84      7.3655865084 : SURFACE LONGITUDE
DATUM.F                   nan : DEPTH DATUM ELEV
~Curve Information -----------------------------------------
DEPT   .F     : 
SGRDD  .GAPI  : SPECTROSCOPY GAMMA RAY FROM DENSITY LOG
TNPH_LS.DEC   : THERMAL NEUTRON POROSITY [LIMESTONE]
CALD   .IN    : CALIPER FROM DENSITY LOG
DPHZ_LS.DEC   : HGRD STANDARD RESOLUTION DENSITY POROSITY
HDRA   .G/C3  : HRDD SPINE AND RIBS DENSITY CORRECTION
PEFZ   .B/E   : HRDD STANDARD RESOLUTION FORMATION PHOTOELECTRIC FACTOR
RHOZ   .G/C3  : HRDD STANDARD RESOLUTION FORMATION DENSITY
CGRD   .GAPI  : CORRECTED GAMMA RAY FROM DENSITY LOG
TEND   .LB    : TENSION FROM DENSITY LOG
TENR   .LB    : TENSION FROM RESISTIVITY LOG
TENS   .LB    : TENSION FROM SONIC LOG
RLA5   .OHMM  : APPARENT RESISTIVITY FROM COMPUTED FOCUSING MODE 5
RLA3   .OHMM  : APPARENT RESISTIVITY FROM COMPUTED FOCUSING MODE 3
RLA4   .OHMM  : APPARENT RESISTIVITY FROM COMPUTED FOCUSING MODE 4
RXOZ   .OHMM  : INVADED FORMATION RESISTIVITY FILTERED AT 18 INCHES
DTCO   .US/F  : DELTA-T COMPRESSIONAL
DTSM   .US/F  : DELTA-T SHEAR
GRS    .GAPI  : GAMMA RAY FROM SONIC LOG
SPHI_LS.DEC   : SONIC POROSITY [LIMESTONE]
~Params ----------------------------------------------------
~Other -----------------------------------------------------
~ASCII -----------------------------------------------------
# ...
 6472.50000   33.21550    0.08280    8.34190   -0.01910   -0.00760    3.52150    2.74120    6.91320 3975.42480 3988.95210 3640.39940   16.47960   16.03000   15.65970   24.72420   52.18000   91.62000   28.31270    0.03240
 6473.00000   36.09420    0.08880    8.33230   -0.02730   -0.00790    3.48090    2.75390    7.50200 3976.21880 3975.05740 3650.06740   16.63220   16.47960   17.57820   27.61660   52.09000   91.25330   34.24950    0.03160
 6473.50000   33.82140    0.09110    8.32270   -0.03130   -0.00780    3.42300    2.76040    6.38660 4065.24560 3990.85600 3685.30640   22.44300   15.44960   15.59270   26.37240   51.97000   90.85000   40.87640    0.03130
 6474.00000   27.24590    0.09200    8.31680   -0.02640   -0.00800    3.38110    2.75260    5.27920 4089.67850 4006.65430 3644.33400   28.65410   41.43300   29.73050   42.59500   51.97000   91.62140   37.64370    0.03100
 6474.50000   22.02110    0.09670    8.32350   -0.01050   -0.00800    3.32600    2.72700    5.09840 4013.50240 4022.45290 3582.04300   25.10500   30.34590   22.44300   31.27690   51.88000   91.99440   33.25160    0.03060
 6475.00000   20.79520    0.10770    8.30610   -0.00390   -0.00770    3.26470    2.71630    5.07800 3980.37990 4030.69430 3661.09250   17.72570   16.58120   15.52100   23.17900   51.79000   91.88330   28.89540    0.03020
 6475.50000   22.60650    0.11710    8.28830   -0.00110   -0.00730    3.24010    2.71190    5.05760 4042.89380 4038.39820 3794.92550   13.70560   13.83150   13.70460   21.93160   51.85000   91.35000   28.18640    0.02970
 6476.00000   20.52740    0.11440    8.28790   -0.00880   -0.00690    3.21540    2.72300    4.36580 4093.08030 4046.10210 3706.56790   17.49730   17.90530   16.55570   24.39710   51.64000   91.75000   26.71020    0.02820
 6476.50000   17.31360    0.10040    8.29250   -0.01340   -0.00630    3.27240    2.73150    3.67820 4041.06590 4042.16480 3651.74800   19.27590   18.75000   20.84720   29.84760   51.50800   91.50000   24.34000    0.02760
 6477.00000   15.45990    0.08900    8.32630   -0.02290   -0.00580    3.34950    2.74680    3.07990 3972.17240 4012.75900 3650.29690   27.87240   31.13310   24.72420   38.72780   51.42070   92.05000   20.63480    0.02700
 6477.50000   16.39420    0.08150    8.33230   -0.02740   -0.00520    3.40280    2.75170    3.01270 4052.26200 3983.10400 3729.90140   31.15690   29.73050   35.42240   46.91260   51.31220   91.97500   18.01490    0.02640
 6478.00000   17.92690    0.07450    8.33840   -0.02790   -0.00470    3.41630    2.75550    3.31230 3983.49320 3953.44920 3687.12870   43.23320   42.66870   48.24060   54.38320   51.15730   91.30000   16.39790    0.02540
 6478.50000   17.92240    0.06760    8.33810   -0.03240   -0.00410    3.40250    2.76220    3.61190 3974.96190 3936.94730 3645.93870   51.43900   52.05300   54.88690   66.15300   50.98000   90.55000   15.88210    0.02420
 6479.00000   16.30000    0.06450    8.32860   -0.03860   -0.00360    3.39290    2.77200    3.90670 4013.51370 3927.57640 3831.87350   58.27660   81.22080   66.30560   89.05920   50.80000   90.75000   16.49720    0.02310
 6479.50000   16.14390    0.07450    8.31310   -0.04120   -0.00310    3.41120    2.77640    3.72480 3998.74560 3933.20460 3657.23050   70.07680   47.71680   76.84480   61.66220   50.59000   91.75000   17.08390    0.02180
 6480.00000   18.17100    0.08110    8.30120   -0.04140   -0.00250    3.43670    2.77670    3.81740 3983.97750 3940.80520 3642.53030   24.04970   23.67150   25.53500   47.11040   50.53000   91.45000   17.96900    0.02140
 6480.50000   20.85910    0.08510    8.31860   -0.04380   -0.00200    3.45270    2.78050    4.03130 3969.20950 3948.40550 3708.03660   24.49730   24.04970   26.49430   39.20330   50.53000   90.45000   17.31840    0.02090
 6481.00000   23.51490    0.08210    8.33010   -0.04720   -0.00140    3.45710    2.78590    4.20150 3935.36380 3956.00590 3736.31180   30.00590   34.13990   31.71250   40.67600   50.44000   90.75000   19.74410    0.02040
 6481.50000   23.97840    0.07700    8.33350   -0.05100   -0.00040    3.44980    2.79200    3.89910 3922.52730 3948.68360 3701.94800   23.50170   23.93910   27.23730   38.84350   50.35000   91.05000   22.68090    0.01990
 6482.00000   23.67920    0.06620    8.33680   -0.05740    0.00120    3.57620    2.80250    3.05230 3994.40140 3941.15450 3645.96240   20.94350   21.73030   22.33970   38.84350   50.26750   90.45000   25.16750    0.01930
 6482.50000   22.15000    0.05350    8.34020   -0.07150    0.00280    3.72230    2.82490    2.20540 3920.76390 3933.62550 3685.76390   43.42680   47.84990   58.54590   57.02380   50.20000   90.75000   25.58140    0.01880
 6483.00000   23.24200    0.03860    8.34510   -0.09160    0.00520    3.88490    2.85740    1.95920 3858.91870 3955.16330 3705.05350  149.25370  176.81200  205.13560  124.68800   49.86520   89.53250   22.93890    0.01630
 6483.50000   30.13820    0.02560    8.35580   -0.09990    0.00290    3.97170    2.87070    2.39050 3898.81640 3977.25050 3605.86110  585.92940  633.93230  795.02230  348.55490   49.31700   88.53910   25.98710    0.01260
 6484.00000   39.25270    0.02360    8.36640   -0.09990    0.00070    3.96520    2.88160    2.98440 3988.64310 3999.33760 3631.92430 1678.62590 2009.24080 2286.06230  385.75830   48.71080   88.84800   32.28250    0.00840
 6484.50000   43.89500    0.02280    8.37700   -0.09990   -0.00030    3.94320    2.88360    2.75440 4029.26900 4015.80220 3800.84690 4086.39450 3866.48460 3938.44040  692.73880   48.07000   89.01250   39.83330    0.00420
 6485.00000   42.11350    0.02640    8.37720   -0.09990    0.00460    3.90920    2.88350    2.42840 4070.52860 4012.96510 3780.71090 2698.73440 1606.70040 1954.42940  784.55540   48.01000   87.85000   44.13700    0.00280
 6485.50000   37.23790    0.03180    8.36980   -0.09960    0.01010    3.79880    2.87360    2.15150 4077.91770 4010.12790 3684.68410  673.39750  589.85720  545.71500  236.64810   48.01000   87.85000   42.67360    0.00240
 6486.00000   34.36640    0.03590    8.35310   -0.09590    0.00670    3.68850    2.86440    1.87460 4080.34470 4039.35180 3684.68410  202.31820  203.28890  183.65090  158.46340   47.92000   89.55000   40.52600    0.00210
 6486.50000   35.90740    0.03380    8.34340   -0.09780    0.00280    3.69330    2.86770    1.80540 4074.95340 4061.67920 3684.55760  174.57050  159.90950  165.17600  153.43160   47.83000   88.25000   38.36070    0.00180
 6487.00000   38.08000    0.02940    8.34460   -0.09960   -0.00060    3.73990    2.88180    1.78680 4080.94460 4026.90380 3725.36600  417.20480  360.81640  315.26230  342.63780   47.83000   87.55000   42.82050    0.00200
 6487.50000   36.63750    0.02690    8.34580   -0.09970   -0.00180    3.74940    2.89600    2.10640 3923.46120 3982.05490 3555.46290  997.07470  997.07470  821.56820  532.66660   47.89000   87.40000   43.93370    0.00210
 6488.00000   30.86500    0.02980    8.34710   -0.09990   -0.00160    3.70360    2.89460    2.14310 3968.37650 3984.97560 3781.46410  557.22500  428.24670  457.02980  308.47370   48.03250   86.95000   42.22700    0.00220
 6488.50000   24.33410    0.03510    8.33420   -0.10000   -0.00150    3.63780    2.88130    2.10440 4017.46830 3991.72580 3880.06860  236.64810  231.19830  205.42500  186.20830   48.07000   88.05000   38.60150    0.00240
 6489.00000   21.70560    0.04090    8.33170   -0.09810   -0.00130    3.62140    2.86800    2.27090 4040.98220 3998.47610 3645.81230  197.70830  186.88310  188.74130  134.09400   48.07000   88.05000   34.53320    0.00250
 6489.50000   21.86460    0.04270    8.33000   -0.09280   -0.00110    3.64760    2.85950    3.06110 4019.79880 4003.79690 3750.94800  236.64810  228.11120  220.65690  135.24690   48.07000   85.75000   31.92600    0.00270
 6490.00000   26.62900    0.04440    8.32840   -0.08570   -0.00090    3.65290    2.84810    4.34620 4014.57690 4008.05760 3765.22360  305.42820  282.23320  323.77190  200.12460   48.97000   87.61430   31.93140    0.00970
 6490.50000   32.47540    0.04840    8.30860   -0.08060   -0.00070    3.57680    2.83990    5.80290 3991.98560 4012.31860 3750.05320  338.67590  342.18680  351.78330  245.53820   49.33000   89.35000   34.47960    0.01340
