~Version ---------------------------------------------------
VERS.   2.0 : CWLS log ASCII Standard -VERSION 2.0
WRAP.    NO : One line per depth step
DLM . SPACE : Column Data Section Delimiter
~Well ------------------------------------------------------
STRT .F                 497.0 : START DEPTH
STOP .F                9010.5 : STOP DEPTH
STEP .F                   0.5 : STEP
NULL .               -9999.25 : NULL VALUE
COMP .                        : COMPANY
WELL .                        : WELL
FLD  .                        : FIELD
LOC  .                        : LOCATION
PROV .                        : PROVINCE
CNTY .                        : COUNTY
STAT .                        : STATE
CTRY .                        : COUNTRY
SRVC .                        : SERVICE COMPANY
DATE .                        : DATE
UWI  .                        : UNIQUE WELL ID
API  .                        : API NUMBER
SLAT .WGS84 2.612432138377798 : SURFACE LATITUDE
SLON .WGS84      7.3655865084 : SURFACE LONGITUDE
DATUM.F                   nan : DEPTH DATUM ELEV
~Curve Information -----------------------------------------
DEPT   .F     : 
SGRDD  .GAPI  : SPECTROSCOPY GAMMA RAY FROM DENSITY LOG
TNPH_LS.DEC   : THERMAL NEUTRON POROSITY [LIMESTONE]
CALD   .IN    : CALIPER FROM DENSITY LOG
DPHZ_LS.DEC   : HGRD STANDARD RESOLUTION DENSITY POROSITY
HDRA   .G/C3  : HRDD SPINE AND RIBS DENSITY CORRECTION
PEFZ   .B/E   : HRDD STANDARD RESOLUTION FORMATION PHOTOELECTRIC FACTOR
RHOZ   .G/C3  : HRDD STANDARD RESOLUTION FORMATION DENSITY
CGRD   .GAPI  : CORRECTED GAMMA RAY FROM DENSITY LOG
TEND   .LB    : TENSION FROM DENSITY LOG
TENR   .LB    : TENSION FROM RESISTIVITY LOG
TENS   .LB    : TENSION FROM SONIC LOG
RLA5   .OHMM  : APPARENT RESISTIVITY FROM COMPUTED FOCUSING MODE 5
RLA3   .OHMM  : APPARENT RESISTIVITY FROM COMPUTED FOCUSING MODE 3
RLA4   .OHMM  : APPARENT RESISTIVITY FROM COMPUTED FOCUSING MODE 4
RXOZ   .OHMM  : INVADED FORMATION RESISTIVITY FILTERED AT 18 INCHES
DTCO   .US/F  : DELTA-T COMPRESSIONAL
DTSM   .US/F  : DELTA-T SHEAR
GRS    .GAPI  : GAMMA RAY FROM SONIC LOG
SPHI_LS.DEC   : SONIC POROSITY [LIMESTONE]
~Params ----------------------------------------------------
~Other -----------------------------------------------------
~ASCII -----------------------------------------------------
# ...
 4900.00000   13.13580    0.04160   11.03030   -0.05950    0.00030    3.27050    2.80580    6.28000 3375.53910 3356.35450 2990.60570  359.19580  145.15380  291.98370  174.14450   87.98990   85.97990   12.18220    0.28530
 4900.50000   13.29200    0.04400   11.03030   -0.05680   -0.00050    3.29360    2.80170    6.44040 3328.90650 3357.00830 2990.84990  285.98320  147.01030  251.90130  154.25800   88.02330   84.97490   11.39790    0.28610
 4901.00000   13.66520    0.04680   11.03030   -0.05660   -0.00040    3.30320    2.80090    6.89850 3320.35620 3357.15670 2970.79370  198.16270  111.47520  177.38860  154.64120   88.14860   84.77390   11.83850    0.28850
 4901.50000   13.91710    0.04920   11.03030   -0.05620    0.00140    3.28240    2.80050    7.38080 3359.26540 3357.03910 2949.82620  213.34680  117.96460  192.75160  133.21540   88.61900   84.93170   12.25330    0.29220
 4902.00000   13.08580    0.05600   11.03030   -0.05560    0.00320    3.25670    2.79950    7.52560 3300.07420 3357.15040 2945.26200  198.16270  118.48510  169.38920  148.67560   89.13690   85.97990   12.22240    0.29620
 4902.50000   12.53840    0.06310   11.03040   -0.05540    0.00350    3.22410    2.79920    7.13010 3370.09030 3357.26170 2955.22850  101.02680   76.59430   93.83670  128.54230   89.73070   86.38190   12.22100    0.30120
 4903.00000   11.87870    0.07230   11.03040   -0.05090    0.00200    3.21040    2.79200    6.73460 3383.63940 3362.93970 2965.19480  102.90890   91.27430   96.91720  121.80650   90.93910   86.12750   11.47190    0.30740
 4903.50000   11.66940    0.07420   11.03040   -0.03920    0.00050    3.25260    2.77320    6.59530 3351.51270 3372.86570 2947.70870  142.80300   86.35760  121.50580   67.61880   91.70850   87.85370   11.02870    0.31030
 4904.00000   12.23730    0.07670   11.03210   -0.02940   -0.00090    3.31950    2.75740    6.82770 3368.69210 3382.79170 2931.81670   61.94580   53.93760   64.27530   68.20050   91.43240   88.01550   10.35100    0.30900
 4904.50000   13.64940    0.07490   11.03390   -0.02600   -0.00050    3.36320    2.75190    7.28910 3383.11250 3392.71780 2945.30710   95.68940   74.50270   97.36540   57.53710   91.41890   88.47150   10.04510    0.30740
 4905.00000   14.70960    0.07210   11.03580   -0.03110    0.00110    3.39220    2.76000    8.15130 3342.86910 3391.74370 2971.86400   95.55550   66.38530   81.51740   65.47270   91.52760   87.78890   11.55590    0.31430
 4905.50000   15.24270    0.06250   11.03770   -0.04700    0.00250    3.41030    2.78550    8.38810 3352.07590 3381.84420 2972.28490   66.61560   58.60890   64.87120   62.52010   93.45730   87.48740   12.79560    0.32030
 4906.00000   15.87910    0.05120   11.03960   -0.06520    0.00250    3.48080    2.81490    8.03000 3387.63330 3371.94480 2965.41870  109.89290   61.94580  105.24600   80.13750   93.21570   87.48740   14.31420    0.31980
 4906.50000   16.45350    0.04080   11.04140   -0.08630    0.00230    3.68380    2.84900    7.62530 3399.42040 3365.76660 2965.41870  229.69430  123.76940  163.48700  130.66790   91.92710   88.59300   14.32150    0.31320
 4907.00000   16.86450    0.03840   11.04330   -0.09900    0.00210    3.84480    2.87600    7.36780 3381.81100 3373.67290 2968.80760  258.97300  142.14560  242.46270  196.20180   90.50790   88.59300   14.59760    0.30060
 4907.50000   17.15130    0.04200   11.04520   -0.09950    0.00180    3.93100    2.86890    6.72940 3376.88210 3381.57890 2944.69430  305.77270  143.46350  271.77250  172.63550   89.66380   86.48240   14.88830    0.29900
 4908.00000   18.54340    0.04650   11.04700   -0.08810    0.00140    3.80800    2.85190    6.66510 3399.53610 3389.48510 2913.34790  284.01070  136.99390  258.97300  178.77730   89.19640   86.46680   15.59950    0.29270
 4908.50000   19.95980    0.04460   11.04890   -0.07990    0.00120    3.68080    2.83410    6.60630 3410.63600 3395.95140 2913.48220  343.46670  148.85840  286.20330  151.63150   88.87440   85.37690   16.16230    0.29580
 4909.00000   19.41120    0.03870   11.05080   -0.06810    0.00200    3.57710    2.82620    6.11110 3373.04810 3399.63230 2959.45510  440.10420  153.23930  351.17130  174.34550   47.72410   85.44410   16.18470    0.01120
 4909.50000   19.11920    0.03050   11.05270   -0.08880    0.01020    3.56040    2.85280    6.08900 3352.32590 3403.31320 2959.80740  563.50460  166.90640  426.27250  256.59400   48.19440   85.87940   17.24310    0.00230
 4910.00000   20.51590    0.02550   11.05450   -0.09870    0.01240    3.57640    2.86890    6.11430 3368.70020 3403.29760 2905.15280  617.79520  173.34280  441.42860  245.02270   47.83720   85.15240   19.28450    0.00070
 4910.50000   22.28060    0.02340   11.05640   -0.09870    0.01320    3.60790    2.86900    6.17700 3386.15700 3391.09740 2919.36010  734.78500  175.11400  456.22060  276.25520   47.31280   84.97490   20.94710   -0.00250
 4911.00000   24.21900    0.02370   11.05830   -0.09150    0.01060    3.62830    2.85730    6.36520 3401.96040 3378.70970 2950.49370  741.59750  178.91620  476.19350  221.62520   47.19730   84.97490   20.17260   -0.00330
 4911.50000   23.40940    0.02420   11.06010   -0.08610    0.00270    3.61490    2.84860    6.34220 3379.79710 3366.32200 2977.79610  670.00820  172.72580  434.21350  213.34680   47.05990   85.17590   18.75190   -0.00330
 4912.00000   24.14690    0.02480   11.06200   -0.08680   -0.00120    3.57550    2.84980    6.22440 3344.67970 3368.61010 2965.07520  741.59750  180.85980  478.39600  227.05980   47.08540   84.77390   17.37360   -0.00330
 4912.50000   23.82210    0.02520   11.06390   -0.08430   -0.00120    3.56110    2.84570    5.63480 3342.18090 3372.99460 2929.48440  783.82010  185.76590  517.43480  238.33200   47.01010   84.17090   18.34640   -0.00330
 4913.00000   23.49730    0.02520   11.06580   -0.08060   -0.00120    3.56490    2.83980    5.24500 3363.14230 3377.37940 2931.93870 1053.10790  196.34230  701.64940  236.14260   47.13130   83.56780   19.05080   -0.00370
 4913.50000   22.48610    0.02670   11.06760   -0.07520   -0.00120    3.61270    2.83110    5.30990 3395.19240 3382.67260 2963.05740  599.76890  172.54480  489.56180  273.80170   47.43340   84.37190   20.36150    0.00050
 4914.00000   21.46080    0.03040   11.06950   -0.07630    0.00260    3.62450    2.83280    5.37480 3397.99000 3390.64990 2967.30130  630.70690  184.51300  450.54210  306.80920   47.86350   85.19540   20.32700    0.00560
 4914.50000   21.01100    0.03420   11.07140   -0.08090    0.00720    3.62540    2.84190    5.44680 3374.69260 3393.66500 2947.36300  551.96530  176.99430  512.68150  332.78430   48.99370   85.97990   20.00530    0.01060
 4915.00000   22.65470    0.04460   11.07320   -0.08120    0.00950    3.47410    2.82620    6.04230 3352.07540 3396.67990 2961.41380  300.18070  113.11540  215.32480  175.90390   49.97140   88.19090   21.49210    0.01570
 4915.50000   26.40850    0.06440   11.07510   -0.05130    0.01030    3.32320    2.79440    6.93530 3351.57100 3397.73240 2996.98560   76.24170   62.48270   98.63160   59.47690   50.62750   88.29150   22.59770    0.02080
 4916.00000   30.10760    0.09340   11.07480   -0.02450    0.00830    3.19040    2.74970    7.99420 3369.23610 3392.73970 2995.02980   52.95120   36.77550   37.98280   23.26310   51.13090   88.29150   25.47960    0.02520
 4916.50000   31.70170    0.12150   11.07360    0.00490    0.00260    3.08200    2.70400    8.74700 3396.93850 3387.74730 2967.13530   29.06390   26.42030   27.08460   23.40170   51.44560   89.10680   27.32970    0.02630
 4917.00000   30.25350    0.13720   11.07230    0.01540   -0.00200    3.13100    2.68250    8.76440 3351.38450 3382.75490 2952.35450   23.07570   22.03510   22.44560   16.69580   51.56370   90.70350   28.79240    0.02720
 4917.50000   25.34000    0.11790   11.07100    0.01070   -0.00470    3.16900    2.69380    7.43920 3398.90330 3377.76250 2954.80590   31.93700   22.03510   40.23810   22.54220   51.44280   90.50250   24.67120    0.02710
 4918.00000   21.22910    0.09720   11.06970   -0.00140   -0.00310    3.21010    2.71220    6.47430 3404.46610 3378.19210 2967.91380   87.37000   52.90230   76.08560   39.70170   51.32200   91.53240   20.04810    0.02650
