~Version ---------------------------------------------------
VERS.   2.0 : CWLS log ASCII Standard -VERSION 2.0
WRAP.    NO : One line per depth step
DLM . SPACE : Column Data Section Delimiter
~Well ------------------------------------------------------
STRT .F                 497.0 : START DEPTH
STOP .F                9010.5 : STOP DEPTH
STEP .F                   0.5 : STEP
NULL .               -9999.25 : NULL VALUE
COMP .                        : COMPANY
WELL .                        : WELL
FLD  .                        : FIELD
LOC  .                        : LOCATION
PROV .                        : PROVINCE
CNTY .                        : COUNTY
STAT .                        : STATE
CTRY .                        : COUNTRY
SRVC .                        : SERVICE COMPANY
DATE .                        : DATE
UWI  .                        : UNIQUE WELL ID
API  .                        : API NUMBER
SLAT .WGS84 2.612432138377798 : SURFACE LATITUDE
SLON .WGS84      7.3655865084 : SURFACE LONGITUDE
DATUM.F                   nan : DEPTH DATUM ELEV
~Curve Information -----------------------------------------
DEPT   .F     : 
SGRDD  .GAPI  : SPECTROSCOPY GAMMA RAY FROM DENSITY LOG
TNPH_LS.DEC   : THERMAL NEUTRON POROSITY [LIMESTONE]
CALD   .IN    : CALIPER FROM DENSITY LOG
DPHZ_LS.DEC   : HGRD STANDARD RESOLUTION DENSITY POROSITY
HDRA   .G/C3  : HRDD SPINE AND RIBS DENSITY CORRECTION
PEFZ   .B/E   : HRDD STANDARD RESOLUTION FORMATION PHOTOELECTRIC FACTOR
RHOZ   .G/C3  : HRDD STANDARD RESOLUTION FORMATION DENSITY
CGRD   .GAPI  : CORRECTED GAMMA RAY FROM DENSITY LOG
TEND   .LB    : TENSION FROM DENSITY LOG
TENR   .LB    : TENSION FROM RESISTIVITY LOG
TENS   .LB    : TENSION FROM SONIC LOG
RLA5   .OHMM  : APPARENT RESISTIVITY FROM COMPUTED FOCUSING MODE 5
RLA3   .OHMM  : APPARENT RESISTIVITY FROM COMPUTED FOCUSING MODE 3
RLA4   .OHMM  : APPARENT RESISTIVITY FROM COMPUTED FOCUSING MODE 4
RXOZ   .OHMM  : INVADED FORMATION RESISTIVITY FILTERED AT 18 INCHES
DTCO   .US/F  : DELTA-T COMPRESSIONAL
DTSM   .US/F  : DELTA-T SHEAR
GRS    .GAPI  : GAMMA RAY FROM SONIC LOG
SPHI_LS.DEC   : SONIC POROSITY [LIMESTONE]
~Params ----------------------------------------------------
~Other -----------------------------------------------------
~ASCII -----------------------------------------------------
# ...
 5843.50000   27.51900    0.09140    8.48160   -0.02300   -0.00430    3.33340    2.74690    2.10050 3873.61890 3872.71780 3484.96510  210.38840  113.35680  136.10150  130.17290   51.91000   98.26370   26.62440    0.03130
 5844.00000   28.97110    0.09870    8.51950   -0.01740   -0.00410    3.21090    2.73810    2.10630 3908.48320 3861.83350 3446.10010  116.12560   54.12220   58.65390  131.72860   51.79380   95.49340   26.28330    0.02960
 5844.50000   28.97330    0.11400    8.54520    0.01050   -0.00400    3.12840    2.69120    2.14490 3842.97680 3825.69630 3422.28000   34.56510   25.00270   29.45760   23.70760   51.67000   96.05000   27.04920    0.02940
 5845.00000   27.01560    0.14400    8.51330    0.05000   -0.00480    3.07430    2.62960    2.30490 3772.96440 3788.90530 3502.54590   19.81650   11.71650   14.76210   11.51050   51.67000   95.45630   27.74520    0.02910
 5845.50000   25.06060    0.17840    8.54490    0.07070   -0.00570    3.02430    2.59690    2.46750 3850.95260 3841.80400 3531.54130   10.88340    8.06560    9.00910    8.78880   51.67000   94.15000   29.03580    0.02900
 5846.00000   23.84870    0.19940    8.55610    0.07560   -0.00650    2.96260    2.58840    2.63010 3797.35860 3841.91240 3462.53880    9.56550    7.88180    8.10280    7.47130   52.29840   93.75000   27.90620    0.03240
 5846.50000   23.20990    0.19860    8.56660    0.07690   -0.00700    2.94540    2.58620    2.51920 3864.92720 3842.02050 3505.62380    9.39080    8.13970    8.40720    6.97360   53.08530   95.55000   27.92410    0.03720
 5847.00000   23.48690    0.19330    8.55970    0.07530   -0.00700    2.97010    2.58870    2.13860 3794.05320 3855.30790 3526.87670   10.44110    9.36130    8.33010    7.20180   53.46710   96.25000   27.95190    0.04120
 5847.50000   24.82660    0.18210    8.55280    0.07050   -0.00700    2.99470    2.59660    2.66390 3829.83960 3866.20000 3491.41850   11.82500   11.11450   10.48940    8.31960   53.68000   96.75420   28.32990    0.04300
 5848.00000   28.08560    0.16580    8.54900    0.05550   -0.00530    3.01930    2.62070    3.01950 3871.57810 3873.17580 3527.55050   16.32830   17.72700   14.21940   10.74300   53.98000   97.21250   28.22120    0.04490
 5848.50000   33.71110    0.14670    8.54920    0.03740   -0.00240    3.04270    2.64920    3.59380 3904.51460 3880.15160 3579.24120   27.61660   27.93670   50.63680   18.80280   54.19000   97.66150   28.40200    0.04660
 5849.00000   46.25790    0.13780    8.55310    0.03020    0.00050    3.04370    2.66130    4.97910 3887.68120 3864.71800 3439.34180   49.36540   45.85540   50.81240   18.75090   54.28000   98.08460   29.39070    0.04760
 5849.50000   58.80470    0.14180    8.56320    0.03620    0.00320    3.08080    2.65170    5.94080 3990.98950 3883.90500 3567.63650    9.13460   10.23860    7.66680   23.78290   54.55000   98.55000   32.92340    0.04850
 5850.00000   68.83900    0.14980    8.57330    0.05080    0.00110    3.11220    2.62560    6.90240 3995.67290 3903.09200 3520.42530    6.67660    7.05630    8.40720   12.55890   54.46300   97.12500   44.18160    0.04880
 5850.50000   67.37410    0.16570    8.58340    0.05750   -0.00110    3.14330    2.61830    6.62020 3990.09590 3919.52980 3427.25220    8.14030    8.02850    6.99150    7.38920   54.37300   96.73750   57.74280    0.04830
 5851.00000   60.09570    0.16680    8.59340    0.04730   -0.00320    3.17190    2.63380    5.96850 3957.37570 3920.19600 3606.81980   12.78900   12.13770   13.45420    5.86810   54.28000   96.95000   66.20650    0.04740
 5851.50000   52.74500    0.15970    8.58280    0.03110   -0.00480    3.24620    2.65990    5.01540 3898.55220 3920.86230 3541.08960    8.60330    8.78590    8.18910    5.81420   54.19000   96.65000   63.62730    0.04660
 5852.00000   47.61390    0.14510    8.56500    0.01810   -0.00640    3.33050    2.68080    4.28560 3858.21780 3921.52860 3439.57250   10.48940   11.16760    8.28140    9.26180   54.14880   97.10000   56.38250    0.04610
 5852.50000   44.20040    0.13490    8.55090    0.01470   -0.00560    3.35410    2.68630    3.61180 3853.33760 3922.02540 3620.28000   16.86380   16.18180   15.33180   12.63270   54.10000   96.55000   51.46340    0.04520
 5853.00000   42.54840    0.13010    8.55420    0.01530   -0.00010    3.33740    2.68540    2.98160 3853.33760 3904.60300 3568.96360   12.96710   12.49760   11.18870   15.59270   53.89000   95.87310   47.16740    0.04390
 5853.50000   40.74980    0.11490    8.55780    0.01080    0.00440    3.35800    2.69330    2.58950 3853.33760 3886.49190 3465.38790   19.74240   18.34390   11.08600   13.57880   53.59000   95.95000   44.09580    0.04260
 5854.00000   37.32900    0.09670    8.56140   -0.00530    0.00410    3.52800    2.71880    1.93500 3953.05790 3874.55370 3495.10790   47.53690   24.72420   35.26970   14.89030   52.80400   96.02690   41.44350    0.03640
 5854.50000   32.27770    0.07840    8.56500   -0.03050    0.00390    3.69120    2.75920    1.72120 3999.54490 3892.15580 3508.09200  114.15380   63.36610   85.73260   28.26050   52.02400   95.35000   38.24880    0.03020
 5855.00000   27.22650    0.06250    8.56710   -0.05430    0.00420    3.88970    2.79730    1.70350 3780.23390 3909.75810 3505.35640  256.01820  183.33280  193.40440  196.79910   51.63140   94.15000   31.95630    0.02840
 5855.50000   22.63460    0.05250    8.56740   -0.07010    0.00450    4.06000    2.83210    1.76920 3999.35010 3925.46070 3510.91020  124.57880   98.35680  103.57990  176.18740   51.49000   92.75000   26.61340    0.02800
 5856.00000   21.67520    0.05340    8.59790   -0.10010    0.00600    4.11690    2.88310    1.83490 3968.67040 3912.75200 3514.09400  177.81930  104.17100  119.62080  320.80060   51.19000   92.75000   25.22800    0.02460
 5856.50000   26.31740    0.06690    8.60990   -0.09980    0.00740    3.96860    2.88920    1.90060 3790.40330 3887.19260 3504.95800   64.69540   29.73050   36.08160   75.97540   51.07000   94.35000   25.61790    0.02510
 5857.00000   30.42640    0.08940    8.57350   -0.08040    0.00610    3.73520    2.83660    2.65600 3969.49490 3861.63350 3486.85960   27.61660   20.37220   21.73030   35.35330   51.13000   93.90000   28.64780    0.02640
 5857.50000   30.37260    0.10380    8.52980   -0.03120    0.00100    3.53360    2.76030    2.98460 4006.42700 3853.61650 3464.78780   27.87240   21.65140   25.41760   22.06160   51.49000   93.80000   29.99300    0.02790
 5858.00000   26.48110    0.11700    8.54870    0.00710   -0.00420    3.43170    2.69980    3.35400 3768.44650 3857.31350 3522.39480   18.40750   15.74500   18.23850   17.76140   51.79430   96.03570   29.05130    0.02950
 5858.50000   22.71200    0.12330    8.55400    0.01840   -0.00360    3.35990    2.68040    4.07260 3878.10230 3861.01030 3566.24410   21.23520   15.79040   16.40380   17.25700   52.03000   97.90380   26.39460    0.03140
 5859.00000   20.07420    0.13750    8.56480    0.02870   -0.00230    3.27770    2.66410    4.81250 3707.52690 3861.48730 3479.74900   26.61670   22.33970   23.39370   18.92370   53.95000   99.21150   23.76470    0.04490
 5859.50000   17.58030    0.15140    8.58350    0.04760   -0.00010    3.22430    2.63330    5.55240 3943.81760 3877.88890 3524.07760   14.78760   13.65050   11.82500   15.02820   55.03000  100.65000   21.28510    0.05220
 5860.00000   16.41800    0.16910    8.64110    0.06470    0.00760    3.21200    2.60570    6.34130 3926.83810 3898.95630 3567.42990   11.60900    9.06040   10.39310   14.61820   56.05000  101.42340   18.58260    0.06290
 5860.50000   18.34540    0.19540    8.72670    0.07990    0.01510    3.21800    2.58120    8.03870 3968.78690 3918.32420 3577.97710   13.08720    6.12240    7.66680    7.45760   58.27000  103.90930   15.99870    0.07690
 5861.00000   23.69320    0.23020    8.78100    0.09590    0.02080    3.20540    2.55770   10.75420 3894.28590 3923.30520 3571.05760    4.49140    4.22420    4.28910    5.86090   58.90000  106.59920   17.18340    0.08050
 5861.50000   27.67420    0.25210    8.77040    0.10390    0.02680    3.16000    2.54230   12.99710 3857.81710 3922.78710 3543.87720    6.73840    5.90790    4.28910    4.28990   59.68000  109.27970   21.74230    0.08530
