~Version ---------------------------------------------------
VERS.   2.0 : CWLS log ASCII Standard -VERSION 2.0
WRAP.    NO : One line per depth step
DLM . SPACE : Column Data Section Delimiter
~Well ------------------------------------------------------
STRT .F                 497.0 : START DEPTH
STOP .F                9010.5 : STOP DEPTH
STEP .F                   0.5 : STEP
NULL .               -9999.25 : NULL VALUE
COMP .                        : COMPANY
WELL .                        : WELL
FLD  .                        : FIELD
LOC  .                        : LOCATION
PROV .                        : PROVINCE
CNTY .                        : COUNTY
STAT .                        : STATE
CTRY .                        : COUNTRY
SRVC .                        : SERVICE COMPANY
DATE .                        : DATE
UWI  .                        : UNIQUE WELL ID
API  .                        : API NUMBER
SLAT .WGS84 2.612432138377798 : SURFACE LATITUDE
SLON .WGS84      7.3655865084 : SURFACE LONGITUDE
DATUM.F                   nan : DEPTH DATUM ELEV
~Curve Information -----------------------------------------
DEPT   .F     : 
SGRDD  .GAPI  : SPECTROSCOPY GAMMA RAY FROM DENSITY LOG
TNPH_LS.DEC   : THERMAL NEUTRON POROSITY [LIMESTONE]
CALD   .IN    : CALIPER FROM DENSITY LOG
DPHZ_LS.DEC   : HGRD STANDARD RESOLUTION DENSITY POROSITY
HDRA   .G/C3  : HRDD SPINE AND RIBS DENSITY CORRECTION
PEFZ   .B/E   : HRDD STANDARD RESOLUTION FORMATION PHOTOELECTRIC FACTOR
RHOZ   .G/C3  : HRDD STANDARD RESOLUTION FORMATION DENSITY
CGRD   .GAPI  : CORRECTED GAMMA RAY FROM DENSITY LOG
TEND   .LB    : TENSION FROM DENSITY LOG
TENR   .LB    : TENSION FROM RESISTIVITY LOG
TENS   .LB    : TENSION FROM SONIC LOG
RLA5   .OHMM  : APPARENT RESISTIVITY FROM COMPUTED FOCUSING MODE 5
RLA3   .OHMM  : APPARENT RESISTIVITY FROM COMPUTED FOCUSING MODE 3
RLA4   .OHMM  : APPARENT RESISTIVITY FROM COMPUTED FOCUSING MODE 4
RXOZ   .OHMM  : INVADED FORMATION RESISTIVITY FILTERED AT 18 INCHES
DTCO   .US/F  : DELTA-T COMPRESSIONAL
DTSM   .US/F  : DELTA-T SHEAR
GRS    .GAPI  : GAMMA RAY FROM SONIC LOG
SPHI_LS.DEC   : SONIC POROSITY [LIMESTONE]
~Params ----------------------------------------------------
~Other -----------------------------------------------------
~ASCII -----------------------------------------------------
# ...
 7693.50000   14.70120    0.01740    8.33880    0.01110   -0.00990    4.92480    2.69370    2.63380 4111.79740 4141.02200 3737.92020  257.12190  261.82290  290.19710  225.46650   49.87000   93.95000   13.21130    0.01620
 7694.00000   14.68570    0.01760    8.32860    0.01020   -0.00910    4.90800    2.69400    2.70810 4018.12040 4107.77780 3770.06010  292.54670  316.84880  289.80400  238.84000   49.93000   93.95000   14.02850    0.01650
 7694.50000   13.85440    0.01850    8.32710    0.01110   -0.00830    4.89120    2.69460    2.10220 4014.39720 4108.03470 3904.45360  209.91870  224.94740  236.10330  170.43570   50.00070   94.20000   14.22480    0.01680
 7695.00000   13.13620    0.02000    8.32840    0.00790   -0.00740    4.85500    2.69580    2.10630 4182.06450 4211.89940 3849.02050  150.62840  160.67000  157.73460  143.54100   50.06500   94.35000   14.54990    0.01720
 7695.50000   13.06730    0.02110    8.33710    0.00740   -0.00660    4.82540    2.69600    2.10640 4303.81450 4277.82180 3828.65230  160.67000  160.67000  172.17290  178.10700   50.11000   94.19370   13.11950    0.01760
 7696.00000   13.06980    0.02240    8.34580    0.00850   -0.00580    4.82170    2.69450    2.10650 4344.46630 4333.60210 3919.87890  188.80130  204.19210  198.23010  168.94780   50.11000   94.00620   12.96880    0.01790
 7696.50000   12.87900    0.02360    8.33840    0.01120   -0.00500    4.81970    2.69340    2.10640 4321.09130 4335.32370 3983.96220  157.00910  163.88660  173.04050  133.00040   50.11000   94.06670   12.80130    0.01820
 7697.00000   12.52930    0.02410    8.32860    0.01210   -0.00410    4.80860    2.69220    2.10610 4225.67430 4322.97360 4005.59230  125.26420  125.26420  136.77320  109.08540   50.11000   94.45000   14.49190    0.01810
 7697.50000   11.67460    0.02440    8.32780    0.01230   -0.00440    4.84770    2.69100    2.10430 4255.21440 4310.62400 3994.97730  155.42340  149.54120  167.47610  114.49530   50.11000   94.30000   14.92890    0.01800
 7698.00000   11.63340    0.02430    8.32780    0.01200   -0.00490    4.88470    2.68990    2.09150 4277.71090 4298.27440 3959.80000  193.64320  202.31820  206.08340  125.99310   50.09200   94.35000   15.13420    0.01800
 7698.50000   11.64450    0.02350    8.32850    0.01430   -0.00540    4.92420    2.68910    1.96170 4292.81050 4295.41060 3925.78320  198.85150  217.80460  209.91870  132.60190   50.05000   94.34760   15.50500    0.01790
 7699.00000   11.52230    0.02250    8.32860    0.01160   -0.00400    4.90810    2.69320    1.79180 4292.81050 4299.52490 3960.92040  202.31820  215.57700  213.82530  131.42910   50.05000   94.05020   15.88620    0.01780
 7699.50000   11.65980    0.02180    8.32870    0.00900   -0.00290    4.89220    2.69820    1.59450 4267.47850 4303.63920 3903.07710  187.93300  188.17900  200.46150  121.80800   50.05000   94.30010   16.36140    0.01760
 7700.00000   11.99470    0.02120    8.32790    0.00380   -0.00230    4.85110    2.70320    1.53610 4216.61570 4257.95360 3894.56540  166.70590  168.12450  182.80620  141.17410   50.05000   93.95000   16.60770    0.01710
 7700.50000   12.14090    0.02130    8.32720    0.00230   -0.00180    4.80110    2.70710    1.47770 4165.75240 4197.84280 3920.67870  223.70650  260.81270  238.84000  180.60080   50.05000   93.78500   13.86050    0.01660
 7701.00000   11.86920    0.02230    8.32720    0.00080   -0.00140    4.78090    2.70830    1.41930 4119.53370 4137.73140 3921.23390  247.81240  200.27930  259.50340  166.54710   50.05000   93.65000   13.09910    0.01700
 7701.50000   11.50620    0.02330    8.32720   -0.00060   -0.00130    4.78250    2.70890    1.36090 4088.70630 4081.92800 3856.51150  154.67440  145.29730  148.55960  147.00830   50.05000   92.95000   12.63290    0.01750
 7702.00000   11.55860    0.02220    8.32700    0.00030   -0.00120    4.78400    2.70860    1.40710 4079.00370 4079.10160 3800.75630  143.18080  134.85240  162.15820  134.68990   50.05000   93.77500   14.16620    0.01780
 7702.50000   11.94080    0.02110    8.32660    0.00240   -0.00110    4.79480    2.70660    1.68680 4075.07370 4090.51730 3904.27220  211.86290  192.31490  245.53820  198.62180   50.05000   94.05000   15.26860    0.01760
 7703.00000   12.82080    0.02050    8.32680    0.00250   -0.00120    4.80290    2.70560    1.82940 4085.16430 4107.39840 4084.70920  287.20180  303.53670  297.99100  213.82530   50.05000   94.35020   14.60910    0.01740
 7703.50000   12.70170    0.02000    8.33030   -0.00220   -0.00120    4.79740    2.71330    1.91090 4062.85030 4101.75490 3921.41210  238.29010  245.53820  254.76230  186.72400   50.03360   94.05130   13.66330    0.01710
 7704.00000   12.90710    0.01960    8.33790   -0.00260   -0.00130    4.81080    2.71470    1.90400 4210.22310 4189.78320 3944.45950  206.08340  200.46150  217.80460  172.96850   49.97910   93.75260   11.98280    0.01680
 7704.50000   13.48890    0.01910    8.33220    0.00020   -0.00190    4.85300    2.70980    1.89450 4193.78270 4215.21880 4007.97580  271.74600  274.26290  279.36700  199.04490   49.93000   93.60000   13.46140    0.01660
 7705.00000   12.65250    0.01870    8.33470    0.00650   -0.00290    4.89710    2.70090    2.28560 4068.62180 4173.94580 4071.49240  274.26290  262.51140  280.65780  232.65430   49.87000   93.47220   15.09820    0.01630
 7705.50000   12.76880    0.01810    8.34030    0.01110   -0.00390    4.93590    2.69320    2.69850 4122.16160 4116.56250 3955.17360  247.81240  247.81240  262.10020  259.50340   49.87000   93.35000   16.13080    0.01640
 7706.00000   12.91400    0.01930    8.34570    0.00990   -0.00490    4.92680    2.69400    2.71330 4200.92430 4162.67770 3935.86060  271.74600  271.74600  271.92170  236.28480   49.93000   93.05000   14.71010    0.01680
 7706.50000   12.96520    0.02060    8.34700    0.01040   -0.00560    4.91310    2.69510    2.72580 4262.63380 4207.23580 4019.61820  243.28490  274.26290  267.05950  189.57650   50.05000   93.05000   13.19760    0.01710
 7707.00000   12.45020    0.02320    8.34700    0.01420   -0.00600    4.92040    2.68600    2.73830 4269.08840 4251.79440 3914.14430  195.89390  187.93300  200.46150  168.24990   50.05000   94.45000   12.46100    0.01740
 7707.50000   11.59360    0.02540    8.34700    0.02100   -0.00640    4.92780    2.67620    2.73850 4197.80960 4265.02830 3956.67990  193.20350  228.07990  187.93300  181.26780   50.11000   94.65000   11.38610    0.01740
 7708.00000   10.99760    0.02640    8.36780    0.02210   -0.00720    4.93510    2.67440    2.70950 4164.74900 4282.63920 3981.45430  221.85800  211.86290  215.80580  209.91870   50.11000   95.25000   11.29080    0.01750
 7708.50000   10.32210    0.02640    8.37610    0.02120   -0.00710    4.92970    2.67580    2.68350 4266.48880 4298.61470 3999.19120  191.87220  188.31730  177.00150  200.46150   50.11000   94.01250   11.89860    0.01750
 7709.00000   10.41580    0.02600    8.37320    0.02120   -0.00690    4.92250    2.67590    2.42210 4256.20460 4277.97120 4015.25220  155.56820  159.21910  147.87640  171.08510   50.11000   93.55710   11.59940    0.01760
 7709.50000   10.88250    0.02550    8.37020    0.02100   -0.00660    4.93200    2.67620    2.01320 4177.65330 4240.82810 3963.60420  153.43160  162.15290  151.32440  159.19550   50.11000   95.01080   12.40040    0.01760
 7710.00000   11.70480    0.02390    8.37130    0.01540   -0.00600    4.92800    2.68540    2.04470 4147.68700 4203.68550 3902.14010  193.20350  161.76310  172.96850  194.23390   50.11000   94.08350   12.19900    0.01770
 7710.50000   12.42490    0.02240    8.37300    0.00590   -0.00450    4.87480    2.69950    1.95210 4190.82180 4172.94190 3925.44360  276.80320  255.53070  264.33290  232.73680   50.11000   94.18980   13.12320    0.01770
 7711.00000   12.64220    0.02170    8.35510   -0.00220   -0.00300    4.82300    2.71350    1.85950 4193.74320 4157.14500 3915.82620  257.12190  249.72650  250.10770  259.50340   50.11000   94.75000   12.49290    0.01770
 7711.50000   12.62700    0.02270    8.34880   -0.00360   -0.00160    4.78700    2.71580    2.01500 4165.01270 4141.34770 3916.71800  274.26290  245.53820  263.11710  254.32230   50.17000   94.45000   11.70170    0.01780
