~Version ---------------------------------------------------
VERS.   2.0 : CWLS log ASCII Standard -VERSION 2.0
WRAP.    NO : One line per depth step
DLM . SPACE : Column Data Section Delimiter
~Well ------------------------------------------------------
STRT .F                 497.0 : START DEPTH
STOP .F                9010.5 : STOP DEPTH
STEP .F                   0.5 : STEP
NULL .               -9999.25 : NULL VALUE
COMP .                        : COMPANY
WELL .                        : WELL
FLD  .                        : FIELD
LOC  .                        : LOCATION
PROV .                        : PROVINCE
CNTY .                        : COUNTY
STAT .                        : STATE
CTRY .                        : COUNTRY
SRVC .                        : SERVICE COMPANY
DATE .                        : DATE
UWI  .                        : UNIQUE WELL ID
API  .                        : API NUMBER
SLAT .WGS84 2.612432138377798 : SURFACE LATITUDE
SLON .WGS84      7.3655865084 : SURFACE LONGITUDE
DATUM.F                   nan : DEPTH DATUM ELEV
~Curve Information -----------------------------------------
DEPT   .F     : 
SGRDD  .GAPI  : SPECTROSCOPY GAMMA RAY FROM DENSITY LOG
TNPH_LS.DEC   : THERMAL NEUTRON POROSITY [LIMESTONE]
CALD   .IN    : CALIPER FROM DENSITY LOG
DPHZ_LS.DEC   : HGRD STANDARD RESOLUTION DENSITY POROSITY
HDRA   .G/C3  : HRDD SPINE AND RIBS DENSITY CORRECTION
PEFZ   .B/E   : HRDD STANDARD RESOLUTION FORMATION PHOTOELECTRIC FACTOR
RHOZ   .G/C3  : HRDD STANDARD RESOLUTION FORMATION DENSITY
CGRD   .GAPI  : CORRECTED GAMMA RAY FROM DENSITY LOG
TEND   .LB    : TENSION FROM DENSITY LOG
TENR   .LB    : TENSION FROM RESISTIVITY LOG
TENS   .LB    : TENSION FROM SONIC LOG
RLA5   .OHMM  : APPARENT RESISTIVITY FROM COMPUTED FOCUSING MODE 5
RLA3   .OHMM  : APPARENT RESISTIVITY FROM COMPUTED FOCUSING MODE 3
RLA4   .OHMM  : APPARENT RESISTIVITY FROM COMPUTED FOCUSING MODE 4
RXOZ   .OHMM  : INVADED FORMATION RESISTIVITY FILTERED AT 18 INCHES
DTCO   .US/F  : DELTA-T COMPRESSIONAL
DTSM   .US/F  : DELTA-T SHEAR
GRS    .GAPI  : GAMMA RAY FROM SONIC LOG
SPHI_LS.DEC   : SONIC POROSITY [LIMESTONE]
~Params ----------------------------------------------------
~Other -----------------------------------------------------
~ASCII -----------------------------------------------------
# ...
 8925.00000   -9999.25    0.01630    8.12710    0.02420   -0.00360    5.03610    2.66230   -9999.25 4677.29690 4659.88180   -9999.25  411.47490  499.33500  513.38060  228.37380   -9999.25   -9999.25   -9999.25   -9999.25
 8925.50000   -9999.25    0.00760    8.10460    0.00950   -0.00330    5.03570    2.68350   -9999.25 4702.19580 4659.06880   -9999.25  896.77120  891.78780 1032.62560  217.99330   -9999.25   -9999.25   -9999.25   -9999.25
 8926.00000   -9999.25    0.00230    8.09840    0.00490   -0.00300    5.11440    2.70050   -9999.25 4674.77050 4659.14500   -9999.25 1267.16100 1350.97800 1364.15540  821.56820   -9999.25   -9999.25   -9999.25   -9999.25
 8926.50000   -9999.25    0.00510    8.10730    0.01310   -0.00300    5.15850    2.69350   -9999.25 4661.22120 4674.05030   -9999.25  536.89260  545.08650  836.30680  281.02770   -9999.25   -9999.25   -9999.25   -9999.25
 8927.00000   -9999.25    0.01940    8.12840    0.03360   -0.00310    5.15330    2.67290   -9999.25 4760.23100 4728.13430   -9999.25  137.36210  157.00910  143.84240  121.91720   -9999.25   -9999.25   -9999.25   -9999.25
 8927.50000   -9999.25    0.03380    8.13630    0.04440   -0.00320    5.13570    2.65230   -9999.25 4789.40330 4724.67090   -9999.25  106.10960  108.08430  114.75950   70.72590   -9999.25   -9999.25   -9999.25   -9999.25
 8928.00000   -9999.25    0.03950    8.14420    0.04540   -0.00330    5.11810    2.63710   -9999.25 4710.05180 4721.20750   -9999.25  129.16220  134.07760  136.73030   76.13960   -9999.25   -9999.25   -9999.25   -9999.25
 8928.50000   -9999.25    0.03650    8.15420    0.03970   -0.00410    5.10110    2.64110   -9999.25 4776.81880 4727.90870   -9999.25  141.46210  147.87640  151.72350   85.93360   -9999.25   -9999.25   -9999.25   -9999.25
 8929.00000   -9999.25    0.02480    8.15430    0.03410   -0.00630    5.08400    2.65080   -9999.25 4828.56250 4749.83200   -9999.25  196.62290  190.63790  184.49940  107.09240   -9999.25   -9999.25   -9999.25   -9999.25
 8929.50000   -9999.25    0.01250    8.13840    0.02960   -0.00840    5.16370    2.66050   -9999.25 4767.31540 4771.75540   -9999.25  265.70220  268.98090  245.94600  156.49300   -9999.25   -9999.25   -9999.25   -9999.25
 8930.00000   -9999.25    0.00740    8.12170    0.02330   -0.00730    5.22000    2.67020   -9999.25 4728.91310 4782.66160   -9999.25  425.12580  430.28220  370.37170  211.42610   -9999.25   -9999.25   -9999.25   -9999.25
 8930.50000   -9999.25    0.00370    8.10190    0.01470   -0.00550    5.21040    2.68240   -9999.25 4786.31640 4787.64650   -9999.25  604.06300  631.96090  577.14730  259.77090   -9999.25   -9999.25   -9999.25   -9999.25
 8931.00000   -9999.25    0.00050    8.08210    0.00600   -0.00420    5.16050    2.69530   -9999.25 4794.42680 4792.63090   -9999.25  565.47710  564.64510  544.05140  249.64590   -9999.25   -9999.25   -9999.25   -9999.25
 8931.50000   -9999.25   -0.00150    8.06820   -0.00060   -0.00300    5.13650    2.70820   -9999.25 4651.91460 4737.78220   -9999.25  775.56570  841.78200  558.45330  316.57710   -9999.25   -9999.25   -9999.25   -9999.25
 8932.00000   -9999.25   -0.00350    8.06730   -0.00610   -0.00300    5.11460    2.71760   -9999.25 4945.38480 4804.84280   -9999.25 1497.62940 1954.42940 1209.91330  510.72500   -9999.25   -9999.25   -9999.25   -9999.25
 8932.50000   -9999.25   -0.00510    8.06810   -0.00640   -0.00300    5.11030    2.71860   -9999.25 4923.62840 4868.78910   -9999.25 2416.08420 1936.49320 1974.81090  900.91470   -9999.25   -9999.25   -9999.25   -9999.25
 8933.00000   -9999.25   -0.00620    8.08770   -0.00450   -0.00300    5.12310    2.71780   -9999.25 4844.06150 4799.16460   -9999.25 1675.93040 1421.34610 1495.90450  622.58650   -9999.25   -9999.25   -9999.25   -9999.25
 8933.50000   -9999.25   -0.00720    8.09570   -0.00330   -0.00300    5.11520    2.71520   -9999.25 4761.71090 4802.58740   -9999.25  978.33160  903.94010  793.64920  622.15160   -9999.25   -9999.25   -9999.25   -9999.25
 8934.00000   -9999.25   -0.00780    8.09610   -0.00340   -0.00320    5.06210    2.71520   -9999.25 4723.07570 4806.01030   -9999.25  673.14860  658.48750  640.52420  382.71840   -9999.25   -9999.25   -9999.25   -9999.25
 8934.50000   -9999.25   -0.00820    8.09650   -0.00010   -0.00340    5.01200    2.71240   -9999.25 4778.41850 4804.40970   -9999.25  708.89110  703.87700  676.95460  263.65240   -9999.25   -9999.25   -9999.25   -9999.25
 8935.00000   -9999.25   -0.00740    8.09880    0.00210   -0.00360    5.02180    2.70710   -9999.25 4775.47750 4801.15720   -9999.25  449.83030  426.12080  405.82360  214.38810   -9999.25   -9999.25   -9999.25   -9999.25
 8935.50000   -9999.25    0.00030    8.12020    0.00220    0.00220    5.04070    2.70680   -9999.25 4738.06930 4798.44730   -9999.25  266.78110  254.44470  257.12190  206.23760   -9999.25   -9999.25   -9999.25   -9999.25
 8936.00000   -9999.25    0.00500    8.12790   -0.00330    0.01570    5.05950    2.71470   -9999.25 4748.05760 4795.73780   -9999.25  279.36700  287.20180  274.26290  197.56430   -9999.25   -9999.25   -9999.25   -9999.25
 8936.50000   -9999.25    0.00540    8.13340   -0.00950    0.03090    5.07680    2.72450   -9999.25 4817.21000 4806.66020   -9999.25  236.64810  234.61150  241.05220  133.61490   -9999.25   -9999.25   -9999.25   -9999.25
 8937.00000   -9999.25    0.00550    8.12670   -0.01130    0.03220    5.06490    2.72710   -9999.25 4845.89110 4824.91060   -9999.25  221.85800  223.91290  229.13370  137.63370   -9999.25   -9999.25   -9999.25   -9999.25
 8937.50000   -9999.25    0.00560    8.11160   -0.00100    0.02540    4.93820    2.71790   -9999.25 4850.18260 4843.16110   -9999.25  326.60640  312.62520  403.69620  161.90920   -9999.25   -9999.25   -9999.25   -9999.25
 8938.00000   -9999.25    0.00600    8.17530    0.00920    0.01410    4.87640    2.69840   -9999.25 4848.13960 4812.05660   -9999.25  427.68820  407.69870  462.74660  217.80460   -9999.25   -9999.25   -9999.25   -9999.25
 8938.50000   -9999.25    0.00670    8.22790    0.01330    0.00970    4.84340    2.68890   -9999.25 4804.24120 4777.88040   -9999.25  491.48450  501.68300  543.86040  232.32450   -9999.25   -9999.25   -9999.25   -9999.25
 8939.00000   -9999.25    0.00630    8.23640    0.00450    0.01590    4.84950    2.69640   -9999.25 4703.77340 4743.70410   -9999.25  565.54080  617.33300  594.98150  195.66830   -9999.25   -9999.25   -9999.25   -9999.25
 8939.50000   -9999.25    0.00580    8.23350   -0.00420    0.02170    4.86740    2.70890   -9999.25 4612.44090 4724.28910   -9999.25  347.32560  393.16380  358.33010  126.35960   -9999.25   -9999.25   -9999.25   -9999.25
 8940.00000   -9999.25    0.00530    8.21360   -0.01180    0.02730    4.88540    2.72150   -9999.25 4789.26370 4747.68850   -9999.25  250.31080  249.34030  279.36700   57.12410   -9999.25   -9999.25   -9999.25   -9999.25
 8940.50000   -9999.25    0.00480    8.19470   -0.00850    0.03290    4.84840    2.72840   -9999.25 4851.31980 4778.83450   -9999.25  171.60700  175.90030  192.92480   35.01650   -9999.25   -9999.25   -9999.25   -9999.25
 8941.00000   -9999.25    0.00500    8.18260    0.00210    0.03500    4.68880    2.71390   -9999.25 4721.36870 4806.72710   -9999.25  137.36210  170.16500  151.14420   19.45440   -9999.25   -9999.25   -9999.25   -9999.25
 8941.50000   -9999.25   -9999.25    8.16970    0.01000    0.03710    4.36060    2.69630   -9999.25 4767.11870 4831.36570   -9999.25  152.02350  131.88910  160.56450   20.94350   -9999.25   -9999.25   -9999.25   -9999.25
 8942.00000   -9999.25   -9999.25    8.15310    0.01740    0.03150    4.08080    2.68210   -9999.25 4908.30810 4856.00440   -9999.25   82.72690   89.05920   89.05920    9.68090   -9999.25   -9999.25   -9999.25   -9999.25
 8942.50000   -9999.25   -9999.25    8.16400    0.02580    0.02010    3.76730    2.67090   -9999.25 4903.30470 4855.46090   -9999.25   94.99630   89.05920  118.52300    7.52670   -9999.25   -9999.25   -9999.25   -9999.25
 8943.00000   -9999.25   -9999.25    8.18790    0.03150    0.00560    3.65070    2.65960   -9999.25 4680.81840 4841.38180   -9999.25  295.25630  320.80060  312.04930    8.76340   -9999.25   -9999.25   -9999.25   -9999.25
