~Version ---------------------------------------------------
VERS.   2.0 : CWLS log ASCII Standard -VERSION 2.0
WRAP.    NO : One line per depth step
DLM . SPACE : Column Data Section Delimiter
~Well ------------------------------------------------------
STRT .F                 497.0 : START DEPTH
STOP .F                9010.5 : STOP DEPTH
STEP .F                   0.5 : STEP
NULL .               -9999.25 : NULL VALUE
COMP .                        : COMPANY
WELL .                        : WELL
FLD  .                        : FIELD
LOC  .                        : LOCATION
PROV .                        : PROVINCE
CNTY .                        : COUNTY
STAT .                        : STATE
CTRY .                        : COUNTRY
SRVC .                        : SERVICE COMPANY
DATE .                        : DATE
UWI  .                        : UNIQUE WELL ID
API  .                        : API NUMBER
SLAT .WGS84 2.612432138377798 : SURFACE LATITUDE
SLON .WGS84      7.3655865084 : SURFACE LONGITUDE
DATUM.F                   nan : DEPTH DATUM ELEV
~Curve Information -----------------------------------------
DEPT   .F     : 
SGRDD  .GAPI  : SPECTROSCOPY GAMMA RAY FROM DENSITY LOG
TNPH_LS.DEC   : THERMAL NEUTRON POROSITY [LIMESTONE]
CALD   .IN    : CALIPER FROM DENSITY LOG
DPHZ_LS.DEC   : HGRD STANDARD RESOLUTION DENSITY POROSITY
HDRA   .G/C3  : HRDD SPINE AND RIBS DENSITY CORRECTION
PEFZ   .B/E   : HRDD STANDARD RESOLUTION FORMATION PHOTOELECTRIC FACTOR
RHOZ   .G/C3  : HRDD STANDARD RESOLUTION FORMATION DENSITY
CGRD   .GAPI  : CORRECTED GAMMA RAY FROM DENSITY LOG
TEND   .LB    : TENSION FROM DENSITY LOG
TENR   .LB    : TENSION FROM RESISTIVITY LOG
TENS   .LB    : TENSION FROM SONIC LOG
RLA5   .OHMM  : APPARENT RESISTIVITY FROM COMPUTED FOCUSING MODE 5
RLA3   .OHMM  : APPARENT RESISTIVITY FROM COMPUTED FOCUSING MODE 3
RLA4   .OHMM  : APPARENT RESISTIVITY FROM COMPUTED FOCUSING MODE 4
RXOZ   .OHMM  : INVADED FORMATION RESISTIVITY FILTERED AT 18 INCHES
DTCO   .US/F  : DELTA-T COMPRESSIONAL
DTSM   .US/F  : DELTA-T SHEAR
GRS    .GAPI  : GAMMA RAY FROM SONIC LOG
SPHI_LS.DEC   : SONIC POROSITY [LIMESTONE]
~Params ----------------------------------------------------
~Other -----------------------------------------------------
~ASCII -----------------------------------------------------
# ...
 8314.50000   37.60760    0.03060    8.10340    0.02760   -0.00440    3.82910    2.66520   12.33770 4465.41700 4551.64990 4347.43800 3532.40870 2740.40040 2878.64530  689.55280   54.85000   95.30000   44.09140    0.05230
 8315.00000   52.36270    0.04670    8.11210    0.04240   -0.00400    3.48260    2.64190   16.39870 4435.66020 4510.85250 4219.69970 1200.16760 2105.00170 1418.66820  178.54260   55.03000   96.72000   55.42660    0.05120
 8315.50000   59.88710    0.06570    8.12090    0.05750   -0.00440    3.47740    2.61810   19.56680 4629.14400 4522.41210 4254.62350  166.70590  167.44460  188.60030   95.29170   54.74870   97.05000   58.73780    0.04940
 8316.00000   49.63180    0.08010    8.12960    0.05900   -0.00500    3.80190    2.61510   17.04870 4487.75780 4533.97120 4362.10060  167.47610  171.38110  177.86860   46.72020   54.31000   97.43890   40.31060    0.04780
 8316.50000   30.24010    0.07100    8.13830    0.05220   -0.00550    4.20950    2.62600   11.65390 4463.01220 4545.41750 4348.37650   89.88400   92.40480  103.45500   38.57580   54.64000   98.21670   25.95170    0.04860
 8317.00000   16.16620    0.05060    8.14220    0.04290   -0.00540    4.55920    2.63820    7.67310 4575.17720 4545.41750 4217.14550   78.27490   88.24190   83.71090   35.42240   54.90340  100.35000   14.04350    0.05280
 8317.50000   11.84850    0.04550    8.14550    0.04150   -0.00450    4.70890    2.64330    5.14430 4555.70510 4545.41750 4434.43950   74.69350   85.83460   80.47010   36.41580   55.87230   99.75000   10.64090    0.05860
 8318.00000   11.04670    0.04540    8.15800    0.04080   -0.00360    4.73040    2.64620    5.25180 4555.23100 4545.41750 4389.40530   75.40810   89.88400   81.96770   34.11740   56.39450   99.85000   12.06430    0.06220
 8318.50000   11.67360    0.04710    8.17900    0.03910   -0.00240    4.56820    2.64680    6.32210 4555.73240 4545.41750 4224.26320   72.02980   84.26640   78.63660   32.60180   56.35000   99.35000   14.33690    0.06230
 8319.00000   18.60050    0.05200    8.19210    0.04480   -0.00040    4.16180    2.64440   10.23820 4560.38960 4549.67920 4324.95460   70.72590   83.02540   81.40590   32.30270   57.01000  101.05000   26.18230    0.06530
 8319.50000   30.30560    0.06400    8.09850    0.05760    0.00160    3.60500    2.63610   19.61360 4548.83790 4541.35600 4402.99760  114.86540  114.93570  143.33820   51.69430   57.91000  101.45000   45.36410    0.07300
 8320.00000   51.71210    0.08220    8.07120    0.06990    0.00360    3.17970    2.59800   29.19810 4574.49610 4522.88090 4404.72900  228.07990  201.70710  263.39860   88.64960   58.39000  101.25000   64.67560    0.07710
 8320.50000   59.83440    0.10030    8.07020    0.07260    0.00570    3.07010    2.59680   34.35690 4708.64500 4533.00540 4332.95070  282.35930  297.99100  315.68630  154.85270   58.93000  101.55000   68.49350    0.07970
 8321.00000   55.97080    0.08790    8.06910    0.06000    0.00700    3.36170    2.60930   32.30850 4574.38180 4553.85110 4294.71830  285.27380  269.25210  323.67150  184.12180   59.08000  100.31250   54.88570    0.08100
 8321.50000   45.91810    0.06650    8.06800    0.04550    0.00370    3.70320    2.62970   27.36570 4570.60400 4567.79390 4450.59330  658.22470  651.15670  660.17810  281.95460   58.72000   99.21500   45.95480    0.07910
 8322.00000   39.42120    0.04170    8.06700    0.03320   -0.00330    3.66520    2.65010   22.40260 4505.43120 4563.72710 4420.87400 1339.23210 1063.54470  957.33360  238.22910   58.27750   98.76500   39.56370    0.07640
 8322.50000   36.54540    0.04040    8.06630    0.03740   -0.00540    3.49290    2.65320   19.10310 4556.40970 4563.94340 4342.58500  490.25200  411.63780  466.80700  183.56470   57.94000   98.40000   36.41710    0.07420
 8323.00000   33.97060    0.04160    8.06640    0.04790   -0.00550    3.01540    2.64310   16.88020 4562.76420 4564.15920 4363.04200  712.16650  692.06870  545.07180  111.75360   57.91000   96.32500   32.48780    0.07270
 8323.50000   33.75280    0.04390    8.07280    0.05770   -0.00550    2.77250    2.61710   14.93660 4565.72070 4564.00200 4413.89310  375.23500  286.32050  465.44780   71.53840   57.22000   95.15000   30.77520    0.06660
 8324.00000   36.22320    0.04570    8.07110    0.06040   -0.00580    2.66690    2.61280   14.44310 4543.89160 4552.62990 4335.30220  185.35190  163.66010  172.96850   48.46350   57.49000   94.45000   35.77720    0.06660
 8324.50000   40.13050    0.04610    8.06930    0.06170   -0.00660    2.68120    2.61060   18.81710 4510.84130 4537.96530 4304.61820  284.56610  266.78110  239.94350   49.36540   58.27000   94.44760   44.35210    0.07500
 8325.00000   47.11800    0.04480    8.06750    0.06080   -0.00730    2.74010    2.61220   24.48970 4547.57760 4523.30130 4398.79100  485.75290  494.79280  375.23500   70.23850   58.57000   94.78190   52.76010    0.07800
 8325.50000   52.52250    0.04500    8.06580    0.05980   -0.00770    2.90290    2.61370   28.73380 4496.98540 4518.56350 4403.90190  320.80060  314.93950  295.25630  109.43800   59.71000   96.20460   56.90590    0.08420
 8326.00000   55.22550    0.05020    8.06400    0.05910   -0.00390    2.96660    2.61480   30.82730 4484.51860 4532.29350 4362.17190  821.56820  821.56820  749.21000  125.09100   60.13000   97.70000   56.63470    0.08890
 8326.50000   57.57820    0.05590    8.06590    0.06000   -0.00010    3.03040    2.61340   32.32870 4581.49850 4546.02290 4354.94140  589.11320  504.00100  407.86960  139.91840   60.19000   98.03330   60.92530    0.08930
 8327.00000   66.97430    0.07490    8.06780    0.06080    0.00360    3.07950    2.61210   35.16480 4507.95650 4559.75290 4428.93020  186.82530  162.06480  184.73150   86.51630   60.01000   98.05000   68.44530    0.08770
 8327.50000   75.54630    0.09360    8.06980    0.05840    0.00560    3.15220    2.61590   38.00100 4583.38430 4563.88230 4480.41600   93.96730   95.87620   98.56500   66.00530   59.41000   98.39380   74.49810    0.08520
 8328.00000   73.43080    0.10370    8.07180    0.05560    0.00750    3.24400    2.62130   40.00920 4558.19780 4563.88230 4377.62110  101.61100  134.85240  117.97790   75.72180   59.14750   98.55000   65.14760    0.08260
 8328.50000   59.36310    0.08470    8.07370    0.05520    0.00220    3.26550    2.62260   33.08230 4511.88530 4563.88230 4321.51610  229.66250  268.01380  291.34960   99.21620   59.14000   97.95000   54.43860    0.08100
 8329.00000   44.29340    0.06400    8.07570    0.05900   -0.00420    3.18910    2.61510   24.32120 4622.00440 4565.82370 4386.02000  757.89420  773.78020  848.90780  142.52230   59.53000   97.75000   40.34930    0.08400
 8329.50000   32.45520    0.04810    8.07760    0.06120   -0.00540    3.11280    2.61140   20.10880 4567.54100 4575.47360 4451.76660 1395.96280 1490.14310 1502.78220  127.59530   59.59000   97.55000   34.19970    0.08540
 8330.00000   30.93030    0.03990    8.07960    0.05590   -0.00560    3.07770    2.62000   18.35760 4614.64400 4585.12350 4464.00980  960.97410  915.60420 1192.17530  162.15820   59.35000   97.85000   34.42680    0.08260
 8330.50000   37.75400    0.04650    8.08160    0.04490   -0.00700    3.06870    2.63750   20.96190 4638.57620 4586.35210 4419.51460  356.68200  333.46720  426.67170  118.11400   59.11430   97.90000   45.21390    0.08150
 8331.00000   49.61590    0.06140    8.08350    0.04140   -0.00790    3.03410    2.64340   25.46240 4483.54490 4579.15920 4401.05520  125.26420  134.29030  144.65810   88.54750   58.93000   97.95000   58.61250    0.08020
 8331.50000   61.52550    0.07630    8.08550    0.04800   -0.00770    2.98710    2.63270   29.79100 4566.48580 4572.36620 4435.62450   99.02040  108.08430  110.60450   71.38100   59.05000   96.95000   68.24440    0.08070
 8332.00000   67.21680    0.09110    8.08470    0.05740   -0.00690    2.94970    2.61760   32.53860 4582.11670 4557.42430 4401.88770  128.77710  127.00850  140.56490   68.16520   59.11000   97.50000   69.27920    0.08180
 8332.50000   61.82390    0.07450    8.08200    0.06210   -0.00610    2.92910    2.61010   30.38600 4557.11570 4528.93460 4380.34860  168.24990  163.66010  209.91870   73.38290   58.96000   98.00000   57.03120    0.08050
