~Version ---------------------------------------------------
VERS.   2.0 : CWLS log ASCII Standard -VERSION 2.0
WRAP.    NO : One line per depth step
DLM . SPACE : Column Data Section Delimiter
~Well ------------------------------------------------------
STRT .F                 497.0 : START DEPTH
STOP .F                9010.5 : STOP DEPTH
STEP .F                   0.5 : STEP
NULL .               -9999.25 : NULL VALUE
COMP .                        : COMPANY
WELL .                        : WELL
FLD  .                        : FIELD
LOC  .                        : LOCATION
PROV .                        : PROVINCE
CNTY .                        : COUNTY
STAT .                        : STATE
CTRY .                        : COUNTRY
SRVC .                        : SERVICE COMPANY
DATE .                        : DATE
UWI  .                        : UNIQUE WELL ID
API  .                        : API NUMBER
SLAT .WGS84 2.612432138377798 : SURFACE LATITUDE
SLON .WGS84      7.3655865084 : SURFACE LONGITUDE
DATUM.F                   nan : DEPTH DATUM ELEV
~Curve Information -----------------------------------------
DEPT   .F     : 
SGRDD  .GAPI  : SPECTROSCOPY GAMMA RAY FROM DENSITY LOG
TNPH_LS.DEC   : THERMAL NEUTRON POROSITY [LIMESTONE]
CALD   .IN    : CALIPER FROM DENSITY LOG
DPHZ_LS.DEC   : HGRD STANDARD RESOLUTION DENSITY POROSITY
HDRA   .G/C3  : HRDD SPINE AND RIBS DENSITY CORRECTION
PEFZ   .B/E   : HRDD STANDARD RESOLUTION FORMATION PHOTOELECTRIC FACTOR
RHOZ   .G/C3  : HRDD STANDARD RESOLUTION FORMATION DENSITY
CGRD   .GAPI  : CORRECTED GAMMA RAY FROM DENSITY LOG
TEND   .LB    : TENSION FROM DENSITY LOG
TENR   .LB    : TENSION FROM RESISTIVITY LOG
TENS   .LB    : TENSION FROM SONIC LOG
RLA5   .OHMM  : APPARENT RESISTIVITY FROM COMPUTED FOCUSING MODE 5
RLA3   .OHMM  : APPARENT RESISTIVITY FROM COMPUTED FOCUSING MODE 3
RLA4   .OHMM  : APPARENT RESISTIVITY FROM COMPUTED FOCUSING MODE 4
RXOZ   .OHMM  : INVADED FORMATION RESISTIVITY FILTERED AT 18 INCHES
DTCO   .US/F  : DELTA-T COMPRESSIONAL
DTSM   .US/F  : DELTA-T SHEAR
GRS    .GAPI  : GAMMA RAY FROM SONIC LOG
SPHI_LS.DEC   : SONIC POROSITY [LIMESTONE]
~Params ----------------------------------------------------
~Other -----------------------------------------------------
~ASCII -----------------------------------------------------
# ...
 4604.00000   32.94790    0.05080   11.20840   -0.05950   -0.00130    3.25000    2.80590   17.66130 3310.88330 3346.47410 2965.45780  133.25310   66.90180   78.45920   71.77610   99.50460   96.63320   30.87230    0.36500
 4604.50000   30.60100    0.05130   11.21350   -0.05330   -0.00250    3.26100    2.79580   17.45470 3346.52950 3341.91720 2958.76390  121.82870   76.59430  112.85820  104.82600   99.35680   96.53270   29.35290    0.35840
 4605.00000   33.45180    0.05580   11.22240   -0.04250   -0.00360    3.27300    2.77840   18.57900 3374.24980 3337.36040 2965.95000   47.83960   38.10570   44.43480   54.43770   97.26020   96.13070   28.51850    0.34840
 4605.50000   34.31670    0.07460   11.23480   -0.03330   -0.00480    3.28420    2.76370   18.78850 3336.74050 3332.67630 2987.17680   54.39330   35.27950   43.22150   52.95120   98.04020   98.57170   30.50850    0.35160
 4606.00000   32.07010    0.07010   11.23670   -0.02800   -0.00460    3.29550    2.75500   18.44260 3321.11250 3329.05440 3027.64500  155.88830   55.93750   98.46560   79.95030   94.84420  100.75380   30.83870    0.33400
 4606.50000   28.08140    0.06050   11.23690   -0.02820   -0.00320    3.27620    2.75640   17.39750 3304.66240 3333.15280 3045.42900  158.79240   81.70570  139.54600  104.82600   97.73320   95.82910   27.97590    0.35290
 4607.00000   27.85740    0.04770   11.25630   -0.03040   -0.00190    3.21930    2.76520   18.94820 3240.23800 3337.25120 2977.83110   78.74450   52.46480   70.48950   72.22800   99.96980  100.05020   24.90640    0.37090
 4607.50000   29.48320    0.04600   11.26870   -0.03970   -0.00040    3.15380    2.77390   20.23100 3312.60330 3327.72880 2937.09550  111.13550   63.02540   69.20030   75.89070  101.51760   95.92960   24.29870    0.38920
 4608.00000   29.94320    0.04990   11.27800   -0.04240    0.00130    3.08880    2.77830   22.01580 3376.42550 3329.56350 2948.78830  167.83310   82.46320  133.25310  110.68690  104.18690   98.66030   25.29490    0.41240
 4608.50000   33.94660    0.05400   11.28360   -0.02970    0.00300    2.97560    2.75780   23.80070 3409.41140 3333.57320 2970.39700   88.45480   46.33560   71.69600   63.88010  105.93970  101.17700   28.12600    0.41030
 4609.00000   47.40480    0.06420   11.29930   -0.00230    0.00330    2.84850    2.70780   29.56270 3336.88380 3337.01640 2992.00560   33.07250   26.30680   30.76300   29.57480   58.12060  101.54000   34.92800    0.07470
 4609.50000   65.33550    0.08900   11.32510    0.03300    0.00180    2.78140    2.65690   42.09490 3347.79270 3335.79810 3008.95630   25.50060   22.50980   24.61560   17.11490   58.92500  103.47370   51.65710    0.07930
 4610.00000   78.94060    0.11650   11.35390    0.04780    0.00040    2.80900    2.63300   52.35260 3336.56300 3332.50020 3020.73020   24.60200   21.49280   24.38950   15.57870   60.04630  105.42130   61.95640    0.08670
 4610.50000   86.79190    0.13170   11.36750    0.05330   -0.00100    2.88120    2.62440   59.30940 3335.45610 3329.20260 3020.05640   23.28960   20.84810   22.65370   14.65190   61.02960  107.37060   66.54920    0.09410
 4611.00000   83.85890    0.12520   11.36920    0.03690    0.00050    2.97410    2.66290   57.79610 3310.66280 3334.22120 2992.24540   31.97210   25.70880   31.92490   17.06880   61.83100  109.29650   57.40450    0.10150
 4611.50000   66.59200    0.09110   11.37460    0.01500    0.00290    3.08320    2.68560   48.82200 3287.24980 3334.02030 2965.03340   86.35760   55.45180   60.05630   21.22060   62.23960  110.00000   47.00480    0.10440
 4612.00000   57.80630    0.07050   11.37330    0.00440    0.00530    3.20870    2.70300   41.93950 3305.17500 3330.24800 2959.14160   54.34680   38.58710   71.21900   24.03860   62.04020  109.29650   37.80040    0.09810
 4612.50000   51.87510    0.06440   11.39050    0.00280    0.00580    3.33080    2.70540   37.24710 3339.29320 3326.82320 2953.25000   49.95760   39.93060   45.42810   24.16540   60.63320  108.89450   38.71350    0.09040
 4613.00000   50.28170    0.05790   11.39390   -0.00050    0.00680    3.45180    2.71080   36.29510 3350.35500 3326.43990 2952.47310   64.82510   44.89630   57.78560   29.66370   60.12700  108.59300   43.24300    0.08870
 4613.50000   44.71190    0.04650   11.39730   -0.03320    0.01110    3.74310    2.76320   32.05390 3339.11080 3331.77220 2952.47310   71.95450   46.40350   67.58740   38.55500   59.83860  106.64880   45.88400    0.08790
 4614.00000   38.04350    0.02540   11.41400   -0.07820    0.01630    4.13580    2.83290   27.92940 3312.49170 3337.75050 2952.47310   87.89850   49.73580   75.84860   61.46380   59.55530  104.67340   42.69930    0.08590
 4614.50000   30.85440    0.01150   11.41890   -0.10000    0.01370    4.51910    2.90350   23.48450 3327.63700 3326.64090 2963.48220  126.17450   63.84140  111.00140  131.08120   59.26550  104.27140   35.95830    0.08350
 4615.00000   22.63270    0.00610   11.43400   -0.09990    0.00040    4.71030    2.91420   19.19230 3350.35500 3299.36820 2988.53340  170.95970   78.74450  139.54600  281.48770   58.80670  103.36680   29.14750    0.08070
 4615.50000   25.86120    0.01020   11.43680   -0.09980    0.00420    4.62790    2.90200   19.75580 3341.92380 3289.23170 2970.25710   90.33220   50.52270   64.70580   42.18240   58.44860  104.17090   23.95460    0.07790
 4616.00000   28.30170    0.01980   11.43750   -0.09960    0.00850    4.45340    2.87770   20.12960 3308.84470 3306.13620 2952.30180   51.05300   33.35360   42.04120   32.26000   58.76700  104.67340   22.12280    0.08050
 4616.50000   30.14890    0.02480   11.44070   -0.09870    0.00900    4.35350    2.86880   19.60890 3370.51250 3326.53910 2939.75120   57.42690   37.61160   46.51610   39.38200   59.41520  104.57290   24.15030    0.08510
 4617.00000   30.48390    0.02590   11.44820   -0.09310    0.00300    4.27240    2.85980   19.31250 3416.17580 3331.33350 2945.72090  103.26270   60.91360   82.46320   72.40710   60.17080  104.37190   26.53680    0.09540
 4617.50000   34.46050    0.02760   11.43830   -0.07950   -0.00200    4.10430    2.83840   21.06870 3287.55200 3336.12790 2962.37720   65.04230   42.24130   54.94240   59.44060   61.95580  105.67840   27.92140    0.10820
 4618.00000   42.02100    0.04350   11.43430   -0.04880   -0.00460    3.85010    2.78270   27.31560 3318.64180 3336.63840 2979.03370   74.87770   48.23360   63.09980   38.06800   63.41150  108.18090   30.35920    0.11730
 4618.50000   59.98230    0.06360   11.43220   -0.02590   -0.00690    3.61850    2.71320   35.08600 3359.56230 3336.73610 2993.62820   46.91130   25.66110   34.20780   26.47210   64.48360  110.68340   36.61110    0.12210
 4619.00000   75.50530    0.10150   11.43000    0.01500   -0.00870    3.28220    2.68570   45.85240 3336.53440 3336.83370 3003.64480   22.93250   18.87780   20.84810   20.11770   65.08420  113.18590   45.87240    0.12450
 4619.50000   88.14760    0.14020   11.42780    0.04170   -0.00520    2.98410    2.64940   52.39540 3299.97610 3330.08910 3013.66110   23.04750   19.44640   22.03510   14.69590   65.90350  115.44320   59.91740    0.12810
 4620.00000   86.28780    0.15630   11.42570    0.05030   -0.00080    2.79290    2.62920   52.16610 3319.24710 3326.63550 2990.33330   17.01730   14.95470   16.55260   13.32070   66.90450  115.87680   68.27740    0.13630
 4620.50000   82.69250    0.15180   11.42350    0.04760    0.00310    2.66070    2.63360   50.68980 3329.57810 3326.93950 2957.07350   18.55670   16.18210   21.29100   12.78320   68.01000  116.92270   68.32670    0.14440
 4621.00000   81.64510    0.14040   11.42130    0.03530    0.00440    2.64940    2.65310   48.99970 3282.45650 3319.30710 2927.25680   38.33500   21.63210   40.89320   27.75330   68.45160  118.10450   63.76710    0.14950
 4621.50000   88.76070    0.12640   11.41920    0.02530    0.00580    2.71670    2.66920   53.47050 3416.18950 3338.07370 2927.25680   36.02650   29.92770   33.71660   26.23040   68.67340  120.10650   62.07430    0.15030
 4622.00000   96.52710    0.12190   11.41700    0.03410    0.00570    2.76360    2.65510   59.93160 3437.05570 3344.84860 2944.30220   25.06130   17.33430   24.40860   19.39520   68.67340  121.15580   68.93560    0.14900
