~Version ---------------------------------------------------
VERS.   2.0 : CWLS log ASCII Standard -VERSION 2.0
WRAP.    NO : One line per depth step
DLM . SPACE : Column Data Section Delimiter
~Well ------------------------------------------------------
STRT .F                 497.0 : START DEPTH
STOP .F                9010.5 : STOP DEPTH
STEP .F                   0.5 : STEP
NULL .               -9999.25 : NULL VALUE
COMP .                        : COMPANY
WELL .                        : WELL
FLD  .                        : FIELD
LOC  .                        : LOCATION
PROV .                        : PROVINCE
CNTY .                        : COUNTY
STAT .                        : STATE
CTRY .                        : COUNTRY
SRVC .                        : SERVICE COMPANY
DATE .                        : DATE
UWI  .                        : UNIQUE WELL ID
API  .                        : API NUMBER
SLAT .WGS84 2.612432138377798 : SURFACE LATITUDE
SLON .WGS84      7.3655865084 : SURFACE LONGITUDE
DATUM.F                   nan : DEPTH DATUM ELEV
~Curve Information -----------------------------------------
DEPT   .F     : 
SGRDD  .GAPI  : SPECTROSCOPY GAMMA RAY FROM DENSITY LOG
TNPH_LS.DEC   : THERMAL NEUTRON POROSITY [LIMESTONE]
CALD   .IN    : CALIPER FROM DENSITY LOG
DPHZ_LS.DEC   : HGRD STANDARD RESOLUTION DENSITY POROSITY
HDRA   .G/C3  : HRDD SPINE AND RIBS DENSITY CORRECTION
PEFZ   .B/E   : HRDD STANDARD RESOLUTION FORMATION PHOTOELECTRIC FACTOR
RHOZ   .G/C3  : HRDD STANDARD RESOLUTION FORMATION DENSITY
CGRD   .GAPI  : CORRECTED GAMMA RAY FROM DENSITY LOG
TEND   .LB    : TENSION FROM DENSITY LOG
TENR   .LB    : TENSION FROM RESISTIVITY LOG
TENS   .LB    : TENSION FROM SONIC LOG
RLA5   .OHMM  : APPARENT RESISTIVITY FROM COMPUTED FOCUSING MODE 5
RLA3   .OHMM  : APPARENT RESISTIVITY FROM COMPUTED FOCUSING MODE 3
RLA4   .OHMM  : APPARENT RESISTIVITY FROM COMPUTED FOCUSING MODE 4
RXOZ   .OHMM  : INVADED FORMATION RESISTIVITY FILTERED AT 18 INCHES
DTCO   .US/F  : DELTA-T COMPRESSIONAL
DTSM   .US/F  : DELTA-T SHEAR
GRS    .GAPI  : GAMMA RAY FROM SONIC LOG
SPHI_LS.DEC   : SONIC POROSITY [LIMESTONE]
~Params ----------------------------------------------------
~Other -----------------------------------------------------
~ASCII -----------------------------------------------------
# ...
 5214.50000   -9999.25    0.11700   10.97950   -0.00850    0.00030    3.01580    2.72730   -9999.25 3460.95800 3454.89700 3120.43600   53.63060   48.37960   55.74330   24.30520   54.02010   91.70850   -9999.25    0.04490
 5215.00000   -9999.25    0.13260   10.97330    0.00040   -0.00000    2.99790    2.70980   -9999.25 3457.81570 3450.14870 3122.16360   47.08340   42.08000   48.92390   13.63630   54.06230   92.61310   -9999.25    0.04570
 5215.50000   -9999.25    0.14510   10.96710    0.00890   -0.00050    3.05330    2.69720   -9999.25 3401.11300 3451.95800 3133.97510   35.49060   33.94450   35.93680    7.34780   53.94670   93.61810   -9999.25    0.04540
 5216.00000   -9999.25    0.13620   10.96090    0.01320   -0.00050    3.09530    2.68880   -9999.25 3508.50630 3450.62280 3108.08590   34.16820   33.42540   35.27950    7.58630   53.77960   92.93600   -9999.25    0.04390
 5216.50000   -9999.25   -9999.25   10.95470    0.00160    0.00050    3.10660    2.70020   -9999.25 3492.76120 3426.56710 3089.82590   57.51190   46.31990   60.23200    9.96170   53.25130   93.05680   -9999.25    0.04010
 5217.00000   -9999.25   -9999.25   10.94970   -0.01180    0.00150    3.07900    2.72730   -9999.25 3345.29710 3399.21390 3113.64380  109.19040   81.48450  106.77880   25.64860   52.51580   92.80600   -9999.25    0.03450
 5217.50000   -9999.25   -9999.25   10.94870   -0.02620    0.00250    3.06560    2.75070   -9999.25 3552.33620 3407.71610 3120.92070  139.54600   90.85970  107.76880   67.93480   51.77890   92.31160   -9999.25    0.03010
 5218.00000   -9999.25   -9999.25   10.95030   -0.02740    0.00180    3.06980    2.75460   -9999.25 3349.42160 3424.40650 3107.66040   79.47460   54.43770   68.56460   74.52750   51.06500   91.50750   -9999.25    0.02560
 5218.50000   -9999.25   -9999.25   10.96070   -0.02570    0.00110    3.11090    2.75360   -9999.25 3396.48900 3427.35570 3092.98100  111.16630   67.31070   96.76550   90.43590   50.94500   90.90450   -9999.25    0.02360
 5219.00000   -9999.25   -9999.25   10.97120   -0.01860    0.00050    3.18590    2.74780   -9999.25 3506.68920 3419.05320 3078.30150  238.33200   99.17920  177.90580   54.13040   50.62150   90.80400   -9999.25    0.02160
 5219.50000   -9999.25   -9999.25   10.98160   -0.00740   -0.00020    3.18020    2.73450   -9999.25 3453.30830 3413.35520 3088.88770   84.77830   46.10580   61.98990   23.04690   50.42380   89.79900   -9999.25    0.02040
 5220.00000   -9999.25   -9999.25   10.99200   -0.00220   -0.00040    3.17450    2.72130   -9999.25 3434.37990 3459.94870 3126.58060   80.28550   46.68490   58.50290   13.66660   50.46970   89.79900   -9999.25    0.02090
 5220.50000   -9999.25   -9999.25   10.99900    0.00480   -0.00040    3.17170    2.70790   -9999.25 3459.75900 3476.87770 3140.84420   64.28110   32.44250   41.12790   11.54920   50.52450   90.56110   -9999.25    0.02120
 5221.00000   -9999.25   -9999.25   10.99400    0.01370   -0.00040    3.19450    2.69390   -9999.25 3493.34200 3478.58890 3127.74240   37.36000   24.84380   28.53240   12.54950   51.18650   91.02080   -9999.25    0.02560
 5221.50000   -9999.25   -9999.25   10.98890    0.01520    0.00000    3.21540    2.68690   -9999.25 3488.94870 3480.30000 3134.26290   38.64970   26.00030   29.63330   12.43420   51.84370   91.60800   -9999.25    0.03160
 5222.00000   -9999.25   -9999.25   10.98390    0.01470    0.00100    3.21280    2.68560   -9999.25 3426.27760 3482.01120 3127.16240   58.28490   33.56290   41.20760   22.90350   52.49980   91.90960   -9999.25    0.03490
 5222.50000   -9999.25   -9999.25   10.97880    0.02170    0.00200    3.16820    2.67980   -9999.25 3470.80100 3483.72240 3125.04660   79.47460   43.22150   58.60890   26.74750   53.12160   92.59880   -9999.25    0.03860
 5223.00000   -9999.25   -9999.25   10.97380    0.04290    0.00290    3.10930    2.64130   -9999.25 3546.29080 3485.43360 3164.38990   37.42210    8.75610   23.83410    7.09200   53.72340   92.93430   -9999.25    0.04210
 5223.50000   -9999.25   -9999.25   10.97050    0.06160    0.00450    3.08400    2.61840   -9999.25 3590.34230 3487.14480 3195.68480   13.38690    9.20510   10.14940    2.68710   54.20280   94.30810   -9999.25    0.04670
 5224.00000   -9999.25   -9999.25   10.97280    0.05950    0.00660    3.10830    2.61070   -9999.25 3539.90040 3488.39700 3145.51710   14.72550    9.75860   11.54920    2.87180   54.50250   95.20450   -9999.25    0.04810
 5224.50000   -9999.25   -9999.25   10.97510    0.04230    0.00880    3.12310    2.62460   -9999.25 3409.92820 3485.91260 3107.87550   21.83260   14.14910   17.65720    3.47940   54.50250   96.15400   -9999.25    0.04920
 5225.00000   -9999.25   -9999.25   10.97740    0.02520    0.00940    3.11200    2.65620   -9999.25 3421.74680 3483.41040 3122.61350   17.82090   11.90090   15.37450    8.67570   54.66530   97.52460   -9999.25    0.05070
 5225.50000   -9999.25   -9999.25   10.97970    0.01990    0.00430    3.08250    2.67670   -9999.25 3552.48140 3477.33230 3159.87720   15.23330   10.24350   12.78320    8.05820   54.57510   97.83920   25.13520    0.04980
 5226.00000   -9999.25   -9999.25   10.98200    0.02660   -0.00110    3.05840    2.67510   -9999.25 3388.41670 3471.25390 3196.41500   18.49110   11.98350   14.81730    8.83730   55.51000   98.14070   25.20120    0.05620
 5226.50000   -9999.25   -9999.25   10.98430    0.04200   -0.00590    3.04140    2.65810   -9999.25 3469.41190 3498.81080 3148.40700   14.41270    9.28300   11.99670    4.25880   55.63000   98.64320   27.71880    0.05660
 5227.00000   -9999.25   -9999.25   10.96500    0.05600   -0.01070    3.03790    2.63100   -9999.25 3551.88620 3512.07400 3041.18580   13.38690    9.42710   11.00940    2.32210   55.87000   99.59040   29.72840    0.05750
 5227.50000   -9999.25   -9999.25   10.94040    0.07150   -0.01320    3.09470    2.60560   -9999.25 3355.45900 3509.48020 3099.37060    6.77950    5.37850    5.79550    1.26610   56.17000  100.52240   29.41920    0.05910
 5228.00000   -9999.25   -9999.25   10.91570    0.07870   -0.01520    3.21610    2.58440   -9999.25 3454.39770 3506.12670 3111.44140    6.85840    4.94100    6.05120    0.95660   56.71000  101.31230   26.64400    0.06400
 5228.50000   -9999.25   -9999.25   10.89490    0.08220   -0.01710    3.30980    2.57810   -9999.25 3448.26460 3501.18990 3115.53590    7.55410    5.51960    6.39790    0.84440   57.07000  102.25000   24.16810    0.06580
 5229.00000   -9999.25   -9999.25   10.90190    0.08490   -0.02250    3.39870    2.57260   -9999.25 3449.84280 3496.25290 3119.63010    7.87610    5.46890    6.28090   -9999.25   57.49000  102.92270   24.07580    0.06990
 5229.50000   -9999.25   -9999.25   -9999.25   -9999.25   -9999.25   -9999.25   -9999.25   -9999.25 3528.46580 3491.13870 3072.71970    7.68850    5.76990    6.30210   -9999.25   58.05740  103.65300   24.87180    0.07430
 5230.00000   -9999.25   -9999.25   -9999.25   -9999.25   -9999.25   -9999.25   -9999.25   -9999.25 3402.69580 3493.09840 3084.12720    7.34780    5.12680    5.88800   -9999.25   58.67360  105.15370   23.23400    0.07870
 5230.50000   -9999.25   -9999.25   -9999.25   -9999.25   -9999.25   -9999.25   -9999.25   -9999.25 3560.24440 3498.12770 3099.86670    9.68150    6.28920    7.28000   -9999.25   59.28980  107.05000   20.85120    0.08310
 5231.00000   -9999.25   -9999.25   -9999.25   -9999.25   -9999.25   -9999.25   -9999.25   -9999.25 3498.98440 3492.46920 3076.26490   11.63480    6.57750    9.11120   -9999.25   59.90600  107.65000   18.32290    0.08750
 5231.50000   -9999.25   -9999.25   -9999.25   -9999.25   -9999.25   -9999.25   -9999.25   -9999.25 3400.35060 3468.02220 3038.17480   14.68120    8.28450   11.02840   -9999.25   60.55000  109.06870   16.45400    0.09220
 5232.00000   -9999.25   -9999.25   -9999.25   -9999.25   -9999.25   -9999.25   -9999.25   -9999.25 3473.09300 3468.21510 3065.70830   13.63630    7.57320   10.16650   -9999.25   60.73000  110.57500   14.60350    0.09340
 5232.50000   -9999.25   -9999.25   -9999.25   -9999.25   -9999.25   -9999.25   -9999.25   -9999.25 3477.57590 3473.08570 3093.24170   12.90180    7.56990    9.00330   -9999.25   60.49000  111.35000   12.89230    0.09340
