~Version ---------------------------------------------------
VERS.   2.0 : CWLS log ASCII Standard -VERSION 2.0
WRAP.    NO : One line per depth step
DLM . SPACE : Column Data Section Delimiter
~Well ------------------------------------------------------
STRT .FT                4045.0 : START DEPTH
STOP .FT               10988.0 : STOP DEPTH
STEP .FT                   0.5 : STEP
NULL .                -9999.25 : NULL VALUE
COMP .                         : COMPANY
WELL .                         : WELL
FLD  .                         : FIELD
LOC  .                         : LOCATION
PROV .                         : PROVINCE
CNTY .                         : COUNTY
STAT .                         : STATE
CTRY .                         : COUNTRY
SRVC .                         : SERVICE COMPANY
DATE .                         : DATE
UWI  .                         : UNIQUE WELL ID
API  .                         : API NUMBER
SLAT .WGS84 1.9999106417375003 : SURFACE LATITUDE
SLON .WGS84  6.164734760471006 : SURFACE LONGITUDE
DATUM.F                    nan : DEPTH DATUM ELEV
~Curve Information -----------------------------------------
DEPT.FT    : 
CALS.IN    : CALIPER FROM SONIC LOG
DTCO.US/F  : DELTA-T COMPRESSIONAL
DTSM.US/F  : DELTA-T SHEAR
GRS .GAPI  : GAMMA RAY FROM SONIC LOG
~Params ----------------------------------------------------
~Other -----------------------------------------------------
~ASCII -----------------------------------------------------
# ...
 4974.50000    8.47380   64.36360  113.08260   54.53600
 4975.00000    8.46540   64.23470  113.30240   59.10550
 4975.50000    8.43400   64.04600  111.78810   62.30640
 4976.00000    8.42530   63.75310  110.90660   59.80030
 4976.50000    8.42530   63.71870  110.54900   53.96900
 4977.00000    8.40260   63.91690  110.19150   47.05380
 4977.50000    8.38700   63.83730  110.11730   41.38650
 4978.00000    8.37140   63.70770  110.39800   41.50550
 4978.50000    8.36450   63.57380  109.95050   47.89050
 4979.00000    8.36330   63.39540  108.90100   56.68460
 4979.50000    8.36220   63.08920  108.26590   63.70450
 4980.00000    8.36100   62.84330  108.37320   60.94200
 4980.50000    8.35990   62.62900  108.43840   55.77270
 4981.00000    8.35870   62.62340  108.54870   50.96210
 4981.50000    8.34510   62.71710  109.17580   45.70170
 4982.00000    8.33200   62.73580  108.70070   44.00370
 4982.50000    8.33490   62.58120  108.30970   47.89950
 4983.00000    8.32980   62.26350  107.96680   53.00580
 4983.50000    8.32460   62.01820  107.70410   57.09090
 4984.00000    8.29850   61.95100  107.47300   54.95690
 4984.50000    8.29280   61.77030  107.40580   50.81180
 4985.00000    8.29390   61.87470  107.35580   43.74620
 4985.50000    8.29500   61.88540  107.45100   38.61750
 4986.00000    8.29610   61.71420  107.55630   35.58900
 4986.50000    8.29720   61.56460  107.05890   33.45470
 4987.00000    8.29830   61.40900  106.46820   35.18690
 4987.50000    8.31500   61.40370  106.19890   38.33840
 4988.00000    8.34780   61.20950  106.11600   40.71060
 4988.50000    8.35320   60.99490  105.97760   40.67240
 4989.00000    8.35860   60.76610  105.45140   39.63330
 4989.50000    8.36400   60.54170  105.13560   38.33430
 4990.00000    8.36940   60.56760  105.18590   35.92910
 4990.50000    8.37490   61.01340  105.56620   33.52390
 4991.00000    8.38030   61.67580  105.86080   30.44080
 4991.50000    8.38570   61.99810  106.26790   30.67880
 4992.00000    8.39110   62.11380  107.19550   42.07350
 4992.50000    8.41020   62.12730  107.66810   55.12710
 4993.00000    8.43900   62.02980  107.70400   62.74140
 4993.50000    8.46790   61.94730  107.73980   55.21020
 4994.00000    8.47140   61.86480  107.66130   46.02990
 4994.50000    8.46770   61.78230  107.61620   37.29790
 4995.00000    8.46400   61.07290  107.46260   34.31140
 4995.50000    8.46020   60.22050  106.07210   34.59700
 4996.00000    8.45650   59.88310  105.03040   37.00880
 4996.50000    8.45280   59.58980  107.76670   39.88870
 4997.00000    8.44910   59.45450  107.22390   41.56990
 4997.50000    8.44530   59.21200  106.09120   42.65560
 4998.00000    8.45540   58.81140  105.93530   42.46830
 4998.50000    8.46870   57.85610  106.08730   43.55150
 4999.00000    8.48540   57.14930  106.31870   41.93190
 4999.50000    8.50210   58.10400  106.71430   42.44590
 5000.00000    8.53530   57.90290  107.03010   39.53860
 5000.50000    8.56330   59.10250  108.17600   36.67440
 5001.00000    8.59550   59.70800  110.25080   35.91370
 5001.50000    8.63070   62.22770  114.05300   45.14750
 5002.00000    8.66580   66.28740  118.28690   57.10000
 5002.50000    8.68580   66.81120  121.44520   66.59690
 5003.00000    8.71930   72.59520  123.10100   76.81950
 5003.50000    8.75230   78.37920  128.32220   90.95060
 5004.00000    8.76980   80.69280  137.51680   98.13970
 5004.50000    8.80840   82.08880  143.83660  106.28450
 5005.00000    8.86400   81.94850  146.28740  115.60500
 5005.50000    8.91000   84.03650  154.86500  127.04340
 5006.00000    8.94960   86.12450  158.23290  130.79860
 5006.50000    8.98130   87.46250  160.07470  126.72960
 5007.00000    8.91190   88.64250  162.45030  117.10840
 5007.50000    8.90200   90.05030  164.91600  109.71260
 5008.00000    9.31120   89.30150  164.81080  104.09850
 5008.50000    8.99710   88.05350  162.20300  104.94700
 5009.00000    8.99390   86.80560  159.12750  109.66050
 5009.50000    9.00720   85.80720  154.62530  110.94100
 5010.00000    9.00870   85.80720  150.91820  108.19510
 5010.50000    9.01020   85.80720  147.58530  105.97360
 5011.00000    9.04250   82.15350  142.55680  105.65560
 5011.50000    9.04700   80.10030  139.58650  107.80120
 5012.00000    9.04550   78.99310  137.13080  109.43960
 5012.50000    9.06670   77.99290  134.71010  107.85330
 5013.00000    9.06670   77.74200  132.18410   98.27620
 5013.50000    9.07970   77.79090  132.11400   83.73420
 5014.00000    9.07830   78.06720  132.07890   78.80490
 5014.50000    9.08590   78.49740  132.39460   79.25430
 5015.00000    9.08710   78.95160  134.04160   87.64280
 5015.50000    9.08870   79.21020  135.30030  100.87190
 5016.00000    9.09030   79.13300  135.74150  109.73210
 5016.50000    9.09200   79.11770  135.76260  114.83120
 5017.00000    9.09230   80.52180  135.60470  112.73760
 5017.50000    9.08010   77.35220  132.68430  105.38180
 5018.00000    9.06490   75.08870  129.49140   91.89590
 5018.50000    9.04970   71.55030  126.36220   78.14930
 5019.00000    9.04970   68.51970  121.06450   66.89720
 5019.50000    9.04970   66.28640  118.71250   56.36080
 5020.00000    9.03990   66.38780  118.79130   52.24650
 5020.50000    9.04540   66.05670  118.51090   50.30910
 5021.00000    9.05840   65.78440  117.50390   54.56990
 5021.50000    9.07750   65.34620  116.00880   57.95450
 5022.00000    9.09650   65.16790  114.20510   59.57560
 5022.50000    9.08160   65.37570  114.51940   57.27590
 5023.00000    9.08240   66.00430  115.30020   53.04090
 5023.50000    9.06800   66.85380  117.23000   51.62340
 5024.00000    9.07470   67.43990  119.66350   52.80030
 5024.50000    9.08140   68.25320  121.17660   55.36060
 5025.00000    9.08710   70.88770  121.65920   62.08650
 5025.50000    9.11340   73.16670  130.20540   73.51160
 5026.00000    9.15030   75.11430  133.07860   92.65840
 5026.50000    9.19480   76.78860  135.14590  104.99560
 5027.00000    9.26450   80.34110  138.37860  115.54930
 5027.50000    9.32180   84.95820  143.17480  120.74950
 5028.00000    9.32920   89.05490  148.17110  122.22440
 5028.50000    9.34730   88.79300  154.95950  124.92460
 5029.00000    9.34730   90.24620  162.18760  129.73520
 5029.50000    9.46510   92.66820  169.59540  133.91330
 5030.00000    9.75950   95.09020  177.00320  138.79280
 5030.50000   11.91200   97.20020  179.97800  142.75240
 5031.00000   13.01050   98.52480  179.99750  124.02290
 5031.50000    9.98060   99.45810  180.01700  110.11730
 5032.00000   11.09110   99.86830  180.03650  106.82220
 5032.50000   10.52790  100.07270  180.05600  106.10830
 5033.00000   10.80240  104.59620  180.07160  100.39750
 5033.50000   10.97210  107.20420  149.65520   99.92170
 5034.00000    8.64020   99.96880  144.18240   88.16230
 5034.50000    8.70520   63.33470  143.46670   71.40710
 5035.00000    8.84800   65.69200  132.39480   61.48530
 5035.50000    8.94950   65.16810  119.95450   54.45870
 5036.00000    8.95640   66.94920  118.42690   51.82260
 5036.50000    8.96330   66.21580  116.92350   49.38690
 5037.00000    8.96770   67.13700  116.71290   46.88170
 5037.50000    8.97040   68.60010  118.20740   46.21460
 5038.00000    8.97310   69.88560  120.89120   49.48000
 5038.50000    8.97580   71.18920  123.11550   56.82500
 5039.00000    8.98650   72.54140  125.65890   68.40050
 5039.50000    8.99970   73.07490  127.53000   79.07680
 5040.00000    9.00000   73.71680  129.42670   88.47880
 5040.50000    9.00030   74.23040  131.13160   92.40400
 5041.00000    9.00060   73.83880  130.92110   94.21090
 5041.50000    9.00100   72.81250  131.23690   88.31660
 5042.00000    8.95360   72.52880  130.55280   79.68240
 5042.50000    8.96680   72.21040  129.86870   71.04830
 5043.00000    8.98010   72.12660  129.97390   65.31350
 5043.50000    8.99330   73.03320  130.40330   67.73000
 5044.00000    9.00660   74.23040  130.99680   76.49690
 5044.50000    9.03780   74.59430  132.18250   89.14610
 5045.00000    9.08150   76.15180  133.75100   96.96330
 5045.50000    9.09770   77.70930  136.10840  102.57720
