~Version ---------------------------------------------------
VERS.   2.0 : CWLS log ASCII Standard -VERSION 2.0
WRAP.    NO : One line per depth step
DLM . SPACE : Column Data Section Delimiter
~Well ------------------------------------------------------
STRT .FT                4045.0 : START DEPTH
STOP .FT               10988.0 : STOP DEPTH
STEP .FT                   0.5 : STEP
NULL .                -9999.25 : NULL VALUE
COMP .                         : COMPANY
WELL .                         : WELL
FLD  .                         : FIELD
LOC  .                         : LOCATION
PROV .                         : PROVINCE
CNTY .                         : COUNTY
STAT .                         : STATE
CTRY .                         : COUNTRY
SRVC .                         : SERVICE COMPANY
DATE .                         : DATE
UWI  .                         : UNIQUE WELL ID
API  .                         : API NUMBER
SLAT .WGS84 1.9999106417375003 : SURFACE LATITUDE
SLON .WGS84  6.164734760471006 : SURFACE LONGITUDE
DATUM.F                    nan : DEPTH DATUM ELEV
~Curve Information -----------------------------------------
DEPT.FT    : 
CALS.IN    : CALIPER FROM SONIC LOG
DTCO.US/F  : DELTA-T COMPRESSIONAL
DTSM.US/F  : DELTA-T SHEAR
GRS .GAPI  : GAMMA RAY FROM SONIC LOG
~Params ----------------------------------------------------
~Other -----------------------------------------------------
~ASCII -----------------------------------------------------
# ...
 10896.50000    8.21150   73.41040  139.82240  160.38830
 10897.00000    8.31450   73.77810  140.57650  159.75420
 10897.50000    8.38270   73.61130  140.76260  160.54230
 10898.00000    8.96960   73.82330  141.96680  162.11940
 10898.50000    8.96960   73.00590  142.00340  162.13090
 10899.00000    8.30330   72.74170  141.96680  158.95830
 10899.50000    8.51750   74.12660  142.34310  156.82500
 10900.00000    8.39850   73.62480  143.01360  158.23610
 10900.50000    8.47250   72.68150  143.35760  160.24960
 10901.00000    8.47780   72.84210  142.84370  158.15120
 10901.50000    8.38260   72.98260  142.32980  158.57740
 10902.00000    8.39260   74.25230  141.81590  161.66520
 10902.50000    8.37260   74.51900  141.27060  164.38830
 10903.00000    8.39200   73.57780  140.67230  166.43110
 10903.50000    8.47390   73.20790  141.42100  166.53280
 10904.00000    8.49230   73.32660  141.75010  166.13050
 10904.50000    8.41170   73.44590  141.38960  168.34030
 10905.00000    8.48490   73.19520  141.46500  169.85260
 10905.50000    8.40270   73.04280  140.73410   -9999.25
 10906.00000    8.30550   74.31830  140.16050   -9999.25
 10906.50000    8.39500   73.89240  139.03560   -9999.25
 10907.00000    8.39240   73.43550  138.20360   -9999.25
 10907.50000    8.27160   72.65890  137.07490   -9999.25
 10908.00000    8.38260   72.98260  136.44750   -9999.25
 10908.50000    8.39390   72.73080  135.14920   -9999.25
 10909.00000    8.41780   71.47180  132.39650   -9999.25
 10909.50000    8.23090   70.21290  129.40250   -9999.25
 10910.00000    8.29550   69.49030  128.72720   -9999.25
 10910.50000    8.35410   69.43010  128.34450   -9999.25
 10911.00000    8.50900   69.67100  127.96180   -9999.25
 10911.50000    8.79610   69.97200  126.14020   -9999.25
 10912.00000    9.15060   70.21290  122.94010   -9999.25
 10912.50000    9.09790   70.15270  119.74000   -9999.25
 10913.00000    9.20750   69.31970  117.12980   -9999.25
 10913.50000    8.00190   67.86470  113.97730   -9999.25
 10914.00000    8.20420   72.44070  110.57650   -9999.25
 10914.50000    8.30330   63.80640  106.18200   -9999.25
 10915.00000    7.85920   57.66900  100.42250   -9999.25
 10915.50000    7.80650   45.56660   92.61540   -9999.25
 10916.00000    7.79390   47.75420   87.69370   -9999.25
 10916.50000    7.78390   46.91560   84.69570   -9999.25
 10917.00000    7.78390   45.86720   82.96020   -9999.25
 10917.50000    7.78390   44.97570   81.52200   -9999.25
 10918.00000    7.79300   44.85510   81.25310   -9999.25
 10918.50000    7.80210   44.67980   80.72660   -9999.25
 10919.00000    7.79050   44.54580   81.11640   -9999.25
 10919.50000    7.79020   44.30920   81.32480   -9999.25
 10920.00000    7.78980   44.35880   81.37490   -9999.25
 10920.50000    7.78950   44.38770   81.81350   -9999.25
 10921.00000    7.78910   44.11020   81.82520   -9999.25
 10921.50000    7.78880   44.02120   81.75600   -9999.25
 10922.00000    7.78840   43.88960   81.62610   -9999.25
 10922.50000    7.76380   43.64260   81.19200   -9999.25
 10923.00000    7.78060   43.64260   81.12280   -9999.25
 10923.50000    7.76570   43.58980   81.04170   -9999.25
 10924.00000    7.77510   43.71890   80.85470   -9999.25
 10924.50000    7.78450   44.10970   80.66780   -9999.25
 10925.00000    7.79380   44.36400   80.48080   -9999.25
 10925.50000    7.63860   44.31210   80.29390   -9999.25
 10926.00000    7.59950   44.48010   80.10690   -9999.25
 10926.50000    7.55940   44.88090   80.03210   -9999.25
 10927.00000    7.54860   45.31140   80.10960   -9999.25
 10927.50000    7.61690   45.39210   80.30340   -9999.25
 10928.00000    7.68070   45.48550   80.49710   -9999.25
 10928.50000    7.69810   45.74930   80.77750   -9999.25
 10929.00000    7.68960   45.50920   81.90650   -9999.25
 10929.50000    7.73850   45.28940   82.49490   -9999.25
 10930.00000    7.75380   45.27430   82.72870   -9999.25
 10930.50000    7.75060   45.28410   82.54720   -9999.25
 10931.00000    7.74040   45.38870   82.67460   -9999.25
 10931.50000    7.73230   45.21410   82.78550   -9999.25
 10932.00000    7.68470   45.38290   82.98790   -9999.25
 10932.50000    7.51020   45.29540   82.90210   -9999.25
 10933.00000    7.57360   45.26410   82.43070   -9999.25
 10933.50000    7.57480   45.02410   82.53940   -9999.25
 10934.00000    7.58070   44.80390   82.58390   -9999.25
 10934.50000    7.55780   44.86410   82.63900   -9999.25
 10935.00000    7.01440   45.22540   82.53840   -9999.25
 10935.50000   -9999.25   45.60000   82.43770   -9999.25
 10936.00000   -9999.25   46.06830   82.33710   -9999.25
 10936.50000   -9999.25   46.06830   82.23650   -9999.25
 10937.00000   -9999.25   45.90580   92.05140   -9999.25
 10937.50000   -9999.25   45.63480   92.36710   -9999.25
 10938.00000   -9999.25   45.48130   92.36710   -9999.25
 10938.50000   -9999.25   45.40600   86.34990   -9999.25
 10939.00000   -9999.25   45.28560   80.62810   -9999.25
 10939.50000   -9999.25   44.98450   80.41110   -9999.25
 10940.00000   -9999.25   44.62220   80.36860   -9999.25
 10940.50000   -9999.25   44.28060   80.35750   -9999.25
 10941.00000   -9999.25   44.18430   80.32980   -9999.25
 10941.50000   -9999.25   44.28110   81.08560   -9999.25
 10942.00000   -9999.25   44.69450   82.08320   -9999.25
 10942.50000   -9999.25   45.41010   83.06750   -9999.25
 10943.00000   -9999.25   46.02360   84.96690   -9999.25
 10943.50000   -9999.25   46.62290   86.42200   -9999.25
 10944.00000   -9999.25   47.90020   87.84110   -9999.25
 10944.50000   -9999.25   48.72870   88.64940   -9999.25
 10945.00000   -9999.25   49.61630   89.43250   -9999.25
 10945.50000   -9999.25   49.94100   88.61590   -9999.25
 10946.00000   -9999.25   49.87210   88.08730   -9999.25
 10946.50000   -9999.25   49.72790   87.85090   -9999.25
 10947.00000   -9999.25   49.51300   87.18310   -9999.25
 10947.50000   -9999.25   48.35880   85.81990   -9999.25
 10948.00000   -9999.25   47.67620   83.35520   -9999.25
 10948.50000   -9999.25   46.08100   82.36370   -9999.25
 10949.00000   -9999.25   45.17780   81.74960   -9999.25
 10949.50000   -9999.25   44.38070   80.73800   -9999.25
 10950.00000   -9999.25   44.11670   79.75550   -9999.25
 10950.50000   -9999.25   43.95770   79.75030   -9999.25
 10951.00000   -9999.25   44.05960   79.74510   -9999.25
 10951.50000   -9999.25   44.17300   79.73990   -9999.25
 10952.00000   -9999.25   44.47830   79.73470   -9999.25
 10952.50000   -9999.25   45.25730   80.73380   -9999.25
 10953.00000   -9999.25   44.69950   85.75010   -9999.25
 10953.50000   -9999.25   45.28560   90.76640   -9999.25
 10954.00000   -9999.25   45.34580   92.77300   -9999.25
 10954.50000   -9999.25   46.27910   88.78180   -9999.25
 10955.00000   -9999.25   47.21230   84.79070   -9999.25
 10955.50000   -9999.25   47.01970   83.99250   -9999.25
 10956.00000   -9999.25   46.59620   84.57450   -9999.25
 10956.50000   -9999.25   47.04450   84.69490   -9999.25
 10957.00000   -9999.25   46.64200   84.11790   -9999.25
 10957.50000   -9999.25   45.99090   83.63460   -9999.25
 10958.00000   -9999.25   45.61840   82.98940   -9999.25
 10958.50000   -9999.25   45.19600   82.75770   -9999.25
 10959.00000   -9999.25   44.83110   82.45840   -9999.25
 10959.50000   -9999.25   44.31280   81.85630   -9999.25
 10960.00000   -9999.25   43.92610   81.50990   -9999.25
 10960.50000   -9999.25   43.72390   81.07680   -9999.25
 10961.00000   -9999.25   43.83480   80.64370   -9999.25
 10961.50000   -9999.25   44.04050   80.51390   -9999.25
 10962.00000   -9999.25   44.03890   80.45980   -9999.25
 10962.50000   -9999.25   43.74840   80.40580   -9999.25
 10963.00000   -9999.25   43.79970   80.35180   -9999.25
 10963.50000   -9999.25   43.82400   80.29770   -9999.25
 10964.00000   -9999.25   43.97040   80.24370   -9999.25
 10964.50000   -9999.25   44.07890   80.18970   -9999.25
 10965.00000   -9999.25   44.18450   80.51390   -9999.25
 10965.50000   -9999.25   43.96000   80.83810   -9999.25
 10966.00000   -9999.25   44.02220   80.91300   -9999.25
 10966.50000   -9999.25   43.94450   80.86830   -9999.25
