~Version ---------------------------------------------------
VERS.   2.0 : CWLS log ASCII Standard -VERSION 2.0
WRAP.    NO : One line per depth step
DLM . SPACE : Column Data Section Delimiter
~Well ------------------------------------------------------
STRT .FT                4045.0 : START DEPTH
STOP .FT               10988.0 : STOP DEPTH
STEP .FT                   0.5 : STEP
NULL .                -9999.25 : NULL VALUE
COMP .                         : COMPANY
WELL .                         : WELL
FLD  .                         : FIELD
LOC  .                         : LOCATION
PROV .                         : PROVINCE
CNTY .                         : COUNTY
STAT .                         : STATE
CTRY .                         : COUNTRY
SRVC .                         : SERVICE COMPANY
DATE .                         : DATE
UWI  .                         : UNIQUE WELL ID
API  .                         : API NUMBER
SLAT .WGS84 1.9999106417375003 : SURFACE LATITUDE
SLON .WGS84  6.164734760471006 : SURFACE LONGITUDE
DATUM.F                    nan : DEPTH DATUM ELEV
~Curve Information -----------------------------------------
DEPT.FT    : 
CALS.IN    : CALIPER FROM SONIC LOG
DTCO.US/F  : DELTA-T COMPRESSIONAL
DTSM.US/F  : DELTA-T SHEAR
GRS .GAPI  : GAMMA RAY FROM SONIC LOG
~Params ----------------------------------------------------
~Other -----------------------------------------------------
~ASCII -----------------------------------------------------
# ...
 8192.00000    8.10010   58.16810  105.38570   43.16090
 8192.50000    8.10560   55.82590  104.08640   43.67180
 8193.00000    8.10060   56.84510  103.23090   44.24250
 8193.50000    8.09280   59.10730  102.71460   45.36580
 8194.00000    8.11100   60.32820  102.39890   46.60400
 8194.50000    8.13860   56.79850  103.28480   47.76080
 8195.00000    8.14550   58.43180  104.71010   50.97450
 8195.50000    8.15230   61.06930  106.49230   61.20710
 8196.00000    8.17240   60.60740  107.79750   66.11570
 8196.50000    8.16600   63.37910  108.03670   63.31280
 8197.00000    8.16550   67.09460  109.17900   54.05980
 8197.50000    8.17850   63.61020  110.97520   49.46840
 8198.00000    8.14930   62.52370  110.46450   54.29900
 8198.50000    8.14530   62.17480  110.23870   58.63530
 8199.00000    8.14530   61.57720  110.98670   57.33030
 8199.50000    8.14530   60.97960  110.89460   52.20640
 8200.00000    8.14530   62.15530  110.49580   50.70800
 8200.50000    8.14530   63.95750  110.29270   54.27880
 8201.00000    8.14530   63.95750  110.71370   65.25230
 8201.50000    8.14530   64.46690  112.01110   72.63770
 8202.00000    8.14530   67.01400  113.31820   72.71760
 8202.50000    8.15320   67.76950  114.29900   66.90410
 8203.00000    8.16320   67.82070  115.23930   59.31870
 8203.50000    8.13810   67.89700  114.50260   62.48790
 8204.00000    8.14100   66.40070  112.60620   77.56910
 8204.50000    8.14030   64.32500  110.75170   86.96540
 8205.00000    8.12500   62.39830  109.20210   92.04450
 8205.50000    8.10100   61.31450  106.32980   64.85900
 8206.00000    8.07110   59.45610  105.50400   42.84790
 8206.50000    8.04120   56.71270  103.79610   31.14330
 8207.00000    8.01130   57.03610  101.73900   30.38220
 8207.50000    7.98140   56.55580  100.08370   32.48820
 8208.00000    7.97840   55.80030   99.29030   35.69070
 8208.50000    7.97710   55.48740   98.93870   41.85570
 8209.00000    7.97850   55.70820   98.42680   59.40900
 8209.50000    7.97980   55.59340   98.73250   67.79760
 8210.00000    7.98120   55.04960   99.66310   58.31650
 8210.50000    7.98260   55.12260   99.20700   47.05480
 8211.00000    7.98390   55.65490   99.03160   31.89540
 8211.50000    7.98530   56.91930   99.83850   27.32850
 8212.00000    7.98660   57.31070  100.39980   26.60520
 8212.50000    7.98800   57.63760  100.61030   32.59930
 8213.00000    7.98940   57.97350  100.50500   50.96050
 8213.50000    7.99070   58.35940   99.89110   65.56790
 8214.00000    7.99210   58.32030   99.76840   71.09880
 8214.50000    7.99350   58.12350  100.74050   49.45550
 8215.00000    7.99480   58.62490  101.34920   34.72290
 8215.50000    7.99620   59.99000  101.09410   23.79050
 8216.00000    7.99750   58.76850  101.64260   21.52500
 8216.50000    7.99890   57.76430  102.02730   31.41400
 8217.00000    8.00030   58.16970  102.36590   44.64270
 8217.50000    8.00160   59.62880  102.93040   62.38000
 8218.00000    8.00300   61.23520  103.30160   68.84360
 8218.50000    8.00440   62.67460  104.49740   70.62900
 8219.00000    8.00570   63.54600  105.60320   72.61840
 8219.50000    8.00710   64.61750  106.72380   74.42340
 8220.00000    8.00840   65.03060  107.74790   70.85360
 8220.50000    8.00900   63.88160  108.06840   74.06820
 8221.00000    8.01950   62.53650  108.24890   80.21680
 8221.50000    8.05650   61.22580  107.56320   82.38260
 8222.00000    8.05640   61.03970  107.75000   71.26970
 8222.50000    8.08020   61.46510  108.04820   52.24320
 8223.00000    8.09850   62.69940  108.98950   38.25540
 8223.50000    8.10250   65.58650  111.05870   41.14840
 8224.00000    8.10650   67.72670  113.38940   57.80440
 8224.50000    8.11050   69.56350  115.98860   75.90500
 8225.00000    8.12390   70.70750  117.55700   89.13350
 8225.50000    8.13760   71.61060  120.24090   99.40570
 8226.00000    8.14130   72.36020  121.83890  101.83920
 8226.50000    8.14510   73.67690  123.71450  101.67780
 8227.00000    8.14880   72.90970  123.28250   98.45090
 8227.50000    8.15260   71.97840  122.14750   85.42160
 8228.00000    8.14740   70.21710  119.79490   70.93790
 8228.50000    8.16370   67.81930  117.73210   62.37060
 8229.00000    8.17670   66.76350  115.52440   52.17830
 8229.50000    8.17670   65.70770  114.62550   50.14530
 8230.00000    8.17020   65.29090  113.51050   57.38950
 8230.50000    8.20380   66.37410  113.69890   71.93200
 8231.00000    8.21680   68.12210  114.41810   77.98670
 8231.50000    8.20410   69.63920  114.73280   73.96990
 8232.00000    8.21860   68.90270  115.79160   67.49810
 8232.50000    8.22680   73.41140  116.02780   66.72650
 8233.00000    8.23450   72.41710  118.45700   68.27210
 8233.50000    8.24210   66.05200  117.70170   64.77390
 8234.00000    8.21190   69.69570  117.19220   57.60160
 8234.50000    8.22360   66.83510  117.76030   54.55060
 8235.00000    8.22360   68.49370  118.30320   63.15600
 8235.50000    8.22360   72.65140  120.49630   73.07660
 8236.00000    8.21620   73.47440  120.83190   78.89800
 8236.50000    8.19800   73.49100  121.57630   82.61950
 8237.00000    8.17980   74.01980  121.43260   82.49990
 8237.50000    8.16160   71.79800  121.20740   81.54740
 8238.00000    8.14340   71.75330  121.28970   75.83310
 8238.50000    8.11300   67.36950  120.67320   69.27780
 8239.00000    8.11300   54.97720  118.62950   63.56460
 8239.50000    8.10290   56.91870  116.58590   57.81470
 8240.00000    8.11730   57.44690  114.54220   50.33910
 8240.50000    8.10850   55.67260  112.49860   39.81450
 8241.00000    8.12310   57.81660  112.49480   30.30560
 8241.50000    8.12310   59.26020  112.91200   32.57250
 8242.00000    8.12310   60.62940  112.87310   40.62740
 8242.50000    8.10910   62.26610  114.30770   60.55770
 8243.00000    8.10730   65.69800  117.32110   74.98890
 8243.50000    8.10840   67.74530  117.73830   85.51340
 8244.00000    8.10320   69.25840  117.73450   87.49250
 8244.50000    8.12280   71.11410  118.85100   81.87380
 8245.00000    8.12280   73.24700  120.36350   69.60220
 8245.50000    8.12280   74.64090  121.18390   56.79610
 8246.00000    8.12280   73.56060  120.54830   54.89200
 8246.50000    8.11260   72.48030  119.74340   63.02890
 8247.00000    8.11310   71.79400  119.08110   74.21140
 8247.50000    8.12540   71.32140  118.55060   78.68400
 8248.00000    8.13770   71.14520  119.22040   73.80600
 8248.50000    8.14260   70.72270  118.66840   70.70240
 8249.00000    8.14260   70.62830  116.66020   71.80450
 8249.50000    8.14260   69.09500  117.07530   73.20930
 8250.00000    8.12260   68.15280  117.33150   63.65230
 8250.50000    8.13180   69.77350  117.47420   53.84270
 8251.00000    8.14340   69.77350  116.59600   49.17870
 8251.50000    8.16260   69.72690  115.18570   58.14570
 8252.00000    8.16260   67.58670  114.31660   68.76710
 8252.50000    8.16260   67.57740  113.33690   79.08890
 8253.00000    8.16910   67.54010  111.71780   85.20310
 8253.50000    8.18580   61.74750  110.09860   76.31160
 8254.00000    8.20250   61.16600  109.12120   59.34540
 8254.50000    8.21700   60.93340  108.52510   54.16780
 8255.00000    8.21540   61.70480  107.99100   55.45370
 8255.50000    8.21670   60.47170  107.09490   55.55680
 8256.00000    8.22050   58.66600  105.45150   49.80400
 8256.50000    8.22420   57.16010  105.51730   41.52530
 8257.00000    8.22800   59.16040  105.34630   38.24470
 8257.50000    8.22630   60.79370  104.39900   37.24710
 8258.00000    8.24590   60.42480  103.76750   39.52140
 8258.50000    8.24340   59.96370  104.21490   45.50990
 8259.00000    8.24930   59.39790  104.96040   64.14960
 8259.50000    8.25520   58.12340  104.39910   76.20000
 8260.00000    8.24700   57.18540  104.77960   72.17290
 8260.50000    8.25310   56.81300  105.62960   57.83800
 8261.00000    8.25920   56.55970  106.47950   34.18330
 8261.50000    8.26530   58.37600  107.39570   26.08930
 8262.00000    8.27140   58.63070  107.92990   35.84450
 8262.50000    8.27750   58.64780  107.44850   46.41060
 8263.00000    8.28360   59.29740  107.68020   57.87430
