~Version ---------------------------------------------------
VERS.   2.0 : CWLS log ASCII Standard -VERSION 2.0
WRAP.    NO : One line per depth step
DLM . SPACE : Column Data Section Delimiter
~Well ------------------------------------------------------
STRT .FT                4045.0 : START DEPTH
STOP .FT               10988.0 : STOP DEPTH
STEP .FT                   0.5 : STEP
NULL .                -9999.25 : NULL VALUE
COMP .                         : COMPANY
WELL .                         : WELL
FLD  .                         : FIELD
LOC  .                         : LOCATION
PROV .                         : PROVINCE
CNTY .                         : COUNTY
STAT .                         : STATE
CTRY .                         : COUNTRY
SRVC .                         : SERVICE COMPANY
DATE .                         : DATE
UWI  .                         : UNIQUE WELL ID
API  .                         : API NUMBER
SLAT .WGS84 1.9999106417375003 : SURFACE LATITUDE
SLON .WGS84  6.164734760471006 : SURFACE LONGITUDE
DATUM.F                    nan : DEPTH DATUM ELEV
~Curve Information -----------------------------------------
DEPT.FT    : 
CALS.IN    : CALIPER FROM SONIC LOG
DTCO.US/F  : DELTA-T COMPRESSIONAL
DTSM.US/F  : DELTA-T SHEAR
GRS .GAPI  : GAMMA RAY FROM SONIC LOG
~Params ----------------------------------------------------
~Other -----------------------------------------------------
~ASCII -----------------------------------------------------
# ...
 9979.50000    7.97640   79.22500  125.62520  100.53750
 9980.00000    8.10460   91.26610  127.65510  106.26610
 9980.50000    8.02340   91.50700  134.57140  115.30370
 9981.00000    7.82620   91.36650  135.93960  121.31690
 9981.50000    8.14410   99.93650  135.72920  126.42820
 9982.00000    9.56400   99.94710  134.18550  128.29330
 9982.50000    9.04050   97.15220  133.51890  127.80470
 9983.00000    8.54080   98.62740  137.41310  127.07170
 9983.50000    8.80260  106.00830  153.79650  130.07870
 9984.00000    9.08810  103.35900  158.52560  134.02530
 9984.50000    9.31020  103.35900  149.93750  134.28400
 9985.00000    8.44700   99.98720  154.04210  128.23210
 9985.50000    7.83120   90.33320  149.41120  118.47780
 9986.00000    7.71600   79.74470  146.17860  108.79230
 9986.50000    7.83490   77.32770  144.25410  108.07850
 9987.00000    7.84400   77.02660  143.88100  127.29280
 9987.50000    7.85580   75.98050  143.73750  149.00570
 9988.00000    7.84600   74.43760  143.62270  215.02670
 9988.50000    7.87120   74.99320  143.62270  241.22200
 9989.00000    7.82430   76.52320  145.41180  262.47770
 9989.50000    7.78730   77.39090  144.82250  217.88610
 9990.00000    7.95130   77.73950  144.14890  161.84920
 9990.50000    7.93010   78.23090  143.83310  146.90640
 9991.00000    7.81910   78.05020  143.30690  135.70250
 9991.50000    7.78710   77.41800  137.62360  123.12090
 9992.00000    7.85630   75.80520  179.82760  101.80060
 9992.50000    7.80240   70.88520  180.03810   84.03490
 9993.00000    7.84400   60.76980  179.61710   57.89970
 9993.50000    7.84400   53.32080  139.04440   40.13830
 9994.00000    7.81970   50.65440  110.46990   27.24130
 9994.50000    7.82080   52.12950  103.40330   20.88820
 9995.00000    7.82190   51.92480   98.44550   18.28300
 9995.50000    7.82310   51.05180   94.96850   17.50680
 9996.00000    7.82160   50.35330   92.78840   16.71110
 9996.50000    7.80390   52.64430   92.68320   17.03240
 9997.00000    7.81290   54.66130   97.17370   19.09200
 9997.50000    7.82400   56.60310  104.40070   29.31450
 9998.00000    7.83150   67.57880  113.22970   42.65880
 9998.50000    7.82400   77.38790  127.27430   68.14490
 9999.00000    7.83380   78.05020  135.41340   86.44020
 9999.50000    8.03590   81.54240  148.54850  106.36350
 10000.00000    8.23150   82.08430  163.12570  120.71800
 10000.50000    8.63910   82.20660  167.81250  124.02360
 10001.00000    8.77880   82.26890  168.78490  128.64030
 10001.50000    8.93350   82.57210  168.78830  128.57830
 10002.00000    8.80260   83.96800  168.47680  125.54610
 10002.50000    8.29020   82.79750  166.90220  120.11500
 10003.00000    8.07300   81.49590  164.42800  115.26570
 10003.50000    7.84400   79.20970  161.35400  115.24180
 10004.00000    7.80710   78.10770  158.27990  121.24560
 10004.50000    8.21540   77.62620  157.33640  129.90800
 10005.00000    8.00940   77.58640  155.70850  132.74290
 10005.50000    8.24740   73.17880  152.39650  123.42230
 10006.00000    8.03060   72.02960  156.71510  116.20600
 10006.50000    8.00130   74.39980  151.24610  115.14100
 10007.00000    8.36520   76.92790  151.24970  125.22630
 10007.50000    8.51350   76.08700  157.56810  131.06180
 10008.00000    8.75500   75.01720  159.36090  135.12880
 10008.50000    8.53290   74.10480  153.04920  131.64190
 10009.00000    9.31480   73.26330  173.27970  129.30320
 10009.50000   10.35720   72.00040  180.13270  127.16270
 10010.00000   10.72200   71.17650  180.13270  125.22580
 10010.50000   10.56340   70.16610  180.13270  124.02290
 10011.00000    8.76600   69.44280  180.13270  118.83900
 10011.50000    8.34850   68.05800  180.13840  117.25800
 10012.00000    8.63990   67.21820  180.13840  115.48620
 10012.50000    9.29680   66.48960  179.68230  112.89840
 10013.00000    9.72270   67.87440  172.45530  102.97660
 10013.50000    9.83370   66.38350  165.46390   93.65600
 10014.00000    7.86770   63.97270  127.09360   85.15870
 10014.50000    7.86410   68.52110  142.70540   85.39670
 10015.00000    7.87300   70.52660  143.09130   93.65600
 10015.50000    7.88190   68.96290  143.40700   98.16600
 10016.00000    7.89090   67.48810  147.51170  104.77300
 10016.50000    7.88410   65.83020  148.64830  111.69570
 10017.00000    7.90310   64.44530  149.14300  119.59210
 10017.50000    8.24170   62.39820  148.98510  125.24730
 10018.00000    7.97770   60.95160  146.07330  132.03460
 10018.50000    7.97770   59.32740  142.09140  128.52910
 10019.00000    7.99360   57.88230  135.90810  102.97660
 10019.50000    7.85080   55.51690  130.19840   70.57840
 10020.00000    7.87380   54.56780  123.29160   51.93350
 10020.50000    7.85200   59.06350  111.12240   48.08370
 10021.00000    7.83010   61.34150  104.84180   47.25110
 10021.50000    7.80830   58.51770  101.51850   52.16470
 10022.00000    7.82290   57.73080   99.93970   57.71930
 10022.50000    7.84400   58.24360  100.04500   60.58330
 10023.00000    7.83570   58.21290  100.98060   64.70520
 10023.50000    7.82730   57.98110  101.51850   70.84380
 10024.00000    7.82400   57.77970  100.79920   72.30950
 10024.50000    7.82400   56.61790  100.07990   63.77760
 10025.00000    7.82400   55.97710   99.36070   48.10580
 10025.50000    7.82320   55.64750   98.95340   36.83100
 10026.00000    7.82220   56.19750   98.49010   34.72640
 10026.50000    7.82130   55.71470   98.45410   32.62170
 10027.00000    7.82030   56.25950   98.68170   40.27190
 10027.50000    7.81930   58.00280  100.04430   48.92590
 10028.00000    7.81840   59.34630  102.48910   56.52430
 10028.50000    7.81740   59.89940  104.65250   59.44600
 10029.00000    7.80390   60.27680  106.03100   63.33930
 10029.50000    7.80370   60.14900  106.88610   64.04090
 10030.00000    7.80360   60.48740  106.71760   62.96710
 10030.50000    7.80350   60.82950  106.50710   61.64650
 10031.00000    7.80330   60.07640  107.69590   61.93660
 10031.50000    7.80320   60.40710  108.27360   61.47470
 10032.00000    7.80610   60.08300  109.00490   60.59320
 10032.50000    7.80980   60.25360  109.67770   59.04600
 10033.00000    7.81340   61.24110  109.78630   58.66230
 10033.50000    7.81700   61.73640  110.35960   59.14850
 10034.00000    7.82070   62.30270  111.12390   59.20010
 10034.50000    7.82430   61.83340  112.25620   59.25180
 10035.00000    7.82790   62.93950  112.98800   62.38760
 10035.50000    7.83160   62.32880  114.04830   68.10020
 10036.00000    7.83520   62.40440  115.92880   74.68940
 10036.50000    7.83890   62.48230  114.55980   73.97560
 10037.00000    7.84250   62.48230  114.76960   63.28960
 10037.50000    7.84610   62.52710  116.24230   56.27770
 10038.00000    7.84980   62.38790  114.36060   51.31500
 10038.50000    7.85340   62.29720  113.72450   51.26310
 10039.00000    7.85700   62.15780  111.90870   55.39550
 10039.50000    7.86070   62.54030  112.25970   66.81260
 10040.00000    7.88130   62.62840  113.47450   79.68640
 10040.50000    7.84580   62.70250  116.06240   79.92440
 10041.00000    7.84450   62.74680  117.80380   64.79290
 10041.50000    7.86180   62.98720  118.63000   54.93960
 10042.00000    7.82900   63.34800  120.24860   55.41550
 10042.50000    7.82480   63.81370  121.91200   60.28300
 10043.00000    7.81520   64.18610  121.91070   65.42400
 10043.50000    7.81750   64.84780  120.85740   68.07050
 10044.00000    7.81980   65.50950  121.13710   73.86660
 10044.50000    7.82210   65.50890  121.48690   77.60930
 10045.00000    7.80390   65.08680  121.38050   79.68640
 10045.50000    7.81820   62.50180  118.75610   73.68000
 10046.00000    7.81910   61.97310  117.87840   68.21040
 10046.50000    7.82000   61.47570  116.64970   63.21440
 10047.00000    7.82090   59.82410  114.59820   60.28300
 10047.50000    7.82180   57.62360  111.31220   54.26970
 10048.00000    7.80780   56.54420  108.02630   49.00280
 10048.50000    7.79880   57.19100  108.51540   37.59510
 10049.00000    7.78730   58.50730  110.43640   33.81160
 10049.50000    7.78730   59.82370  110.33040   42.08780
 10050.00000    7.78730   61.14000  109.52250   57.88020
