~Version ---------------------------------------------------
VERS.   2.0 : CWLS log ASCII Standard -VERSION 2.0
WRAP.    NO : One line per depth step
DLM . SPACE : Column Data Section Delimiter
~Well ------------------------------------------------------
STRT .FT                4045.0 : START DEPTH
STOP .FT               10988.0 : STOP DEPTH
STEP .FT                   0.5 : STEP
NULL .                -9999.25 : NULL VALUE
COMP .                         : COMPANY
WELL .                         : WELL
FLD  .                         : FIELD
LOC  .                         : LOCATION
PROV .                         : PROVINCE
CNTY .                         : COUNTY
STAT .                         : STATE
CTRY .                         : COUNTRY
SRVC .                         : SERVICE COMPANY
DATE .                         : DATE
UWI  .                         : UNIQUE WELL ID
API  .                         : API NUMBER
SLAT .WGS84 1.9999106417375003 : SURFACE LATITUDE
SLON .WGS84  6.164734760471006 : SURFACE LONGITUDE
DATUM.F                    nan : DEPTH DATUM ELEV
~Curve Information -----------------------------------------
DEPT.FT    : 
CALS.IN    : CALIPER FROM SONIC LOG
DTCO.US/F  : DELTA-T COMPRESSIONAL
DTSM.US/F  : DELTA-T SHEAR
GRS .GAPI  : GAMMA RAY FROM SONIC LOG
~Params ----------------------------------------------------
~Other -----------------------------------------------------
~ASCII -----------------------------------------------------
# ...
 6333.00000    3.67490   73.50510  150.41130   81.02830
 6333.50000    3.67520   73.95940  153.28530   74.57570
 6334.00000    3.67540   74.71140  154.98780   72.62210
 6334.50000    3.67570   75.04260  157.01760   73.57390
 6335.00000    3.67600   75.61050  157.91210   81.07830
 6335.50000    3.67620   76.27270  158.35070   88.54480
 6336.00000    3.67650   76.51170  158.49100   95.02430
 6336.50000    3.67680   77.08970  158.17530   96.94560
 6337.00000    3.68510   77.57140  157.96480   97.09260
 6337.50000    3.69270   78.17580  157.96480   95.89810
 6338.00000    3.68780   78.40830  157.96480   94.83180
 6338.50000    3.68280   78.34290  157.96480   96.03560
 6339.00000    3.67780   78.33730  157.96480   99.83500
 6339.50000    3.67680   78.42310  157.96480   99.33230
 6340.00000    3.67680   78.42860  157.96480   95.72230
 6340.50000    3.67680   78.43420  157.96130   93.15270
 6341.00000    3.67680   77.70720  157.74720   95.81550
 6341.50000    3.67680   74.05040  140.27440  102.97660
 6342.00000    3.67680   73.41100  129.53990  108.79170
 6342.50000    3.67680   73.27980  129.32760  109.39860
 6343.00000    3.67600   73.10070  129.22040  105.68250
 6343.50000    3.67500   73.02590  128.94470  102.12770
 6344.00000    3.67400   73.01880  128.47960   99.51030
 6344.50000    3.67300   73.01170  128.05650   97.73030
 6345.00000    3.67440   73.00460  127.63330   91.25080
 6345.50000    3.67680   72.61530  127.73690   81.02830
 6346.00000    3.67670   72.48640  127.94540   74.17860
 6346.50000    3.67660   72.41520  124.08660   75.26670
 6347.00000    3.67650   72.14350  118.88460   83.98220
 6347.50000    3.67640   72.30370  116.72730   89.04050
 6348.00000    3.67630   72.42280  116.47350   82.62310
 6348.50000    3.67620   73.23930  112.49350   72.00840
 6349.00000    3.67610   74.02220  112.82170   65.69450
 6349.50000    3.67600   74.14110  114.89000   61.17080
 6350.00000    3.67590   74.14780  115.76580   60.39560
 6350.50000    3.67580   72.19360  157.86450   59.86810
 6351.00000    3.67570   72.63560  150.02360   59.91850
 6351.50000    3.67560   73.12420  130.68460   60.35430
 6352.00000    3.67550   72.84830  122.77530   61.16620
 6352.50000    3.67540   72.59550  122.02800   63.77820
 6353.00000    3.67530   71.97190  122.39640   65.13870
 6353.50000    3.67520   71.42950  121.41400   65.23870
 6354.00000    3.67510   71.65120  121.90520   64.11000
 6354.50000    3.67500   71.14690  122.60690   63.93600
 6355.00000    3.67490   70.37850  126.83180   62.37620
 6355.50000    3.67480   69.91380  142.69390   62.36570
 6356.00000    3.67470   69.79750  145.76110   62.91110
 6356.50000    3.67460   69.68120  142.91950   63.13930
 6357.00000    3.67450   69.58810  147.02410   62.41260
 6357.50000    3.67440   70.01120  154.91760   59.53530
 6358.00000    3.67470   70.45570  161.12720   61.67680
 6358.50000    3.67530   70.51480  160.39040   61.67680
 6359.00000    3.67590   71.06880  153.44420   63.89090
 6359.50000    3.67650   71.65580  151.54970   67.79960
 6360.00000    3.67710   72.19130  152.28630   72.68890
 6360.50000    3.67770   72.90510  149.49140   76.29600
 6361.00000    3.67830   74.19960  146.39250   78.44630
 6361.50000    3.67890   75.38150  148.60270   79.12630
 6362.00000    3.67940   75.29430  150.60240   81.34570
 6362.50000    3.68000   74.72260  151.54960   85.83880
 6363.00000    3.68060   74.90610  152.91780   88.84550
 6363.50000    3.69690   75.71690  152.60210   89.58370
 6364.00000    3.67940   75.24070  150.60240   89.51640
 6364.50000    3.69690   76.18660  155.86470   89.15950
 6365.00000    3.68110   75.44410  151.83900   88.32670
 6365.50000    3.67780   75.14920  145.12960   93.37120
 6366.00000    3.65720   75.39180  145.62070   97.80190
 6366.50000    3.67620   75.86740  146.91870   99.64360
 6367.00000    3.67650   76.33450  139.28830   97.56460
 6367.50000    3.67670   75.38060  130.60540   92.33270
 6368.00000    3.66970   75.72960  129.55290   86.69040
 6368.50000    3.67680   74.75250  129.86870   85.56630
 6369.00000    3.67680   73.77540  135.28890   84.99540
 6369.50000    3.67680   73.79860  139.02520   88.08870
 6370.00000    3.67680   73.85660  136.46370   88.32670
 6370.50000    3.67680   73.54120  122.25220   88.80310
 6371.00000    3.67690   72.99700  111.91710   89.75490
 6371.50000    3.67690   72.93350  118.48100   86.42360
 6372.00000    3.67690   73.43950  134.50230   84.04410
 6372.50000    3.67690   73.94550  140.90950   84.52000
 6373.00000    3.67690   74.60390  139.56440   94.46100
 6373.50000    3.67690   75.30040  137.85010  104.50780
 6374.00000    3.67690   75.99790  137.53180  102.95550
 6374.50000    3.67690   76.55620  137.95020   98.57870
 6375.00000    3.68020   75.10970  139.42110   99.30030
 6375.50000    3.69690   76.64690  142.79190  101.55450
 6376.00000    3.68280   75.03140  139.36000  101.92900
 6376.50000    3.67910   72.33980  126.94450   97.75460
 6377.00000    3.67640   70.88840  124.35370   95.25010
 6377.50000    3.67520   69.74700  142.17080   90.91780
 6378.00000    3.67410   70.35740  154.89350   86.37650
 6378.50000    3.67290   71.40420  154.15520   78.74850
 6379.00000    3.68850   68.71790  149.76520   70.71890
 6379.50000    4.27550   70.06260  143.75820   76.48240
 6380.00000    6.00450   70.12200  143.66730   94.04010
 6380.50000    9.05640   69.94520  133.39640  116.40460
 6381.00000    9.15160   70.04070  136.97300  105.29200
 6381.50000    9.16690   70.25590  143.23510  100.99520
 6382.00000    9.15690   70.83720  142.18270  106.66860
 6382.50000    9.14710   72.09550  141.23550  115.69080
 6383.00000    9.14780   73.34040  141.44600  116.06000
 6383.50000    9.14840   73.54290  138.73060  110.50870
 6384.00000    9.14900   73.72640  125.44850  108.42040
 6384.50000    9.14960   74.32010  122.71210  110.20010
 6385.00000    9.15030   75.43930  121.55430  113.59500
 6385.50000    9.15090   75.97590  124.04510  109.17390
 6386.00000    9.16810   75.90920  131.64300  103.83060
 6386.50000    9.15550   75.65210  137.86760  101.79210
 6387.00000    9.16360   75.03170  145.65580  101.38030
 6387.50000    9.15260   76.60060  145.55060  100.34250
 6388.00000    9.14960   71.90440  143.21550   98.47720
 6388.50000    9.13570   73.88360  140.88030   98.68030
 6389.00000    9.24680   70.28600  138.54510  103.27720
 6389.50000   10.54470   70.40020  137.86760  106.28380
 6390.00000   10.55330   70.67830  139.20070  110.70820
 6390.50000   10.44720   71.06870  140.70930  111.45600
 6391.00000   10.40480   71.94040  140.81450  109.50480
 6391.50000   13.18880   72.96560  133.44720  112.00330
 6392.00000   15.98870   73.28700  130.50030  120.92640
 6392.50000   17.19410   74.63430  132.79660  132.40750
 6393.00000   17.33410   75.01680  135.09290  148.76650
 6393.50000   17.42250   75.33940  137.41650  168.21830
 6394.00000   17.35900   75.25770  139.74700  173.53250
 6394.50000   16.23010   75.12480  142.07750  167.88970
 6395.00000   16.01490   75.26430  140.05670  161.25480
 6395.50000   16.02030   74.84800  134.74180  152.18720
 6396.00000   16.02560   73.69070  131.07920  144.95940
 6396.50000   16.00000   73.01520  130.50030  144.00750
 6397.00000   14.56100   73.16290  131.02650  140.20030
 6397.50000   14.88620   75.53620  132.07900  131.17990
 6398.00000   14.38650   77.12540  133.93140  120.90470
 6398.50000   14.79890   72.47270  136.98350  114.02580
 6399.00000   13.03810   73.58940  138.70960  119.35000
 6399.50000   15.10030   74.19940  135.83910  140.02190
 6400.00000   15.92520   74.61300  132.96870  154.35370
 6400.50000   17.12110   74.30460  132.28940  158.54170
 6401.00000   16.07410   73.97270  134.49950  158.54170
 6401.50000   16.39140   73.80820  135.37660  149.73750
 6402.00000   16.10580   73.18220  136.76240  130.61570
 6402.50000   12.41160   72.09220  138.96500  107.12640
 6403.00000   11.02350   71.18910  141.82170  106.65050
 6403.50000   10.56080   69.54350  141.34060  111.64750
 6404.00000    9.19920   68.08320  141.65640  108.33500
