~Version ---------------------------------------------------
VERS.   2.0 : CWLS log ASCII Standard -VERSION 2.0
WRAP.    NO : One line per depth step
DLM . SPACE : Column Data Section Delimiter
~Well ------------------------------------------------------
STRT .FT                4045.0 : START DEPTH
STOP .FT               10988.0 : STOP DEPTH
STEP .FT                   0.5 : STEP
NULL .                -9999.25 : NULL VALUE
COMP .                         : COMPANY
WELL .                         : WELL
FLD  .                         : FIELD
LOC  .                         : LOCATION
PROV .                         : PROVINCE
CNTY .                         : COUNTY
STAT .                         : STATE
CTRY .                         : COUNTRY
SRVC .                         : SERVICE COMPANY
DATE .                         : DATE
UWI  .                         : UNIQUE WELL ID
API  .                         : API NUMBER
SLAT .WGS84 1.9999106417375003 : SURFACE LATITUDE
SLON .WGS84  6.164734760471006 : SURFACE LONGITUDE
DATUM.F                    nan : DEPTH DATUM ELEV
~Curve Information -----------------------------------------
DEPT.FT    : 
CALS.IN    : CALIPER FROM SONIC LOG
DTCO.US/F  : DELTA-T COMPRESSIONAL
DTSM.US/F  : DELTA-T SHEAR
GRS .GAPI  : GAMMA RAY FROM SONIC LOG
~Params ----------------------------------------------------
~Other -----------------------------------------------------
~ASCII -----------------------------------------------------
# ...
 10473.50000    7.72380   52.01390   87.45060   38.93590
 10474.00000    7.76470   51.83360   87.52540   40.27000
 10474.50000    7.78150   51.84620   87.68270   39.76270
 10475.00000    7.74980   51.84600   87.70300   37.82370
 10475.50000    7.74500   51.59130   87.80540   36.94850
 10476.00000    7.74030   51.59670   87.87710   37.92680
 10476.50000    7.76380   51.73140   87.94870   38.19610
 10477.00000    7.74740   51.53460   87.97210   38.76440
 10477.50000    7.74510   51.86280   87.96320   38.36480
 10478.00000    7.74620   51.96960   87.51580   38.01640
 10478.50000    7.75210   51.97100   87.75650   37.35130
 10479.00000    7.75790   52.04270   87.62620   35.01580
 10479.50000    7.76380   51.86290   87.47570   34.06040
 10480.00000    7.76380   52.03340   87.62560   33.14930
 10480.50000    7.75140   51.96710   87.66430   32.11280
 10481.00000    7.75450   51.97040   87.45170   32.30800
 10481.50000    7.75760   52.03510   87.23910   34.72660
 10482.00000    7.76070   51.93730   87.27340   34.08950
 10482.50000    7.76380   51.93840   87.14910   32.65160
 10483.00000    7.76380   51.93960   87.03390   29.00010
 10483.50000    7.76380   51.85420   87.01360   27.53950
 10484.00000    7.77820   51.88500   87.01360   28.72920
 10484.50000    7.79250   51.59080   87.01360   32.92260
 10485.00000    7.79520   51.83590   87.15180   35.90520
 10485.50000    7.76380   51.95170   87.41850   35.81830
 10486.00000    7.78340   51.95820   87.66280   35.41600
 10486.50000    7.79080   51.96640   87.73800   34.77670
 10487.00000    7.78610   51.96860   87.81310   33.51250
 10487.50000    7.76380   51.96200   87.54480   32.77860
 10488.00000    7.77590   52.02030   87.38900   32.97520
 10488.50000    7.78710   51.98370   87.27530   35.22330
 10489.00000    7.80390   51.93890   87.19910   35.89680
 10489.50000    7.77550   51.73680   86.66650   36.20830
 10490.00000    7.77150   51.58320   87.16970   35.35210
 10490.50000    7.79180   51.76130   86.87350   34.65310
 10491.00000    7.78800   51.93940   86.29050   34.21210
 10491.50000    7.75160   51.65610   86.12600   31.89070
 10492.00000    7.74380   51.49820   85.68190   29.16900
 10492.50000    7.75810   51.73490   85.69450   25.93850
 10493.00000    7.78200   51.89310   85.46970   26.23050
 10493.50000    7.80590   51.97980   85.13060   28.11430
 10494.00000    7.80120   52.05420   85.02610   27.53930
 10494.50000    7.79540   51.87680   84.91250   25.95300
 10495.00000    7.78960   51.85050   84.92790   26.11160
 10495.50000    7.78370   51.76890   85.34110   28.86000
 10496.00000    7.77790   51.72900   85.49740   30.58870
 10496.50000    7.77200   51.50940   85.52290   30.94320
 10497.00000    7.76620   51.62410   85.54840   30.90720
 10497.50000    7.76380   51.41120   85.93890   30.19980
 10498.00000    7.77160   51.39650   85.82980   31.84520
 10498.50000    7.77840   51.51590   85.69150   30.81490
 10499.00000    7.76280   51.71550   86.16150   29.82790
 10499.50000    7.76020   51.66320   86.32620   32.25130
 10500.00000    7.75760   51.58380   86.40870   35.59710
 10500.50000    7.79170   51.47420   86.65050   36.65080
 10501.00000    7.79390   51.70640   86.80830   34.92700
 10501.50000    7.78980   51.61470   87.10520   33.96410
 10502.00000    7.77900   51.79850   87.33060   33.96410
 10502.50000    7.76820   51.81780   87.39100   34.91590
 10503.00000    7.76390   51.61150   87.21310   37.53340
 10503.50000    7.76400   51.65000   87.27530   36.99800
 10504.00000    7.73230   51.81560   87.05620   36.10570
 10504.50000    7.77740   51.60850   86.64310   37.67530
 10505.00000    7.82620   51.63740   87.01600   39.78680
 10505.50000    7.87500   52.02480   87.31450   41.28100
 10506.00000    7.81380   52.05040   87.17700   39.73230
 10506.50000    7.79570   51.84570   87.04450   35.91690
 10507.00000    7.77980   51.71780   87.21050   35.15380
 10507.50000    7.78650   51.71860   87.37640   36.10570
 10508.00000    7.79320   51.44050   87.49960   34.22370
 10508.50000    7.79990   51.40900   87.25340   32.27680
 10509.00000    7.81700   51.45850   87.07460   30.63280
 10509.50000    7.78650   51.59050   87.05780   30.03790
 10510.00000    7.78350   51.55840   86.97390   29.68100
 10510.50000    7.78280   51.65280   86.88990   29.68080
 10511.00000    7.78220   51.84130   86.74160   30.75160
 10511.50000    7.78150   51.62160   86.67420   32.23880
 10512.00000    7.78090   51.59850   86.78620   32.77420
 10512.50000    7.78020   51.70820   86.71800   33.84490
 10513.00000    7.77960   51.80820   86.58120   35.57770
 10513.50000    7.77890   51.84820   86.47170   33.11180
 10514.00000    7.77830   51.91510   86.63230   30.86010
 10514.50000    7.77760   51.96860   86.65930   29.78370
 10515.00000    7.77700   51.73400   86.50190   31.11840
 10515.50000    7.77690   51.70830   86.48950   35.13830
 10516.00000    7.76510   51.80980   86.47710   37.52220
 10516.50000    7.77670   52.04760   86.46470   37.51250
 10517.00000    7.77080   52.13230   86.19780   35.32770
 10517.50000    7.76500   51.92850   86.85220   31.57970
 10518.00000    7.76600   51.48690   86.38010   30.15670
 10518.50000    7.76380   51.81250   87.32470   32.18670
 10519.00000    7.76070   51.96600   86.75530   35.40540
 10519.50000    7.75300   52.05530   87.16700   38.72290
 10520.00000    7.74530   51.96170   86.97500   37.05680
 10520.50000    7.75170   51.92790   86.93950   33.58670
 10521.00000    7.77920   51.84380   87.18460   31.10870
 10521.50000    7.78210   51.94500   87.03410   34.33260
 10522.00000    7.78750   52.05050   87.05120   37.22060
 10522.50000    7.79660   52.00890   87.07040   39.88550
 10523.00000    7.79390   51.74010   87.05750   39.25200
 10523.50000    7.81700   52.06260   87.15960   38.86100
 10524.00000    7.77120   51.95350   87.64660   41.11600
 10524.50000    7.77820   51.84690   87.61290   41.73480
 10525.00000    7.78180   51.83390   87.01020   41.04050
 10525.50000    7.78540   51.93910   87.58200   36.38020
 10526.00000    7.80390   51.92980   87.70530   35.23830
 10526.50000    7.78790   51.87540   87.82860   34.71520
 10527.00000    7.78790   52.18820   87.92720   36.17950
 10527.50000    7.81400   52.02540   87.92720   39.31850
 10528.00000    7.84400   51.76990   87.64380   45.51610
 10528.50000    7.82430   51.75320   87.84610   46.42060
 10529.00000    7.80390   51.95710   87.67080   43.14520
 10529.50000    7.76380   52.04950   87.87550   37.24550
 10530.00000    7.75160   51.99690   88.08030   34.97540
 10530.50000    7.76380   51.76980   88.12910   35.67730
 10531.00000    7.76380   51.66190   87.96370   35.39180
 10531.50000    7.76380   51.47420   87.79820   38.56000
 10532.00000    7.76700   51.45520   87.63280   40.10990
 10532.50000    7.78150   51.73160   87.46740   42.24320
 10533.00000    7.75600   51.71660   87.30190   41.22310
 10533.50000    7.74190   51.47000   87.13650   40.17570
 10534.00000    7.73410   51.40960   87.04620   37.53340
 10534.50000    7.78770   51.34840   87.25670   38.00930
 10535.00000    7.80390   51.34620   87.46720   40.26000
 10535.50000    7.78730   51.19910   87.67770   42.76930
 10536.00000    7.78560   51.24320   87.88820   41.95840
 10536.50000    7.78400   51.33190   88.01450   38.93590
 10537.00000    7.78240   51.34170   88.01450   35.77890
 10537.50000    7.78070   51.34720   88.93290   35.07230
 10538.00000    7.77910   51.33490   88.38190   33.66630
 10538.50000    7.77740   50.93010   88.55990   32.77230
 10539.00000    7.78640   51.21930   88.61890   33.47380
 10539.50000    7.80390   51.34960   88.20460   36.83120
 10540.00000    7.80390   51.48320   87.90280   39.54200
 10540.50000    7.80390   51.58780   87.88330   40.62540
 10541.00000    7.78800   51.55270   88.06310   40.54570
 10541.50000    7.78830   51.10460   88.24290   38.71210
 10542.00000    7.78870   51.43540   88.33360   37.15390
 10542.50000    7.78900   51.60480   88.52620   38.81360
 10543.00000    7.78940   51.45190   88.42930   45.36230
 10543.50000    7.78970   51.23080   87.84080   46.81300
