~Version ---------------------------------------------------
VERS.   2.0 : CWLS log ASCII Standard -VERSION 2.0
WRAP.    NO : One line per depth step
DLM . SPACE : Column Data Section Delimiter
~Well ------------------------------------------------------
STRT .FT                4045.0 : START DEPTH
STOP .FT               10988.0 : STOP DEPTH
STEP .FT                   0.5 : STEP
NULL .                -9999.25 : NULL VALUE
COMP .                         : COMPANY
WELL .                         : WELL
FLD  .                         : FIELD
LOC  .                         : LOCATION
PROV .                         : PROVINCE
CNTY .                         : COUNTY
STAT .                         : STATE
CTRY .                         : COUNTRY
SRVC .                         : SERVICE COMPANY
DATE .                         : DATE
UWI  .                         : UNIQUE WELL ID
API  .                         : API NUMBER
SLAT .WGS84 1.9999106417375003 : SURFACE LATITUDE
SLON .WGS84  6.164734760471006 : SURFACE LONGITUDE
DATUM.F                    nan : DEPTH DATUM ELEV
~Curve Information -----------------------------------------
DEPT.FT    : 
CALS.IN    : CALIPER FROM SONIC LOG
DTCO.US/F  : DELTA-T COMPRESSIONAL
DTSM.US/F  : DELTA-T SHEAR
GRS .GAPI  : GAMMA RAY FROM SONIC LOG
~Params ----------------------------------------------------
~Other -----------------------------------------------------
~ASCII -----------------------------------------------------
# ...
 6762.00000    9.23930   71.75450  120.01250  120.37690
 6762.50000    9.22960   71.74170  119.89560  121.83030
 6763.00000    9.23230   71.73750  119.85580  124.37340
 6763.50000    9.24210   71.58040  119.45490  122.60180
 6764.00000    9.21700   71.50680  119.05950  118.30220
 6764.50000    9.19200   71.51040  118.78440  109.11150
 6765.00000    9.18530   71.51390  118.62270   97.26380
 6765.50000    9.18320   71.51740  118.57260   91.06940
 6766.00000    9.18120   71.55010  119.18080   90.83140
 6766.50000    9.16710   71.64130  118.50580   98.81550
 6767.00000    9.16790   71.68020  117.99280  108.98960
 6767.50000    9.16860   71.82130  118.98710  116.44050
 6768.00000    9.16800   71.94770  119.98520  122.47850
 6768.50000    9.16690   72.02300  119.93670  119.38520
 6769.00000    9.14520   72.10640  119.85570  119.86110
 6769.50000    9.12680   72.11600  119.77480  115.19890
 6770.00000    9.11180   72.07940  119.87320  111.86980
 6770.50000    9.08690   72.24270  120.05160  109.15370
 6771.00000    9.06190   72.58780  120.05650  109.46560
 6771.50000    9.03600   73.04100  120.17240  110.24080
 6772.00000    9.02580   73.92620  120.63860  110.90540
 6772.50000    9.03290   74.31210  120.86410  109.89180
 6773.00000    9.02290   74.45030  121.29420  113.49970
 6773.50000    9.00640   74.27300  121.56180  119.21230
 6774.00000    8.98980   74.48230  121.70810  127.62710
 6774.50000    8.98250   74.52650  121.89630  131.53940
 6775.00000    8.91030   74.25260  121.69560  128.11600
 6775.50000    8.88630   73.74690  121.79590  121.31690
 6776.00000    8.85890   73.51880  121.86530  113.67240
 6776.50000    8.84470   73.51860  122.14720  113.04390
 6777.00000    8.83050   73.64350  120.44120  117.49540
 6777.50000    8.80610   74.98230  121.72570  118.20050
 6778.00000    8.79080   75.75140  122.72280  118.77260
 6778.50000    8.78350   75.67430  122.30200  121.01630
 6779.00000    8.76610   75.30980  123.53880  126.63830
 6779.50000    8.73360   74.85530  123.67400  128.42750
 6780.00000    8.70110   74.63290  123.97870  124.81730
 6780.50000    8.66850   74.81570  124.61270  118.01040
 6781.00000    8.62980   75.37850  125.42910  101.17320
 6781.50000    8.62750   74.17540  126.28520   92.50460
 6782.00000    8.62350   73.42690  126.12330   94.07830
 6782.50000    8.61240   72.75710  123.16730  104.78120
 6783.00000    8.59570   71.42990  121.42360  113.19970
 6783.50000    8.58350   70.91780  120.04000  118.91230
 6784.00000    8.55320   70.83520  119.11900  124.09060
 6784.50000    8.54110   71.10250  118.16410  123.90720
 6785.00000    8.52560   71.01220  117.76740  118.91230
 6785.50000    8.52580   70.58320  117.74280  108.64680
 6786.00000    8.53550   70.85530  117.53120  106.29610
 6786.50000    8.51090   69.80850  116.17650  110.42500
 6787.00000    8.52550   68.78060  115.42390  115.00370
 6787.50000    8.50000   68.29900  115.42390  117.91420
 6788.00000    8.48100   67.28840  113.52410  118.84700
 6788.50000    8.50550   66.83100  113.40730  115.00370
 6789.00000    8.48540   67.02390  113.45990   99.66990
 6789.50000    8.50150   66.39440  113.12310   85.56200
 6790.00000    8.50830   66.20720  112.67060   78.93460
 6790.50000    8.52270   67.10750  112.30220   91.62650
 6791.00000    8.53700   69.32250  115.63910  110.79390
 6791.50000    8.54630   67.46690  119.41570  118.91030
 6792.00000    8.54830   72.49080  123.19220  115.49420
 6792.50000    8.55020   75.10280  126.03700  115.40560
 6793.00000    8.55210   76.06620  127.24720  119.81430
 6793.50000    8.57820   77.27630  129.96620  129.84690
 6794.00000    8.59910   77.61970  130.19420  134.66710
 6794.50000    8.55670   77.64920  129.77320  131.29490
 6795.00000    8.55450   77.54130  129.98370  127.33090
 6795.50000    8.56060   77.03550  128.08930  121.31760
 6796.00000    8.56680   75.93070  126.68880  114.10690
 6796.50000    8.57290   75.54170  123.43900  110.94480
 6797.00000    8.57900   74.81820  121.14390  109.58250
 6797.50000    8.58520   74.87040  122.07940  109.63020
 6798.00000    8.57300   74.94860  122.88050  111.53380
 6798.50000    8.54500   74.80170  123.77480  119.81430
 6799.00000    8.55440   74.52950  123.88680  127.83200
 6799.50000    8.56370   73.88530  123.25790  130.14080
 6800.00000    8.55240   73.69160  122.61190  129.63260
 6800.50000    8.54210   73.69880  122.23330  124.32350
 6801.00000    8.52550   73.70600  122.19770  111.15720
 6801.50000    8.53220   73.79670  121.87350  100.76110
 6802.00000    8.54050   73.71540  121.58660  100.34960
 6802.50000    8.54730   72.99540  121.14760  110.49310
 6803.00000    8.55170   72.46860  120.78550  122.21890
 6803.50000    8.56580   72.24280  121.04350  129.85520
 6804.00000    8.58900   72.33430  120.00310  132.71060
 6804.50000    8.59710   72.46730  119.77430  127.87970
 6805.00000    8.61500   72.35680  119.74760  107.48650
 6805.50000    8.62720   72.20740  119.57740   97.28670
 6806.00000    8.63070   72.00660  119.11180   96.06650
 6806.50000    8.64580   71.88150  118.25460  107.48650
 6807.00000    8.67040   71.42990  117.71500  121.91820
 6807.50000    8.70220   70.82780  117.38250  126.20480
 6808.00000    8.73410   70.48380  117.76030  127.71360
 6808.50000    8.78470   70.37620  117.62150  126.99980
 6809.00000    8.78530   70.52680  117.72170  115.00300
 6809.50000    8.78580   70.43640  117.67820  102.56420
 6810.00000    8.77110   70.48730  117.58110   97.49480
 6810.50000    8.78460   70.72240  117.70830   97.97070
 6811.00000    8.81540   71.22200  118.22000  109.36840
 6811.50000    8.84620   71.55470  118.89050  116.80770
 6812.00000    8.85820   72.59830  119.47490  124.18870
 6812.50000    8.88630   73.41190  121.01910  125.29220
 6813.00000    8.92640   74.26900  122.63440  118.31100
 6813.50000    8.94440   75.14350  122.81370  112.48560
 6814.00000    8.96690   75.36800  124.52270  115.88680
 6814.50000    8.98930   75.37270  125.57650  122.52030
 6815.00000    9.01180   75.36100  125.75660  130.63820
 6815.50000    9.03430   75.09860  125.87850  132.71140
 6816.00000    9.04100   74.82000  126.13120  130.92670
 6816.50000    9.06300   74.50600  125.81000  132.71140
 6817.00000    9.08490   74.23980  125.57170  129.36680
 6817.50000    9.10680   74.07880  125.29680  123.13940
 6818.00000    9.14190   74.16680  125.02190  121.00480
 6818.50000    9.15260   74.52640  124.80430  119.86210
 6819.00000    9.18000   74.94930  125.51740  119.86210
 6819.50000    9.17070   75.28200  126.19660  120.33800
 6820.00000    9.18000   75.47080  125.97070  126.61610
 6820.50000    9.18930   75.56680  125.47950  129.73620
 6821.00000    9.22260   75.67170  125.17330  132.83650
 6821.50000    9.23530   75.55410  125.22730  133.90110
 6822.00000    9.25860   75.53800  125.37140  129.93910
 6822.50000    9.26210   75.52200  125.27800  124.87240
 6823.00000    9.26570   75.23860  124.98830  120.81390
 6823.50000    9.27280   74.82670  124.55220  120.57590
 6824.00000    9.28210   74.96680  124.23690  122.01120
 6824.50000    9.29150   75.25530  124.34060  123.78370
 6825.00000    9.30090   75.64110  124.24030  130.32000
 6825.50000    9.31500   76.15310  124.06280  127.13580
 6826.00000    9.31850   75.99500  125.16590  124.70330
 6826.50000    9.31090   75.77490  125.73380  124.30540
 6827.00000    9.32730   75.53330  125.25890  132.47340
 6827.50000    9.34080   75.09250  124.50530  134.73400
 6828.00000    9.34310   73.95990  124.17240  136.99450
 6828.50000    9.34550   73.17340  123.45490  135.80470
 6829.00000    9.34500   72.56970  122.53330  126.88710
 6829.50000    9.32730   71.40140  120.20260  117.96940
 6830.00000    9.34160   69.19920  118.28890  107.28160
 6830.50000    9.34630   68.37660  117.38070  100.87190
 6831.00000    9.34450   67.40680  116.73340   91.85210
 6831.50000    9.34280   66.91050  114.82170   86.50780
 6832.00000    9.34100   66.65420  114.08820   78.15450
 6832.50000    9.32730   66.39370  113.78470   73.89910
 6833.00000    9.31730   66.21300  114.06910   72.25310
