~Version ---------------------------------------------------
VERS.   2.0 : CWLS log ASCII Standard -VERSION 2.0
WRAP.    NO : One line per depth step
DLM . SPACE : Column Data Section Delimiter
~Well ------------------------------------------------------
STRT .FT                4045.0 : START DEPTH
STOP .FT               10988.0 : STOP DEPTH
STEP .FT                   0.5 : STEP
NULL .                -9999.25 : NULL VALUE
COMP .                         : COMPANY
WELL .                         : WELL
FLD  .                         : FIELD
LOC  .                         : LOCATION
PROV .                         : PROVINCE
CNTY .                         : COUNTY
STAT .                         : STATE
CTRY .                         : COUNTRY
SRVC .                         : SERVICE COMPANY
DATE .                         : DATE
UWI  .                         : UNIQUE WELL ID
API  .                         : API NUMBER
SLAT .WGS84 1.9999106417375003 : SURFACE LATITUDE
SLON .WGS84  6.164734760471006 : SURFACE LONGITUDE
DATUM.F                    nan : DEPTH DATUM ELEV
~Curve Information -----------------------------------------
DEPT.FT    : 
CALS.IN    : CALIPER FROM SONIC LOG
DTCO.US/F  : DELTA-T COMPRESSIONAL
DTSM.US/F  : DELTA-T SHEAR
GRS .GAPI  : GAMMA RAY FROM SONIC LOG
~Params ----------------------------------------------------
~Other -----------------------------------------------------
~ASCII -----------------------------------------------------
# ...
 8621.00000    7.91960   87.98000  162.60060  108.99870
 8621.50000    8.02820   88.32220  163.65310  113.49070
 8622.00000    8.24560   89.57540  165.14760  118.43050
 8622.50000    8.42260   90.82860  166.93680  123.26790
 8623.00000    7.97700   91.27900  168.12610  123.98000
 8623.50000    8.11180   91.02420  168.59970  122.50890
 8624.00000    8.19840   90.89750  168.59970  118.53940
 8624.50000    8.13250   90.74040  168.38920  114.67510
 8625.00000    8.10890   89.07170  167.81030  110.65220
 8625.50000    7.95580   87.71700  166.81050  108.34180
 8626.00000    7.92140   87.19270  162.49530  108.37270
 8626.50000    7.88700   86.88050  162.70580  110.23510
 8627.00000    7.88370   86.63070  162.81110  109.32980
 8627.50000    7.88270   89.84110  162.81110  105.66300
 8628.00000    7.86600   89.67050  162.48030   97.50470
 8628.50000    7.87240   89.38610  162.17960   97.73830
 8629.00000    7.87590   89.66430  164.04770  116.76950
 8629.50000    7.87940   91.05080  166.81050  136.11030
 8630.00000    7.89910   90.67850  166.49470  148.97370
 8630.50000    7.89540   90.33610  164.81070  162.56200
 8631.00000    7.89480   89.82430  166.38940  154.51490
 8631.50000    7.88960   89.29730  165.09140  149.68660
 8632.00000    8.01220   88.63130  162.28480  130.59990
 8632.50000    7.97980   88.57320  162.28480  110.68840
 8633.00000    7.92330   87.99860  162.28480  101.80560
 8633.50000    7.88980   87.18900  160.28510  107.92930
 8634.00000    7.94120   87.39840  162.17950  126.54610
 8634.50000    7.91410   87.60770  165.33700  141.59210
 8635.00000    7.89220   88.58550  166.94200  147.96640
 8635.50000    7.89300   90.68100  170.91510  128.25500
 8636.00000    7.97150   92.62830  174.53560  117.64310
 8636.50000    8.05170   92.79910  174.70400  117.41900
 8637.00000    8.11220   92.27300  173.33580  129.16140
 8637.50000    8.10810   92.87140  175.29340  145.42710
 8638.00000    8.01190   93.23170  177.07200  151.52700
 8638.50000    7.99160   93.84000  177.33520  149.41580
 8639.00000    7.97130   94.38430  177.01940  141.06120
 8639.50000    7.95550   94.23730  174.49350  137.13640
 8640.00000    7.92860   90.80050  169.44160  133.41380
 8640.50000    7.92370   87.70080  163.86350  128.23190
 8641.00000    7.94580   87.75660  163.33730  123.34400
 8641.50000    7.95560   87.13480  162.44270  123.35120
 8642.00000    7.95540   86.02590  161.12710  123.57060
 8642.50000    7.95560   85.89430  161.02180  112.59750
 8643.00000    7.93150   86.15880  165.23170   95.30600
 8643.50000    8.08020   86.86370  165.75800   87.34200
 8644.00000    8.10570   88.10170  167.75770  101.58060
 8644.50000    8.03340   87.45740  166.70520  111.78140
 8645.00000    8.00620   87.14490  167.02090  116.98420
 8645.50000    8.00900   88.18020  168.86280  114.74510
 8646.00000    8.01190   90.22970  171.48640  111.72540
 8646.50000    8.01360   90.07650  174.10760  111.09420
 8647.00000    8.03740   90.03730  173.75670  107.97630
 8647.50000    8.00570   89.70810  171.61670  106.43400
 8648.00000    7.96600   89.50860  170.38880  108.97200
 8648.50000    7.99770   88.45460  168.63120  112.35020
 8649.00000    8.52120   87.40230  164.05300  114.47090
 8649.50000    8.04810   86.28070  160.28510  107.45640
 8650.00000    8.04310   85.82180  159.08230  100.04140
 8650.50000    8.03760   84.91710  158.28540   99.98920
 8651.00000    8.01250   83.61510  157.65390  101.14660
 8651.50000    7.96690   82.99080  155.35350  104.95380
 8652.00000    7.93190   82.58280  151.97060  103.05020
 8652.50000    7.95890   83.47850  152.81260  104.71590
 8653.00000    7.93370   84.53990  155.86470   99.51960
 8653.50000    7.94380   85.60130  165.12650   98.33510
 8654.00000    7.95390   86.32240  165.60010   97.13020
 8654.50000    7.96400   86.81680  165.86320  100.87250
 8655.00000    7.97400   90.04460  166.91570  103.26650
 8655.50000    8.06120   93.19100  178.80860  105.17820
 8656.00000    8.01360   94.06240  179.75580  105.46680
 8656.50000    8.21980   94.15000  179.75580  106.38950
 8657.00000    7.99780   94.55570  179.74740  104.47790
 8657.50000    8.00220   95.78360  179.72640  106.40220
 8658.00000    7.99890   95.04840  179.70530  111.85930
 8658.50000    8.06450   94.76160  179.68430  120.41570
 8659.00000    8.02640   94.44630  179.66320  132.14150
 8659.50000    7.99130   92.38330  179.54530  138.00450
 8660.00000    7.93970   90.80620  171.23080  139.25700
 8660.50000    7.90460   90.18980  169.96780  138.00790
 8661.00000    7.90420   89.85620  169.23110  128.83350
 8661.50000    7.93000   89.21450  167.44190  117.92010
 8662.00000    7.93240   89.75270  170.40390  111.37780
 8662.50000    7.95720   90.57700  174.17770  111.85370
 8663.00000    7.96130   90.87240  174.28300  127.36020
 8663.50000    7.99390   91.14540  172.70430  143.65890
 8664.00000    8.03370   91.32960  171.23080  148.02190
 8664.50000    8.00920   91.51190  171.08050  144.52450
 8665.00000    8.07240   91.65230  170.85490  138.75530
 8665.50000    8.05020   90.36620  170.59930  134.99380
 8666.00000    8.18140   88.49970  169.86260  130.94700
 8666.50000    8.07140   88.26990  167.28400  122.51960
 8667.00000    7.96910   87.43510  164.70550  109.31680
 8667.50000    7.96070   86.99390  166.70520  101.62190
 8668.00000    7.96550   86.03560  166.17900  102.69270
 8668.50000    7.98170   85.86310  167.96820  105.50840
 8669.00000    7.99790   85.81080  166.81040  105.90500
 8669.50000    8.01800   86.66330  167.02090  117.40830
 8670.00000    8.04080   87.48530  167.44190  131.63780
 8670.50000    8.04530   87.83990  167.96820  143.68890
 8671.00000    8.01070   88.16050  173.05510  146.09930
 8671.50000    7.96750   89.01150  177.33520  136.67980
 8672.00000    7.93430   89.95450  179.86110  125.65690
 8672.50000    8.01360   92.90570  179.86110  119.36610
 8673.00000    8.04220   92.23530  179.86110  118.51700
 8673.50000    8.14050   92.88960   -9999.25  123.87090
 8674.00000    8.76710   93.49220   -9999.25  128.86780
 8674.50000    8.25790   93.57830   -9999.25  125.17960
 8675.00000    8.26320   93.90360   -9999.25  128.27290
 8675.50000    8.03850   93.38280   -9999.25  118.31100
 8676.00000    7.84330   93.70490   -9999.25  114.49730
 8676.50000    7.92130   93.91000   -9999.25  114.40240
 8677.00000    7.98090   93.11460   -9999.25  119.81430
 8677.50000    7.99780   92.23280   -9999.25  124.46570
 8678.00000    7.90260   91.98620   -9999.25  119.89710
 8678.50000    8.25550   92.23280   -9999.25  114.66220
 8679.00000    7.97430   92.91930   -9999.25  112.56820
 8679.50000    8.05050   93.88890   -9999.25  113.28210
 8680.00000    7.95850   93.77160   -9999.25  119.03260
 8680.50000    8.15410   93.68200   -9999.25  120.77210
 8681.00000    8.74330   93.84580   -9999.25  119.24220
 8681.50000    8.01360   94.17480  179.86110  115.37880
 8682.00000    7.95130   94.93890  179.96630  113.82210
 8682.50000    7.93700   95.49200  179.98970  112.95790
 8683.00000    7.96550   95.81580  180.04820  115.60430
 8683.50000    8.02020   94.33380  179.75580  117.33640
 8684.00000    7.87080   91.79520  172.99900  119.94390
 8684.50000    7.90260   90.87720  167.40680  113.90000
 8685.00000    8.02310   89.18170  164.89260  103.87850
 8685.50000    7.88680   83.71290  161.19020   87.94350
 8686.00000    7.85680   83.79250  157.19080   77.42760
 8686.50000    7.86800   81.53940  153.19140   71.06350
 8687.00000    7.90280   80.66370  151.12860   69.61740
 8687.50000    7.89610   80.22070  150.18140   78.93050
 8688.00000    7.88940   81.02230  151.08350   92.35370
 8688.50000    7.88190   82.58640  153.09150  108.98980
 8689.00000    7.87710   84.53690  155.16220  119.53130
 8689.50000    7.82560   85.24430  157.23290  120.57230
 8690.00000    7.77860   85.95160  157.44340  117.22260
 8690.50000    7.84970   86.27120  157.21980  114.02980
 8691.00000    7.99780   86.40960  156.62780  112.36960
 8691.50000    8.10880   86.49110  156.39100  109.29110
 8692.00000    7.91840   85.32790  156.55180  104.65120
