~Version ---------------------------------------------------
VERS.   2.0 : CWLS log ASCII Standard -VERSION 2.0
WRAP.    NO : One line per depth step
DLM . SPACE : Column Data Section Delimiter
~Well ------------------------------------------------------
STRT .FT                4045.0 : START DEPTH
STOP .FT               10988.0 : STOP DEPTH
STEP .FT                   0.5 : STEP
NULL .                -9999.25 : NULL VALUE
COMP .                         : COMPANY
WELL .                         : WELL
FLD  .                         : FIELD
LOC  .                         : LOCATION
PROV .                         : PROVINCE
CNTY .                         : COUNTY
STAT .                         : STATE
CTRY .                         : COUNTRY
SRVC .                         : SERVICE COMPANY
DATE .                         : DATE
UWI  .                         : UNIQUE WELL ID
API  .                         : API NUMBER
SLAT .WGS84 1.9999106417375003 : SURFACE LATITUDE
SLON .WGS84  6.164734760471006 : SURFACE LONGITUDE
DATUM.F                    nan : DEPTH DATUM ELEV
~Curve Information -----------------------------------------
DEPT.FT    : 
CALS.IN    : CALIPER FROM SONIC LOG
DTCO.US/F  : DELTA-T COMPRESSIONAL
DTSM.US/F  : DELTA-T SHEAR
GRS .GAPI  : GAMMA RAY FROM SONIC LOG
~Params ----------------------------------------------------
~Other -----------------------------------------------------
~ASCII -----------------------------------------------------
# ...
 7262.50000    8.38380   60.10190  102.70600   49.45890
 7263.00000    8.37660   60.09840  101.98610   56.17370
 7263.50000    8.36950   59.92380  101.46090   57.28090
 7264.00000    8.35180   59.63930  101.16920   44.34810
 7264.50000    8.34480   59.35480  100.84970   35.64820
 7265.00000    8.34430   58.95350   99.78880   39.38670
 7265.50000    8.34390   58.19390   99.01280   44.65140
 7266.00000    8.34340   57.59680   98.45760   45.50620
 7266.50000    8.34300   57.75270   97.92800   37.43240
 7267.00000    8.34250   57.90850   97.39850   30.25660
 7267.50000    8.34210   58.06440   97.71580   29.20290
 7268.00000    8.34160   59.08800   98.03250   36.97050
 7268.50000    8.34120   59.39210   98.13870   44.34760
 7269.00000    8.33130   59.93770   98.66200   48.32810
 7269.50000    8.34690   60.10860   99.21630   49.53420
 7270.00000    8.36240   60.18530   99.61180   51.48080
 7270.50000    8.38400   60.17700   99.86720   56.74790
 7271.00000    8.38240   60.08180  100.22060   61.78430
 7271.50000    8.38080   60.05750  100.21710   56.60990
 7272.00000    8.38490   59.49080   99.73220   49.96390
 7272.50000    8.37400   58.52220   99.12510   41.83490
 7273.00000    8.36300   58.08600   98.51810   46.28960
 7273.50000    8.37590   57.47960   97.71230   56.31150
 7274.00000    8.36260   56.87320   97.40010   58.44570
 7274.50000    8.37900   57.01540   97.78500   48.01410
 7275.00000    8.37900   57.72670   97.52870   42.89940
 7275.50000    8.39350   58.14290   97.16690   53.07110
 7276.00000    8.41280   57.92760   97.77190   62.66340
 7276.50000    8.41700   58.78560   98.73880   60.09610
 7277.00000    8.44170   59.68880   99.36340   55.33030
 7277.50000    8.43480   60.35340  100.35630   55.09840
 7278.00000    8.45980   60.80650  100.18790   59.57860
 7278.50000    8.46510   61.29320  100.36730   65.86700
 7279.00000    8.47040   60.82790  101.47500   71.58010
 7279.50000    8.48540   60.92100  102.01190   72.36620
 7280.00000    8.48520   60.69650  101.93650   65.72350
 7280.50000    8.48500   60.48190  101.66460   58.82150
 7281.00000    8.48480   60.08300  101.62530   57.19080
 7281.50000    8.49290   60.05410  101.62370   60.37310
 7282.00000    8.50100   59.85630  101.61630   63.37580
 7282.50000    8.51940   59.60260  102.50250   61.11590
 7283.00000    8.52490   59.60260  102.76620   55.79520
 7283.50000    8.53050   59.64400  102.56700   54.97450
 7284.00000    8.55260   59.95450  102.75980   57.91290
 7284.50000    8.54920   60.05640  102.57160   60.51610
 7285.00000    8.54570   59.97010  101.94180   60.38290
 7285.50000    8.54230   59.96070  101.50630   58.03830
 7286.00000    8.54230   59.95960  101.84320   56.48630
 7286.50000    8.54230   59.44780  102.03910   54.68500
 7287.00000    8.52790   59.01190  101.81890   54.07490
 7287.50000    8.52590   58.87580  101.20400   52.61290
 7288.00000    8.52390   58.90370  100.56940   49.24480
 7288.50000    8.52180   58.77410   99.97820   49.12460
 7289.00000    8.52020   58.86790   99.97820   48.74990
 7289.50000    8.52020   58.73390   99.94310   48.08010
 7290.00000    8.52020   58.38510   99.55720   45.08300
 7290.50000    8.52020   58.25840   98.68240   45.32100
 7291.00000    8.52020   58.00290   97.91250   50.06040
 7291.50000    8.52020   57.78820   97.16690   53.07840
 7292.00000    8.51880   57.65670   98.04990   52.67820
 7292.50000    8.50550   57.29450   97.89250   49.15840
 7293.00000    8.50550   56.95340   97.55660   44.34780
 7293.50000    8.52380   56.94500   97.65160   40.32400
 7294.00000    8.49040   56.67690   97.67840   41.27580
 7294.50000    8.48790   55.94860   97.83540   49.04680
 7295.00000    8.48540   56.37780   98.36890   51.29320
 7295.50000    8.48140   56.46700   99.19310   45.55050
 7296.00000    8.47740   57.16610   99.56830   39.64460
 7296.50000    8.47340   59.74900  101.54160   39.21190
 7297.00000    8.46940   61.55530  103.89610   43.44580
 7297.50000    8.46540   63.79310  106.13280   57.27630
 7298.00000    8.44930   66.03080  107.49010   72.32320
 7298.50000    8.46540   67.77390  109.12450   92.45400
 7299.00000    8.46540   68.26460  111.34520  102.97720
 7299.50000    8.46540   68.15550  111.66090  109.95440
 7300.00000    8.47340   68.24630  111.66090  111.94700
 7300.50000    8.45250   68.37650  111.45070  102.22550
 7301.00000    8.44010   65.04770  109.60380   85.83940
 7301.50000    8.42530   63.48230  107.79750   59.68160
 7302.00000    8.42530   62.05570  106.36160   42.59280
 7302.50000    8.39950   61.25400  105.10150   38.91870
 7303.00000    8.40010   60.04280  102.61000   47.65510
 7303.50000    8.40330   59.48980  101.85680   56.67500
 7304.00000    8.41450   59.47320  101.24720   66.23120
 7304.50000    8.43760   60.01170  100.86200   70.50550
 7305.00000    8.46080   60.23090  100.47680   59.29510
 7305.50000    8.46540   61.28650  100.08410   45.83840
 7306.00000    8.46190   61.52680  100.97870   36.75480
 7306.50000    8.45830   60.77280  101.97850   36.75480
 7307.00000    8.45480   59.99000  101.86120   56.07370
 7307.50000    8.45130   58.90620  101.28310   73.85420
 7308.00000    8.47540   58.14600  100.66650   77.44420
 7308.50000    8.47840   57.73730  100.07040   65.54390
 7309.00000    8.52070   57.28060   99.67460   51.02660
 7309.50000    8.53160   56.51070   98.94960   39.83790
 7310.00000    8.54250   55.66120   98.22470   34.83700
 7310.50000    8.55340   55.08170   97.84260   33.15140
 7311.00000    8.56420   55.01190   97.95860   36.83120
 7311.50000    8.58880   55.01190   98.45250   40.44270
 7312.00000    8.59230   55.17130   97.95150   45.23110
 7312.50000    8.60390   55.36850   99.05740   46.10880
 7313.00000    8.59380   56.07600   99.67340   43.26890
 7313.50000    8.59880   56.82080   99.66500   40.97180
 7314.00000    8.60060   57.19210   99.49190   41.90340
 7314.50000    8.60240   57.31810   99.68810   47.41850
 7315.00000    8.60430   57.40950   99.93940   56.97570
 7315.50000    8.58570   57.42130   99.97810   66.01360
 7316.00000    8.58570   57.41980  101.03810   69.35390
 7316.50000    8.58570   57.09170  101.47470   61.79480
 7317.00000    8.56890   56.78410  100.67140   52.76640
 7317.50000    8.56710   56.59100   99.86810   46.98190
 7318.00000    8.56290   56.29760   99.86910   46.30210
 7318.50000    8.54960   55.70780   99.11350   46.23630
 7319.00000    8.53620   55.98760   98.91070   46.00150
 7319.50000    8.52510   56.61500   99.30340   45.83180
 7320.00000    8.52290   57.47640   99.56860   44.90040
 7320.50000    8.52080   58.47220  100.59340   44.99880
 7321.00000    8.51860   60.35110  101.82980   47.65510
 7321.50000    8.49300   61.78260  102.97330   55.46540
 7322.00000    8.46750   62.51010  103.11660   68.39080
 7322.50000    8.44190   62.93040  103.68370   85.83940
 7323.00000    8.44010   62.92310  104.07850   94.90500
 7323.50000    8.43090   62.63910  104.08310   96.48020
 7324.00000    8.42170   61.60380  103.05840   76.83910
 7324.50000    8.41250   59.79070  102.03360   60.58360
 7325.00000    8.40330   58.12330  101.00880   51.28280
 7325.50000    8.39410   57.71880  100.10480   48.85780
 7326.00000    8.38490   57.14980   99.66280   44.76930
 7326.50000    8.37570   56.78000   98.96550   37.64040
 7327.00000    8.36650   57.05390   97.58410   33.66140
 7327.50000    8.35730   57.19010   96.61060   35.08910
 7328.00000    8.34810   57.06800   96.72280   44.06950
 7328.50000    8.33890   57.17630   97.10050   48.85780
 7329.00000    8.32970   57.34060   97.43250   54.15890
 7329.50000    8.32050   57.31050   97.18300   52.25100
 7330.00000    8.31500   57.28960   96.56860   47.21970
 7330.50000    8.32030   57.25490   95.99350   41.73150
 7331.00000    8.32910   57.22030   95.20960   36.21340
 7331.50000    8.33790   56.77670   95.01180   34.87660
 7332.00000    8.34670   56.63140   94.84580   35.39270
 7332.50000    8.35550   57.00590   94.92630   41.27550
 7333.00000    8.36440   57.50770   95.50430   46.39770
 7333.50000    8.37320   58.38800   96.05630   46.76680
