~Version ---------------------------------------------------
VERS.   2.0 : CWLS log ASCII Standard -VERSION 2.0
WRAP.    NO : One line per depth step
DLM . SPACE : Column Data Section Delimiter
~Well ------------------------------------------------------
STRT .FT                4045.0 : START DEPTH
STOP .FT               10988.0 : STOP DEPTH
STEP .FT                   0.5 : STEP
NULL .                -9999.25 : NULL VALUE
COMP .                         : COMPANY
WELL .                         : WELL
FLD  .                         : FIELD
LOC  .                         : LOCATION
PROV .                         : PROVINCE
CNTY .                         : COUNTY
STAT .                         : STATE
CTRY .                         : COUNTRY
SRVC .                         : SERVICE COMPANY
DATE .                         : DATE
UWI  .                         : UNIQUE WELL ID
API  .                         : API NUMBER
SLAT .WGS84 1.9999106417375003 : SURFACE LATITUDE
SLON .WGS84  6.164734760471006 : SURFACE LONGITUDE
DATUM.F                    nan : DEPTH DATUM ELEV
~Curve Information -----------------------------------------
DEPT.FT    : 
CALS.IN    : CALIPER FROM SONIC LOG
DTCO.US/F  : DELTA-T COMPRESSIONAL
DTSM.US/F  : DELTA-T SHEAR
GRS .GAPI  : GAMMA RAY FROM SONIC LOG
~Params ----------------------------------------------------
~Other -----------------------------------------------------
~ASCII -----------------------------------------------------
# ...
 9550.50000    7.96460   83.91290  150.24150  157.44440
 9551.00000    7.98200   81.44700  148.28690  118.83090
 9551.50000    7.94470   81.53670  148.28690   95.16060
 9552.00000    7.90730   81.59120  148.28690   96.09740
 9552.50000    7.87000   81.28420  147.67300  108.92460
 9553.00000    7.86250   81.64470  147.74570  117.00170
 9553.50000    7.85870   81.79600  148.72300  122.81890
 9554.00000    7.87000   81.79600  149.33940  128.98040
 9554.50000    7.88140   84.79670  150.18140  130.69930
 9555.00000    7.89350   86.24180  152.05480  130.45850
 9555.50000    7.87680   87.53630  154.18080  130.91510
 9556.00000    7.86640   87.84870  154.18080  136.48760
 9556.50000    7.87400   87.88810  154.18080  140.60600
 9557.00000    7.87340   87.80730  152.93530  141.23350
 9557.50000    7.87720   87.65670  153.75980  138.41850
 9558.00000    7.86580   87.79600  153.86500  134.67250
 9558.50000    7.83190   87.66160  153.86500  129.99360
 9559.00000    7.80850   86.60300  152.60000  126.66620
 9559.50000    7.80260   85.54230  150.24580  123.86490
 9560.00000    7.84650   85.56770  149.34880  121.22220
 9560.50000    7.86410   85.74680  149.19210  118.76450
 9561.00000    7.86410   85.45300  148.53550  123.43870
 9561.50000    7.87730   85.49040  148.09830  128.68660
 9562.00000    7.87860   85.92050  148.91840  132.77180
 9562.50000    7.87980   86.53270  148.18170  135.10450
 9563.00000    7.86460   87.98790  149.10920  137.02140
 9563.50000    7.86600   89.91460  149.89790  139.94700
 9564.00000    7.86730   91.02450  150.85810  146.28490
 9564.50000    7.86860   91.40250  150.86760  149.46010
 9565.00000    7.86560   92.44350  151.22420  161.12550
 9565.50000    7.86950   93.39960  152.14370  178.41260
 9566.00000    7.87330   94.20650  153.07330  204.45060
 9566.50000    7.84950   94.59610  153.86780  232.23140
 9567.00000    7.85050   94.57730  154.91800  249.41820
 9567.50000    7.86410   94.13850  154.99640  248.46640
 9568.00000    7.86130   93.52080  154.75210  233.40040
 9568.50000    7.85670   93.47430  155.12800  208.17830
 9569.00000    7.85210   93.24160  155.05780  172.39940
 9569.50000    7.85100   92.18310  154.02290  150.43100
 9570.00000    7.85200   90.35110  152.22280  137.08660
 9570.50000    7.83700   89.93820  150.84790  139.22590
 9571.00000    7.83170   88.03060  149.52560  139.93730
 9571.50000    7.85100   87.56880  147.33970  137.96760
 9572.00000    7.87020   86.29200  147.26450  136.69380
 9572.50000    7.84810   82.95900  146.91870  136.91160
 9573.00000    7.84810   81.30280  140.81440  127.92240
 9573.50000    7.84810   81.84810  141.30110  115.30440
 9574.00000    7.87410   81.99480  143.73500   95.68330
 9574.50000    7.85840   82.01360  144.86640   95.68330
 9575.00000    7.85050   82.47860  144.81380   97.82490
 9575.50000    7.86410   83.65270  142.60360  120.71630
 9576.00000    7.86410   85.18260  144.12330  134.35670
 9576.50000    7.84570   86.07130  144.33910  141.73700
 9577.00000    7.85400   86.53690  145.12790  147.17650
 9577.50000    7.86240   87.86750  143.21620  149.22210
 9578.00000    7.85380   88.36710  143.95930  149.22210
 9578.50000    7.82400   88.43950  143.99530  147.90570
 9579.00000    7.84790   88.27150  143.01500  145.89080
 9579.50000    7.83880   87.85190  142.77730  154.35710
 9580.00000    7.77570   87.08270  143.02460  167.23340
 9580.50000    7.79350   85.56730  140.13030  177.52240
 9581.00000    7.82320   84.22310  134.47320  185.17730
 9581.50000    7.82760   83.65040  133.36280  190.43890
 9582.00000    7.83310   83.97950  133.34180  191.84160
 9582.50000    7.83850   85.45900  130.73690  194.88580
 9583.00000    7.84400   86.84390  118.67740  198.95270
 9583.50000    7.83100   88.89770  105.47770  193.70190
 9584.00000    7.82320   90.71210  104.58310  183.34070
 9584.50000    7.82320   91.19440  102.71500  166.38600
 9585.00000    9.90130   91.37390  141.06700  150.43100
 9585.50000   10.80550   91.38050  166.82800  137.08560
 9586.00000   10.88090   91.05490  167.44190  129.69600
 9586.50000   11.11750   85.75610  170.28360  137.25180
 9587.00000    7.90480   86.73460  173.12530  126.16410
 9587.50000    7.87760   86.37730  173.07260  121.02410
 9588.00000    7.89700   85.48640  167.46820  123.17810
 9588.50000    7.91630   84.77370  155.16750  128.83330
 9589.00000    7.88410   84.86680  153.93520  135.74850
 9589.50000    7.87710   85.00630  154.81230  139.50670
 9590.00000    7.96190   84.93190  153.02300  138.74710
 9590.50000    8.06170   84.91330  152.60210  136.48190
 9591.00000    7.88330   85.58280  152.67720  135.35210
 9591.50000    7.87950   84.60770  151.49700  136.99610
 9592.00000    7.87560   83.47840  148.53950  140.42670
 9592.50000    7.87180   82.58690  148.28690  141.89200
 9593.00000    7.86790   81.47030  146.83450  141.90960
 9593.50000    7.86410   79.37650  144.52430  139.87400
 9594.00000    7.90650   79.33000  142.28780  134.54910
 9594.50000    7.91380   80.09500  142.46330  128.22180
 9595.00000    7.90420   81.06360  143.23500  122.32360
 9595.50000    7.88170   81.67110  142.63870  121.14400
 9596.00000    7.86130   81.98900  142.60360  137.15460
 9596.50000    7.87870   82.36560  144.14720  148.98420
 9597.00000    7.86050   82.70440  145.94520  166.65000
 9597.50000    7.88290   83.83330  147.28120  166.17080
 9598.00000    7.88320   85.17970  148.04140  158.80660
 9598.50000    7.88350   86.08770  148.60270  149.95500
 9599.00000    7.88380   86.21600  149.02370  142.25360
 9599.50000    7.88410   84.79670  149.63410  135.99080
 9600.00000    7.87300   83.94470  149.86560  134.67310
 9600.50000    7.86410   83.92580  149.47970  135.35010
 9601.00000    7.86970   84.05790  149.02370  134.80150
 9601.50000    7.87910   85.42730  147.91860  135.95150
 9602.00000    7.88670   87.86280  151.91800  136.24270
 9602.50000    7.92370   91.76090  157.26800  134.98530
 9603.00000    7.95010   92.58560  161.65330  137.85330
 9603.50000    8.04530   92.53380  161.67960  145.36980
 9604.00000    7.88670   92.54960  161.48230  149.17400
 9604.50000    7.88540   92.69810  161.57680  152.85810
 9605.00000    7.88410   92.81130  161.91170  157.66680
 9605.50000    7.87590   92.96250  162.17960  171.49730
 9606.00000    7.86570   92.29560  161.79360  188.89930
 9606.50000    7.88360   91.93890  158.40380  204.68330
 9607.00000    7.88240   89.07170  153.23350  203.49350
 9607.50000    7.88110   85.33240  151.66650  179.91580
 9608.00000    7.87990   83.46510  149.97090  150.66890
 9608.50000    7.87870   82.21470  149.26420  133.04270
 9609.00000    7.88950   81.51950  148.51250  120.42940
 9609.50000    7.86740   81.08330  147.76070  120.19150
 9610.00000    7.87300   80.93020  147.27390  124.23550
 9610.50000    7.85400   80.64960  146.81350  127.32990
 9611.00000    7.86400   80.27310  146.35300  132.03640
 9611.50000    7.97900   80.66810  145.94720  135.44770
 9612.00000    8.10500   80.82250  145.62320  132.49420
 9612.50000    8.09530   81.24430  145.11720  127.93120
 9613.00000    7.85330   81.34110  144.04820  117.70870
 9613.50000    7.83040   81.21520  144.81180  110.66520
 9614.00000    7.84660   81.76760  146.54410  106.39020
 9614.50000    7.86280   82.50870  146.72070  108.85190
 9615.00000    7.82610   83.65270  147.68120  119.21200
 9615.50000    7.83210   85.03760  149.64370  125.97690
 9616.00000    7.84150   86.56500  152.08670  129.85540
 9616.50000    7.85090   86.49520  153.73970  131.16660
 9617.00000    7.86030   88.29110  156.13080  133.98050
 9617.50000    7.84630   89.22310  157.80640  138.34870
 9618.00000    7.90200   89.91460  158.91690  146.15600
 9618.50000    7.85400   89.68190  156.35150  148.03110
 9619.00000    7.83920   91.17910  147.73440  143.55630
 9619.50000    7.79790   93.91870  143.17350  132.74180
 9620.00000    7.82100   94.05580  141.74080  117.83240
 9620.50000    7.84400   94.51080  140.41130  102.97660
 9621.00000    7.92070   91.40280  138.81980   84.21140
 9621.50000    7.82410   75.88550  136.79390   68.08070
