~Version ---------------------------------------------------
VERS.   2.0 : CWLS log ASCII Standard -VERSION 2.0
WRAP.    NO : One line per depth step
DLM . SPACE : Column Data Section Delimiter
~Well ------------------------------------------------------
STRT .FT                4045.0 : START DEPTH
STOP .FT               10988.0 : STOP DEPTH
STEP .FT                   0.5 : STEP
NULL .                -9999.25 : NULL VALUE
COMP .                         : COMPANY
WELL .                         : WELL
FLD  .                         : FIELD
LOC  .                         : LOCATION
PROV .                         : PROVINCE
CNTY .                         : COUNTY
STAT .                         : STATE
CTRY .                         : COUNTRY
SRVC .                         : SERVICE COMPANY
DATE .                         : DATE
UWI  .                         : UNIQUE WELL ID
API  .                         : API NUMBER
SLAT .WGS84 1.9999106417375003 : SURFACE LATITUDE
SLON .WGS84  6.164734760471006 : SURFACE LONGITUDE
DATUM.F                    nan : DEPTH DATUM ELEV
~Curve Information -----------------------------------------
DEPT.FT    : 
CALS.IN    : CALIPER FROM SONIC LOG
DTCO.US/F  : DELTA-T COMPRESSIONAL
DTSM.US/F  : DELTA-T SHEAR
GRS .GAPI  : GAMMA RAY FROM SONIC LOG
~Params ----------------------------------------------------
~Other -----------------------------------------------------
~ASCII -----------------------------------------------------
# ...
 4474.00000    8.87650   69.89860  122.94730   84.55030
 4474.50000    8.83100   69.15080  121.09890   81.75710
 4475.00000    8.77940   68.42580  119.58840   76.25090
 4475.50000    8.73900   68.14910  118.83580   71.29090
 4476.00000    8.72130   68.11040  118.27130   67.44820
 4476.50000    8.72100   68.15260  117.99870   65.25880
 4477.00000    8.73390   68.38510  117.69060   64.96580
 4477.50000    8.72080   68.57130  117.99940   67.77930
 4478.00000    8.72080   68.98600  118.58390   69.88740
 4478.50000    8.72080   69.13290  119.16840   69.18280
 4479.00000    8.70350   69.12330  119.63600   67.14120
 4479.50000    8.70150   68.85520  119.29390   67.13170
 4480.00000    8.69580   68.22690  118.50470   69.85580
 4480.50000    8.67500   67.57650  118.26800   71.45760
 4481.00000    8.65410   65.74680  115.02260   69.05020
 4481.50000    8.62290   64.08430  113.28620   62.68830
 4482.00000    8.59870   62.57390  111.56050   58.92380
 4482.50000    8.54370   61.73610  110.00510   53.06700
 4483.00000    8.48540   60.68760  107.79730   47.38170
 4483.50000    8.46940   60.17350  106.81810   42.24320
 4484.00000    8.45340   59.56550  105.46780   48.29890
 4484.50000    8.43730   59.33400  104.17770   55.47240
 4485.00000    8.42130   59.74910  103.34180   61.14240
 4485.50000    8.42080   60.19000  103.64020   64.00620
 4486.00000    8.42200   60.49410  104.45590   63.26150
 4486.50000    8.41000   60.73690  104.83690   60.30080
 4487.00000    8.38820   61.10040  104.85890   61.91410
 4487.50000    8.37820   61.36040  105.53650   63.55070
 4488.00000    8.33620   61.73610  106.62770   63.36140
 4488.50000    8.33820   62.57900  107.35880   61.33720
 4489.00000    8.35720   63.36180  108.60020   60.20110
 4489.50000    8.39720   63.88490  109.29020   59.48430
 4490.00000    8.43730   64.39400  110.49500   61.87960
 4490.50000    8.44530   64.89640  111.38470   67.49890
 4491.00000    8.46540   65.40880  112.26280   73.99220
 4491.50000    8.44530   66.07120  113.51720   75.32490
 4492.00000    8.41190   67.60560  114.98450   73.33010
 4492.50000    8.40530   67.84140  116.05760   71.84320
 4493.00000    8.38900   67.60240  116.26810   77.35430
 4493.50000    8.38190   67.36090  115.95230   81.93070
 4494.00000    8.35030   66.83770  114.79460   85.33250
 4494.50000    8.31170   65.89050  113.24270   87.37360
 4495.00000    8.24470   64.98740  111.17220   81.32940
 4495.50000    8.18250   62.63910  109.10170   75.68030
 4496.00000    8.15030   61.23380  107.00630   69.57740
 4496.50000    8.14470   60.50740  106.26960   65.09360
 4497.00000    8.14470   60.12630  105.58490   50.96240
 4497.50000    8.15760   60.12310  103.73970   39.86600
 4498.00000    8.17370   60.41290  102.70980   43.21390
 4498.50000    8.19880   61.56950  104.75080   54.57040
 4499.00000    8.22900   62.88000  106.89350   63.59030
 4499.50000    8.24430   64.92720  108.70030   70.77360
 4500.00000    8.26690   66.51900  110.12610   74.04840
 4500.50000    8.28670   67.81840  112.56420   72.62070
 4501.00000    8.29500   69.08400  114.32260   82.21090
 4501.50000    8.30340   69.63130  115.89100   91.24880
 4502.00000    8.30500   69.69490  116.91190  100.69880
 4502.50000    8.30500   69.17990  117.22260  101.41270
 4503.00000    8.30500   68.73940  116.62590  101.17470
 4503.50000    8.30500   67.28370  115.21500   97.72820
 4504.00000    8.30220   66.03250  113.59780   89.68290
 4504.50000    8.29500   64.87760  111.97690   79.45620
 4505.00000    8.28790   63.74320  110.93130   71.23570
 4505.50000    8.28160   61.79840  108.84200   64.49230
 4506.00000    8.27590   60.98650  106.59590   66.53270
 4506.50000    8.28500   60.46250  104.27510   68.25060
 4507.00000    8.26620   60.02200  103.26340   62.38760
 4507.50000    8.26110   60.30920  103.63430   51.42860
 4508.00000    8.25600   60.53190  103.36420   47.11610
 4508.50000    8.23490   60.46580  103.44870   54.26970
 4509.00000    8.26990   60.58810  103.48020   60.58360
 4509.50000    8.28500   60.27780  104.08590   69.90420
 4510.00000    8.29180   60.45510  104.99300   71.90690
 4510.50000    8.30880   60.69810  105.70690   74.52430
 4511.00000    8.32590   60.97880  105.68950   71.02070
 4511.50000    8.34290   61.20430  105.91180   62.38760
 4512.00000    8.36000   61.59730  106.38500   55.25030
 4512.50000    8.40530   62.07640  106.97010   56.28150
 4513.00000    8.46540   62.81960  107.78180   62.98890
 4513.50000    8.52550   63.81310  109.80390   67.49890
 4514.00000    8.56190   64.92700  111.45490   71.96810
 4514.50000    8.61170   66.97420  113.20060   76.81950
 4515.00000    8.66600   67.99780  114.62930   93.05530
 4515.50000    8.72800   68.62230  116.05800  104.17980
 4516.00000    8.77640   69.31340  117.26340  112.72710
 4516.50000    8.79400   70.09420  118.53450  114.00950
 4517.00000    8.87720   70.46490  119.80590  114.01780
 4517.50000    8.99660   71.55020  121.52530  111.10440
 4518.00000    9.09950   72.51690  122.11290  106.34480
 4518.50000    9.18180   73.24580  123.25100  105.69580
 4519.00000    9.22990   73.64980  124.14940  110.42420
 4519.50000    9.29600   73.83870  125.15670  109.30310
 4520.00000    9.33980   73.97400  126.07740  108.40370
 4520.50000    9.38370   73.97770  126.36800  109.20960
 4521.00000    9.42750   73.88130  126.27000  109.74140
 4521.50000    9.46060   73.56450  126.10570  103.88470
 4522.00000    9.47750   73.38960  125.77940   97.12900
 4522.50000    9.48760   73.31770  125.54900   98.08080
 4523.00000    9.48820   72.82580  124.86540   95.91100
 4523.50000    9.50620   72.28980  124.26050   93.21030
 4524.00000    9.52410   72.05690  124.00520   82.28590
 4524.50000    9.52770   72.12720  123.85400   78.83250
 4525.00000    9.52770   72.18870  124.06610   77.80640
 4525.50000    9.50940   72.39770  124.27820   79.35670
 4526.00000    9.53820   72.69130  125.17620   79.19420
 4526.50000    9.56690   73.00790  125.87970   78.32230
 4527.00000    9.59570   73.32440  126.78440   79.87730
 4527.50000    9.62090   73.64090  127.13710   82.65770
 4528.00000    9.65040   73.87310  127.54670   83.93700
 4528.50000    9.66800   74.09490  128.27280   83.14620
 4529.00000    9.68130   74.40800  128.91960   81.62960
 4529.50000    9.70350   74.60520  129.24380   80.32290
 4530.00000    9.72570   74.68170  129.51710   80.33500
 4530.50000    9.67460   74.71910  129.79040   82.05520
 4531.00000    9.66490   74.72640  130.06360   84.61080
 4531.50000    9.64800   74.73370  130.33690   85.25980
 4532.00000    9.64510   74.74110  130.50120   85.24700
 4532.50000    9.63080   74.74840  130.50170   81.31750
 4533.00000    9.61650   74.83150  130.50380   79.30560
 4533.50000    9.60790   74.84210  130.46290   76.65240
 4534.00000    9.61990   74.85260  130.41150   80.87790
 4534.50000    9.62410   74.85790  130.36010   82.05950
 4535.00000    9.63430   74.86310  130.30880   82.03840
 4535.50000    9.63600   74.86830  130.43480   79.73090
 4536.00000    9.61260   74.87350  130.66170   77.53310
 4536.50000    9.59790   74.97510  130.88850   76.77760
 4537.00000    9.59320   75.10960  130.72430   75.10230
 4537.50000    9.58740   75.20460  130.62030   75.02400
 4538.00000    9.57530   75.22280  131.25310   75.56950
 4538.50000    9.54370   75.32750  131.07400   78.32230
 4539.00000    9.50370   75.42080  130.90970   80.27660
 4539.50000    9.46740   75.56240  131.20000   80.23390
 4540.00000    9.39890   75.81400  131.41250   81.21980
 4540.50000    9.34560   75.79430  131.42990   81.88670
 4541.00000    9.32060   75.65710  131.42990   85.53870
 4541.50000    9.28720   75.51500  131.18280   90.65000
 4542.00000    9.25380   75.40320  130.41360   94.46700
 4542.50000    9.24710   74.86190  129.70600   96.36260
 4543.00000    9.22280   74.19960  128.47420   98.43750
 4543.50000    9.18620   73.58220  127.70870  103.57850
 4544.00000    9.15500   73.02610  127.41580  106.96350
 4544.50000    9.12380   72.59950  126.46250  107.63750
 4545.00000    9.09260   72.54670  125.60950  105.68310
