~Version ---------------------------------------------------
VERS.   2.0 : CWLS log ASCII Standard -VERSION 2.0
WRAP.    NO : One line per depth step
DLM . SPACE : Column Data Section Delimiter
~Well ------------------------------------------------------
STRT .FT                4045.0 : START DEPTH
STOP .FT               10988.0 : STOP DEPTH
STEP .FT                   0.5 : STEP
NULL .                -9999.25 : NULL VALUE
COMP .                         : COMPANY
WELL .                         : WELL
FLD  .                         : FIELD
LOC  .                         : LOCATION
PROV .                         : PROVINCE
CNTY .                         : COUNTY
STAT .                         : STATE
CTRY .                         : COUNTRY
SRVC .                         : SERVICE COMPANY
DATE .                         : DATE
UWI  .                         : UNIQUE WELL ID
API  .                         : API NUMBER
SLAT .WGS84 1.9999106417375003 : SURFACE LATITUDE
SLON .WGS84  6.164734760471006 : SURFACE LONGITUDE
DATUM.F                    nan : DEPTH DATUM ELEV
~Curve Information -----------------------------------------
DEPT.FT    : 
CALS.IN    : CALIPER FROM SONIC LOG
DTCO.US/F  : DELTA-T COMPRESSIONAL
DTSM.US/F  : DELTA-T SHEAR
GRS .GAPI  : GAMMA RAY FROM SONIC LOG
~Params ----------------------------------------------------
~Other -----------------------------------------------------
~ASCII -----------------------------------------------------
# ...
 7691.50000    9.07770   74.69940  125.15790  100.22610
 7692.00000    9.11610   75.26650  126.01280  118.35740
 7692.50000    9.14690   75.69950  127.28500  124.32430
 7693.00000    9.15420   76.43070  128.46950  122.60080
 7693.50000    9.17240   77.62420  129.80190  119.21300
 7694.00000    9.18700   77.38260  130.50010  116.10420
 7694.50000    9.18700   77.04700  130.44750  116.42970
 7695.00000    9.20700   76.00590  129.86870  119.94770
 7695.50000    9.18700   75.04290  128.18710  124.79270
 7696.00000    9.21020   74.07150  126.46990  117.63010
 7696.50000    9.20380   73.30910  124.56080  109.25680
 7697.00000    9.18700   72.54680  122.87490   95.15990
 7697.50000    9.16820   71.78450  120.84730   89.74800
 7698.00000    9.16370   71.62820  119.44930   85.80380
 7698.50000    9.14690   72.07420  119.44930   84.86560
 7699.00000    9.13620   73.09730  119.90350   85.83940
 7699.50000    9.12540   72.69070  120.39120   92.78390
 7700.00000    9.10070   72.29890  121.26290  103.82900
 7700.50000    9.09230   72.45350  121.42210  116.50700
 7701.00000    9.06660   72.27290  121.10490  121.21170
 7701.50000    9.05020   71.42990  120.08820  120.65930
 7702.00000    9.03380   70.62460  119.32540  113.40060
 7702.50000    9.01740   69.90070  118.88600  101.77450
 7703.00000    9.00100   70.16390  118.25880   93.40110
 7703.50000    8.98460   70.60250  117.93510   87.62820
 7704.00000    8.98130   71.04110  118.06680   94.88080
 7704.50000    8.98450   71.24700  118.51780   99.22170
 7705.00000    8.98840   72.33310  119.73900  104.57050
 7705.50000    8.99240   73.90610  120.11560  103.85670
 7706.00000    8.99630   75.72510  122.24960  109.98680
 7706.50000    9.00030   76.84890  124.35510  112.70800
 7707.00000    9.00430   77.45100  126.41950  115.08330
 7707.50000    9.00820   78.29400  128.67020  111.75660
 7708.00000    9.01220   78.54880  128.92090  115.87610
 7708.50000    8.98890   78.75840  129.67300  126.08760
 7709.00000    8.96820   78.81110  130.07920  131.69680
 7709.50000    8.95640   78.86380  130.18440  130.41470
 7710.00000    8.93940   78.91650  130.27220  128.97440
 7710.50000    8.92240   78.75620  129.92130  131.75950
 7711.00000    8.91010   78.36730  129.76350  135.71410
 7711.50000    8.86630   77.97850  129.65820  135.05940
 7712.00000    8.83950   77.64360  129.02670  132.56720
 7712.50000    8.81340   76.96930  127.76380  130.03610
 7713.00000    8.77890   76.12640  126.12660  124.32350
 7713.50000    8.76390   74.32000  124.81680  119.86730
 7714.00000    8.74900   72.60910  123.31590  116.86610
 7714.50000    8.73840   69.92460  121.34460  114.40170
 7715.00000    8.70590   68.28440  115.97580  105.68250
 7715.50000    8.68160   65.99710  113.51720   87.64280
 7716.00000    8.65950   65.37990  110.78340   73.25970
 7716.50000    8.66170   65.51920  110.14710   60.30400
 7717.00000    8.66400   66.49260  109.42730   59.59760
 7717.50000    8.65800   67.58330  109.79110   81.93020
 7718.00000    8.66160   68.05440  110.75730  104.99640
 7718.50000    8.67880   67.59490  111.57750  121.91820
 7719.00000    8.68470   67.29230  112.39770  137.25200
 7719.50000    8.70770   68.53980  114.46750  131.73060
 7720.00000    8.73510   69.67370  115.50220  114.44000
 7720.50000    8.74600   69.90050  116.08070   98.16660
 7721.00000    8.74600   69.91710  117.60680   87.64330
 7721.50000    8.75900   69.93370  117.76470   80.53760
 7722.00000    8.76400   69.94700  117.13320   83.44910
 7722.50000    8.79180   70.93340  118.51570   97.56520
 7723.00000    8.82820   71.91670  120.53230  102.07520
 7723.50000    8.84620   72.71800  123.14400  105.53280
 7724.00000    8.85100   75.34420  124.90410  110.41950
 7724.50000    8.87480   75.46050  125.34260  114.32940
 7725.00000    8.89870   75.53030  126.55290  118.34000
 7725.50000    8.92250   75.50180  127.55280  116.04870
 7726.00000    8.94630   75.43370  127.55280  115.07230
 7726.50000    8.96740   75.37030  126.95630  113.79590
 7727.00000    8.97720   75.29350  125.97400  114.66990
 7727.50000    8.98700   75.53920  125.97400  118.58160
 7728.00000    8.99680   75.14740  125.63730  122.29010
 7728.50000    9.00660   74.65880  125.31630  126.42890
 7729.00000    9.00760   74.20660  125.09460  133.11660
 7729.50000    9.02550   74.00380  124.38050  138.12150
 7730.00000    9.02780   74.27750  123.66650  132.03150
 7730.50000    9.03010   74.34060  123.23810  118.61170
 7731.00000    9.03240   74.53080  123.23810  104.65400
 7731.50000    9.03470   74.55610  124.18530   99.81160
 7732.00000    9.03700   75.12080  125.01490  103.16270
 7732.50000    9.05780   75.18810  125.24670  112.77970
 7733.00000    9.01250   75.44310  125.96070  123.03570
 7733.50000    9.00800   75.68490  126.98930  127.33090
 7734.00000    9.03670   75.99990  128.09900  124.73190
 7734.50000    9.00940   75.86970  128.40390  121.67870
 7735.00000    9.00840   75.84580  127.86150  120.53070
 7735.50000    9.00740   75.49980  126.66320  117.86640
 7736.00000    9.00170   74.93930  125.22340  117.26100
 7736.50000    8.97700   74.50070  124.29890  117.23760
 7737.00000    8.95230   74.08940  123.63330  114.40240
 7737.50000    8.92770   73.05560  123.10070  107.48390
 7738.00000    8.90300   72.10730  122.34810  102.66690
 7738.50000    8.87830   71.59570  120.76090  104.80850
 7739.00000    8.88220   71.12890  119.42940  104.80850
 7739.50000    8.87080   70.91810  118.17630  111.70900
 7740.00000    8.85370   70.67730  116.92330  108.69450
 7740.50000    8.82640   70.10530  116.19800  101.15290
 7741.00000    8.83920   69.31060  114.82170   97.86590
 7741.50000    8.84360   68.29900  113.36110  100.85540
 7742.00000    8.84070   67.29830  111.32620  102.57510
 7742.50000    8.82680   66.49260  109.20210   99.40730
 7743.00000    8.81300   65.10780  107.61100   91.85260
 7743.50000    8.79910   64.71640  106.21880   73.08370
 7744.00000    8.78030   64.36610  105.55660   61.92130
 7744.50000    8.78710   64.50400  105.77880   56.98050
 7745.00000    8.79190   64.91700  106.36350   66.74850
 7745.50000    8.79680   66.13760  106.92480   84.74520
 7746.00000    8.80170   67.55200  108.90110   99.72310
 7746.50000    8.82620   68.90110  111.20910  107.66820
 7747.00000    8.82620   70.40630  113.92980  102.19100
 7747.50000    8.84270   72.99540  118.83580  103.38080
 7748.00000    8.85170   74.42660  120.50860  111.36820
 7748.50000    8.87900   75.03970  123.17220  121.61830
 7749.00000    8.90640   75.54100  124.35510  130.96140
 7749.50000    8.91940   75.74580  125.47340  132.88260
 7750.00000    8.92850   75.84770  125.55060  130.95340
 7750.50000    8.95530   76.05670  125.01700  128.23150
 7751.00000    8.96020   76.33690  125.72710  125.33330
 7751.50000    8.97840   76.45650  126.10380  122.07320
 7752.00000    8.99670   76.61650  126.07530  117.88360
 7752.50000    9.00400   76.85780  125.84910  126.42150
 7753.00000    9.00400   76.78850  125.85510  149.69900
 7753.50000    9.00400   77.05650  126.60250  168.36170
 7754.00000    9.00710   77.43790  126.23940  178.97410
 7754.50000    9.03320   76.84960  126.10690  165.78040
 7755.00000    9.05930   76.48740  126.09710  149.88800
 7755.50000    9.08540   76.26100  125.43060  132.12510
 7756.00000    9.11150   75.97530  124.42360  122.89680
 7756.50000    9.09760   75.45760  124.12880  119.21640
 7757.00000    9.07980   75.26460  123.29110  119.55800
 7757.50000    9.08670   75.10260  122.72940  121.82220
 7758.00000    9.09350   75.24980  122.78030  126.03440
 7758.50000    9.10410   75.83700  122.96690  127.90680
 7759.00000    9.13600   76.06070  123.33110  131.51320
 7759.50000    9.13060   76.07910  122.49890  135.40930
 7760.00000    9.13220   76.23540  123.93440  139.90390
 7760.50000    9.12510   76.51550  124.28840  141.26500
 7761.00000    9.11800   76.41960  124.18470  137.36570
 7761.50000    9.11090   76.04280  123.88370  131.88170
 7762.00000    9.10380   75.72590  123.72930  125.84470
 7762.50000    9.09670   75.24560  123.29350  121.67800
