~Version ---------------------------------------------------
VERS.   2.0 : CWLS log ASCII Standard -VERSION 2.0
WRAP.    NO : One line per depth step
DLM . SPACE : Column Data Section Delimiter
~Well ------------------------------------------------------
STRT .FT                4045.0 : START DEPTH
STOP .FT               10988.0 : STOP DEPTH
STEP .FT                   0.5 : STEP
NULL .                -9999.25 : NULL VALUE
COMP .                         : COMPANY
WELL .                         : WELL
FLD  .                         : FIELD
LOC  .                         : LOCATION
PROV .                         : PROVINCE
CNTY .                         : COUNTY
STAT .                         : STATE
CTRY .                         : COUNTRY
SRVC .                         : SERVICE COMPANY
DATE .                         : DATE
UWI  .                         : UNIQUE WELL ID
API  .                         : API NUMBER
SLAT .WGS84 1.9999106417375003 : SURFACE LATITUDE
SLON .WGS84  6.164734760471006 : SURFACE LONGITUDE
DATUM.F                    nan : DEPTH DATUM ELEV
~Curve Information -----------------------------------------
DEPT.FT    : 
CALS.IN    : CALIPER FROM SONIC LOG
DTCO.US/F  : DELTA-T COMPRESSIONAL
DTSM.US/F  : DELTA-T SHEAR
GRS .GAPI  : GAMMA RAY FROM SONIC LOG
~Params ----------------------------------------------------
~Other -----------------------------------------------------
~ASCII -----------------------------------------------------
# ...
 5403.50000    8.82290   83.84850  142.29710  116.64450
 5404.00000    8.79080   84.13520  143.78690  114.27660
 5404.50000    8.82850   84.31310  144.70400  113.43170
 5405.00000    8.84620   84.95620  145.71150  113.93030
 5405.50000    8.84390   85.58740  146.49940  112.38020
 5406.00000    8.85690   85.86330  147.96410  110.50550
 5406.50000    8.85790   85.60010  149.46870  109.36590
 5407.00000    8.85890   85.93480  149.90250  113.84400
 5407.50000    8.84620   86.84930  150.23360  115.83290
 5408.00000    8.85930   86.65350  149.93070  113.74070
 5408.50000    8.84620   86.78480  149.13000  110.79440
 5409.00000    8.84620   86.85670  149.60580  107.08620
 5409.50000    8.84300   86.11240  150.01410  106.07880
 5410.00000    8.83480   86.81920  152.36110  105.87340
 5410.50000    8.82670   86.49330  153.24150  108.74130
 5411.00000    8.81850   86.91360  154.13650  111.03500
 5411.50000    8.75110   87.96280  155.61760  108.79000
 5412.00000    9.00130   88.09500  156.70080  103.73630
 5412.50000    8.94740   88.16490  156.35860  100.05600
 5413.00000    8.83100   87.80590  154.66600  103.34190
 5413.50000    9.19700   87.31740  153.58490  109.03550
 5414.00000    8.92990   86.24040  151.35760  108.42990
 5414.50000    8.76610   84.90290  148.53070  101.00140
 5415.00000    8.76370   84.01700  146.89140   97.98530
 5415.50000    8.71800   83.84390  144.84580  104.78120
 5416.00000    8.70310   83.39150  143.00640  111.09930
 5416.50000    8.69450   82.87640  142.03910  117.70970
 5417.00000    8.68590   82.68860  141.25470  124.92560
 5417.50000    8.66930   83.05200  141.15300  127.06370
 5418.00000    8.66200   83.65620  141.46290  126.98090
 5418.50000    8.64580   83.67140  141.97150  122.31560
 5419.00000    8.61700   83.77210  142.32190  118.06920
 5419.50000    8.58100   83.89340  143.50750  119.80100
 5420.00000    8.58850   84.01240  144.08430  121.75100
 5420.50000    8.62150   84.53340  145.15210  122.88320
 5421.00000    8.61990   85.39330  146.53480  119.49690
 5421.50000    8.62320   85.36870  147.91760  119.06860
 5422.00000    8.62340   85.62970  147.40940  119.02100
 5422.50000    8.60520   86.07620  146.16650  121.31070
 5423.00000    8.60380   86.60700  143.98910  122.89290
 5423.50000    8.60240   86.97870  141.16400  123.58340
 5424.00000    8.60670   87.71590  135.68280  117.12340
 5424.50000    8.68730   88.06020  129.01000   95.01370
 5425.00000    8.66440   59.29290  122.33730   75.31610
 5425.50000    8.58570   51.77630  115.66450   49.45910
 5426.00000    8.59570   51.33550  110.23600   35.90670
 5426.50000    8.59570   54.83390  106.67380   30.88640
 5427.00000    8.60710   55.62960  103.11160   29.76560
 5427.50000    8.65360   54.74550   99.18920   30.39030
 5428.00000    8.67320   54.33890   98.18930   34.31410
 5428.50000    8.69270   54.57090   98.39970   39.39610
 5429.00000    8.71230   55.59450   99.49610   43.37610
 5429.50000    8.73190   56.31700  100.62170   43.16250
 5430.00000    8.73160   57.03090  101.77850   39.54560
 5430.50000    8.72030   57.70190  102.87990   39.78360
 5431.00000    8.70900   58.32560  104.36450   36.71650
 5431.50000    8.71580   58.39660  105.16720   32.47160
 5432.00000    8.74750   58.77780  106.08020   29.67710
 5432.50000    8.75260   59.49570  106.99330   28.36600
 5433.00000    8.78750   59.83360  107.67980   30.36700
 5433.50000    8.81020   59.94430  107.92570   31.10850
 5434.00000    8.82020   59.98510  107.82200   30.83550
 5434.50000    8.83140   59.83930  107.92050   29.01400
 5435.00000    8.86430   59.43780  107.75400   26.15770
 5435.50000    8.87280   58.97650  107.99830   25.55630
 5436.00000    8.89380   58.13540  107.32310   26.11350
 5436.50000    8.88090   58.01290  106.81290   26.83740
 5437.00000    8.87410   57.51000  106.37910   27.94570
 5437.50000    8.90290   56.73850  105.73030   28.26230
 5438.00000    8.91300   56.06130  104.96070   34.54020
 5438.50000    8.94210   55.78950  104.16480   33.58410
 5439.00000    8.95370   55.35360  103.19460   38.63520
 5439.50000    8.96520   55.38790  102.36590   45.41440
 5440.00000    8.97680   55.47100  102.55510   42.86620
 5440.50000    8.98600   55.63610  102.74440   37.12050
 5441.00000    8.98510   55.85390  102.89030   30.49580
 5441.50000    8.95530   56.12620  102.71490   27.55560
 5442.00000    8.92550   56.75880  102.45180   28.18200
 5442.50000    8.89580   57.08110  102.39910   29.72150
 5443.00000    8.86600   57.12990  102.77850   30.81330
 5443.50000    8.80130   57.06540  103.15780   32.03470
 5444.00000    8.76370   56.73140  103.27240   31.16010
 5444.50000    8.73210   56.39160  103.23120   30.82590
 5445.00000    8.69890   56.06180  102.77580   30.11060
 5445.50000    8.67010   55.72510  102.41430   28.12940
 5446.00000    8.64530   54.97830  101.14220   29.50870
 5446.50000    8.60780   54.33000  100.63100   33.38680
 5447.00000    8.57860   53.59250  100.34680   36.23270
 5447.50000    8.54950   53.06850   99.49470   36.42280
 5448.00000    8.52030   52.61580   98.52550   33.30270
 5448.50000    8.48900   52.30570   97.50510   32.13520
 5449.00000    8.47280   52.36900   96.75470   34.36640
 5449.50000    8.44150   52.25390   96.65940   34.28050
 5450.00000    8.41580   52.44130   96.38680   34.49290
 5450.50000    8.39020   52.26000   95.99600   37.12700
 5451.00000    8.36450   52.24570   95.60510   44.78820
 5451.50000    8.35720   52.37580   95.40970   48.73810
 5452.00000    8.31620   52.21300   94.67750   46.73080
 5452.50000    8.30110   52.09560   94.25430   41.91960
 5453.00000    8.28850   51.91870   94.48750   39.66020
 5453.50000    8.27590   51.73120   94.71730   40.39090
 5454.00000    8.24710   51.72790   94.92720   40.38010
 5454.50000    8.21950   51.72460   94.33540   36.92010
 5455.00000    8.20620   51.34970   94.02340   34.03080
 5455.50000    8.19280   50.47860   94.25010   34.67690
 5456.00000    8.17940   50.83100   93.43550   39.93920
 5456.50000    8.16600   50.88870   93.64870   42.04200
 5457.00000    8.15640   51.22640   93.45940   39.06270
 5457.50000    8.14920   51.83200   93.36350   40.60510
 5458.00000    8.14200   52.60750   93.52930   38.69730
 5458.50000    8.13480   54.18010   93.71050   43.39290
 5459.00000    8.12770   54.03910   94.10430   48.12480
 5459.50000    8.12050   53.50260   93.91710   52.65200
 5460.00000    8.11730   53.50700   93.83620   55.20360
 5460.50000    8.12030   53.78950   93.98850   53.45420
 5461.00000    8.12320   54.00940   94.32590   45.25030
 5461.50000    8.12610   53.48710   93.67660   38.58120
 5462.00000    8.14130   52.83540   93.32050   34.48630
 5462.50000    8.14130   52.34480   92.39410   33.29660
 5463.00000    8.14120   52.19260   92.19250   33.46130
 5463.50000    8.14110   51.89150   91.72220   34.28500
 5464.00000    8.14100   51.97660   91.52540   35.10870
 5464.50000    8.14100   52.31150   91.32870   35.71570
 5465.00000    8.14090   52.67790   91.38970   37.10380
 5465.50000    8.14080   53.36670   91.84510   38.17200
 5466.00000    8.14070   54.05080   91.93470   39.99030
 5466.50000    8.14070   54.17020   91.52240   43.49130
 5467.00000    8.14060   53.95440   91.70990   49.07450
 5467.50000    8.14050   53.51130   91.76150   50.42910
 5468.00000    8.13960   52.99980   91.48130   41.15210
 5468.50000    8.13510   52.46090   91.13300   33.29500
 5469.00000    8.13060   52.04200   91.14720   28.47010
 5469.50000    8.12600   51.48740   91.17880   25.85730
 5470.00000    8.12150   51.49020   91.17600   27.86090
 5470.50000    8.11700   51.78790   90.93810   31.10320
 5471.00000    8.11240   51.53020   91.12210   34.27870
 5471.50000    8.10790   51.40980   91.53320   37.45420
 5472.00000    8.10340   51.50700   91.91890   36.88140
 5472.50000    8.09880   51.71210   91.99480   31.11840
 5473.00000    8.09430   52.25280   92.18550   28.86400
 5473.50000    8.08980   53.34350   91.88640   29.16780
 5474.00000    8.08520   53.47740   91.81230   33.11800
 5474.50000    8.08070   53.69520   91.73810   34.17010
