~Version ---------------------------------------------------
VERS.   2.0 : CWLS log ASCII Standard -VERSION 2.0
WRAP.    NO : One line per depth step
DLM . SPACE : Column Data Section Delimiter
~Well ------------------------------------------------------
STRT .FT                4045.0 : START DEPTH
STOP .FT               10988.0 : STOP DEPTH
STEP .FT                   0.5 : STEP
NULL .                -9999.25 : NULL VALUE
COMP .                         : COMPANY
WELL .                         : WELL
FLD  .                         : FIELD
LOC  .                         : LOCATION
PROV .                         : PROVINCE
CNTY .                         : COUNTY
STAT .                         : STATE
CTRY .                         : COUNTRY
SRVC .                         : SERVICE COMPANY
DATE .                         : DATE
UWI  .                         : UNIQUE WELL ID
API  .                         : API NUMBER
SLAT .WGS84 1.9999106417375003 : SURFACE LATITUDE
SLON .WGS84  6.164734760471006 : SURFACE LONGITUDE
DATUM.F                    nan : DEPTH DATUM ELEV
~Curve Information -----------------------------------------
DEPT.FT    : 
CALS.IN    : CALIPER FROM SONIC LOG
DTCO.US/F  : DELTA-T COMPRESSIONAL
DTSM.US/F  : DELTA-T SHEAR
GRS .GAPI  : GAMMA RAY FROM SONIC LOG
~Params ----------------------------------------------------
~Other -----------------------------------------------------
~ASCII -----------------------------------------------------
 4045.00000   -9999.25   -9999.25   -9999.25   33.89170
 4045.50000   -9999.25   -9999.25   -9999.25   35.31780
 4046.00000   -9999.25   -9999.25   -9999.25   39.56780
 4046.50000   -9999.25   -9999.25   -9999.25   46.38710
 4047.00000   -9999.25   -9999.25   -9999.25   51.10700
 4047.50000   -9999.25   -9999.25   -9999.25   51.40680
 4048.00000   -9999.25   -9999.25   -9999.25   49.05710
 4048.50000   -9999.25   -9999.25   -9999.25   46.62540
 4049.00000   -9999.25   -9999.25   -9999.25   45.04060
 4049.50000   -9999.25   -9999.25   -9999.25   49.36540
 4050.00000   -9999.25   -9999.25   -9999.25   52.85290
 4050.50000   -9999.25   -9999.25   -9999.25   55.09780
 4051.00000   -9999.25   -9999.25   -9999.25   55.13350
 4051.50000   -9999.25   -9999.25   -9999.25   53.09940
 4052.00000   -9999.25   -9999.25   -9999.25   49.84790
 4052.50000   -9999.25   -9999.25   -9999.25   49.98970
 4053.00000   -9999.25   -9999.25   -9999.25   55.31480
 4053.50000   -9999.25   -9999.25   -9999.25   74.25840
 4054.00000   -9999.25   -9999.25   -9999.25   93.71360
 4054.50000   -9999.25   -9999.25   -9999.25   89.95370
 4055.00000    9.10590   60.67910  105.30760   76.21120
 4055.50000    9.27480   61.14160  104.74530   71.83820
 4056.00000   10.40180   62.65310  104.04260   69.35400
 4056.50000   10.82880   66.06780  105.47270   65.51680
 4057.00000   10.89430   66.74660  106.25020   64.76140
 4057.50000   10.88670   67.23140  106.45950   65.58120
 4058.00000   10.90820   68.51140  109.45860   66.78340
 4058.50000   11.02000   69.46740  112.07580   69.71110
 4059.00000   12.10340   69.49580  113.76800   73.11360
 4059.50000   11.92390   69.64080  114.82380   76.51610
 4060.00000   10.33260   69.78590  114.99560   76.87240
 4060.50000    9.26460   69.87290  118.15300   75.26000
 4061.00000    8.98130   67.66490  120.25790   76.45840
 4061.50000    8.96540   66.05790  120.15270   79.32000
 4062.00000    8.93820   65.77460  117.22370   78.20700
 4062.50000    8.93370   65.57570  113.55510   77.93140
 4063.00000    8.98450   65.14230  112.82760   77.12440
 4063.50000    9.01300   65.13130  112.46380   76.69120
 4064.00000    9.01430   65.12040  112.41410   75.48270
 4064.50000    9.01560   65.22610  112.49800   74.39830
 4065.00000    9.02180   65.67150  112.83200   74.21790
 4065.50000    9.04760   65.97430  113.42040   75.39330
 4066.00000    9.07340   66.72690  114.17860   76.03160
 4066.50000    9.09920   67.28060  114.99560   77.01930
 4067.00000    9.12500   67.53890  115.73230   78.10410
 4067.50000    9.15080   67.78530  116.76810   79.37510
 4068.00000    9.17530   67.84990  117.83730   78.89690
 4068.50000    9.20440   68.01270  118.32840   78.15130
 4069.00000    9.24310   68.26900  118.62660   76.61400
 4069.50000    9.26720   68.38250  119.06510   73.92510
 4070.00000    9.28980   68.45450  119.61060   71.50330
 4070.50000    9.31250   68.59350  119.53160   72.37820
 4071.00000    9.33510   68.96420  119.87420   73.29370
 4071.50000    9.37230   69.51820  120.34230   70.15050
 4072.00000    9.39740   70.27040  121.03420   66.19800
 4072.50000    9.40280   71.03070  122.16600   64.00040
 4073.00000    9.41750   71.42990  123.58060   68.70530
 4073.50000    9.46760   71.80560  124.55580   79.22430
 4074.00000    9.44980   72.09040  125.67960   84.55320
 4074.50000    9.42750   72.23860  126.02540   89.58130
 4075.00000    9.46910   72.23100  126.24040   88.24850
 4075.50000    9.47680   72.14080  126.35010   84.83380
 4076.00000    9.48450   72.13430  126.36400   79.09820
 4076.50000    9.48290   72.12790  126.12230   75.01500
 4077.00000    9.44090   72.18260  125.88060   73.49160
 4077.50000    9.38740   72.01340  125.63830   70.95610
 4078.00000    9.35530   71.85990  125.44630   69.75340
 4078.50000    9.31520   71.86300  125.34160   70.36110
 4079.00000    9.26710   71.64680  125.18090   73.27460
 4079.50000    9.25000   71.52960  124.79070   77.30010
 4080.00000    9.24290   71.38440  124.29900   75.79670
 4080.50000    9.24010   70.86040  123.74330   72.00840
 4081.00000    9.22710   70.45340  123.25850   69.64090
 4081.50000    9.22710   69.96890  122.77370   71.42710
 4082.00000    9.24250   69.65720  122.16750   75.55060
 4082.50000    9.24870   69.33710  121.14390   79.53510
 4083.00000    9.25500   69.01700  120.21510   82.53160
 4083.50000    9.26710   68.94460  118.93620   81.69530
 4084.00000    9.27160   68.73610  118.77040   79.89530
 4084.50000    9.29390   68.53080  118.73230   76.97540
 4085.00000    9.30720   68.48610  118.69420   76.36470
 4085.50000    9.30240   68.14840  118.67900   78.62300
 4086.00000    9.32820   68.09360  118.57370   80.87790
 4086.50000    9.31070   68.19850  118.39830   81.69070
 4087.00000    9.31940   68.38930  118.36320   81.86240
 4087.50000    9.32810   68.68830  118.36320   82.41760
 4088.00000    9.33250   68.81510  119.28180   84.23780
 4088.50000    9.33050   69.00900  119.98010   88.51490
 4089.00000    9.32850   69.22070  119.93160   90.81200
 4089.50000    9.33730   69.35260  120.00870   91.56760
 4090.00000    9.34160   69.27680  120.12580   85.96900
 4090.50000    9.33590   69.22800  120.59070   83.58370
 4091.00000    9.33020   68.90110  120.05150   82.48640
 4091.50000    9.26710   68.55580  119.37480   82.02630
 4092.00000    9.25270   68.49180  118.86450   82.30030
 4092.50000    9.18850   68.25730  118.34810   80.20610
 4093.00000    9.08740   67.93480  117.29040   80.05430
 4093.50000    9.00660   67.51910  115.98580   81.02810
 4094.00000    8.96340   67.06660  114.68130   82.95250
 4094.50000    8.95540   66.19160  113.37670   83.85430
 4095.00000    8.89610   65.57930  112.46350   82.74330
 4095.50000    8.85910   65.30450  111.14470   83.08650
 4096.00000    8.82200   64.98220  110.72850   83.44240
 4096.50000    8.78630   64.59240  110.39460   84.48570
 4097.00000    8.76340   64.19670  110.01780   83.75390
 4097.50000    8.74600   64.42590  109.99230   82.09050
 4098.00000    8.73980   64.16760  109.82300   83.96060
 4098.50000    8.72440   64.30890  109.53470   85.83870
 4099.00000    8.70900   64.41540  109.66360   89.11270
 4099.50000    8.71890   64.28130  109.94680   91.25030
 4100.00000    8.70590   64.19170  110.14560   92.54510
 4100.50000    8.70590   64.03660  109.83000   85.89300
 4101.00000    8.68160   63.75810  108.95530   75.01490
 4101.50000    8.66780   63.24120  108.44960   65.23660
 4102.00000    8.65400   62.75140  108.37920   65.65700
 4102.50000    8.64580   61.85640  107.73020   69.60300
 4103.00000    8.64580   60.45660  106.67010   77.84900
 4103.50000    8.64580   59.50820  104.04560   78.72590
 4104.00000    8.64580   58.28660  101.90410   75.16520
 4104.50000    8.64580   57.56660  101.35590   67.19770
 4105.00000    8.66460   56.84870  100.64930   56.67460
 4105.50000    8.68330   56.57650   99.52400   43.14480
 4106.00000    8.70210   56.46750   99.22500   35.17460
 4106.50000    8.71890   56.58800   99.22440   31.23300
 4107.00000    8.70590   56.82880   99.44460   31.73150
 4107.50000    8.70590   57.01810   99.63770   33.29490
 4108.00000    8.70590   57.09290   99.60440   35.38340
 4108.50000    8.71900   57.17800  100.06360   37.80480
 4109.00000    8.70590   57.05750   99.91870   38.48460
 4109.50000    8.72050   56.44930   99.01640   37.35720
 4110.00000    8.63180   55.78240   98.78230   33.47400
 4110.50000    8.58800   55.30840   98.08840   30.23280
 4111.00000    8.59640   54.63010   97.26050   28.75490
 4111.50000    8.58870   54.22480   96.88690   28.20430
 4112.00000    8.60780   54.09630   96.33000   26.53120
 4112.50000    8.66480   53.95990   95.63010   24.93140
 4113.00000    8.65360   53.95990   95.73530   22.41820
 4113.50000    8.67320   54.10220   96.23380   21.88180
 4114.00000    8.69270   54.27650   96.69050   23.69160
 4114.50000    8.71480   54.60210   97.36560   24.79010
 4115.00000    8.72900   54.84250   98.02570   23.42340
 4115.50000    8.71640   55.12730   98.28070   22.26430
 4116.00000    8.71640   55.23450   98.46840   24.14470
