~Version ---------------------------------------------------
VERS.   2.0 : CWLS log ASCII Standard -VERSION 2.0
WRAP.    NO : One line per depth step
DLM . SPACE : Column Data Section Delimiter
~Well ------------------------------------------------------
STRT .FT                4045.0 : START DEPTH
STOP .FT               10988.0 : STOP DEPTH
STEP .FT                   0.5 : STEP
NULL .                -9999.25 : NULL VALUE
COMP .                         : COMPANY
WELL .                         : WELL
FLD  .                         : FIELD
LOC  .                         : LOCATION
PROV .                         : PROVINCE
CNTY .                         : COUNTY
STAT .                         : STATE
CTRY .                         : COUNTRY
SRVC .                         : SERVICE COMPANY
DATE .                         : DATE
UWI  .                         : UNIQUE WELL ID
API  .                         : API NUMBER
SLAT .WGS84 1.9999106417375003 : SURFACE LATITUDE
SLON .WGS84  6.164734760471006 : SURFACE LONGITUDE
DATUM.F                    nan : DEPTH DATUM ELEV
~Curve Information -----------------------------------------
DEPT.FT    : 
CALS.IN    : CALIPER FROM SONIC LOG
DTCO.US/F  : DELTA-T COMPRESSIONAL
DTSM.US/F  : DELTA-T SHEAR
GRS .GAPI  : GAMMA RAY FROM SONIC LOG
~Params ----------------------------------------------------
~Other -----------------------------------------------------
~ASCII -----------------------------------------------------
# ...
 5904.00000    8.93350   92.67880  171.96750  149.80020
 5904.50000    8.88460   91.46680  173.12520  142.02150
 5905.00000    8.86920   91.24720  171.93740  137.79270
 5905.50000    8.86920   91.09290  168.10340  141.12310
 5906.00000    8.86920   91.36900  171.65170  141.11370
 5906.50000    8.94550   91.43700  171.65170  140.27570
 5907.00000    9.10140   91.81480  170.17820  140.67850
 5907.50000    9.21820   92.08100  170.17820  141.22270
 5908.00000    9.51110   92.21310  172.07270  137.49660
 5908.50000   10.73480   91.09640  169.46260  136.75760
 5909.00000   10.98900   91.72920  160.88130  136.49500
 5909.50000   11.37210   90.36360  149.12860  133.99850
 5910.00000    8.87020   91.71680  149.23420  131.93360
 5910.50000    8.83820   95.56310  146.60300  131.92080
 5911.00000    8.91700   94.28360  160.44300  144.04020
 5911.50000    8.99590   92.30620  174.03740  143.54770
 5912.00000    9.02720   90.32880  179.44010  141.62980
 5912.50000    9.09290   88.71040  178.80860  131.15350
 5913.00000   13.24130   86.71800  171.96750  126.34290
 5913.50000   19.63520   85.13060  165.51740  108.30280
 5914.00000   19.92980   83.30020  160.63090   82.94830
 5914.50000   20.02370   81.59180  151.83030   79.84720
 5915.00000   20.38820   79.88350  142.05110   90.84390
 5915.50000   20.40340   80.36190  132.95590   99.52870
 5916.00000   15.99900   82.75390  126.29030   97.94870
 5916.50000    8.66010   85.14980  117.44950   83.51270
 5917.00000    8.69150   85.93200  156.18050   94.42750
 5917.50000    8.84990   85.65280  156.28570  110.01300
 5918.00000    8.86460   86.24920  156.07520  127.83040
 5918.50000    8.88220   90.16170  174.70400  140.48290
 5919.00000    9.03170   94.07420  176.49320  138.56270
 5919.50000   10.00920   94.06840  177.75610  138.54840
 5920.00000   11.44400   94.03930  178.59810  134.96500
 5920.50000    9.89650   94.94490  179.56290  134.80360
 5921.00000    9.10900   96.33850  179.86110  127.44050
 5921.50000   10.33520   96.67970  179.86110  127.92910
 5922.00000   11.03000   95.75030  179.70320  132.20680
 5922.50000    9.84890   95.00860  178.28240  135.66340
 5923.00000    8.88800   95.00820  174.49350  137.75960
 5923.50000    9.01100   95.51430  175.12500  136.40700
 5924.00000    9.79350   95.01060  174.70400  134.57160
 5924.50000   10.01690   94.40260  173.73920  133.03710
 5925.00000   10.31880   94.30470  173.34530  133.63070
 5925.50000   10.09520   95.15400  173.01050  136.28310
 5926.00000    9.37160   96.81930  172.89970  139.20790
 5926.50000    8.86780   97.19150  173.35080  144.79150
 5927.00000    8.73170   96.40720  173.28310  146.31250
 5927.50000    8.71610   93.41620  170.87000  145.04560
 5928.00000    8.61250   94.53950  165.75800  142.33300
 5928.50000    8.56470   94.34170  166.81050  141.58860
 5929.00000    8.63580   93.53280  166.70520  142.18370
 5929.50000    8.61420   92.69940  165.89830  144.69660
 5930.00000    8.60740   92.44220  165.54750  148.93290
 5930.50000    8.60230   92.23280  166.14390  149.63740
 5931.00000    8.57480   92.09920  165.93840  149.03720
 5931.50000    8.58710   89.32330  164.81070  146.84700
 5932.00000    8.59940   89.56290  165.86320  141.90300
 5932.50000    8.59920   89.61250  165.19660  138.65220
 5933.00000    8.58390   90.45650  164.96860  137.64690
 5933.50000    8.58820   90.64370  166.65260  138.75670
 5934.00000    8.58230   90.55670  166.84550  138.39570
 5934.50000    9.10450   90.54260  166.38940  136.38480
 5935.00000    8.73410   90.32710  166.81040  137.17560
 5935.50000    8.60450   90.55370  167.23140  140.08280
 5936.00000    8.62120   91.05750  167.65240  143.36820
 5936.50000    8.63480   90.60950  166.31930  143.87550
 5937.00000    8.62160   90.30030  165.65270  144.57290
 5937.50000    8.62160   90.07090  164.11910  143.07710
 5938.00000    8.62130   89.65410  158.02980  140.55110
 5938.50000    8.81910   82.53550  155.97000  138.57950
 5939.00000    8.65030   82.53550  155.86470  136.18360
 5939.50000    8.95160   82.53550  155.81210  124.35380
 5940.00000    8.61640   84.20580  155.79460  114.13010
 5940.50000    8.45060   86.83460  156.12780  107.66390
 5941.00000    8.51920   88.07220  157.91710  111.54040
 5941.50000    8.52270   87.83960  160.81130  124.62490
 5942.00000    8.56420   87.65350  161.02180  136.93180
 5942.50000    8.75730   88.35800  159.54840  142.03070
 5943.00000    9.13990   89.65410  159.33790  144.30820
 5943.50000    8.63790   91.10050  160.17990  138.80140
 5944.00000    8.62090   91.38620  165.02120  134.79020
 5944.50000    8.61950   91.38160  165.02120  135.02820
 5945.00000    8.67340   91.48930  164.72050  139.25200
 5945.50000    8.59570   91.59220  164.49500  139.56670
 5946.00000    8.59720   90.91710  163.96880  138.53350
 5946.50000    8.59870   90.71850  162.91630  136.69380
 5947.00000    8.60030   90.55110  162.70580  141.16140
 5947.50000    8.56610   90.73020  161.92700  143.94470
 5948.00000    8.56860   91.08460  161.75860  145.05720
 5948.50000    8.52690   91.27730  163.44250  144.16810
 5949.00000    8.52460   90.85340  162.79480  145.74460
 5949.50000    8.52030   90.45650  162.14720  149.10140
 5950.00000    8.51590   90.01610  161.65330  148.11540
 5950.50000    8.51150   89.82970  161.23230  142.17450
 5951.00000    8.50710   89.87920  160.81130  134.54680
 5951.50000    8.50270   90.13250  160.81130  132.66010
 5952.00000    8.49830   90.16510  161.28770  138.75610
 5952.50000    8.49390   90.30600  161.95240  142.74670
 5953.00000    8.48950   90.74090  162.61720  147.71680
 5953.50000    8.50430   90.89720  163.28190  149.30520
 5954.00000    8.49860   90.93490  163.75830  154.79710
 5954.50000    8.49210   91.00180  163.84250  155.35460
 5955.00000    8.51860   90.93360  163.86350  155.56220
 5955.50000    8.52350   90.09150  163.44250  150.51400
 5956.00000    8.50150   89.74720  163.08470  146.48380
 5956.50000    8.48020   89.53780  162.76890  143.99070
 5957.00000    8.47250   88.59060  162.21460  145.41070
 5957.50000    8.48430   87.83180  160.81130  145.37070
 5958.00000    8.49110   87.79300  159.59620  142.54520
 5958.50000    8.49020   87.79300  158.78290  142.55660
 5959.00000    8.49330   88.12830  157.96970  144.38330
 5959.50000    8.51660   88.20180  157.73570  143.29570
 5960.00000    8.49870   87.83820  157.44320  141.68260
 5960.50000    8.52150   87.33250  157.02230  140.71040
 5961.00000    8.52900   86.91620  156.49600  140.48010
 5961.50000    8.52390   86.42370  156.49600  138.45550
 5962.00000    8.46540   85.62610  156.49600  132.35580
 5962.50000    8.47410   84.82850  156.33810  126.68030
 5963.00000    8.48500   84.32660  155.94350  124.55960
 5963.50000    8.52410   84.32030  155.86450  124.33860
 5964.00000    8.52830   84.36260  155.96980  125.58530
 5964.50000    8.53250   84.78860  156.79070  127.60190
 5965.00000    8.56120   86.74940  157.68530  134.84750
 5965.50000    8.58670   87.14160  157.96950  142.06340
 5966.00000    8.61520   85.37350  157.96950  147.53450
 5966.50000    8.64020   85.42000  156.03990  147.05560
 5967.00000    8.86690   85.60620  156.39080  144.73500
 5967.50000    8.84220   85.23390  155.96980  142.42420
 5968.00000    8.69460   85.04780  155.65400  144.61930
 5968.50000    8.68590   85.35020  155.54880  149.06720
 5969.00000    8.68590   85.29500  153.67770  148.71030
 5969.50000    8.68590   85.13510  152.07560  145.07010
 5970.00000    8.69590   84.97520  151.23380  139.80310
 5970.50000    8.70590   84.81530  150.73390  135.50410
 5971.00000    8.70590   84.79330  151.02340  135.02820
 5971.50000    8.71350   84.85450  153.72470  139.82350
 5972.00000    8.70250   84.91570  154.93850  140.87190
 5972.50000    8.72700   84.97690  155.18060  140.43910
 5973.00000    8.73600   85.28900  156.28570  137.15070
 5973.50000    8.76610   85.77550  158.31550  135.98050
 5974.00000    8.75260   86.16460  159.44310  135.71430
 5974.50000    8.76380   86.38790  159.69570  137.58160
 5975.00000    8.77490   86.55080  160.01150  141.17650
