~Version ---------------------------------------------------
VERS.   2.0 : CWLS log ASCII Standard -VERSION 2.0
WRAP.    NO : One line per depth step
DLM . SPACE : Column Data Section Delimiter
~Well ------------------------------------------------------
STRT .FT                4045.0 : START DEPTH
STOP .FT               10988.0 : STOP DEPTH
STEP .FT                   0.5 : STEP
NULL .                -9999.25 : NULL VALUE
COMP .                         : COMPANY
WELL .                         : WELL
FLD  .                         : FIELD
LOC  .                         : LOCATION
PROV .                         : PROVINCE
CNTY .                         : COUNTY
STAT .                         : STATE
CTRY .                         : COUNTRY
SRVC .                         : SERVICE COMPANY
DATE .                         : DATE
UWI  .                         : UNIQUE WELL ID
API  .                         : API NUMBER
SLAT .WGS84 1.9999106417375003 : SURFACE LATITUDE
SLON .WGS84  6.164734760471006 : SURFACE LONGITUDE
DATUM.F                    nan : DEPTH DATUM ELEV
~Curve Information -----------------------------------------
DEPT.FT    : 
CALS.IN    : CALIPER FROM SONIC LOG
DTCO.US/F  : DELTA-T COMPRESSIONAL
DTSM.US/F  : DELTA-T SHEAR
GRS .GAPI  : GAMMA RAY FROM SONIC LOG
~Params ----------------------------------------------------
~Other -----------------------------------------------------
~ASCII -----------------------------------------------------
# ...
 9050.00000    7.79540   82.09450  138.87560  139.15650
 9050.50000    7.79600   81.65780  138.82840  131.55020
 9051.00000    7.79660   81.12860  138.10290  121.30440
 9051.50000    7.79710   80.59930  137.65130  112.89840
 9052.00000    7.79770   80.07000  136.65160  119.17710
 9052.50000    7.79830   79.73850  136.05270  124.94090
 9053.00000    7.79880   79.43550  136.07480  124.46500
 9053.50000    7.79940   79.23710  136.60720  117.80240
 9054.00000    7.80000   79.05610  136.39950  120.14210
 9054.50000    7.80050   78.84410  137.05520  126.72880
 9055.00000    7.80110   79.47840  137.39750  127.97900
 9055.50000    7.80170   79.94960  138.22950  121.55930
 9056.00000    7.80220   80.56830  138.82490  117.32650
 9056.50000    7.80280   81.72580  139.55110  118.75420
 9057.00000    7.80340   82.36890  141.28560  122.05080
 9057.50000    7.80390   82.68920  143.02020  127.02950
 9058.00000    7.80940   83.17090  143.47780  133.41570
 9058.50000    7.82400   83.34890  143.32400  140.73710
 9059.00000    7.81390   83.63820  143.17070  148.02190
 9059.50000    7.81360   83.96390  143.06340  147.78390
 9060.00000    7.81310   84.15730  141.86640  142.59020
 9060.50000    7.81260   84.12150  140.93120  133.94550
 9061.00000    7.81210   83.92370  140.18290  119.54650
 9061.50000    7.81010   83.68280  140.70920  112.56820
 9062.00000    7.80890   83.45300  139.27080  117.11460
 9062.50000    7.81090   82.87000  138.70950  122.52030
 9063.00000    7.80110   82.29530  137.71350  130.03690
 9063.50000    7.78390   80.91870  136.04610  135.05420
 9064.00000    7.79820   79.13050  134.80150  135.64940
 9064.50000    7.80100   78.23370  133.58740  125.22630
 9065.00000    7.78390   77.14990  131.46920  111.44150
 9065.50000    7.79930   75.58450  129.93690   95.76130
 9066.00000    7.81470   74.06810  128.60570   88.81090
 9066.50000    7.81010   69.94900  126.10610   90.65430
 9067.00000    7.81040   58.93760  123.60650   94.49850
 9067.50000    7.80720   67.99480  121.10680   88.55390
 9068.00000    7.80400   65.24980  118.60720   73.39990
 9068.50000    7.80080   65.59870  117.97580   57.95770
 9069.00000    7.79760   67.34350  118.43180   43.32470
 9069.50000    7.79980   67.12250  121.85820   43.56270
 9070.00000    7.80130   64.36570  125.65880   55.69810
 9070.50000    7.80010   78.64960  129.45940   79.49320
 9071.00000    7.79900   91.35150  133.26000  103.28820
 9071.50000    7.79790   90.23480  137.06060  120.41570
 9072.00000    7.79670   87.18730  139.75460  131.60420
 9072.50000    7.79560   84.13980  142.04660  126.87120
 9073.00000    7.79450   84.88420  143.24600  123.71360
 9073.50000    7.79330   84.68580  143.08750  116.32800
 9074.00000    7.79220   85.31010  141.20660  107.83410
 9074.50000    7.79150   88.01380  138.59610  102.13960
 9075.00000    7.79690   75.91270  132.12110  101.06310
 9075.50000    7.76360   74.30230  128.18480  100.60410
 9076.00000    7.74980   73.50570  126.85880   90.31640
 9076.50000    7.79930   73.50020  126.07990   77.67320
 9077.00000    7.80390   73.75650  126.07990   73.06850
 9077.50000    7.80390   74.92220  127.01190   88.54530
 9078.00000    7.80390   76.32070  129.08990   97.56520
 9078.50000    7.79990   77.63170  131.75630   98.25230
 9079.00000    7.78990   79.19720  134.71020  102.97720
 9079.50000    7.79710   81.39410  137.25710  113.95140
 9080.00000    7.79790   81.72410  137.97280  125.61900
 9080.50000    7.79860   81.91890  137.92020  134.22170
 9081.00000    7.79930   82.15370  137.68040  129.65620
 9081.50000    7.79690   82.23780  137.27120  118.01040
 9082.00000    7.78200   82.10680  136.92030  109.89590
 9082.50000    7.79420   81.78910  136.92030  103.56920
 9083.00000    7.80350   81.28450  136.92030  105.07200
 9083.50000    7.80120   80.65350  136.49940  108.68980
 9084.00000    7.79880   80.73870  135.05220  114.04640
 9084.50000    7.78390   80.99860  134.82890  113.80930
 9085.00000    7.78980   81.05680  135.20220  108.38910
 9085.50000    7.79570   81.62340  135.61350  104.99910
 9086.00000    7.80160   81.49530  135.70830  103.28820
 9086.50000    7.80390   80.93030  135.74150  103.28820
 9087.00000    7.79390   79.84800  135.27160  110.79440
 9087.50000    7.79930   78.39220  133.90230  116.10860
 9088.00000    7.77950   76.47500  132.20940  119.70670
 9088.50000    7.79170   75.93420  131.21930  110.27550
 9089.00000    7.80390   75.76140  130.84970   91.85260
 9089.50000    7.78390   75.49420  130.48020   75.01550
 9090.00000    7.80130   75.17270  130.07930   67.76720
 9090.50000    7.79910   74.89360  130.07920   68.38290
 9091.00000    7.79890   75.23340  129.97390   77.12010
 9091.50000    7.79920   75.59170  130.02320   95.46060
 9092.00000    7.79940   75.32070  130.26990  100.93780
 9092.50000    7.79970   75.82110  130.51660  103.52610
 9093.00000    7.77390   76.27760  130.76330   93.59800
 9093.50000    7.77390   75.81230  131.00990   85.53870
 9094.00000    7.79020   76.20000  131.25660   81.14900
 9094.50000    7.78100   76.27760  131.50330   79.28490
 9095.00000    7.79700   77.12700  131.74210   81.59570
 9095.50000    7.78420   78.08160  131.97360   87.12200
 9096.00000    7.80110   79.37770  132.60510   93.14330
 9096.50000    7.77890   80.40130  134.61610  101.12750
 9097.00000    7.77050   81.50600  136.44750  108.73550
 9097.50000    7.76380   82.25110  137.54130  113.80110
 9098.00000    7.79060   82.99710  138.19030  118.70340
 9098.50000    7.80090   83.27180  140.44480  120.77170
 9099.00000    7.78390   82.88300  140.56190  120.29880
 9099.50000    7.78080   81.88510  140.36470  120.89650
 9100.00000    7.77770   81.43980  140.26010  128.35230
 9100.50000    7.79850   81.20160  139.96530  137.79090
 9101.00000    7.79750   79.97990  139.96220  130.03690
 9101.50000    7.79690   80.61750  139.93950  108.23090
 9102.00000    7.78040   80.33310  139.85910   95.05950
 9102.50000    7.78880   79.97700  139.69220  101.32720
 9103.00000    7.79720   79.49820  139.41340  111.04140
 9103.50000    7.80390   78.91180  139.04280  116.55110
 9104.00000    7.80390   78.51090  138.50460  118.27900
 9104.50000    7.80390   79.24940  139.16530  110.32990
 9105.00000    7.80390   80.16640  139.89040  101.17320
 9105.50000    7.79170   80.37020  140.92350   92.81840
 9106.00000    7.77950   79.92610  141.13020   93.53220
 9106.50000    7.79750   79.62250  139.20740  104.48050
 9107.00000    7.80070   79.25470  137.60150  115.33810
 9107.50000    7.80270   78.58880  136.01350  118.51700
 9108.00000    7.77240   78.51580  133.59190  115.42360
 9108.50000    7.76500   77.59550  130.71070  102.37590
 9109.00000    7.76790   73.76510  129.51090   87.34270
 9109.50000    7.77080   73.40440  128.14270   73.81280
 9110.00000    7.78400   72.85220  127.02550   56.17840
 9110.50000    7.78470   72.89310  126.59610   48.55970
 9111.00000    7.77640   73.62000  126.78690   70.83540
 9111.50000    7.76550   74.80180  127.49160   83.72640
 9112.00000    7.75460   75.88170  129.25840   99.93480
 9112.50000    7.80050   77.32640  131.25810  104.55440
 9113.00000    7.77120   78.31330  133.25780  110.62570
 9113.50000    7.79910   78.40260  134.59630  115.05280
 9114.00000    7.82170   77.22110  135.23250  113.06920
 9114.50000    7.83130   76.22680  135.57450  111.03610
 9115.00000    7.82940   75.10280  134.56770   92.60260
 9115.50000    7.77750   76.74020  134.68850   79.07540
 9116.00000    7.78050   76.70970  135.50430   68.72770
 9116.50000    7.78920   76.97430  138.29370   68.97980
 9117.00000    7.79790   78.17360  139.60860   79.43590
 9117.50000    7.81400   80.03760  141.31460   91.26440
 9118.00000    7.81750   80.90090  142.99690   97.84910
 9118.50000    7.78870   82.20770  144.60340  101.72710
 9119.00000    7.80970   82.59580  145.23480  108.10210
 9119.50000    7.82640   82.59810  145.12970  114.51910
 9120.00000    7.80950   81.85210  144.11210  114.29540
 9120.50000    7.78820   80.59910  143.26290  109.75250
 9121.00000    7.78790   80.29090  141.71120  102.97720
