~Version ---------------------------------------------------
VERS.   2.0 : CWLS log ASCII Standard -VERSION 2.0
WRAP.    NO : One line per depth step
DLM . SPACE : Column Data Section Delimiter
~Well ------------------------------------------------------
STRT .F                 4946.0 : START DEPTH
STOP .F                 9646.0 : STOP DEPTH
STEP .F                    0.5 : STEP
NULL .                -9999.25 : NULL VALUE
COMP .                         : COMPANY
WELL .                         : WELL
FLD  .                         : FIELD
LOC  .                         : LOCATION
PROV .                         : PROVINCE
CNTY .                         : COUNTY
STAT .                         : STATE
CTRY .                         : COUNTRY
SRVC .                         : SERVICE COMPANY
DATE .                         : DATE
UWI  .                         : UNIQUE WELL ID
API  .                         : API NUMBER
SLAT .WGS84 2.5212332160271984 : SURFACE LATITUDE
SLON .WGS84  6.204841904963004 : SURFACE LONGITUDE
DATUM.F                2577.34 : DEPTH DATUM ELEV
~Curve Information -----------------------------------------
DEPT.F     : 
GRS .GAPI  : GAMMA RAY FROM SONIC
DTSM.US/F  : DELTA-T SHEAR
DTCO.US/F  : DELTA-T COMPRESSIONAL
~Params ----------------------------------------------------
~Other -----------------------------------------------------
~ASCII -----------------------------------------------------
# ...
 9574.00000   43.21050  206.39680   93.00110
 9574.50000   43.71070  206.06180   92.04620
 9575.00000   42.16270  205.06050   91.55850
 9575.50000   40.71200  204.06030   91.26350
 9576.00000   40.17760  203.09930   89.38920
 9576.50000   39.69470  203.09930   87.42360
 9577.00000   39.26420  203.50190   85.98800
 9577.50000   38.80640  203.83110   85.36760
 9578.00000   38.59550  203.59520   86.21050
 9578.50000   38.79230  203.25430   87.80190
 9579.00000   38.97340  203.75100   86.59220
 9579.50000   38.68370  204.28910   84.87180
 9580.00000   38.69260  204.63260   85.43960
 9580.50000   38.72650  204.41860   86.47410
 9581.00000   39.13410  202.77440   87.18140
 9581.50000   39.50730  201.13030   87.63290
 9582.00000   40.04850  199.68600   87.86320
 9582.50000   41.59290  199.38000   87.92690
 9583.00000   43.13870  199.69810   87.10200
 9583.50000   43.92370  203.89650   85.50130
 9584.00000   43.16100  208.09500   83.94650
 9584.50000   42.18120  212.14970   85.64860
 9585.00000   40.71120  213.48230   90.53680
 9585.50000   39.29840  212.35770   93.18850
 9586.00000   40.41500  208.19390   93.67040
 9586.50000   41.70980  204.29430   92.51830
 9587.00000   43.00460  203.87410   90.51280
 9587.50000   43.37030  204.74710   87.84760
 9588.00000   43.43090  205.96480   85.18250
 9588.50000   42.96060  205.43570   82.50110
 9589.00000   41.05060  204.54890   80.19120
 9589.50000   -9999.25  203.69750   80.19350
 9590.00000   -9999.25  203.42940   80.76330
 9590.50000   -9999.25  203.59470   81.59260
 9591.00000   -9999.25  204.24760   83.07230
 9591.50000   -9999.25  205.59410   84.52410
 9592.00000   -9999.25  208.91420   85.95280
 9592.50000   -9999.25  210.75400   87.11470
 9593.00000   -9999.25  208.58110   87.68950
 9593.50000   -9999.25  204.83500   87.81130
 9594.00000   -9999.25  204.28660   88.19240
 9594.50000   -9999.25  203.99320   89.96090
 9595.00000   -9999.25  204.38750   90.03130
 9595.50000   -9999.25  205.91290   90.26930
 9596.00000   -9999.25  207.61860   90.26930
 9596.50000   -9999.25  207.66190   90.54260
 9597.00000   -9999.25  203.73410   90.99670
 9597.50000   -9999.25  199.42210   91.45090
 9598.00000   -9999.25  198.37410   92.80210
 9598.50000   -9999.25  200.47190   93.86410
 9599.00000   -9999.25  203.06330   94.96000
 9599.50000   -9999.25  199.58600   95.39520
 9600.00000   -9999.25  196.28060   95.30740
 9600.50000   -9999.25  196.84210   95.05770
 9601.00000   -9999.25  197.60250   95.30480
 9601.50000   -9999.25  197.67530   95.73560
 9602.00000   -9999.25  196.20510   95.57440
 9602.50000   -9999.25  194.79900   94.45400
 9603.00000   -9999.25  193.62140   93.65170
 9603.50000   -9999.25  193.20930   93.14690
 9604.00000   -9999.25  196.38430   92.90880
 9604.50000   -9999.25  199.47250   92.71870
 9605.00000   -9999.25  199.26880   91.60290
 9605.50000   -9999.25  198.90990   90.46290
 9606.00000   -9999.25  201.09240   89.46230
 9606.50000   -9999.25  205.42870   89.30440
 9607.00000   -9999.25  207.08410   90.75890
 9607.50000   -9999.25  206.98180   93.05040
 9608.00000   -9999.25  207.08660   96.40870
 9608.50000   -9999.25  205.96880   98.71420
 9609.00000   -9999.25  199.47850   98.59700
 9609.50000   -9999.25  191.94610   99.43260
 9610.00000   -9999.25  191.77090  100.92850
 9610.50000   -9999.25  192.73070  102.14390
 9611.00000   -9999.25  193.93090  101.11910
 9611.50000   -9999.25  194.77820   97.04640
 9612.00000   -9999.25  195.38190   94.78600
 9612.50000   -9999.25  195.47790   95.60870
 9613.00000   -9999.25  195.57300   96.85910
 9613.50000   -9999.25  195.59530   96.47790
 9614.00000   -9999.25  195.58470   94.80820
 9614.50000   -9999.25  195.49940   92.65570
 9615.00000   -9999.25  195.41400   90.50310
 9615.50000   -9999.25  195.32870   89.16130
 9616.00000   -9999.25  195.24330   89.65570
 9616.50000   -9999.25  195.15800   90.03840
 9617.00000   -9999.25  195.07260   89.83420
 9617.50000   -9999.25  194.98720   89.07700
 9618.00000   -9999.25  195.27390   88.88140
 9618.50000   -9999.25  195.66470   88.89800
 9619.00000   -9999.25  195.78590   91.68600
 9619.50000   -9999.25  195.68230   96.91620
 9620.00000   -9999.25  195.61530  104.30250
 9620.50000   -9999.25  195.62770  110.84910
 9621.00000   -9999.25  195.73740  111.38430
 9621.50000   -9999.25  195.82940  110.89240
 9622.00000   -9999.25  195.98450  109.26340
 9622.50000   -9999.25  196.15970  108.62090
 9623.00000   -9999.25  196.33490  108.62090
 9623.50000   -9999.25  196.51000  108.62090
 9624.00000   -9999.25  196.57480  108.62090
 9624.50000   -9999.25  196.58690  108.62090
 9625.00000   -9999.25  196.55270  108.62090
 9625.50000   -9999.25  196.44590  108.65390
 9626.00000   -9999.25  196.42540  108.73580
 9626.50000   -9999.25  196.35920  109.05080
 9627.00000   -9999.25  196.28440  109.58130
 9627.50000   -9999.25  196.20970  110.11180
 9628.00000   -9999.25  196.13490  110.62950
 9628.50000   -9999.25  195.88870  110.75080
 9629.00000   -9999.25  170.78480  110.84140
 9629.50000   -9999.25  132.50460  110.92220
 9630.00000   -9999.25  112.49550  110.93420
 9630.50000   -9999.25  111.25190  110.93420
 9631.00000   -9999.25  111.20730  110.73910
 9631.50000   -9999.25  111.16280  110.42210
 9632.00000   -9999.25  111.11820  109.92640
 9632.50000   -9999.25  111.07370  109.74860
 9633.00000   -9999.25  111.02910  109.70570
 9633.50000   -9999.25  110.98460  109.74140
 9634.00000   -9999.25  110.94000  109.77710
 9634.50000   -9999.25  110.89540  109.81270
 9635.00000   -9999.25  110.85090  109.84840
 9635.50000   -9999.25  110.80640  109.85470
 9636.00000   -9999.25  110.76180  109.85470
 9636.50000   -9999.25  110.71720  109.89180
 9637.00000   -9999.25  110.66600  109.97430
 9637.50000   -9999.25  110.60990  110.33540
 9638.00000   -9999.25  110.55380  110.90700
 9638.50000   -9999.25  110.49770  111.48750
 9639.00000   -9999.25  110.44150  112.06810
 9639.50000   -9999.25  110.38540  112.30360
 9640.00000   -9999.25  110.32930  111.82850
 9640.50000   -9999.25  110.27320  111.13130
 9641.00000   -9999.25  110.21710  110.43410
 9641.50000   -9999.25  110.16100  110.24930
 9642.00000   -9999.25  110.10490  110.44500
 9642.50000   -9999.25  110.04880  110.82380
 9643.00000   -9999.25  109.99270  111.54670
 9643.50000   -9999.25  109.93650  111.24600
 9644.00000   -9999.25  109.88040  110.86200
 9644.50000   -9999.25  109.82430  110.68040
 9645.00000   -9999.25  109.76820  110.61340
 9645.50000   -9999.25  109.71210  110.54630
 9646.00000   -9999.25  109.65600  110.47930
