~Version ---------------------------------------------------
VERS.   2.0 : CWLS log ASCII Standard -VERSION 2.0
WRAP.    NO : One line per depth step
DLM . SPACE : Column Data Section Delimiter
~Well ------------------------------------------------------
STRT .F                 4946.0 : START DEPTH
STOP .F                 9646.0 : STOP DEPTH
STEP .F                    0.5 : STEP
NULL .                -9999.25 : NULL VALUE
COMP .                         : COMPANY
WELL .                         : WELL
FLD  .                         : FIELD
LOC  .                         : LOCATION
PROV .                         : PROVINCE
CNTY .                         : COUNTY
STAT .                         : STATE
CTRY .                         : COUNTRY
SRVC .                         : SERVICE COMPANY
DATE .                         : DATE
UWI  .                         : UNIQUE WELL ID
API  .                         : API NUMBER
SLAT .WGS84 2.5212332160271984 : SURFACE LATITUDE
SLON .WGS84  6.204841904963004 : SURFACE LONGITUDE
DATUM.F                2577.34 : DEPTH DATUM ELEV
~Curve Information -----------------------------------------
DEPT.F     : 
GRS .GAPI  : GAMMA RAY FROM SONIC
DTSM.US/F  : DELTA-T SHEAR
DTCO.US/F  : DELTA-T COMPRESSIONAL
~Params ----------------------------------------------------
~Other -----------------------------------------------------
~ASCII -----------------------------------------------------
# ...
 7082.00000   85.62110  118.84260   69.65220
 7082.50000   83.99790  117.74820   70.22690
 7083.00000   79.65220  117.51400   69.82590
 7083.50000   77.19250  118.00620   69.21120
 7084.00000   78.16220  119.20720   69.20720
 7084.50000   79.35410  120.46260   69.93000
 7085.00000   79.15770  121.71800   70.65280
 7085.50000   78.70900  121.23820   71.30780
 7086.00000   80.27900  118.73950   71.62420
 7086.50000   83.66450  116.24070   71.24550
 7087.00000   86.75300  113.74190   70.01940
 7087.50000   85.94610  111.24310   68.78150
 7088.00000   80.85230  110.30000   68.03440
 7088.50000   74.24920  111.77850   67.71700
 7089.00000   72.52460  115.17750   67.91820
 7089.50000   76.75230  118.57640   68.30810
 7090.00000   82.82510  119.39030   68.94800
 7090.50000   82.45810  119.42710   69.54170
 7091.00000   79.64670  118.65890   69.64040
 7091.50000   75.55050  117.65540   68.25280
 7092.00000   72.98870  115.97300   66.74760
 7092.50000   71.68440  112.60470   65.99950
 7093.00000   67.22190  109.86150   66.19030
 7093.50000   60.13060  110.25420   66.41000
 7094.00000   55.14750  111.93010   66.63050
 7094.50000   56.38330  113.60590   66.95000
 7095.00000   63.48210  115.02080   67.62670
 7095.50000   70.59010  116.42230   68.51010
 7096.00000   74.25720  117.82380   69.33500
 7096.50000   72.94260  119.22530   69.39470
 7097.00000   69.04570  119.80680   69.05100
 7097.50000   67.66560  119.55660   68.84270
 7098.00000   67.11860  118.62560   69.33010
 7098.50000   67.85950  117.69450   69.33260
 7099.00000   68.69890  117.48870   68.81890
 7099.50000   69.80030  118.05710   68.83900
 7100.00000   70.38220  117.64960   69.24990
 7100.50000   68.86910  116.94000   69.64960
 7101.00000   66.59380  116.94000   70.02520
 7101.50000   65.25010  117.57280   70.38740
 7102.00000   67.62350  118.60560   70.83560
 7102.50000   70.20800  119.71850   70.88010
 7103.00000   72.01250  119.80970   70.91530
 7103.50000   75.97670  119.26400   70.92000
 7104.00000   81.67850  116.50530   70.92070
 7104.50000   86.97760  114.64430   70.91220
 7105.00000   85.70460  116.77710   70.83160
 7105.50000   80.17550  118.66190   70.11440
 7106.00000   73.91080  116.38710   69.07650
 7106.50000   68.02010  112.58720   68.08320
 7107.00000   66.11770  110.69080   67.46510
 7107.50000   64.65360  109.05640   67.64010
 7108.00000   63.32810  111.17140   68.52200
 7108.50000   62.73210  114.52200   69.30780
 7109.00000   65.99010  117.44920   69.80080
 7109.50000   69.98710  119.06580   69.90600
 7110.00000   73.98400  119.23240   69.67360
 7110.50000   74.79480  117.83630   69.16800
 7111.00000   74.93070  114.01080   68.64380
 7111.50000   74.69490  111.15460   68.42270
 7112.00000   73.73400  110.63320   68.66460
 7112.50000   72.36350  112.78330   69.08660
 7113.00000   71.01040  117.59790   69.75390
 7113.50000   70.54090  122.95230   70.16770
 7114.00000   74.46200  127.98660   70.80300
 7114.50000   79.04620  126.37920   71.13100
 7115.00000   81.99790  123.02470   71.27540
 7115.50000   80.50860  121.75510   71.44300
 7116.00000   76.47820  124.91590   71.14360
 7116.50000   72.24980  130.65060   70.80920
 7117.00000   70.39170  133.96690   70.66330
 7117.50000   70.97720  132.75340   70.58390
 7118.00000   72.76410  115.86220   70.75890
 7118.50000   75.78110  107.93650   71.30090
 7119.00000   80.75420  110.96300   72.43590
 7119.50000   87.64490  113.68520   72.82970
 7120.00000   92.80440  118.52600   72.92850
 7120.50000   94.80880  123.42480   72.80190
 7121.00000   96.15210  125.60480   72.11090
 7121.50000   96.07250  118.92640   71.51040
 7122.00000   89.89400  109.00460   71.13370
 7122.50000   82.66420   98.66730   70.69130
 7123.00000   77.72160   97.04350   70.44460
 7123.50000   78.01620  104.05090   70.46640
 7124.00000   77.64650  119.79950   70.52560
 7124.50000   75.16930  123.67580   70.57410
 7125.00000   71.97880  123.12880   70.62250
 7125.50000   71.77400  119.25070   70.67090
 7126.00000   76.27800  118.08790   70.71940
 7126.50000   81.42390  120.03950   70.76780
 7127.00000   86.75130  122.93140   70.80290
 7127.50000   87.87560  124.00320   70.82260
 7128.00000   84.54360  124.83200   70.78630
 7128.50000   79.96300  126.05210   70.66870
 7129.00000   77.57920  127.44780   70.60360
 7129.50000   74.79730  127.78040   70.25790
 7130.00000   70.78440  127.84490   69.70740
 7130.50000   64.06570  129.09230   69.35150
 7131.00000   61.08500  130.61250   69.17480
 7131.50000   61.73580  131.74840   69.14710
 7132.00000   62.93170  132.24510   69.66910
 7132.50000   64.17000  131.95350   69.93670
 7133.00000   65.60310  131.20540   69.88020
 7133.50000   68.34090  130.13840   69.76340
 7134.00000   71.26400  128.96550   69.64660
 7134.50000   73.56120  127.58540   69.09560
 7135.00000   75.11150  125.84110   68.64770
 7135.50000   74.17800  123.02220   68.52430
 7136.00000   71.16160  119.44690   68.51060
 7136.50000   65.72450  117.89660   68.52750
 7137.00000   64.16140  118.78240   68.82050
 7137.50000   67.78050  120.02030   69.59000
 7138.00000   73.39840  121.13570   69.98660
 7138.50000   77.90080  122.25110   70.31110
 7139.00000   78.32660  123.59190   70.14810
 7139.50000   78.45260  126.35990   70.11600
 7140.00000   81.09750  129.12790   70.44340
 7140.50000   84.88030  131.35260   71.08990
 7141.00000   89.12320  133.72280   71.75320
 7141.50000   91.18950  135.65180   72.31730
 7142.00000   90.31080  137.82760   73.63680
 7142.50000   86.08190  138.77780   74.41140
 7143.00000   82.54790  138.31010   75.13590
 7143.50000   83.16450  137.58780   75.08260
 7144.00000   85.10430  136.86560   74.60420
 7144.50000   86.03300  135.02510   74.10890
 7145.00000   84.61340  133.72820   72.61070
 7145.50000   84.54250  132.13400   71.81450
 7146.00000   86.86080  130.53990   71.89150
 7146.50000   90.24520  128.94580   72.35900
 7147.00000   90.92280  127.35170   72.19680
 7147.50000   87.24120  125.77420   71.49730
 7148.00000   81.47610  124.75780   70.79790
 7148.50000   75.44780  123.21850   69.93210
 7149.00000   68.54450  121.57420   69.10540
 7149.50000   64.82480  120.28760   68.93720
 7150.00000   64.23030  120.20220   69.47170
 7150.50000   67.47310  120.23610   70.04820
 7151.00000   73.18030  120.16130   70.44460
 7151.50000   79.45800  120.08640   70.44460
 7152.00000   83.98590  120.01150   69.29980
 7152.50000   84.20500  119.94010   68.26320
 7153.00000   76.81950  119.40180   67.37560
 7153.50000   67.22960  119.59610   67.01180
 7154.00000   60.87090  119.91660   66.85150
 7154.50000   61.47150  120.97980   67.10340
 7155.00000   66.37350  122.74960   68.31580
 7155.50000   71.25270  125.86870   70.16210
 7156.00000   76.42710  128.77040   71.87460
 7156.50000   81.77000  129.37540   73.19730
 7157.00000   86.02860  128.22750   73.17160
 7157.50000   89.12580  128.89490   72.99760
 7158.00000   87.46180  137.02500   72.82550
 7158.50000   82.48100  138.39230   72.65340
 7159.00000   76.76670  132.81900   72.58290
 7159.50000   77.54840  133.19200   72.82200
 7160.00000   81.88880  136.83280   73.61840
 7160.50000   89.02940  139.73060   74.73830
 7161.00000   93.18770  140.20130   75.89930
 7161.50000   95.02450  139.26210   76.07200
 7162.00000   93.46500  137.75270   75.55120
 7162.50000   89.92840  136.43980   74.40830
 7163.00000   86.26960  135.31380   73.89630
 7163.50000   83.90290  134.18770   73.52570
 7164.00000   82.91270  133.06160   73.19060
 7164.50000   83.06750  132.01940   72.84060
 7165.00000   84.78350  131.45430   73.29010
 7165.50000   86.34360  130.88930   74.04510
 7166.00000   85.08650  131.05330   73.72060
 7166.50000   82.47820  147.20200   72.52740
 7167.00000   82.64530  183.53010   71.38480
 7167.50000   82.59810  211.29370   70.88980
 7168.00000   79.64350  212.01480   70.97430
 7168.50000   75.71860  193.89960   71.38940
 7169.00000   73.99740  175.19200   71.80200
 7169.50000   79.63290  160.82270   72.64210
 7170.00000   86.28120  171.22810   73.03300
 7170.50000   92.03220  190.79100   73.27470
