~Version ---------------------------------------------------
VERS.   2.0 : CWLS log ASCII Standard -VERSION 2.0
WRAP.    NO : One line per depth step
DLM . SPACE : Column Data Section Delimiter
~Well ------------------------------------------------------
STRT .F                 4946.0 : START DEPTH
STOP .F                 9646.0 : STOP DEPTH
STEP .F                    0.5 : STEP
NULL .                -9999.25 : NULL VALUE
COMP .                         : COMPANY
WELL .                         : WELL
FLD  .                         : FIELD
LOC  .                         : LOCATION
PROV .                         : PROVINCE
CNTY .                         : COUNTY
STAT .                         : STATE
CTRY .                         : COUNTRY
SRVC .                         : SERVICE COMPANY
DATE .                         : DATE
UWI  .                         : UNIQUE WELL ID
API  .                         : API NUMBER
SLAT .WGS84 2.5212332160271984 : SURFACE LATITUDE
SLON .WGS84  6.204841904963004 : SURFACE LONGITUDE
DATUM.F                2577.34 : DEPTH DATUM ELEV
~Curve Information -----------------------------------------
DEPT.F     : 
GRS .GAPI  : GAMMA RAY FROM SONIC
DTSM.US/F  : DELTA-T SHEAR
DTCO.US/F  : DELTA-T COMPRESSIONAL
~Params ----------------------------------------------------
~Other -----------------------------------------------------
~ASCII -----------------------------------------------------
 4946.00000   39.69860   -9999.25   -9999.25
 4946.50000   40.95610   -9999.25   -9999.25
 4947.00000   42.16700   -9999.25   -9999.25
 4947.50000   43.29300   -9999.25   -9999.25
 4948.00000   44.86450   -9999.25   -9999.25
 4948.50000   45.40250   -9999.25   -9999.25
 4949.00000   43.43860   -9999.25   -9999.25
 4949.50000   41.47480   -9999.25   -9999.25
 4950.00000   40.89840   -9999.25   -9999.25
 4950.50000   41.72610   -9999.25   -9999.25
 4951.00000   42.47070   -9999.25   -9999.25
 4951.50000   42.55890   -9999.25   -9999.25
 4952.00000   41.87210   -9999.25   -9999.25
 4952.50000   41.44740   -9999.25   -9999.25
 4953.00000   41.64590   -9999.25   -9999.25
 4953.50000   41.83190   -9999.25   -9999.25
 4954.00000   42.01800   -9999.25   -9999.25
 4954.50000   42.20400   -9999.25   -9999.25
 4955.00000   42.25910   -9999.25   -9999.25
 4955.50000   41.84510   -9999.25   -9999.25
 4956.00000   40.41520   -9999.25   -9999.25
 4956.50000   39.01800   -9999.25   -9999.25
 4957.00000   38.78050   -9999.25   -9999.25
 4957.50000   39.25420   -9999.25   -9999.25
 4958.00000   40.18130   78.03590   -9999.25
 4958.50000   41.17170   76.84330   -9999.25
 4959.00000   40.64180   73.30100   -9999.25
 4959.50000   39.29410   69.91290   -9999.25
 4960.00000   37.80010   72.15220  120.47000
 4960.50000   37.54500   75.42090  120.65690
 4961.00000   38.53040   67.62070  120.88700
 4961.50000   40.15000   64.00400  121.66810
 4962.00000   42.51550   73.33930  122.04320
 4962.50000   44.21950   78.23170  122.72050
 4963.00000   43.35670   69.84530  123.13110
 4963.50000   42.11190   61.41600  123.65720
 4964.00000   41.44310   63.33480  124.22690
 4964.50000   41.52830   69.72610  124.47490
 4965.00000   41.96920   76.11740  124.05270
 4965.50000   42.53600   80.24140  123.66180
 4966.00000   43.10280   95.06280  123.53410
 4966.50000   43.66960  111.33280  123.72530
 4967.00000   44.23630  123.31360  124.11160
 4967.50000   44.80310  123.67770  124.60360
 4968.00000   45.36990  123.03520  124.96310
 4968.50000   46.28920  119.91900  125.26320
 4969.00000   47.29230  116.80290  125.51920
 4969.50000   46.80200  113.68670  125.34250
 4970.00000   45.80270  108.27330  124.79130
 4970.50000   45.13380  104.02420  124.40020
 4971.00000   44.74630  103.67760  124.53170
 4971.50000   44.98320  104.17670  124.97820
 4972.00000   45.69850  104.31800  125.12610
 4972.50000   46.66480  103.43930  125.09040
 4973.00000   47.65440  102.01640  125.02550
 4973.50000   46.06210   97.93690  124.75200
 4974.00000   43.36080   90.88180  124.63070
 4974.50000   40.74020   86.36410  124.49390
 4975.00000   40.35810   90.78730  124.40000
 4975.50000   41.72960   98.54660  124.55500
 4976.00000   43.58510  106.42280  124.70750
 4976.50000   43.62630  106.52660  124.73980
 4977.00000   42.06020  104.02620  124.71170
 4977.50000   40.61260  101.52590  124.91800
 4978.00000   40.65460   94.92510  125.17360
 4978.50000   43.46230   85.77430  125.90280
 4979.00000   46.63940   77.55230  126.79400
 4979.50000   48.25760   74.40120  127.25820
 4980.00000   46.53000   75.53790  127.00610
 4980.50000   43.78990   79.81790  126.58660
 4981.00000   41.12300   85.85390  126.16720
 4981.50000   39.05600   94.49280  125.89360
 4982.00000   40.24550  105.29210  125.74890
 4982.50000   42.59220  106.48920  126.00060
 4983.00000   45.27420  106.65840  126.91710
 4983.50000   44.85490  103.23570  127.71870
 4984.00000   44.59200   94.79530  128.52020
 4984.50000   45.68510   86.37890  129.27780
 4985.00000   47.64970   82.04850  129.93170
 4985.50000   49.71350   84.81260  130.22470
 4986.00000   51.89640   87.63810  130.18470
 4986.50000   52.23890   86.95420  130.14470
 4987.00000   51.71210   81.58040  130.10470
 4987.50000   51.28610   76.38830  129.73360
 4988.00000   51.12910   74.85620  129.04500
 4988.50000   50.74960   78.75030  128.39760
 4989.00000   49.63640   84.82870  127.78440
 4989.50000   48.85510   88.16340  127.57560
 4990.00000   49.21330   86.93320  127.64660
 4990.50000   50.46010   81.40360  128.18350
 4991.00000   51.43120   72.52820  128.87690
 4991.50000   50.69480   60.49770  128.93120
 4992.00000   51.19000   49.34220  128.39930
 4992.50000   51.52750   48.74670  127.95410
 4993.00000   50.00200   51.00620  127.56870
 4993.50000   48.25910   57.38880  127.42210
 4994.00000   48.49010   64.29180  127.37960
 4994.50000   51.12060   59.75570  127.36980
 4995.00000   52.34520   44.02070  127.81890
 4995.50000   50.75480   28.28580  128.25450
 4996.00000   48.65940   32.06550  127.75010
 4996.50000   46.29340   36.55160  126.14990
 4997.00000   44.42040   35.90820  124.32770
 4997.50000   44.49040   35.09190  122.89050
 4998.00000   44.58270   33.20680  121.83380
 4998.50000   42.89330   30.34740  120.81660
 4999.00000   41.20400   17.74620  119.76220
 4999.50000   40.48600    8.20820  118.58230
 5000.00000   42.08960   19.44330  117.50510
 5000.50000   43.19380   35.68350  116.60990
 5001.00000   42.97790   62.87130  116.49150
 5001.50000   40.61020   70.67610  116.08320
 5002.00000   37.98400   67.89920  114.40530
 5002.50000   35.58070   71.60460  112.71520
 5003.00000   35.56600   79.15130  111.78570
 5003.50000   35.82250   80.51070  110.85620
 5004.00000   34.68940   81.49860  109.82690
 5004.50000   33.06820   80.08010  108.80830
 5005.00000   31.81480   70.95090  108.44760
 5005.50000   30.93740   57.80390  108.35440
 5006.00000   29.90740   47.91610  108.43470
 5006.50000   28.87740   47.28140  108.51490
 5007.00000   28.47010   50.84370  108.58660
 5007.50000   29.63780   59.98900  108.50460
 5008.00000   30.88470   72.39080  108.01640
 5008.50000   32.20180   84.47750  107.40800
 5009.00000   33.83360   86.81770  106.83940
 5009.50000   35.46530   84.60890  106.64170
 5010.00000   34.68820   80.77170  106.37920
 5010.50000   32.96550   78.81290  106.11960
 5011.00000   32.04420   79.54340  105.96020
 5011.50000   34.15660   81.00560  105.29060
 5012.00000   36.81770   82.01400  104.96380
 5012.50000   38.66410   83.64670  104.82800
 5013.00000   40.26070   85.27910  104.86750
 5013.50000   40.54420   81.38030  104.90690
 5014.00000   38.79800   75.52540  104.31080
 5014.50000   37.05190   72.86460  103.40660
 5015.00000   35.05100   71.31590  102.60570
 5015.50000   33.80550   70.88800  101.80480
 5016.00000   33.21330   69.57690  101.38060
 5016.50000   32.94950   67.98870  101.70970
 5017.00000   32.93210   67.86030  102.08690
 5017.50000   32.91470   68.27990  102.49670
 5018.00000   33.70260   66.79960  102.88790
 5018.50000   34.17020   64.04110  102.90610
 5019.00000   34.08900   60.47620  102.88510
 5019.50000   33.70410   56.61490  102.83010
 5020.00000   33.46600   53.87650  102.52850
 5020.50000   33.23430   56.32340  102.08160
 5021.00000   33.00250   61.76220  101.75220
 5021.50000   32.77080   65.18920  101.47670
 5022.00000   32.29180   66.32400  101.54710
 5022.50000   32.38640   66.11910  101.79490
 5023.00000   34.54010   66.64190  101.89330
 5023.50000   36.79950   67.22820  101.97190
 5024.00000   37.74830   66.94260  102.27790
 5024.50000   37.24100   66.65690  102.60290
 5025.00000   36.28170   67.82350  103.00460
 5025.50000   35.76010   69.13730  103.37030
 5026.00000   35.12810   69.54430  103.49190
 5026.50000   34.16350   70.41930  103.28260
 5027.00000   33.37550   71.68120  102.85580
 5027.50000   32.70540   74.17150  102.73300
 5028.00000   33.04500   74.58050  102.95030
 5028.50000   35.06560   72.40740  103.41740
 5029.00000   36.44880   71.13980  104.42090
 5029.50000   36.16050   71.22660  105.23830
 5030.00000   35.05990   68.71740  105.52300
 5030.50000   32.92930   67.30670  105.42820
 5031.00000   30.79870   67.80330  105.34050
 5031.50000   28.91830   67.45290  105.35730
 5032.00000   27.44240   66.72810  105.36290
 5032.50000   26.80390   65.80990  104.83920
 5033.00000   26.37160   64.85880  103.72290
 5033.50000   26.61400   58.97700  102.93700
 5034.00000   27.53060   53.09690  102.92830
 5034.50000   28.74430   51.89770  102.92490
