~Version ---------------------------------------------------
VERS.   2.0 : CWLS log ASCII Standard -VERSION 2.0
WRAP.    NO : One line per depth step
DLM . SPACE : Column Data Section Delimiter
~Well ------------------------------------------------------
STRT .F                 4946.0 : START DEPTH
STOP .F                 9646.0 : STOP DEPTH
STEP .F                    0.5 : STEP
NULL .                -9999.25 : NULL VALUE
COMP .                         : COMPANY
WELL .                         : WELL
FLD  .                         : FIELD
LOC  .                         : LOCATION
PROV .                         : PROVINCE
CNTY .                         : COUNTY
STAT .                         : STATE
CTRY .                         : COUNTRY
SRVC .                         : SERVICE COMPANY
DATE .                         : DATE
UWI  .                         : UNIQUE WELL ID
API  .                         : API NUMBER
SLAT .WGS84 2.5212332160271984 : SURFACE LATITUDE
SLON .WGS84  6.204841904963004 : SURFACE LONGITUDE
DATUM.F                2577.34 : DEPTH DATUM ELEV
~Curve Information -----------------------------------------
DEPT.F     : 
GRS .GAPI  : GAMMA RAY FROM SONIC
DTSM.US/F  : DELTA-T SHEAR
DTCO.US/F  : DELTA-T COMPRESSIONAL
~Params ----------------------------------------------------
~Other -----------------------------------------------------
~ASCII -----------------------------------------------------
# ...
 8061.00000   73.28880  129.95000   78.84230
 8061.50000   80.76310  128.60620   80.44010
 8062.00000   87.85810  125.58390   81.83360
 8062.50000   90.12330  125.58580   82.89390
 8063.00000   91.15480  139.48210   83.22930
 8063.50000   92.70970  149.73670   83.18710
 8064.00000   93.84660  159.55910   82.54220
 8064.50000   94.14040  161.26220   80.95620
 8065.00000   92.73100  157.84280   79.86830
 8065.50000   90.11850  147.39380   78.92410
 8066.00000   82.63510  137.00530   76.42800
 8066.50000   75.33040  126.99780   73.64750
 8067.00000   70.30910  117.33840   70.50510
 8067.50000   62.52730  112.07360   67.12450
 8068.00000   53.93720  116.29410   66.23080
 8068.50000   46.82610  116.78350   65.99710
 8069.00000   47.29080  115.07250   68.16110
 8069.50000   52.86040  116.05140   71.75370
 8070.00000   62.72780  122.41600   76.07420
 8070.50000   72.04470  128.48530   78.66960
 8071.00000   79.59600  130.49470   79.63410
 8071.50000   82.70300  132.07440   80.41380
 8072.00000   84.96100  132.95810   81.13990
 8072.50000   87.08790  133.31030   80.81150
 8073.00000   90.60090  134.18840   80.84640
 8073.50000   94.24230  135.90550   81.51220
 8074.00000   94.47370  137.85070   82.38350
 8074.50000   93.35450  139.62510   83.25970
 8075.00000   92.92380  141.34070   84.15750
 8075.50000   93.27260  142.98980   85.04720
 8076.00000   94.09640  144.13830   85.93680
 8076.50000   94.97390  144.96750   86.50050
 8077.00000   96.70820  145.29480   87.02610
 8077.50000  100.58930  144.85950   87.30530
 8078.00000  105.06910  144.31120   87.52400
 8078.50000  108.13660  143.59280   87.29120
 8079.00000  107.19240  142.19230   85.68250
 8079.50000  104.87490  138.04110   83.43860
 8080.00000  101.71630  132.73630   81.22440
 8080.50000   93.43930  128.46480   78.62740
 8081.00000   84.47550  125.90650   77.33820
 8081.50000   76.03550  124.69570   76.54900
 8082.00000   73.02690  122.92720   76.17940
 8082.50000   74.03550  120.43150   75.49100
 8083.00000   74.83730  119.32250   74.07850
 8083.50000   71.62960  119.05470   72.93070
 8084.00000   63.44550  120.21260   72.20000
 8084.50000   57.37250  121.57880   72.63950
 8085.00000   58.79670  123.97100   74.87300
 8085.50000   64.99150  125.76540   77.10640
 8086.00000   74.82090  125.85380   78.54880
 8086.50000   83.76590  126.94160   78.85810
 8087.00000   88.44190  127.79690   77.72880
 8087.50000   86.42320  128.35080   76.19820
 8088.00000   79.87620  128.12090   74.78760
 8088.50000   71.82740  127.41880   74.35900
 8089.00000   70.03860  126.67360   75.24130
 8089.50000   73.56410  125.67120   76.11220
 8090.00000   77.88590  123.77480   76.06570
 8090.50000   80.37210  122.06180   73.69550
 8091.00000   75.70910  120.27960   71.14750
 8091.50000   65.48530  118.08260   69.64090
 8092.00000   54.77870  120.46300   68.77460
 8092.50000   51.50510  120.70050   68.91460
 8093.00000   57.38980  121.27850   70.46640
 8093.50000   67.37080  121.60120   74.01400
 8094.00000   74.51820  123.45480   75.42550
 8094.50000   79.61020  125.58640   76.37780
 8095.00000   83.85640  125.81830   76.36800
 8095.50000   84.14480  124.67270   76.38190
 8096.00000   80.86360  124.12780   76.37740
 8096.50000   77.83890  124.12780   76.19410
 8097.00000   75.72320  123.56830   75.38560
 8097.50000   73.47880  122.67500   74.48130
 8098.00000   70.22110  122.96130   74.27400
 8098.50000   66.84740  123.29200   74.43310
 8099.00000   63.47360  122.35220   74.65790
 8099.50000   60.35550  120.46640   75.13960
 8100.00000   60.90430  118.87700   74.78100
 8100.50000   64.55940  119.04110   73.66730
 8101.00000   67.57060  118.67620   71.94080
 8101.50000   66.70740  117.46250   70.71740
 8102.00000   64.19580  116.24880   69.89810
 8102.50000   60.39310  115.44430   69.07870
 8103.00000   59.70010  114.66850   68.71810
 8103.50000   58.26970  113.88720   69.21110
 8104.00000   54.32730  113.09310   69.95890
 8104.50000   49.58390  112.29890   69.85580
 8105.00000   47.99900  111.50480   69.24430
 8105.50000   50.03280  110.75990   67.93710
 8106.00000   52.13590  111.79400   66.94160
 8106.50000   50.90450  113.04040   66.58230
 8107.00000   48.59400  113.00250   66.71360
 8107.50000   46.97440  112.68390   66.80000
 8108.00000   49.69110  112.80940   66.96810
 8108.50000   55.68040  113.29590   67.42800
 8109.00000   57.58810  112.42850   68.01280
 8109.50000   51.88090  112.15240   68.73890
 8110.00000   46.98890  115.37460   69.65050
 8110.50000   47.59450  117.65970   70.78690
 8111.00000   52.45390  119.27450   73.29620
 8111.50000   57.51790  119.76750   74.80650
 8112.00000   61.80160  121.16680   75.15120
 8112.50000   63.80560  122.97870   75.12980
 8113.00000   63.68250  124.76200   75.45660
 8113.50000   63.23380  126.06380   76.10350
 8114.00000   65.58680  127.29910   77.05350
 8114.50000   71.73110  130.19490   78.76750
 8115.00000   77.05200  133.19700   80.48670
 8115.50000   82.45150  136.11170   82.02170
 8116.00000   88.05040  136.47400   82.98210
 8116.50000   93.41920  136.26480   83.23390
 8117.00000   94.14110  134.83690   81.79900
 8117.50000   89.97060  130.89310   79.43690
 8118.00000   81.64960  127.38030   76.32100
 8118.50000   71.37910  123.86750   73.49320
 8119.00000   60.72410  121.94410   72.35530
 8119.50000   59.37500  122.29730   72.53700
 8120.00000   64.75630  125.95260   74.01220
 8120.50000   72.99920  127.66320   75.88300
 8121.00000   78.82740  128.83210   77.72130
 8121.50000   77.86440  129.18100   77.64480
 8122.00000   74.07630  128.92980   76.95540
 8122.50000   68.39490  127.93610   75.43600
 8123.00000   62.32410  126.11270   74.88470
 8123.50000   59.05320  124.33520   74.76170
 8124.00000   60.88100  122.82900   74.47680
 8124.50000   65.07930  122.77720   73.95080
 8125.00000   67.65780  123.35270   73.72960
 8125.50000   66.60010  124.31180   73.78440
 8126.00000   64.59150  125.27080   73.96120
 8126.50000   68.24770  126.09680   74.81210
 8127.00000   73.35850  125.93440   75.47200
 8127.50000   78.15570  125.03870   76.12580
 8128.00000   78.31980  123.59300   76.17760
 8128.50000   77.10170  121.80270   74.14610
 8129.00000   75.88370  120.05020   71.93950
 8129.50000   73.96050  118.34190   70.28200
 8130.00000   68.08410  117.72840   69.52590
 8130.50000   59.54580  118.51310   72.52660
 8131.00000   61.47420  135.04500   77.01180
 8131.50000   65.81660  152.49580   88.91370
 8132.00000   72.29930  169.97490   98.86300
 8132.50000   76.25490  177.26890  103.02070
 8133.00000   79.36260  180.11500  103.69710
 8133.50000   81.14310  177.84750  103.04230
 8134.00000   82.92070  171.71260  101.54140
 8134.50000   83.74880  172.06900  100.27640
 8135.00000   82.08680  173.03760  102.50490
 8135.50000   72.24340  173.18940  105.57080
 8136.00000   58.41140  173.82210  108.69980
 8136.50000   44.05640  174.91100  111.36860
 8137.00000   31.83990  175.09980  110.01400
 8137.50000   28.77640  173.20600  104.53960
 8138.00000   29.61330  171.19200   99.06520
 8138.50000   30.94920  169.72570   94.03520
 8139.00000   31.79350  169.43690   92.21830
 8139.50000   30.46510  169.71510   95.00070
 8140.00000   28.02740  175.68050   98.04810
 8140.50000   26.28530  178.13630   97.58850
 8141.00000   23.90830  173.18520   96.94200
 8141.50000   23.13410  169.43620   96.94200
 8142.00000   22.97070  170.46240   96.65030
 8142.50000   23.31390  172.37360   95.79680
 8143.00000   24.01640  174.28480   95.11570
 8143.50000   27.57700  174.99280   94.17950
 8144.00000   35.17060  153.77880   91.36520
 8144.50000   41.82000  133.09180   87.81980
 8145.00000   48.85210  123.51020   84.04830
 8145.50000   57.90210  128.10280   80.16610
 8146.00000   65.99330  133.05420   78.96530
 8146.50000   73.32770  134.06800   78.06480
 8147.00000   79.40240  135.08140   77.65990
 8147.50000   82.00810  136.09460   77.23090
 8148.00000   80.53570  137.10770   76.98400
 8148.50000   75.97040  137.97110   76.95610
 8149.00000   72.19210  138.09780   76.81990
 8149.50000   73.06950  136.76350   77.56630
