~Version ---------------------------------------------------
VERS.   2.0 : CWLS log ASCII Standard -VERSION 2.0
WRAP.    NO : One line per depth step
DLM . SPACE : Column Data Section Delimiter
~Well ------------------------------------------------------
STRT .F                 4946.0 : START DEPTH
STOP .F                 9646.0 : STOP DEPTH
STEP .F                    0.5 : STEP
NULL .                -9999.25 : NULL VALUE
COMP .                         : COMPANY
WELL .                         : WELL
FLD  .                         : FIELD
LOC  .                         : LOCATION
PROV .                         : PROVINCE
CNTY .                         : COUNTY
STAT .                         : STATE
CTRY .                         : COUNTRY
SRVC .                         : SERVICE COMPANY
DATE .                         : DATE
UWI  .                         : UNIQUE WELL ID
API  .                         : API NUMBER
SLAT .WGS84 2.5212332160271984 : SURFACE LATITUDE
SLON .WGS84  6.204841904963004 : SURFACE LONGITUDE
DATUM.F                2577.34 : DEPTH DATUM ELEV
~Curve Information -----------------------------------------
DEPT.F     : 
GRS .GAPI  : GAMMA RAY FROM SONIC
DTSM.US/F  : DELTA-T SHEAR
DTCO.US/F  : DELTA-T COMPRESSIONAL
~Params ----------------------------------------------------
~Other -----------------------------------------------------
~ASCII -----------------------------------------------------
# ...
 8951.00000  107.82000  161.29950   93.10890
 8951.50000  108.57510  159.32360   93.63340
 8952.00000  114.79000  164.69500   93.95160
 8952.50000  121.50120  167.62860   94.90110
 8953.00000  129.28410  163.44110   95.46780
 8953.50000  127.80190  160.12810   95.46680
 8954.00000  122.98170  159.91950   94.53440
 8954.50000  117.82760  161.48220   92.76700
 8955.00000  111.89950  162.15920   90.56150
 8955.50000  105.58920  159.96050   88.35610
 8956.00000   99.08890  166.71640   85.97830
 8956.50000   92.58850  186.39920   83.43260
 8957.00000   87.75020  194.15320   81.83010
 8957.50000   84.55280  184.75130   81.63330
 8958.00000   83.73140  170.14260   82.20030
 8958.50000   84.61220  159.48470   83.29760
 8959.00000   85.98740  158.62110   84.80000
 8959.50000   87.64510  159.22250   86.08170
 8960.00000   89.15870  163.78360   86.43590
 8960.50000   88.87050  164.57420   85.52220
 8961.00000   88.18060  164.58330   84.61910
 8961.50000   85.74630  168.90610   84.02020
 8962.00000   84.00400  176.56190   83.57950
 8962.50000   83.16430  180.97100   83.22580
 8963.00000   83.61370  179.99240   83.02380
 8963.50000   83.75920  180.82530   83.11540
 8964.00000   83.61050  183.28730   83.13200
 8964.50000   83.48910  181.66680   83.05290
 8965.00000   85.20600  180.97630   82.97950
 8965.50000   88.03440  181.58260   83.12550
 8966.00000   92.32930  177.75550   83.43860
 8966.50000   95.35060  174.55880   83.44420
 8967.00000   95.25740  174.98020   83.44830
 8967.50000   93.89710  175.52860   83.07730
 8968.00000   92.43630  174.52040   82.71140
 8968.50000   91.35210  167.39190   82.64550
 8969.00000   90.63730  160.95070   82.67200
 8969.50000   90.62530  159.93520   82.90940
 8970.00000   91.44630  158.30900   83.37630
 8970.50000   92.42020  156.38580   83.97740
 8971.00000   93.93790  154.00810   84.71160
 8971.50000   96.15760  150.36280   85.76220
 8972.00000   98.00530  149.13380   86.63770
 8972.50000   99.55530  149.56620   87.47220
 8973.00000  101.10540  151.04210   87.89000
 8973.50000  100.35600  152.99390   88.36790
 8974.00000   97.86810  155.10940   89.49920
 8974.50000   95.38020  157.22480   90.76750
 8975.00000   96.10430  159.22270   91.69650
 8975.50000   98.70370  160.79140   92.62360
 8976.00000  102.21150  161.18360   93.35010
 8976.50000  105.54440  159.65380   93.91250
 8977.00000  108.87740  158.31240   93.97060
 8977.50000  110.89640  157.23330   93.63420
 8978.00000  112.81600  156.69630   93.17820
 8978.50000  114.73560  156.15930   92.56250
 8979.00000  115.61290  155.94760   92.12900
 8979.50000  112.91650  156.18380   91.28780
 8980.00000  108.60330  156.81600   90.18740
 8980.50000  102.37920  157.08020   89.21730
 8981.00000   98.59460  156.24340   88.24770
 8981.50000   95.90370  153.59970   86.77120
 8982.00000   94.81790  150.73480   85.02460
 8982.50000   95.83890  148.17860   83.23140
 8983.00000   96.21540  146.96870   81.73650
 8983.50000   94.01760  144.97480   80.66310
 8984.00000   88.43000  143.08910   80.25720
 8984.50000   83.18890  141.36290   80.69130
 8985.00000   82.01270  141.12560   81.12540
 8985.50000   83.60120  141.44720   81.55950
 8986.00000   85.85500  142.19220   82.47100
 8986.50000   87.59150  142.49270   83.08480
 8987.00000   88.82540  142.59100   83.34280
 8987.50000   90.11790  142.40590   83.60230
 8988.00000   90.30210  141.35410   83.65400
 8988.50000   89.85990  139.81710   83.05670
 8989.00000   89.68400  138.30330   82.15990
 8989.50000   90.06800  135.31190   81.51770
 8990.00000   90.79380  134.42390   81.56250
 8990.50000   91.51480  133.22280   81.94250
 8991.00000   93.03020  133.97910   82.28140
 8991.50000   96.18480  135.44580   82.64280
 8992.00000   98.26310  136.48060   83.00530
 8992.50000   97.40120  137.28040   83.36780
 8993.00000   94.70370  140.66610   83.48390
 8993.50000   91.83930  158.57000   83.48390
 8994.00000   90.38030  181.95050   83.40840
 8994.50000   90.96580  201.46900   83.16590
 8995.00000   92.34470  202.43920   83.01170
 8995.50000   94.31760  199.63650   83.58450
 8996.00000   96.57200  198.85820   84.54110
 8996.50000   99.78690  199.94960   85.46340
 8997.00000  102.85510  200.43520   85.89160
 8997.50000  104.07320  198.33630   86.54900
 8998.00000  103.64800  196.06510   86.87660
 8998.50000  102.47310  193.67250   86.93110
 8999.00000  100.56440  192.71090   87.59920
 8999.50000   98.32240  192.43200   88.23320
 9000.00000   97.82170  192.66400   89.35650
 9000.50000  101.37900  195.03740   90.51370
 9001.00000  105.51690  196.99600   91.72910
 9001.50000  110.60770  199.71810   92.10050
 9002.00000  111.31940  201.97420   92.19840
 9002.50000  110.48390  201.63670   92.02480
 9003.00000  107.74290  200.45220   91.47380
 9003.50000  103.48800  199.75620   90.66630
 9004.00000   98.26420  202.29000   90.20480
 9004.50000   95.37630  204.82920   90.14600
 9005.00000   93.98130  205.10240   90.66170
 9005.50000   96.15410  202.55890   91.33680
 9006.00000   99.50410  199.96990   91.25510
 9006.50000  100.91100  197.38090   90.53360
 9007.00000   99.47930  195.25440   89.37730
 9007.50000   95.81160  194.61150   88.13760
 9008.00000   93.32630  195.59990   87.29570
 9008.50000   94.37890  199.24870   87.39720
 9009.00000   97.32280  200.08400   88.19170
 9009.50000  100.30860  199.90940   89.39160
 9010.00000  102.43860  198.99510   90.60420
 9010.50000  104.32030  197.86380   91.14330
 9011.00000  106.14880  196.94840   90.73150
 9011.50000  106.91830  197.25310   89.96890
 9012.00000  103.35330  197.53030   89.20630
 9012.50000   98.96650  197.39680   88.44370
 9013.00000   95.89950  195.82660   87.70510
 9013.50000   95.56100  195.43500   87.41450
 9014.00000   95.00800  195.39920   87.23430
 9014.50000   94.16370  194.99130   86.99030
 9015.00000   94.10620  195.81900   86.96220
 9015.50000   95.26920  199.67160   86.70990
 9016.00000   96.57830  202.42710   86.15160
 9016.50000   97.47260  201.20950   84.72530
 9017.00000   97.88880  202.65970   83.66890
 9017.50000   98.06760  205.80530   84.00610
 9018.00000   98.22830  205.15430   83.70670
 9018.50000   98.38900  199.64130   83.14930
 9019.00000   97.18520  194.75550   82.89380
 9019.50000   94.92010  193.61940   83.45980
 9020.00000   91.98210  192.72930   83.94650
 9020.50000   92.82280  190.54310   83.41300
 9021.00000   98.08770  183.15690   83.03890
 9021.50000  103.35260  158.95210   83.50980
 9022.00000  104.40680  147.33900   84.09980
 9022.50000  101.71840  144.75470   84.70750
 9023.00000   99.10650  147.50020   85.38700
 9023.50000  100.82620  150.07960   86.75030
 9024.00000  104.06390  148.85190   87.66900
 9024.50000  110.05790  150.51510   87.02550
 9025.00000  110.62930  151.71300   85.65530
 9025.50000  105.60600  147.62460   84.00500
 9026.00000  100.29430  143.31750   82.94790
 9026.50000   95.07590  143.68190   82.23570
 9027.00000   93.60220  147.21650   82.94110
 9027.50000   94.91940  150.22110   84.64980
 9028.00000   96.46030  151.86860   86.14500
 9028.50000   99.27400  152.06690   87.48990
 9029.00000  104.06120  150.50810   88.81160
 9029.50000  109.08420  148.22200   89.57850
 9030.00000  110.85040  145.93600   87.98790
 9030.50000  106.73470  143.60730   85.60680
 9031.00000  101.62050  141.17310   83.15480
 9031.50000   95.93020  138.77480   81.00030
 9032.00000   91.38730  136.22270   79.45530
 9032.50000   87.52760  135.16950   78.41970
 9033.00000   85.17960  135.10170   78.94330
 9033.50000   85.71260  135.43090   80.35500
 9034.00000   90.59560  136.96020   82.45690
 9034.50000   95.25620  139.12820   84.55880
 9035.00000  101.82060  142.55340   86.63120
 9035.50000  105.96310  146.98980   88.09980
 9036.00000  110.15030  153.49080   88.48000
 9036.50000  113.53200  154.24640   88.07250
 9037.00000  112.52410  148.86390   87.64630
 9037.50000  107.82720  144.62430   87.08960
 9038.00000  105.06160  145.37050   87.12970
 9038.50000  106.66220  144.78490   87.00040
 9039.00000  109.42860  143.11040   86.45570
 9039.50000  105.65780  143.52350   85.51850
