~Version ---------------------------------------------------
VERS.   2.0 : CWLS log ASCII Standard -VERSION 2.0
WRAP.    NO : One line per depth step
DLM . SPACE : Column Data Section Delimiter
~Well ------------------------------------------------------
STRT .F                 4946.0 : START DEPTH
STOP .F                 9646.0 : STOP DEPTH
STEP .F                    0.5 : STEP
NULL .                -9999.25 : NULL VALUE
COMP .                         : COMPANY
WELL .                         : WELL
FLD  .                         : FIELD
LOC  .                         : LOCATION
PROV .                         : PROVINCE
CNTY .                         : COUNTY
STAT .                         : STATE
CTRY .                         : COUNTRY
SRVC .                         : SERVICE COMPANY
DATE .                         : DATE
UWI  .                         : UNIQUE WELL ID
API  .                         : API NUMBER
SLAT .WGS84 2.5212332160271984 : SURFACE LATITUDE
SLON .WGS84  6.204841904963004 : SURFACE LONGITUDE
DATUM.F                2577.34 : DEPTH DATUM ELEV
~Curve Information -----------------------------------------
DEPT.F     : 
GRS .GAPI  : GAMMA RAY FROM SONIC
DTSM.US/F  : DELTA-T SHEAR
DTCO.US/F  : DELTA-T COMPRESSIONAL
~Params ----------------------------------------------------
~Other -----------------------------------------------------
~ASCII -----------------------------------------------------
# ...
 6815.00000   99.50950  174.69300   84.19320
 6815.50000   99.03550  196.87660   87.19110
 6816.00000   99.82770  219.06030   92.22940
 6816.50000  100.91210  227.66230   92.63930
 6817.00000   99.75270  229.27280   92.29880
 6817.50000   96.32600  234.45340   91.39620
 6818.00000   93.74820  244.66260   91.24330
 6818.50000   94.52070  247.54510   91.56820
 6819.00000   96.79890  231.95700   92.51660
 6819.50000   96.19700  186.12950   93.39010
 6820.00000   89.32480  156.97000   93.16000
 6820.50000   83.55130  163.81630   93.18450
 6821.00000   81.68020  181.41430   93.99760
 6821.50000   86.20890  200.02270   92.50700
 6822.00000   92.56420  209.63960   90.64080
 6822.50000   94.92650  213.56760   90.49410
 6823.00000   87.60010  216.17230   90.77670
 6823.50000   74.50040  215.51580   91.09050
 6824.00000   61.40560  209.98220   91.68040
 6824.50000   57.58200  209.44480   92.56460
 6825.00000   60.32900  211.96990   92.56470
 6825.50000   63.99580  215.20660   91.84890
 6826.00000   67.12570  218.08300   91.11530
 6826.50000   70.57050  217.64000   90.10950
 6827.00000   76.17420  215.35150   87.51120
 6827.50000   80.67880  204.55020   80.96720
 6828.00000   81.59710  192.12450   77.34490
 6828.50000   81.42770  176.16460   82.98560
 6829.00000   81.78160  173.75550   88.63750
 6829.50000   82.43840  173.04660   89.42490
 6830.00000   80.50660  159.04910   89.65040
 6830.50000   77.73700  143.93360   89.87600
 6831.00000   75.11830  131.97740   90.10160
 6831.50000   72.83460  137.61000   90.37690
 6832.00000   70.38420  147.00010   90.73060
 6832.50000   63.85750  143.30320   91.03210
 6833.00000   57.77280  134.04280   90.96480
 6833.50000   57.57480  129.95530   90.79120
 6834.00000   58.62600  134.71890   90.47320
 6834.50000   60.32640  142.80830   90.20760
 6835.00000   61.82850  150.89780   90.62500
 6835.50000   62.18310  154.20650   91.04040
 6836.00000   64.07900  147.17310   90.92770
 6836.50000   67.11230  137.16060   89.78480
 6837.00000   69.21690  127.14810   88.64060
 6837.50000   70.22580  125.37410   88.71770
 6838.00000   66.24270  150.51190   91.70520
 6838.50000   59.54150  177.18660   96.65560
 6839.00000   51.94550  186.18900  100.63320
 6839.50000   47.68160  179.56980  102.32780
 6840.00000   49.54020  177.05690  102.02780
 6840.50000   52.57800  178.93200  100.37170
 6841.00000   55.82230  181.21470   98.62680
 6841.50000   58.52710  181.64540   95.54050
 6842.00000   60.62180  161.73520   90.73780
 6842.50000   60.62020  135.32520   82.88660
 6843.00000   60.84140  110.18940   74.69680
 6843.50000   63.38270  109.69040   69.06210
 6844.00000   67.28910  110.93070   69.03170
 6844.50000   71.02250  113.01740   69.78340
 6845.00000   74.33000  114.63040   70.62330
 6845.50000   75.91090  115.88140   70.95140
 6846.00000   75.02090  117.13240   71.13030
 6846.50000   71.30090  118.48480   71.36750
 6847.00000   66.34390  120.37690   71.18670
 6847.50000   63.59510  121.14780   70.93940
 6848.00000   65.79660  121.47800   71.10820
 6848.50000   69.03140  121.79670   71.23430
 6849.00000   70.81400  122.04530   70.50620
 6849.50000   69.85550  122.26050   69.32260
 6850.00000   67.17270  119.26340   67.72070
 6850.50000   64.59050  114.69320   66.52080
 6851.00000   63.06130  112.14400   65.78480
 6851.50000   61.39290  112.62140   65.51520
 6852.00000   60.59670  114.31920   65.58500
 6852.50000   62.58220  115.56450   66.00910
 6853.00000   65.31200  115.53480   66.69580
 6853.50000   68.33570  115.03040   68.09790
 6854.00000   70.62170  114.49310   69.75810
 6854.50000   72.89820  113.65530   70.20160
 6855.00000   75.17470  113.48630   69.32370
 6855.50000   75.79300  116.11270   68.43970
 6856.00000   74.01060  118.99070   67.97300
 6856.50000   71.32750  121.57650   68.28780
 6857.00000   70.11160  122.78340   68.63480
 6857.50000   69.45120  124.63230   68.90480
 6858.00000   68.99400  125.71770   69.49790
 6858.50000   69.06590  125.41080   69.87250
 6859.00000   70.68130  121.51120   69.87250
 6859.50000   72.78940  114.46270   69.76830
 6860.00000   75.04360  111.11630   69.65350
 6860.50000   76.19170  111.94510   69.53870
 6861.00000   76.17870  114.02880   69.45400
 6861.50000   75.27810  115.89720   69.86830
 6862.00000   74.13510  117.79720   69.99380
 6862.50000   73.94310  118.47920   69.60960
 6863.00000   75.60070  118.70860   69.09080
 6863.50000   77.29550  118.46120   68.66180
 6864.00000   77.80090  117.26530   69.08130
 6864.50000   75.38410  115.66860   69.56650
 6865.00000   71.29360  114.45220   68.87500
 6865.50000   68.22790  113.48590   67.76110
 6866.00000   68.72160  111.95810   67.38510
 6866.50000   70.15360  110.52640   67.88590
 6867.00000   72.20110  111.17250   68.38680
 6867.50000   73.55900  110.99260   68.91750
 6868.00000   74.73470  110.22650   69.43110
 6868.50000   74.57860  109.38830   69.29140
 6869.00000   74.05440  109.40840   68.69750
 6869.50000   72.95620  110.01910   68.12370
 6870.00000   71.85810  111.23820   68.46840
 6870.50000   70.67680  112.45730   68.85620
 6871.00000   69.10090  114.08630   69.19890
 6871.50000   68.69360  114.90260   69.54150
 6872.00000   69.69080  115.55560   69.88090
 6872.50000   70.93640  115.89280   70.00550
 6873.00000   70.13410  115.72490   69.12170
 6873.50000   67.64200  115.28310   68.30880
 6874.00000   66.23920  115.21380   67.54980
 6874.50000   65.15800  116.81940   66.79080
 6875.00000   64.55220  118.69480   66.53580
 6875.50000   65.26680  118.85770   67.24280
 6876.00000   66.98910  118.99070   68.31220
 6876.50000   68.38930  119.84200   69.25230
 6877.00000   68.77430  122.26840   70.53510
 6877.50000   70.74470  125.18410   70.82810
 6878.00000   73.33620  124.69180   70.78940
 6878.50000   72.29120  118.39000   70.33190
 6879.00000   68.33100  112.62960   69.68200
 6879.50000   64.92560  108.72100   69.03200
 6880.00000   64.72110  106.82040   68.38200
 6880.50000   65.45230  106.82040   67.73200
 6881.00000   66.07900  107.22790   67.25930
 6881.50000   66.52040  111.13800   66.84020
 6882.00000   65.97170  120.87040   66.21800
 6882.50000   65.03930  130.60280   65.63890
 6883.00000   62.58090  140.33520   65.90480
 6883.50000   62.04670  146.71010   66.36060
 6884.00000   62.20630  142.83330   66.81640
 6884.50000   62.18640  151.29730   67.26620
 6885.00000   61.01140  158.07240   67.65370
 6885.50000   59.66580  157.38960   68.51900
 6886.00000   59.33760  147.63950   69.98760
 6886.50000   60.65570  135.46380   70.98600
 6887.00000   63.55110  123.28800   71.51190
 6887.50000   68.54240  118.70030   71.89830
 6888.00000   74.75990  118.38780   72.07140
 6888.50000   81.85740  118.73890   72.18930
 6889.00000   89.70130  119.22460   72.29350
 6889.50000   97.43550  119.71040   71.73560
 6890.00000   99.23930  120.19620   70.94340
 6890.50000   93.96820  120.68190   70.31700
 6891.00000   88.27870  120.70690   70.21580
 6891.50000   82.86280  119.99410   70.29440
 6892.00000   81.54430  119.07440   70.63850
 6892.50000   81.08640  118.15480   70.91530
 6893.00000   80.00540  117.23520   71.01520
 6893.50000   76.70760  115.58620   70.19210
 6894.00000   71.65840  112.74270   68.72400
 6894.50000   66.60920  109.89930   69.35860
 6895.00000   62.12690  107.05580   71.24570
 6895.50000   58.18330  105.90420   73.37780
 6896.00000   56.38460  106.53790   74.45180
 6896.50000   56.09200  107.72000   73.71600
 6897.00000   58.11000  110.38890   71.20890
 6897.50000   60.18740  113.24980   69.18600
 6898.00000   61.56420  114.85540   69.69270
 6898.50000   61.09700  115.68630   70.38620
 6899.00000   62.01380  116.51710   70.16690
 6899.50000   63.18130  116.70750   69.90150
 6900.00000   64.32420  116.74820   69.65790
 6900.50000   65.46700  117.05970   69.68670
 6901.00000   66.60990  116.96150   69.99070
 6901.50000   67.93280  115.83680   70.30750
 6902.00000   69.49990  114.75380   70.60540
 6902.50000   71.74520  113.71930   70.86400
 6903.00000   74.60210  113.08290   71.04640
 6903.50000   78.77100  113.01130   71.24260
