~Version ---------------------------------------------------
VERS.   2.0 : CWLS log ASCII Standard -VERSION 2.0
WRAP.    NO : One line per depth step
DLM . SPACE : Column Data Section Delimiter
~Well ------------------------------------------------------
STRT .F                 4946.0 : START DEPTH
STOP .F                 9646.0 : STOP DEPTH
STEP .F                    0.5 : STEP
NULL .                -9999.25 : NULL VALUE
COMP .                         : COMPANY
WELL .                         : WELL
FLD  .                         : FIELD
LOC  .                         : LOCATION
PROV .                         : PROVINCE
CNTY .                         : COUNTY
STAT .                         : STATE
CTRY .                         : COUNTRY
SRVC .                         : SERVICE COMPANY
DATE .                         : DATE
UWI  .                         : UNIQUE WELL ID
API  .                         : API NUMBER
SLAT .WGS84 2.5212332160271984 : SURFACE LATITUDE
SLON .WGS84  6.204841904963004 : SURFACE LONGITUDE
DATUM.F                2577.34 : DEPTH DATUM ELEV
~Curve Information -----------------------------------------
DEPT.F     : 
GRS .GAPI  : GAMMA RAY FROM SONIC
DTSM.US/F  : DELTA-T SHEAR
DTCO.US/F  : DELTA-T COMPRESSIONAL
~Params ----------------------------------------------------
~Other -----------------------------------------------------
~ASCII -----------------------------------------------------
# ...
 5836.00000   31.67940  109.97930  106.82450
 5836.50000   31.16490  101.93070  106.16130
 5837.00000   30.58060   84.60150  105.49820
 5837.50000   29.84100   67.27220  105.08420
 5838.00000   27.82530   49.94290  104.86590
 5838.50000   27.35130   22.03460  104.70790
 5839.00000   29.91700   -9.90950  104.79880
 5839.50000   31.94390  -41.53800  104.67900
 5840.00000   29.92500  -43.74990  104.65280
 5840.50000   27.99920  -36.77360  104.75120
 5841.00000   27.94320  -15.68520  105.41240
 5841.50000   29.95590    5.40320  106.50910
 5842.00000   32.20180   12.70510  107.31160
 5842.50000   34.39370    3.74170  107.39660
 5843.00000   36.12700   -1.90770  106.67970
 5843.50000   36.86300    8.89780  104.83390
 5844.00000   34.32170   27.43010  102.84390
 5844.50000   30.01420   52.05310  100.83630
 5845.00000   26.62890   72.56780   99.39570
 5845.50000   25.90680   75.38580   99.70380
 5846.00000   25.36070   78.20380  100.91570
 5846.50000   25.20450   81.02180  101.98180
 5847.00000   25.65820   83.83980  102.66430
 5847.50000   27.85330   85.34260  103.00160
 5848.00000   29.57240   85.74390  102.96780
 5848.50000   29.43500   85.43500  102.84160
 5849.00000   28.28350   84.28920  102.76110
 5849.50000   26.83190   84.22810  102.65860
 5850.00000   25.95230   95.15900  102.64480
 5850.50000   26.44920  101.59670  102.72290
 5851.00000   26.47940  107.93570  103.04890
 5851.50000   26.21030  114.05450  103.54200
 5852.00000   26.58350  117.80180  104.80430
 5852.50000   28.74280  116.57280  106.10910
 5853.00000   31.72380  114.71200  107.29790
 5853.50000   36.24810  120.24410  108.24390
 5854.00000   39.82500  126.73120  108.44310
 5854.50000   39.28600  127.22470  108.26900
 5855.00000   37.16020  127.18730  107.59360
 5855.50000   33.77190  127.00420  106.63110
 5856.00000   30.35950  125.78070  105.72900
 5856.50000   29.69070  121.61530  105.24790
 5857.00000   31.34530  113.22310  105.23820
 5857.50000   34.12930  105.87780  105.20990
 5858.00000   35.07040  106.60170  105.18170
 5858.50000   33.86340  106.79670  105.15350
 5859.00000   32.65640  104.99190  105.12880
 5859.50000   30.62810  103.79940  105.73380
 5860.00000   30.58170  103.67420  106.64210
 5860.50000   32.32140  104.69700  107.55050
 5861.00000   34.53170  108.49340  108.35530
 5861.50000   36.91600  112.67890  108.70570
 5862.00000   36.71280  116.82700  108.64590
 5862.50000   35.68260  119.04740  108.41920
 5863.00000   34.38200  121.37590  108.06850
 5863.50000   32.94730  123.91760  107.71760
 5864.00000   32.92060  124.46090  107.81880
 5864.50000   33.76440  111.81340  108.60370
 5865.00000   35.75140   83.91560  109.40940
 5865.50000   37.26250   56.01780  110.05170
 5866.00000   36.89180   50.57820  110.40980
 5866.50000   35.76630   71.61250  110.54850
 5867.00000   34.64080   95.21590  110.53110
 5867.50000   34.23620  120.40330  109.95370
 5868.00000   36.01220  122.27430  109.26140
 5868.50000   37.38170  120.92430  108.12380
 5869.00000   38.22560  115.68180  106.98670
 5869.50000   37.08590  111.74680  105.85090
 5870.00000   34.81090  107.81180  104.71520
 5870.50000   31.61280   95.72240  103.88770
 5871.00000   30.61010   82.79910  103.76850
 5871.50000   31.68670   69.87580  103.67350
 5872.00000   32.47900   61.83220  103.62330
 5872.50000   31.83740   67.09860  103.63800
 5873.00000   29.46020   73.47620  103.77090
 5873.50000   27.59940   69.19800  104.29440
 5874.00000   28.31750   62.80250  105.31510
 5874.50000   31.37970   77.35370  106.42410
 5875.00000   34.57250  100.70990  107.53320
 5875.50000   37.10980  112.54040  108.64230
 5876.00000   35.87360  113.52650  110.75890
 5876.50000   34.85720  112.61740  113.16900
 5877.00000   35.16680  114.23010  114.46280
 5877.50000   36.85640  114.23010  113.24370
 5878.00000   37.71960  110.07300  110.45550
 5878.50000   37.20230  100.97890  107.91900
 5879.00000   36.13780   95.46250  107.17130
 5879.50000   35.22740   95.51570  107.08590
 5880.00000   34.44660  100.43700  107.58620
 5880.50000   34.05480  106.87080  108.34070
 5881.00000   34.02020  111.49700  109.09530
 5881.50000   34.01570  111.65240  109.84980
 5882.00000   34.07920  108.25240  110.91610
 5882.50000   34.20740   98.91910  112.02820
 5883.00000   35.22780   97.82980  112.35510
 5883.50000   36.83260   96.97520  112.19780
 5884.00000   38.00650   86.16410  111.96670
 5884.50000   38.46440   78.09120  111.53140
 5885.00000   37.91420   77.68090  110.97460
 5885.50000   37.30700   82.59690  110.49490
 5886.00000   37.70290   86.86010  110.82830
 5886.50000   39.33770   87.61280  111.11750
 5887.00000   40.42460   83.70350  110.98050
 5887.50000   40.17110   70.75130  110.76170
 5888.00000   37.90400   60.53310  111.34360
 5888.50000   36.62980   57.16600  112.31050
 5889.00000   36.73600   56.37240  113.33540
 5889.50000   39.17730   52.39610  114.70470
 5890.00000   41.87630   48.22470  115.71740
 5890.50000   44.47760   67.36830  116.74810
 5891.00000   47.01400   84.45770  116.60570
 5891.50000   47.33200   91.82410  115.85430
 5892.00000   46.19490  101.05420  115.22160
 5892.50000   43.73400  110.28430  114.58890
 5893.00000   41.06600  119.21870  114.19500
 5893.50000   39.59870  124.82300  114.19450
 5894.00000   38.69340  124.56860  114.99790
 5894.50000   40.14890  123.55750  116.01860
 5895.00000   42.88500  122.97260  117.36400
 5895.50000   45.80010  123.47530  118.86250
 5896.00000   48.02120  124.64590  120.39510
 5896.50000   50.00600  125.21200  122.20730
 5897.00000   51.79060  124.85920  125.04740
 5897.50000   54.94810  123.40090  127.63120
 5898.00000   59.91740  116.33480  129.22560
 5898.50000   64.62410   95.83200  130.60170
 5899.00000   69.33080   60.56570  134.76020
 5899.50000   74.14960   24.33560  141.10580
 5900.00000   81.64420   24.71650  144.50130
 5900.50000   86.46970   52.98550  146.81080
 5901.00000   89.37240   78.59330  146.54880
 5901.50000   91.19110   85.03270  145.99020
 5902.00000   95.71630   75.67800  145.70880
 5902.50000  102.07860   52.23400  145.91470
 5903.00000  106.32780   24.25050  146.11680
 5903.50000  106.98390    4.28150  146.67280
 5904.00000  105.24410    0.62670  147.61370
 5904.50000  103.21650    7.42490  148.55460
 5905.00000  102.36240   16.50890  149.49550
 5905.50000  102.34810   25.59280  149.68260
 5906.00000  102.40740   45.22390  149.69930
 5906.50000  102.28520   73.36770  149.56760
 5907.00000  100.83720   99.29910  149.56610
 5907.50000   97.97520  110.28580  149.57360
 5908.00000   94.43970  114.90330  149.58110
 5908.50000   91.86800  116.67360  149.48200
 5909.00000   91.56700  118.88700  148.38930
 5909.50000   91.34100  121.37110  148.04760
 5910.00000   88.19850  122.78310  149.79740
 5910.50000   84.74040  123.34320  150.14280
 5911.00000   82.11860  123.02290  149.92080
 5911.50000   83.08270  121.38640  150.00480
 5912.00000   85.97350  119.99510  150.86210
 5912.50000   88.86430  120.90440  151.75320
 5913.00000   90.62700  123.99050  152.38470
 5913.50000   89.46250  123.99050  153.00320
 5914.00000   86.18700  123.46090  152.92930
 5914.50000   83.16660  123.03290  152.29830
 5915.00000   84.49690  123.18490  151.38630
 5915.50000   88.57550  123.33680  150.79070
 5916.00000   91.81050  123.12680  151.30560
 5916.50000   94.08240  122.34170  152.23260
 5917.00000   96.29530  116.63050  153.03120
 5917.50000   98.65110  108.89330  153.26370
 5918.00000   99.26420  103.28650  153.06500
 5918.50000   96.01750  104.77450  152.89880
 5919.00000   91.33040  109.24740  153.26530
 5919.50000   88.20730  113.37130  154.99680
 5920.00000   85.26630  113.78770  157.99800
 5920.50000   79.66350  111.07300  159.86860
 5921.00000   67.46280  108.55080  158.33520
 5921.50000   54.77730  108.14300  156.53020
 5922.00000   52.82580  108.17490  155.84740
 5922.50000   62.65330  108.20690  155.26150
 5923.00000   74.22200  108.23890  155.18720
 5923.50000   86.61740  108.27090  155.27140
 5924.00000   92.77900  108.26780  155.37980
 5924.50000   93.49340  108.30590  155.79930
