~Version ---------------------------------------------------
VERS.   2.0 : CWLS log ASCII Standard -VERSION 2.0
WRAP.    NO : One line per depth step
DLM . SPACE : Column Data Section Delimiter
~Well ------------------------------------------------------
STRT .F                 4946.0 : START DEPTH
STOP .F                 9646.0 : STOP DEPTH
STEP .F                    0.5 : STEP
NULL .                -9999.25 : NULL VALUE
COMP .                         : COMPANY
WELL .                         : WELL
FLD  .                         : FIELD
LOC  .                         : LOCATION
PROV .                         : PROVINCE
CNTY .                         : COUNTY
STAT .                         : STATE
CTRY .                         : COUNTRY
SRVC .                         : SERVICE COMPANY
DATE .                         : DATE
UWI  .                         : UNIQUE WELL ID
API  .                         : API NUMBER
SLAT .WGS84 2.5212332160271984 : SURFACE LATITUDE
SLON .WGS84  6.204841904963004 : SURFACE LONGITUDE
DATUM.F                2577.34 : DEPTH DATUM ELEV
~Curve Information -----------------------------------------
DEPT.F     : 
GRS .GAPI  : GAMMA RAY FROM SONIC
DTSM.US/F  : DELTA-T SHEAR
DTCO.US/F  : DELTA-T COMPRESSIONAL
~Params ----------------------------------------------------
~Other -----------------------------------------------------
~ASCII -----------------------------------------------------
# ...
 9307.00000  114.89700  155.31750  113.88040
 9307.50000  120.48800  157.45900  113.95170
 9308.00000  129.42320  158.79870  114.39200
 9308.50000  133.07050  158.48850  114.76220
 9309.00000  124.56150  154.89060  110.55990
 9309.50000  111.19370  148.48850  102.27960
 9310.00000   97.82590  146.04540   96.32880
 9310.50000   83.40620  145.66440   95.04750
 9311.00000   73.88840  145.60010   94.30380
 9311.50000   76.11580  145.60010   95.41500
 9312.00000   80.27210  145.60010   97.98330
 9312.50000   83.93150  145.60010  100.55160
 9313.00000   88.22040  145.60010  102.84510
 9313.50000   94.19840  145.84860  104.50390
 9314.00000  100.05720  148.83530  107.60970
 9314.50000  103.00190  152.40950  110.71550
 9315.00000  105.82850  154.61810  112.85100
 9315.50000  110.35580  154.93710  113.66760
 9316.00000  115.25710  155.48900  114.51370
 9316.50000  116.86250  156.04090  114.99080
 9317.00000  115.16220  162.83820  115.46780
 9317.50000  111.80570  170.20810  116.17720
 9318.00000  110.53610  175.52590  117.76580
 9318.50000  113.32740  175.71190  119.37570
 9319.00000  117.28520  175.83700  120.78010
 9319.50000  121.53310  175.96200  121.76090
 9320.00000  127.30820  176.01000  122.28330
 9320.50000  130.19410  176.05360  120.89960
 9321.00000  129.71730  176.09730  118.54850
 9321.50000  123.15200  176.14090  115.93940
 9322.00000  116.17880  185.91740  112.68960
 9322.50000  109.93470  213.12430  109.43990
 9323.00000  104.65880  229.52820  106.19010
 9323.50000   98.35620  233.45710  102.94040
 9324.00000   90.33010  233.50500  101.05870
 9324.50000   85.04370  233.55290  100.93610
 9325.00000   81.38180  233.60090  102.50310
 9325.50000   83.83190  233.64880  105.08450
 9326.00000   88.13140  233.69670  107.66590
 9326.50000   92.24360  233.74460  110.24730
 9327.00000   94.70690  233.56020  111.80490
 9327.50000   95.59000  233.01770  111.63720
 9328.00000   95.62280  215.39850  110.49650
 9328.50000   94.19450  182.99960  109.97300
 9329.00000   90.49920  162.08880  109.87380
 9329.50000   80.70580  161.29750  109.99660
 9330.00000   67.51480  161.27420  117.10120
 9330.50000   53.58730  161.25100  124.98470
 9331.00000   47.62440  161.22770  121.93150
 9331.50000   54.75840  161.20450  116.52260
 9332.00000   65.27220  161.18130  111.66880
 9332.50000   79.16120  161.15800  112.33030
 9333.00000   90.86240  161.13480  113.90830
 9333.50000   93.52970  161.12950  114.46990
 9334.00000   94.74730  161.67340  114.11230
 9334.50000   95.90010  164.27570  113.75480
 9335.00000   97.73200  167.55040  113.22980
 9335.50000   99.07530  169.68080  111.87210
 9336.00000   99.18820  168.91960  107.53110
 9336.50000   95.06820  147.91880  102.55470
 9337.00000   85.06220  132.72340   97.57840
 9337.50000   72.39450  131.99670   94.64040
 9338.00000   59.72680  131.96880   92.85060
 9338.50000   47.05910  131.96880   91.83370
 9339.00000   45.08820  131.98820   90.93900
 9339.50000   59.42390  132.27670   90.33930
 9340.00000   79.14390  139.91390   93.69920
 9340.50000   95.68500  148.44720  103.39370
 9341.00000  105.42990  155.92010  113.08820
 9341.50000  106.07390  156.69700  114.93810
 9342.00000  103.39130  156.97270  114.44680
 9342.50000  101.45810  157.20930  113.84130
 9343.00000  100.00420  158.88850  113.61530
 9343.50000   99.24910  157.67680  113.74490
 9344.00000   97.44180  161.96020  114.11740
 9344.50000   94.76310  183.14350  114.39750
 9345.00000   94.59800  205.96290  114.55900
 9345.50000   96.71880  226.37940  114.56240
 9346.00000  100.30620  226.87040  113.62580
 9346.50000  101.91020  226.82750  111.55030
 9347.00000   99.23360  226.36900  108.02760
 9347.50000   93.00870  224.32300  103.25360
 9348.00000   84.20530  220.81200  100.60690
 9348.50000   74.63920  216.27870   99.36420
 9349.00000   68.99250  213.01310  100.30480
 9349.50000   74.30040  203.92530  102.95570
 9350.00000   81.58740  190.76770  105.43640
 9350.50000   88.46830  177.61020  106.62620
 9351.00000   89.43280  160.35770  106.47360
 9351.50000   89.55200  153.38710  106.02580
 9352.00000   89.43400  160.16610  105.57800
 9352.50000   89.97530  162.25320  105.22820
 9353.00000   91.68120  165.07520  105.22820
 9353.50000   92.79450  170.48850  105.64580
 9354.00000   95.70260  175.89290  106.76100
 9354.50000   99.57400  180.84680  107.95730
 9355.00000  104.35260  185.80070  109.15370
 9355.50000  105.66490  186.23440  110.33370
 9356.00000  103.73460  179.31850  110.77990
 9356.50000  100.99660  176.02440  110.77990
 9357.00000   99.30420  209.05290  110.64160
 9357.50000  102.30780  252.54290  111.24590
 9358.00000  106.21400  294.14460  111.93320
 9358.50000  104.35790  296.60730  112.59550
 9359.00000  100.31820  296.77110  112.36190
 9359.50000   97.47770  296.82830  112.49460
 9360.00000   99.90660  296.69650  112.84990
 9360.50000  102.62190  293.32700  113.10210
 9361.00000  103.03490  265.61400  113.36610
 9361.50000  101.02720  235.73870  114.20410
 9362.00000   99.66270  203.21770  115.43830
 9362.50000  101.27520  200.34050  117.58700
 9363.00000  105.73330  200.13600  119.73570
 9363.50000  112.78410  201.62180  121.88440
 9364.00000  118.72290  222.52820  123.18390
 9364.50000  125.50360  255.36670  124.20660
 9365.00000  131.05360  269.01390  123.57020
 9365.50000  134.75840  270.87990  118.95690
 9366.00000  136.20830  262.03850  114.25880
 9366.50000  124.37350  222.16560  110.93770
 9367.00000  111.51030  182.29270  107.74290
 9367.50000   97.65400  174.19020  106.23890
 9368.00000   89.66780  177.87620  106.23090
 9368.50000   93.36400  187.82150  109.28050
 9369.00000  102.85790  197.64580  112.33010
 9369.50000  110.50600  203.19610  113.68140
 9370.00000  110.91530  199.12370  114.01850
 9370.50000  110.89430  198.95390  113.87890
 9371.00000  109.67430  193.37420  113.60830
 9371.50000  105.57520  193.18650  113.33780
 9372.00000  102.33460  195.61950  113.24740
 9372.50000   99.55730  196.81160  113.23100
 9373.00000   99.22990  196.81750  113.20170
 9373.50000   98.90390  195.95030  113.29610
 9374.00000   99.56890  181.78980  114.20800
 9374.50000  101.37440  166.25100  115.54890
 9375.00000  103.81980  157.48440  116.60480
 9375.50000  109.36000  157.09000  117.41120
 9376.00000  119.30650  157.58220  116.99720
 9376.50000  128.14540  166.82590  115.55540
 9377.00000  128.28630  191.32680  114.07680
 9377.50000  120.16800  212.99900  112.36000
 9378.00000  110.77510  212.82970  110.79190
 9378.50000  104.92570  209.95490  110.30910
 9379.00000  102.74330  207.44850  111.34580
 9379.50000  102.52970  201.97840  112.18290
 9380.00000  105.54550  194.71110  112.38590
 9380.50000  110.90110  187.44380  112.43220
 9381.00000  115.92740  184.06070  112.13670
 9381.50000  114.28890  182.39540  111.10230
 9382.00000  107.56830  181.62620  109.80800
 9382.50000  100.84770  182.88840  108.62090
 9383.00000   94.22760  190.06630  108.89770
 9383.50000   91.76650  197.57080  109.76700
 9384.00000   91.54470  205.07530  110.63620
 9384.50000   94.39700  212.57980  111.89180
 9385.00000   99.65730  218.84910  113.26830
 9385.50000  102.04700  219.30540  114.44070
 9386.00000  103.35180  217.99960  115.59420
 9386.50000  104.55960  219.58450  116.74780
 9387.00000  105.85270  220.30990  118.14760
 9387.50000  106.71360  218.36740  117.98480
 9388.00000  108.04730  209.62860  117.00670
 9388.50000  109.86500  204.16200  115.63630
 9389.00000  110.65890  200.74170  114.69490
 9389.50000  104.67080  198.49040  113.48370
 9390.00000   98.48600  199.66610  112.32210
 9390.50000   95.12530  203.48260  112.32210
 9391.00000   97.89800  206.18710  112.73600
 9391.50000  101.99250  206.87250  113.26440
 9392.00000  104.30280  201.58380  113.51110
 9392.50000  106.61320  197.77610  113.10270
 9393.00000  109.67400  196.16060  113.09540
 9393.50000  112.02760  197.59650  113.09380
 9394.00000  114.14470  200.21410  112.96580
 9394.50000  113.41560  203.18910  111.90030
 9395.00000  111.59470  204.82160  110.69710
 9395.50000  109.61570  204.07930  110.33870
