~Version ---------------------------------------------------
VERS.   2.0 : CWLS log ASCII Standard -VERSION 2.0
WRAP.    NO : One line per depth step
DLM . SPACE : Column Data Section Delimiter
~Well ------------------------------------------------------
STRT .F                 4946.0 : START DEPTH
STOP .F                 9646.0 : STOP DEPTH
STEP .F                    0.5 : STEP
NULL .                -9999.25 : NULL VALUE
COMP .                         : COMPANY
WELL .                         : WELL
FLD  .                         : FIELD
LOC  .                         : LOCATION
PROV .                         : PROVINCE
CNTY .                         : COUNTY
STAT .                         : STATE
CTRY .                         : COUNTRY
SRVC .                         : SERVICE COMPANY
DATE .                         : DATE
UWI  .                         : UNIQUE WELL ID
API  .                         : API NUMBER
SLAT .WGS84 2.5212332160271984 : SURFACE LATITUDE
SLON .WGS84  6.204841904963004 : SURFACE LONGITUDE
DATUM.F                2577.34 : DEPTH DATUM ELEV
~Curve Information -----------------------------------------
DEPT.F     : 
GRS .GAPI  : GAMMA RAY FROM SONIC
DTSM.US/F  : DELTA-T SHEAR
DTCO.US/F  : DELTA-T COMPRESSIONAL
~Params ----------------------------------------------------
~Other -----------------------------------------------------
~ASCII -----------------------------------------------------
# ...
 5213.00000   47.14590   91.27210  109.03810
 5213.50000   56.52640   98.98940  101.19020
 5214.00000   70.98650  106.71450  102.17760
 5214.50000   84.06140  114.43960  106.64580
 5215.00000   94.67010  122.16470  111.85630
 5215.50000  100.10960  125.22160  116.83090
 5216.00000  105.01980  123.34280  124.74580
 5216.50000  109.97110  117.53870  134.04640
 5217.00000  112.09820  114.00280  143.34690
 5217.50000  111.00150  112.31950  146.36650
 5218.00000  105.21510  111.13120  139.89360
 5218.50000   98.77430  109.73410  139.68850
 5219.00000   90.59760  108.29990  139.77150
 5219.50000   84.76560  106.12470  135.55250
 5220.00000   84.16800  103.75000  133.42430
 5220.50000   88.66460   97.10390  132.49290
 5221.00000   93.54790   92.00460  129.12800
 5221.50000   99.69420   89.41840  125.01160
 5222.00000  104.36560   91.93240  122.37410
 5222.50000  104.88910   94.56090  120.73410
 5223.00000  102.84260   89.30720  119.09410
 5223.50000  102.36100   83.57220  118.15570
 5224.00000  104.00560   81.74350  117.81650
 5224.50000  105.42840   81.96960  118.38340
 5225.00000  104.91280   82.78710  114.02130
 5225.50000  103.14670   83.45440   94.49210
 5226.00000  101.18050   83.42760   89.61470
 5226.50000   97.89910   80.81200   92.37580
 5227.00000   87.29010   80.14590   96.70120
 5227.50000   70.97810   83.47220  101.02670
 5228.00000   53.70790   88.00000  108.27610
 5228.50000   40.18960   92.52770  111.88670
 5229.00000   40.34710   94.34440  111.28580
 5229.50000   42.86620   92.14710  111.09510
 5230.00000   43.11660   84.96030  111.34880
 5230.50000   40.49300   82.21070  112.03990
 5231.00000   37.42550   83.21940  112.89840
 5231.50000   37.86330   94.84230  113.81880
 5232.00000   41.79870  110.58430  113.89310
 5232.50000   44.99370  110.61360  113.65900
 5233.00000   46.81820  109.82000  112.65240
 5233.50000   44.57770  102.82780  111.54210
 5234.00000   41.68420   94.18110  111.23980
 5234.50000   41.43830   86.61720  111.73660
 5235.00000   41.64670   79.05340  112.26900
 5235.50000   41.42290   73.02920  112.96710
 5236.00000   37.94610   66.41530  113.96060
 5236.50000   38.59880   65.71520  114.73280
 5237.00000   42.00860   74.26300  114.73280
 5237.50000   46.49540   90.61560  113.80510
 5238.00000   48.10960   99.94190  112.86090
 5238.50000   45.69740  106.79830  111.97880
 5239.00000   42.53720  110.05770  111.34200
 5239.50000   40.10100  112.70530  110.70530
 5240.00000   39.47680  111.09340  110.06860
 5240.50000   39.90280  105.93410  109.91900
 5241.00000   41.46130  100.77480  109.90900
 5241.50000   41.16240   99.29860  109.93390
 5242.00000   40.11310  100.86060  110.32590
 5242.50000   39.74380  103.17190  111.06950
 5243.00000   41.36480  101.04740  111.98470
 5243.50000   44.33650   99.04740  113.02380
 5244.00000   45.42710   98.80730  113.89010
 5244.50000   44.46340   99.43190  114.21130
 5245.00000   42.62780  100.41600  114.06550
 5245.50000   40.48400  100.33570  115.08970
 5246.00000   39.31240   98.63410  124.83610
 5246.50000   38.91050   96.97100  137.31010
 5247.00000   40.38490   95.84590  143.21390
 5247.50000   43.02360   96.29460  144.63040
 5248.00000   44.40940   97.12470  144.64580
 5248.50000   44.59780   96.96400  139.61550
 5249.00000   44.74830   96.55740  131.66110
 5249.50000   45.11130   96.15410  124.00570
 5250.00000   46.86190   95.75080  116.35030
 5250.50000   50.16810   96.31890  108.69490
 5251.00000   56.75970  100.88780  103.16460
 5251.50000   65.11770  105.56280  103.17780
 5252.00000   78.17640  109.67660  103.55550
 5252.50000   91.23500  109.89670  103.33320
 5253.00000  103.88180  103.72310   98.03850
 5253.50000  109.72430   94.22300   92.06670
 5254.00000  110.72960   86.48610   98.17240
 5254.50000  104.82370   86.41200  103.29950
 5255.00000   99.97020   97.54200   97.81880
 5255.50000   96.27940   99.77050   97.18260
 5256.00000   94.41230  103.20410  110.52160
 5256.50000   93.41210  121.12410  120.12510
 5257.00000   92.66210  123.62250  117.74290
 5257.50000   92.77490  123.41740  110.77580
 5258.00000   93.37480   88.50750  103.92560
 5258.50000   94.51680   88.35570  105.54200
 5259.00000   93.49200   89.01340  110.88700
 5259.50000   87.86340   90.08440  106.30960
 5260.00000   81.95380   92.34650   97.29620
 5260.50000   74.22670   94.62800   91.64260
 5261.00000   74.83770   96.17430   87.50930
 5261.50000   83.01020   96.17430   84.05490
 5262.00000   89.70170   98.13720   88.48830
 5262.50000   94.40010  102.04770  101.91720
 5263.00000   88.51650  105.95820  111.98610
 5263.50000   81.28640  107.70490  112.35290
 5264.00000   77.13320  108.49890  110.56080
 5264.50000   81.20420  109.29290  101.27140
 5265.00000   86.16560  109.75980   91.12450
 5265.50000   82.24140  109.81520   86.20630
 5266.00000   68.17770  105.57350   97.94800
 5266.50000   53.69820  101.35170  104.41890
 5267.00000   41.95210   97.12980  102.63730
 5267.50000   39.29820   95.87830  104.76050
 5268.00000   39.86380   96.46440  108.46940
 5268.50000   41.30320  101.09600  108.21550
 5269.00000   42.68500  105.99920  106.09700
 5269.50000   43.98090  110.90250  103.56300
 5270.00000   44.76090  114.63880  100.94530
 5270.50000   44.49580  113.80860   97.56340
 5271.00000   43.36880  113.04370   93.34890
 5271.50000   42.25860  117.16320   92.65260
 5272.00000   45.34980  122.00820   95.72680
 5272.50000   52.60030  126.85320   99.39050
 5273.00000   64.86090  128.63780  103.05420
 5273.50000   78.49720  128.77550  107.73500
 5274.00000   88.79120  127.51540  114.70840
 5274.50000   94.07900  124.95710  125.51410
 5275.00000   95.10890  122.39880  139.31220
 5275.50000   94.43320  120.52600  150.59570
 5276.00000   93.31820  119.54610  151.81560
 5276.50000   92.83850  119.37980  151.26490
 5277.00000   92.66400  119.85430  150.24620
 5277.50000   88.09760  120.32880  148.34410
 5278.00000   79.54970  120.70250  146.53170
 5278.50000   70.68450  120.90390  144.90940
 5279.00000   63.68610  120.23800  144.20030
 5279.50000   61.74950  116.31080  142.46810
 5280.00000   63.08490  111.28450  140.38460
 5280.50000   64.26180  109.62690  137.74720
 5281.00000   61.75500  109.04580  135.10980
 5281.50000   58.21320  108.99190  132.98740
 5282.00000   56.43650  109.78310  131.82050
 5282.50000   58.46670  111.04270  130.85930
 5283.00000   60.36660  112.04790  130.27760
 5283.50000   59.86430  112.42640  129.69150
 5284.00000   57.24120  112.32000  128.30120
 5284.50000   55.17320  111.89110  127.53650
 5285.00000   53.03910  111.28100  127.62390
 5285.50000   51.18870  110.81330  128.24490
 5286.00000   51.07890  111.17740  129.01620
 5286.50000   53.34580  112.18820  129.78750
 5287.00000   55.90320  113.50200  130.36370
 5287.50000   58.99920  115.09300  130.82500
 5288.00000   59.58360  118.59250  131.52930
 5288.50000   59.23190  120.61490  131.84800
 5289.00000   57.59990  121.75620  131.78340
 5289.50000   55.28410  122.69600  131.59500
 5290.00000   52.64870  122.58610  131.25950
 5290.50000   50.18900  121.03320  130.87770
 5291.00000   49.47350  118.88240  130.37740
 5291.50000   51.12070  116.72700  129.96180
 5292.00000   52.27350  114.57170  129.30020
 5292.50000   52.11770  112.41630  128.29770
 5293.00000   51.80670  110.27410  127.42510
 5293.50000   51.86450  109.10410  126.61810
 5294.00000   52.05590  109.92880  126.01100
 5294.50000   51.06450  111.14880  125.28900
 5295.00000   49.59230  112.62090  124.79800
 5295.50000   49.31160  114.45020  124.54980
 5296.00000   49.39050  116.67180  124.38720
 5296.50000   48.61330  118.66840  124.74190
 5297.00000   47.72530  118.89830  125.48760
 5297.50000   47.72940  116.35510  126.09530
 5298.00000   51.41040  113.50780  120.39610
 5298.50000   54.33480  111.58560  111.64610
 5299.00000   55.99540  110.11210  106.11090
 5299.50000   56.64910  110.14790  106.14660
 5300.00000   57.87360  112.24200  106.50250
 5300.50000   59.30490  114.86130  106.87980
 5301.00000   60.78470  118.49560  107.07690
 5301.50000   61.52800  122.99950  107.07690
