~Version ---------------------------------------------------
VERS.   2.0 : CWLS log ASCII Standard -VERSION 2.0
WRAP.    NO : One line per depth step
DLM . SPACE : Column Data Section Delimiter
~Well ------------------------------------------------------
STRT .F                 4946.0 : START DEPTH
STOP .F                 9646.0 : STOP DEPTH
STEP .F                    0.5 : STEP
NULL .                -9999.25 : NULL VALUE
COMP .                         : COMPANY
WELL .                         : WELL
FLD  .                         : FIELD
LOC  .                         : LOCATION
PROV .                         : PROVINCE
CNTY .                         : COUNTY
STAT .                         : STATE
CTRY .                         : COUNTRY
SRVC .                         : SERVICE COMPANY
DATE .                         : DATE
UWI  .                         : UNIQUE WELL ID
API  .                         : API NUMBER
SLAT .WGS84 2.5212332160271984 : SURFACE LATITUDE
SLON .WGS84  6.204841904963004 : SURFACE LONGITUDE
DATUM.F                2577.34 : DEPTH DATUM ELEV
~Curve Information -----------------------------------------
DEPT.F     : 
GRS .GAPI  : GAMMA RAY FROM SONIC
DTSM.US/F  : DELTA-T SHEAR
DTCO.US/F  : DELTA-T COMPRESSIONAL
~Params ----------------------------------------------------
~Other -----------------------------------------------------
~ASCII -----------------------------------------------------
# ...
 7705.00000   67.01250  116.39630   67.73870
 7705.50000   67.76520  111.86490   67.73870
 7706.00000   68.53760  107.28740   67.60320
 7706.50000   69.07630  107.31000   67.40770
 7707.00000   69.17890  109.49550   67.21230
 7707.50000   69.71360  108.92380   67.13050
 7708.00000   71.23000  108.35000   67.12980
 7708.50000   72.63700  109.28040   67.14900
 7709.00000   72.94560  110.81150   67.29540
 7709.50000   73.25410  111.33040   67.48950
 7710.00000   73.63200  111.33040   67.73080
 7710.50000   73.81010  111.33040   67.44580
 7711.00000   73.41480  111.09890   67.04320
 7711.50000   70.54460  110.66050   66.57420
 7712.00000   65.94430  110.11830   66.10230
 7712.50000   59.89660  109.57610   65.38510
 7713.00000   54.19700  109.03390   65.13080
 7713.50000   53.22990  108.97830   65.31220
 7714.00000   53.93690  109.23980   65.53660
 7714.50000   56.72150  109.51110   65.55040
 7715.00000   59.76540  109.52110   65.45210
 7715.50000   64.21050  108.79290   65.38250
 7716.00000   66.57150  108.43560   65.60630
 7716.50000   67.76160  108.84240   65.93760
 7717.00000   68.33260  109.37720   66.16740
 7717.50000   69.09690  109.91200   66.54640
 7718.00000   69.84410  110.31100   66.83090
 7718.50000   70.44650  110.53120   67.20880
 7719.00000   70.38560  110.75130   67.56110
 7719.50000   69.96850  110.98070   67.89870
 7720.00000   69.71450  111.22170   67.91770
 7720.50000   70.29710  111.46260   67.54840
 7721.00000   72.01560  111.70350   67.64670
 7721.50000   72.60440  112.05580   67.84300
 7722.00000   72.09990  112.60070   68.00130
 7722.50000   72.04920  113.10780   68.15900
 7723.00000   74.54200  112.93880   68.31420
 7723.50000   77.57590  112.72030   68.37770
 7724.00000   76.87730  112.50180   68.08250
 7724.50000   74.96150  112.28320   67.52090
 7725.00000   73.08910  112.06470   67.00480
 7725.50000   72.29810  111.84620   66.51720
 7726.00000   71.68610  111.62760   66.43050
 7726.50000   70.60740  111.56550   66.76580
 7727.00000   69.48440  111.68130   67.04270
 7727.50000   68.77950  111.79710   67.49600
 7728.00000   69.71980  111.70730   67.89420
 7728.50000   71.26210  111.22340   67.92330
 7729.00000   71.59850  110.73960   67.69850
 7729.50000   69.10430  110.25570   67.41740
 7730.00000   65.83810  109.99750   66.94540
 7730.50000   65.13200  109.88300   66.47330
 7731.00000   66.42630  114.19580   66.19310
 7731.50000   67.82770  144.84590   70.31100
 7732.00000   65.40620  175.49600   77.71730
 7732.50000   60.85960  200.05840   84.40020
 7733.00000   55.01420  202.87900   85.92580
 7733.50000   51.59230  203.00870   85.96500
 7734.00000   51.11980  201.97940   85.82950
 7734.50000   51.17420  200.95010   89.34080
 7735.00000   50.39960  199.92680  101.23400
 7735.50000   49.38240  198.99450  101.46280
 7736.00000   48.63600  192.66420   97.03630
 7736.50000   47.69220  184.05480  100.63030
 7737.00000   47.70550  179.38400  106.99770
 7737.50000   48.36350  182.17190  107.82870
 7738.00000   49.12980  187.13020  107.97640
 7738.50000   49.00680  191.18710  107.95370
 7739.00000   47.72210  190.65970  107.70240
 7739.50000   46.04630  181.06550  107.44910
 7740.00000   44.33450  174.83450  107.93450
 7740.50000   43.27380  174.64310  108.09360
 7741.00000   43.50120  186.36720  106.98280
 7741.50000   44.05930  194.35380  105.70990
 7742.00000   44.43810  189.59750  104.43630
 7742.50000   44.75350  180.88010  103.62670
 7743.00000   44.32120  177.36840  103.97090
 7743.50000   42.79170  182.27440  104.54640
 7744.00000   42.14660  184.22820  104.33780
 7744.50000   43.93480  181.73600  103.60220
 7745.00000   44.47250  176.94540  103.36310
 7745.50000   43.40190  172.15480  103.36310
 7746.00000   41.81670  167.36420  102.93260
 7746.50000   40.10320  165.42730  102.63130
 7747.00000   40.34530  189.30920  102.42000
 7747.50000   41.01400  210.55050  102.33670
 7748.00000   41.43390  230.88690  102.28660
 7748.50000   41.39720  232.18900  102.25340
 7749.00000   40.56950  230.84380  102.63970
 7749.50000   39.42460  185.65730  103.02960
 7750.00000   38.56110  133.34670  103.76660
 7750.50000   39.21290  105.75350  104.50350
 7751.00000   42.94110  102.51670  104.78970
 7751.50000   46.66400   99.27980   97.01130
 7752.00000   51.34350   99.17330   82.36450
 7752.50000   57.72350  101.81590   67.76320
 7753.00000   61.15120  104.45850   66.58000
 7753.50000   61.86310  106.77370   66.53890
 7754.00000   60.69080  108.70690   66.52810
 7754.50000   60.02100  110.58050   66.52490
 7755.00000   61.49310  111.10390   66.55370
 7755.50000   63.45450  111.19790   66.68370
 7756.00000   65.21990  111.45230   66.56030
 7756.50000   66.98220  111.79920   66.29530
 7757.00000   65.44340  111.94160   66.09060
 7757.50000   61.45160  111.80190   65.94250
 7758.00000   58.22730  111.95820   66.18860
 7758.50000   56.84990  112.40120   67.25260
 7759.00000   60.40440  112.84420   68.01990
 7759.50000   66.29920  113.28710   69.14620
 7760.00000   72.09160  113.73010   70.27260
 7760.50000   77.88410  113.95820   70.71470
 7761.00000   82.71440  113.63740   69.67100
 7761.50000   83.28080  112.27070   68.41420
 7762.00000   76.76910  110.86240   67.45820
 7762.50000   70.60630  110.41630   66.49560
 7763.00000   65.62240  110.59160   66.06130
 7763.50000   64.00410  109.88780   66.10010
 7764.00000   64.44550  109.11300   66.17580
 7764.50000   65.10330  108.88500   66.25160
 7765.00000   65.71010  108.87660   66.23320
 7765.50000   66.14250  109.22930   65.99220
 7766.00000   64.64590  109.58190   65.92660
 7766.50000   62.64230  109.93450   65.93300
 7767.00000   62.12580  110.28720   66.13130
 7767.50000   64.21540  110.54320   66.59130
 7768.00000   66.01320  110.64230   67.21570
 7768.50000   67.19660  110.75820   67.64870
 7769.00000   66.89550  110.76680   67.68210
 7769.50000   66.99740  111.12580   67.41160
 7770.00000   68.76940  111.58460   67.03360
 7770.50000   70.61220  112.04340   66.74690
 7771.00000   72.11950  112.50210   67.03810
 7771.50000   72.79000  112.96090   67.43110
 7772.00000   74.48960  112.73620   67.73780
 7772.50000   76.49660  111.96130   67.93380
 7773.00000   77.75090  111.07960   67.90970
 7773.50000   76.18320  110.63810   67.85480
 7774.00000   74.18160  110.60670   67.47000
 7774.50000   72.30700  111.13520   67.14080
 7775.00000   72.86980  111.83420   67.28970
 7775.50000   75.49690  112.85160   67.75400
 7776.00000   77.46980  113.47900   68.27170
 7776.50000   77.48250  113.68240   68.72460
 7777.00000   76.30510  113.37300   68.72930
 7777.50000   76.03230  112.76790   68.60210
 7778.00000   76.16690  111.55490   68.22840
 7778.50000   75.52060  108.96490   67.81220
 7779.00000   72.04440  107.06670   67.54120
 7779.50000   69.28230  108.78030   67.34520
 7780.00000   69.62570  110.78760   67.48440
 7780.50000   73.23780  110.62360   67.82660
 7781.00000   76.87220  110.24480   67.90040
 7781.50000   77.07910  111.91060   67.41820
 7782.00000   74.64620  115.79570   66.45180
 7782.50000   71.77240  116.41910   65.95100
 7783.00000   67.54700  115.34710   65.83020
 7783.50000   64.84630  114.58710   66.00950
 7784.00000   63.03850  114.93590   66.40920
 7784.50000   63.85570  131.30230   67.52640
 7785.00000   65.88160  147.90360   72.06680
 7785.50000   69.09130  164.50490   82.59480
 7786.00000   74.29220  181.10610   91.72630
 7786.50000   78.47000  192.02440   87.59910
 7787.00000   81.45980  192.61240   75.54560
 7787.50000   81.81870  191.59320   75.28790
 7788.00000   79.82020  190.08540   84.80990
 7788.50000   78.33330  188.57760   94.46550
 7789.00000   83.23910  186.25930   95.83290
 7789.50000   90.96320  177.66250   96.05500
 7790.00000   98.50930  168.94670   95.52960
 7790.50000   96.97920  167.85330   94.81430
 7791.00000   88.78840  172.17230   94.49590
 7791.50000   79.93060  174.60540   94.33990
 7792.00000   78.24940  174.82870   94.55830
 7792.50000   86.61520  174.46230   95.73390
 7793.00000  100.09770  174.57700   96.41480
 7793.50000  109.87670  174.69170   94.87110
