~Version ---------------------------------------------------
VERS.   2.0 : CWLS log ASCII Standard -VERSION 2.0
WRAP.    NO : One line per depth step
DLM . SPACE : Column Data Section Delimiter
~Well ------------------------------------------------------
STRT .F                 4946.0 : START DEPTH
STOP .F                 9646.0 : STOP DEPTH
STEP .F                    0.5 : STEP
NULL .                -9999.25 : NULL VALUE
COMP .                         : COMPANY
WELL .                         : WELL
FLD  .                         : FIELD
LOC  .                         : LOCATION
PROV .                         : PROVINCE
CNTY .                         : COUNTY
STAT .                         : STATE
CTRY .                         : COUNTRY
SRVC .                         : SERVICE COMPANY
DATE .                         : DATE
UWI  .                         : UNIQUE WELL ID
API  .                         : API NUMBER
SLAT .WGS84 2.5212332160271984 : SURFACE LATITUDE
SLON .WGS84  6.204841904963004 : SURFACE LONGITUDE
DATUM.F                2577.34 : DEPTH DATUM ELEV
~Curve Information -----------------------------------------
DEPT.F     : 
GRS .GAPI  : GAMMA RAY FROM SONIC
DTSM.US/F  : DELTA-T SHEAR
DTCO.US/F  : DELTA-T COMPRESSIONAL
~Params ----------------------------------------------------
~Other -----------------------------------------------------
~ASCII -----------------------------------------------------
# ...
 6459.00000   71.79360  162.18900   88.72350
 6459.50000   68.26120  178.75580   95.91570
 6460.00000   66.15140  195.69360  106.16530
 6460.50000   64.24270  213.31800  109.14620
 6461.00000   60.71830  237.41910  107.24800
 6461.50000   58.22950  313.55900  103.29080
 6462.00000   55.88180  321.27540   98.79780
 6462.50000   56.47420  279.03070   95.75750
 6463.00000   58.77400  173.28230   97.13720
 6463.50000   61.59960  120.20250  100.91060
 6464.00000   62.97250  116.55310  103.57150
 6464.50000   62.61730  117.79810   99.98240
 6465.00000   60.47330  125.87690   93.85680
 6465.50000   58.44020  136.07170   94.92200
 6466.00000   57.79660  139.08320   96.50500
 6466.50000   58.15360  141.12820   95.76840
 6467.00000   57.16820  142.75080   93.71800
 6467.50000   51.64910  144.28260   90.71910
 6468.00000   42.24960  153.18740   86.90050
 6468.50000   36.18850  166.03120   82.93020
 6469.00000   31.81120  182.29480   77.27130
 6469.50000   31.46830  226.68650   72.53320
 6470.00000   39.89040  314.47350   69.13760
 6470.50000   56.30770  321.56010   69.29950
 6471.00000   75.20300  282.22470   69.93030
 6471.50000   84.93500  236.91120   70.51370
 6472.00000   89.04390  146.89390   70.78790
 6472.50000   85.15540  133.71570   70.78650
 6473.00000   81.26690  133.01680   70.58670
 6473.50000   76.57310  132.76560   70.04330
 6474.00000   74.18170  135.49250   69.33730
 6474.50000   72.74530  138.40260   69.07210
 6475.00000   70.76640  141.31270   71.06970
 6475.50000   67.30730  143.81280   73.80730
 6476.00000   64.68860  144.70170   73.88360
 6476.50000   62.06920  138.80700   75.13740
 6477.00000   60.16340  122.75940   82.75280
 6477.50000   58.25750  110.41440   89.72700
 6478.00000   59.53550  109.36850   88.09430
 6478.50000   62.71620  109.53070   78.53540
 6479.00000   67.24860  121.56250   73.08240
 6479.50000   73.27920  142.55230   71.58700
 6480.00000   73.11470  158.92880   70.93140
 6480.50000   71.13300  152.26130   70.20450
 6481.00000   69.07330  132.54250   69.96630
 6481.50000   68.29190  124.86550   70.10400
 6482.00000   68.09680  124.93660   70.86660
 6482.50000   68.27800  125.05010   71.38850
 6483.00000   70.16580  123.63140   71.35360
 6483.50000   71.97610  115.48070   71.07330
 6484.00000   74.20950  116.26010   70.99930
 6484.50000   77.30020  121.59940   71.04540
 6485.00000   81.22360  122.90580   70.83020
 6485.50000   83.20020  113.35910   70.50830
 6486.00000   80.50850  112.27240   70.42710
 6486.50000   76.52530  112.79760   70.42240
 6487.00000   73.58270  113.98630   70.41110
 6487.50000   74.35750  114.32750   70.39980
 6488.00000   78.43580  115.05900   70.66640
 6488.50000   81.70320  117.21680   70.78220
 6489.00000   81.85170  118.46010   70.48910
 6489.50000   78.32120  118.07440   69.82940
 6490.00000   71.78810  117.91380   67.75330
 6490.50000   65.25490  118.29570   66.82860
 6491.00000   59.96250  121.09440   69.77850
 6491.50000   56.80170  123.76950   77.13340
 6492.00000   55.68640  121.44060   82.96510
 6492.50000   55.47760  113.04330   88.13390
 6493.00000   56.50960  110.66840   88.29640
 6493.50000   58.13590  110.46880   83.04450
 6494.00000   58.99680  110.97060   74.81100
 6494.50000   59.23230  112.79770   71.53590
 6495.00000   58.78030  114.77480   68.39160
 6495.50000   57.30180  116.75180   67.44200
 6496.00000   58.91140  118.80000   67.62730
 6496.50000   61.82490  120.93570   68.31980
 6497.00000   69.34070  120.85160   69.20780
 6497.50000   78.98100  120.11310   69.98690
 6498.00000   87.30690  122.08350   69.96310
 6498.50000   90.97060  123.83240   69.80950
 6499.00000   92.71840  123.68620   70.15140
 6499.50000   91.77310  122.31770   70.57110
 6500.00000   88.80880  120.52710   70.62150
 6500.50000   86.88900  120.21350   70.72200
 6501.00000   89.68410  121.40360   71.31030
 6501.50000   93.14080  121.74800   71.66730
 6502.00000   93.03040  120.92360   71.12010
 6502.50000   87.98460  120.35350   69.41570
 6503.00000   79.00890  120.29770   68.67320
 6503.50000   71.59730  120.27910   67.65630
 6504.00000   66.94180  120.27310   68.23810
 6504.50000   65.18650  119.29290   69.71960
 6505.00000   65.58170  114.41750   71.72000
 6505.50000   69.77930  109.09340   72.63770
 6506.00000   77.13760  105.99020   72.26450
 6506.50000   85.84220  109.82810   71.51890
 6507.00000   89.89430  115.15490   71.25250
 6507.50000   88.56820  122.87500   71.39300
 6508.00000   86.04900  121.69480   71.80180
 6508.50000   88.02470  123.87850   72.92200
 6509.00000   92.38070  126.73580   74.08210
 6509.50000   95.31140  129.59300   75.15830
 6510.00000   97.73100  132.32240   75.83400
 6510.50000  100.28180  132.54880   75.77630
 6511.00000  101.55640  128.89460   75.01200
 6511.50000   99.81480  127.05830   74.19530
 6512.00000   97.58530  128.80360   73.25020
 6512.50000   94.26900  130.56500   71.95830
 6513.00000   93.13250  128.40690   72.43810
 6513.50000   91.66600  125.85780   73.63700
 6514.00000   85.54720  124.66140   73.69860
 6514.50000   78.62840  123.46510   72.91760
 6515.00000   75.02880  122.34680   72.05420
 6515.50000   78.37650  121.19650   71.02020
 6516.00000   80.41980  119.40820   69.94600
 6516.50000   79.20610  117.61990   68.87180
 6517.00000   77.87130  115.66860   69.01660
 6517.50000   79.70750  113.18770   69.71200
 6518.00000   83.42640  111.92610   70.28880
 6518.50000   82.09060  113.15500   70.79850
 6519.00000   75.31410  116.21410   71.29270
 6519.50000   68.94170  118.14360   71.21580
 6520.00000   69.08000  119.24230   71.14840
 6520.50000   73.20210  119.50310   71.35800
 6521.00000   79.01400  118.89670   71.81940
 6521.50000   84.89170  118.23240   71.64830
 6522.00000   90.26280  118.56910   71.00570
 6522.50000   90.80970  120.27640   70.38890
 6523.00000   89.50890  119.13060   69.77210
 6523.50000   87.40290  116.20120   69.15530
 6524.00000   86.37830  114.54480   68.86350
 6524.50000   86.11130  117.38910   68.72440
 6525.00000   85.54790  120.19910   68.67070
 6525.50000   81.68270  114.75970   68.80590
 6526.00000   75.92550  113.66880   69.38450
 6526.50000   76.18510  116.93310   70.01000
 6527.00000   78.94070  120.79120   70.93370
 6527.50000   82.18240  124.58470   71.95110
 6528.00000   82.75660  127.96410   72.77580
 6528.50000   81.33120  131.34340   72.90850
 6529.00000   77.44740  133.60100   72.27830
 6529.50000   74.52100  133.83840   71.24790
 6530.00000   75.23000  130.77970   69.58330
 6530.50000   76.93490  126.18110   68.32180
 6531.00000   77.69700  121.58250   68.55850
 6531.50000   74.67620  117.06280   73.39230
 6532.00000   69.56990  113.32900   83.15730
 6532.50000   62.75780  114.97600   87.87510
 6533.00000   56.49300  122.46800   89.78390
 6533.50000   51.39550  130.71410   91.53740
 6534.00000   49.64760  132.52110   86.48910
 6534.50000   53.51620  126.10640   74.84000
 6535.00000   59.72580  119.67940   69.23190
 6535.50000   69.06310  120.84350   69.42630
 6536.00000   76.37270  123.05390   70.08570
 6536.50000   81.72850  122.85560   70.76950
 6537.00000   85.54930  120.97900   71.45320
 6537.50000   87.82000  119.10240   72.11170
 6538.00000   85.51030  117.22580   72.63100
 6538.50000   83.35560  115.34920   72.70580
 6539.00000   83.38150  114.53420   72.52150
 6539.50000   86.11570  116.23160   71.52440
 6540.00000   89.88260  118.98730   70.63080
 6540.50000   89.61530  121.74290   71.02620
 6541.00000   87.91820  123.64720   71.75440
 6541.50000   85.04240  123.83140   71.72030
 6542.00000   84.86590  122.19190   71.36000
 6542.50000   86.43320  119.55840   71.46850
 6543.00000   89.79250  116.68450   71.81420
 6543.50000   92.59070  115.63490   72.14730
 6544.00000   92.37120  116.76960   72.08270
 6544.50000   90.13130  120.20200   71.25450
 6545.00000   86.82440  125.74410   70.52120
 6545.50000   82.97410  131.28630   70.29840
 6546.00000   78.25260  134.57700   70.07570
 6546.50000   73.19470  133.39940   69.85290
 6547.00000   69.27770  129.66690   69.68930
 6547.50000   71.12830  125.93440   69.59380
