~Version ---------------------------------------------------
VERS.   2.0 : CWLS log ASCII Standard -VERSION 2.0
WRAP.    NO : One line per depth step
DLM . SPACE : Column Data Section Delimiter
~Well ------------------------------------------------------
STRT .F                 4946.0 : START DEPTH
STOP .F                 9646.0 : STOP DEPTH
STEP .F                    0.5 : STEP
NULL .                -9999.25 : NULL VALUE
COMP .                         : COMPANY
WELL .                         : WELL
FLD  .                         : FIELD
LOC  .                         : LOCATION
PROV .                         : PROVINCE
CNTY .                         : COUNTY
STAT .                         : STATE
CTRY .                         : COUNTRY
SRVC .                         : SERVICE COMPANY
DATE .                         : DATE
UWI  .                         : UNIQUE WELL ID
API  .                         : API NUMBER
SLAT .WGS84 2.5212332160271984 : SURFACE LATITUDE
SLON .WGS84  6.204841904963004 : SURFACE LONGITUDE
DATUM.F                2577.34 : DEPTH DATUM ELEV
~Curve Information -----------------------------------------
DEPT.F     : 
GRS .GAPI  : GAMMA RAY FROM SONIC
DTSM.US/F  : DELTA-T SHEAR
DTCO.US/F  : DELTA-T COMPRESSIONAL
~Params ----------------------------------------------------
~Other -----------------------------------------------------
~ASCII -----------------------------------------------------
# ...
 7438.00000   96.61010  125.79470   76.24120
 7438.50000   98.71070  125.77100   75.75960
 7439.00000  100.69080  125.07890   75.61600
 7439.50000   99.68810  123.40000   75.12650
 7440.00000   95.54320  122.20870   74.34090
 7440.50000   91.68170  120.96840   73.00470
 7441.00000   88.87190  119.72820   72.18620
 7441.50000   85.39190  118.83480   71.80370
 7442.00000   81.90930  118.54720   71.38540
 7442.50000   84.66230  118.58930   71.00250
 7443.00000   89.87850  118.57060   71.02280
 7443.50000   93.24320  118.11230   71.20210
 7444.00000   95.15740  117.02550   70.89890
 7444.50000   93.20380  116.27450   70.32130
 7445.00000   88.45300  116.13140   70.04750
 7445.50000   83.03660  116.43910   70.12180
 7446.00000   84.19670  116.97220   71.76600
 7446.50000   86.90820  119.58330   73.45090
 7447.00000   91.90120  123.26900   74.52470
 7447.50000   96.64910  126.46300   75.73090
 7448.00000  100.32040  128.28210   76.56190
 7448.50000  100.95310  129.12290   76.84920
 7449.00000   99.65480  129.25640   76.71490
 7449.50000   98.14780  129.16750   76.49810
 7450.00000   97.89320  128.98070   76.59380
 7450.50000  100.56160  128.72120   76.88790
 7451.00000  103.53760  128.64340   77.01330
 7451.50000  107.37640  128.98460   77.15740
 7452.00000  112.19010  128.38820   77.04300
 7452.50000  114.77630  127.19500   76.55840
 7453.00000  113.56550  125.76300   75.72590
 7453.50000  109.72700  124.19830   74.81200
 7454.00000  104.92950  123.19320   74.36430
 7454.50000  100.13210  123.25810   74.33440
 7455.00000   95.61810  123.50140   74.48310
 7455.50000   95.51120  123.74240   74.70620
 7456.00000   99.10580  123.86710   75.06360
 7456.50000  103.75230  123.65480   75.29540
 7457.00000  106.30080  123.42650   75.21370
 7457.50000  106.15900  123.81920   75.20030
 7458.00000  105.22480  125.84120   75.65230
 7458.50000  104.46130  126.66720   76.02100
 7459.00000  104.49000  126.81060   76.80280
 7459.50000  107.45620  126.95190   77.54290
 7460.00000  113.52660  126.95830   77.79330
 7460.50000  119.24040  126.60950   77.31670
 7461.00000  122.37360  126.07930   76.79130
 7461.50000  116.07490  124.63530   76.31410
 7462.00000  108.96490  122.42300   74.98660
 7462.50000  101.85490  120.21070   74.01410
 7463.00000   96.90770  118.57320   73.69570
 7463.50000   93.32990  118.56030   73.22770
 7464.00000   90.60790  119.09780   73.01290
 7464.50000   90.42900  121.04830   72.91350
 7465.00000   92.01090  122.99840   72.99710
 7465.50000   95.43870  123.72970   73.47310
 7466.00000   97.59180  124.99820   74.10530
 7466.50000   96.51270  126.15070   74.60220
 7467.00000   92.52000  127.30320   74.83400
 7467.50000   89.79250  127.60300   75.39560
 7468.00000   91.80140  123.15640   75.99960
 7468.50000   94.29240  122.37960   76.65280
 7469.00000   96.82720  148.49510   82.09800
 7469.50000  100.56600  187.64570   93.56580
 7470.00000  105.51280  196.26810  101.38060
 7470.50000  109.33110  193.51760  100.96930
 7471.00000  109.49680  196.31580   99.84210
 7471.50000  105.64520  203.33020   98.55770
 7472.00000   97.35710  203.60180   96.71370
 7472.50000   89.02910  201.79400   94.66790
 7473.00000   85.07920  199.32010   93.49200
 7473.50000   80.17220  197.78170   93.55330
 7474.00000   74.10770  198.38220   94.19390
 7474.50000   71.62070  196.74210   95.79340
 7475.00000   73.77340  192.52780   97.07470
 7475.50000   84.87720  186.39110   99.18850
 7476.00000   94.89290  184.29960  100.56820
 7476.50000  102.31910  188.76910  100.56760
 7477.00000  109.33150  194.11580   98.73800
 7477.50000  110.91710  198.53850   98.00500
 7478.00000  105.11510  201.17070   97.92230
 7478.50000   97.82500  203.34220   97.96620
 7479.00000   91.86810  203.38510   97.86210
 7479.50000   96.98630  201.25850   98.05540
 7480.00000  106.54900  199.91240   98.34400
 7480.50000  109.56620  200.88670   98.24460
 7481.00000  106.37810  202.53930   97.56280
 7481.50000   99.76720  203.21690   96.72500
 7482.00000   93.15630  202.08580   96.18220
 7482.50000   92.53880  198.47180   95.78090
 7483.00000   94.10790  196.08670   96.03830
 7483.50000   93.38020  197.85550   96.68070
 7484.00000   91.14870  201.82470   97.55530
 7484.50000   90.12070  205.79390   99.01180
 7485.00000   93.80640  209.15390  100.05160
 7485.50000   98.00090  208.61930  100.99490
 7486.00000  100.73440  206.82830  101.31960
 7486.50000  101.94860  205.64650  100.07940
 7487.00000   99.37920  205.05740   98.61210
 7487.50000   93.74110  207.56570   96.69080
 7488.00000   84.02780  206.45240   95.58640
 7488.50000   72.64920  205.77380   97.48640
 7489.00000   56.48420  206.79450   99.96070
 7489.50000   42.97230  207.04030  101.24070
 7490.00000   37.43580  207.09040  101.40980
 7490.50000   33.76870  208.74460  101.47910
 7491.00000   38.67490  208.55400  102.88090
 7491.50000   45.55910  207.50780  100.57650
 7492.00000   51.80650  206.45080   93.84680
 7492.50000   54.69230  202.13440   89.04470
 7493.00000   57.72200  202.70390   91.97490
 7493.50000   62.21670  204.10030   99.61380
 7494.00000   63.08210  205.49660  107.25270
 7494.50000   58.51090  206.78220  107.97130
 7495.00000   51.31960  207.58310  108.37060
 7495.50000   43.94250  207.09870  108.17450
 7496.00000   44.33400  205.91850  104.23880
 7496.50000   50.24110  203.91870   97.04050
 7497.00000   57.40830  184.45030   87.65720
 7497.50000   59.52570  142.50950   78.07580
 7498.00000   60.39380  109.70200   68.91890
 7498.50000   61.01410  112.14540   68.04850
 7499.00000   62.88550  114.91350   68.87290
 7499.50000   66.62140  116.39630   69.31560
 7500.00000   68.81410  114.84580   68.99850
 7500.50000   70.92490  112.18380   68.50230
 7501.00000   69.35510  110.73590   68.04750
 7501.50000   66.34950  109.09820   67.26780
 7502.00000   62.19370  107.46050   66.40240
 7502.50000   58.03790  105.80550   65.93760
 7503.00000   54.48400  104.96220   66.01260
 7503.50000   55.18570  105.39150   66.26640
 7504.00000   58.52290  107.95260   66.98250
 7504.50000   61.87830  110.90970   67.95080
 7505.00000   65.25400  112.98260   69.51450
 7505.50000   68.76930  112.99280   70.14730
 7506.00000   72.71290  113.32620   69.60500
 7506.50000   75.11770  113.47410   68.27520
 7507.00000   75.48850  112.24160   67.62930
 7507.50000   72.87550  110.60710   67.42880
 7508.00000   68.77230  107.54220   67.81600
 7508.50000   64.21370  104.76170   69.38820
 7509.00000   59.14670  103.11460   70.53400
 7509.50000   53.13530  103.92170   71.39710
 7510.00000   49.33520  106.01240   71.39610
 7510.50000   53.96230  109.50170   70.85270
 7511.00000   66.28780  113.07440   70.47750
 7511.50000   78.21360  117.16280   71.34530
 7512.00000   90.13930  121.63210   72.99320
 7512.50000   95.66100  121.75380   74.10160
 7513.00000   96.31850  120.19580   73.70360
 7513.50000   94.99020  120.31520   72.84370
 7514.00000   89.03170  122.04300   72.65440
 7514.50000   83.07310  125.00510   72.96680
 7515.00000   79.44230  124.53550   73.51680
 7515.50000   84.40850  122.54540   73.75710
 7516.00000   92.49240  120.55530   73.00280
 7516.50000   93.69490  118.70640   71.69620
 7517.00000   88.67700  118.04530   70.15140
 7517.50000   79.02990  118.15810   68.50690
 7518.00000   69.82540  126.96850   68.24360
 7518.50000   63.77180  157.49600   68.97290
 7519.00000   63.34350  193.37290   70.33350
 7519.50000   70.29700  210.97760   72.05620
 7520.00000   79.18270  211.74440   73.35040
 7520.50000   81.47290  208.60450   73.84860
 7521.00000   79.78770  202.71900   72.78810
 7521.50000   77.34620  202.88920   71.94310
 7522.00000   78.29110  203.32460   71.86090
 7522.50000   79.07210  198.65530   81.01510
 7523.00000   79.06890  197.86360   94.03230
 7523.50000   72.46000  199.44140  103.68430
 7524.00000   62.06670  186.84610  104.41750
 7524.50000   52.37500  160.46920  104.20440
 7525.00000   45.54430  133.98010   96.00870
 7525.50000   47.93080  114.70050   82.43370
 7526.00000   54.85390  114.37110   71.09690
 7526.50000   67.48480  149.52060   72.42370
