~Version ---------------------------------------------------
VERS.   2.0 : CWLS log ASCII Standard -VERSION 2.0
WRAP.    NO : One line per depth step
DLM . SPACE : Column Data Section Delimiter
~Well ------------------------------------------------------
STRT .F                 4946.0 : START DEPTH
STOP .F                 9646.0 : STOP DEPTH
STEP .F                    0.5 : STEP
NULL .                -9999.25 : NULL VALUE
COMP .                         : COMPANY
WELL .                         : WELL
FLD  .                         : FIELD
LOC  .                         : LOCATION
PROV .                         : PROVINCE
CNTY .                         : COUNTY
STAT .                         : STATE
CTRY .                         : COUNTRY
SRVC .                         : SERVICE COMPANY
DATE .                         : DATE
UWI  .                         : UNIQUE WELL ID
API  .                         : API NUMBER
SLAT .WGS84 2.5212332160271984 : SURFACE LATITUDE
SLON .WGS84  6.204841904963004 : SURFACE LONGITUDE
DATUM.F                2577.34 : DEPTH DATUM ELEV
~Curve Information -----------------------------------------
DEPT.F     : 
GRS .GAPI  : GAMMA RAY FROM SONIC
DTSM.US/F  : DELTA-T SHEAR
DTCO.US/F  : DELTA-T COMPRESSIONAL
~Params ----------------------------------------------------
~Other -----------------------------------------------------
~ASCII -----------------------------------------------------
# ...
 5569.00000   31.42370   63.02830  103.16600
 5569.50000   29.01980   65.61400  102.52020
 5570.00000   28.02150   66.05470  102.60240
 5570.50000   29.22210   61.64260  105.26200
 5571.00000   36.69460   68.41640  107.96610
 5571.50000   49.45190   80.39770  111.01700
 5572.00000   65.21830   87.10990  113.46360
 5572.50000   75.65490   88.43420  114.02360
 5573.00000   84.48870   86.17600  114.39930
 5573.50000   92.28070   83.48650  114.99150
 5574.00000   97.78520   81.62660  117.37950
 5574.50000   98.99380   84.29320  119.90090
 5575.00000   94.98140   91.64010  123.70260
 5575.50000   90.30090   97.37870  127.40660
 5576.00000   91.21240   99.04310  130.92430
 5576.50000   97.39280  100.64440  131.43490
 5577.00000  103.43580  100.56470  130.75450
 5577.50000  103.92690   96.27540  130.32100
 5578.00000   99.87250   91.03270  131.89960
 5578.50000   95.41510   87.52040  138.99360
 5579.00000   93.03960   87.05430  147.41280
 5579.50000   94.40380   94.65840  149.23310
 5580.00000   96.25320  103.49270  147.00250
 5580.50000   94.09900  108.43470  146.74730
 5581.00000   89.61980  107.69730  146.64470
 5581.50000   87.26750   95.94010  146.24050
 5582.00000   84.42890   83.81040  147.12540
 5582.50000   80.49510   77.17630  148.37960
 5583.00000   71.77790   77.24850  148.97570
 5583.50000   61.95370   85.69540  147.44530
 5584.00000   56.79480   94.31460  144.11320
 5584.50000   54.04010  105.94830  142.61040
 5585.00000   53.39090  113.66310  142.34460
 5585.50000   52.92940  115.45630  142.69270
 5586.00000   51.34730  117.73610  143.76970
 5586.50000   49.89130  119.80660  144.94850
 5587.00000   49.37500  121.71780  148.96140
 5587.50000   51.89680  122.85570  153.06590
 5588.00000   58.04070  122.85330  151.67450
 5588.50000   66.65290  122.73370  150.80340
 5589.00000   78.35630  122.60590  151.36270
 5589.50000   86.50500  122.54650  151.35890
 5590.00000   90.06610  122.76990  148.85390
 5590.50000   89.85570  122.53010  145.87570
 5591.00000   91.50000  122.53010  143.36810
 5591.50000   93.35460  122.53010  143.99970
 5592.00000   92.48220  122.52500  144.27140
 5592.50000   91.63560  122.51620  143.34190
 5593.00000   92.23040  122.46840  143.01360
 5593.50000   94.36260  122.56600  145.52670
 5594.00000   97.14970  123.31310  148.50870
 5594.50000   99.79150  123.86040  148.21650
 5595.00000  100.70780  126.34710  146.68190
 5595.50000   99.40830  127.14160  145.30850
 5596.00000   95.71140  125.60080  144.55430
 5596.50000   92.75290  122.51900  143.81050
 5597.00000   92.76200  121.77200  143.25830
 5597.50000   94.94420  122.76880  143.19650
 5598.00000   96.94320  124.23280  143.61230
 5598.50000   97.74490  124.30450  144.27310
 5599.00000   96.08690  122.05650  144.92370
 5599.50000   93.12910  121.66370  144.10070
 5600.00000   89.81140  120.76470  143.00890
 5600.50000   86.99100   79.67130  141.91700
 5601.00000   86.22170   23.93160  141.86400
 5601.50000   84.46260  -67.83690  142.60820
 5602.00000   81.87800  -68.64580  142.46480
 5602.50000   79.03710  -68.64580  143.65780
 5603.00000   78.43770  -68.64580  145.64620
 5603.50000   81.23900  -68.56000  147.33040
 5604.00000   84.12070  -68.45290  148.27710
 5604.50000   90.20700  -68.34590  147.22420
 5605.00000   99.23390  -68.23890  145.72590
 5605.50000  107.42720  -68.18680  145.17470
 5606.00000  108.57390  -55.17650  145.28890
 5606.50000  102.89860    2.06610  145.76240
 5607.00000   95.79300   39.10400  146.23580
 5607.50000   88.68730   76.14180  146.68020
 5608.00000   86.46570  118.78610  146.52670
 5608.50000   88.30570  114.49860  137.33460
 5609.00000   92.03800  108.53290  131.06330
 5609.50000   93.95290  102.54960  134.52190
 5610.00000   92.08110   99.64320  136.92940
 5610.50000   84.83640   99.81470  132.93460
 5611.00000   77.00780  103.53760  126.53270
 5611.50000   61.70920  112.53840  120.53420
 5612.00000   48.92780  121.11370  114.76680
 5612.50000   34.79050  125.29020  108.99950
 5613.00000   26.92200  124.41640  103.28370
 5613.50000   20.56800  123.97670  100.81970
 5614.00000   19.74020  123.55330   98.40530
 5614.50000   20.18060  121.65610   96.75780
 5615.00000   20.58040  120.16760   96.24640
 5615.50000   20.98600  119.75570   96.45720
 5616.00000   21.23690  119.70640   96.84330
 5616.50000   21.35270  119.89130   97.22930
 5617.00000   21.46850  121.65550   97.61540
 5617.50000   21.43670  123.55400   97.75190
 5618.00000   21.71230  121.23430   97.39620
 5618.50000   21.66220   79.61060   96.82530
 5619.00000   21.14690   31.61860   96.10540
 5619.50000   20.39190   13.03680   95.98180
 5620.00000   19.94590    7.39640   96.51720
 5620.50000   19.95620    6.63850   97.31630
 5621.00000   21.08560   13.49770   98.11540
 5621.50000   22.25500   25.01210   98.28130
 5622.00000   22.73910   36.52660   98.35920
 5622.50000   21.29630   39.01680   98.43710
 5623.00000   19.81560   36.53030   98.51500
 5623.50000   18.34160   32.35060   98.55200
 5624.00000   19.21270   34.93580   98.57240
 5624.50000   22.08720   47.51100   98.62370
 5625.00000   23.55060   48.98980   98.45710
 5625.50000   23.78910   48.48030   98.18150
 5626.00000   23.78730   49.85930   97.93960
 5626.50000   23.65810   52.44820   97.73340
 5627.00000   22.80040   52.47170   97.82270
 5627.50000   21.45810   49.46590   98.06370
 5628.00000   20.11030   46.14100   98.22780
 5628.50000   19.92720   48.29400   98.13040
 5629.00000   21.15740   51.30990   97.91600
 5629.50000   22.58770   51.56630   97.60000
 5630.00000   23.58690   42.38760   97.18000
 5630.50000   24.17880   38.36350   97.01670
 5631.00000   24.87960   35.52500   97.00170
 5631.50000   25.58040   37.68220   96.65300
 5632.00000   25.31100   43.67610   96.96550
 5632.50000   24.00900   44.24180   97.47510
 5633.00000   23.37310   45.01990   97.96310
 5633.50000   23.79470   48.78360   98.38290
 5634.00000   23.96120   53.96530   99.11950
 5634.50000   23.55180   59.36170   99.63140
 5635.00000   22.73150   60.54740   99.63120
 5635.50000   21.27210   58.16930   99.54010
 5636.00000   21.04370   63.30430   99.45500
 5636.50000   21.51160   71.45670   99.55890
 5637.00000   21.88650   80.40190   99.66280
 5637.50000   21.61610   88.41170   99.76670
 5638.00000   21.80190   95.56430   99.85030
 5638.50000   22.88190  101.66990   99.76200
 5639.00000   24.30600  106.49180   99.65840
 5639.50000   24.92060  107.37100   99.53210
 5640.00000   24.82480  106.96110   99.40570
 5640.50000   24.43220  117.49770   99.26340
 5641.00000   24.18300  123.36960   98.98140
 5641.50000   24.19660  116.25730   98.94980
 5642.00000   24.07010  109.14510   98.91830
 5642.50000   23.80140  101.57020   98.88670
 5643.00000   23.50800   87.17130   98.85510
 5643.50000   24.51180   72.95180   98.82360
 5644.00000   26.04740   64.70550   99.01650
 5644.50000   28.15390   60.89140   99.50170
 5645.00000   29.00390   57.36680   99.97460
 5645.50000   27.82750   55.64850  100.16000
 5646.00000   26.45990   55.38550  100.36400
 5646.50000   25.00940   53.50080  100.78630
 5647.00000   24.05710   49.86200  101.01440
 5647.50000   23.35480   47.14490  101.03720
 5648.00000   23.55910   45.34780  100.91550
 5648.50000   24.45560   47.69120  100.33590
 5649.00000   24.30530   52.68040   99.59630
 5649.50000   23.24840   59.06520   99.08470
 5650.00000   21.08620   63.20430   98.57310
 5650.50000   19.13020   64.65940   98.85290
 5651.00000   17.29180   61.99290   99.34190
 5651.50000   15.45340   54.55490  100.12720
 5652.00000   14.02590   50.72010  100.48500
 5652.50000   14.45500   46.05360  100.45770
 5653.00000   14.76810   37.07380  100.32520
 5653.50000   14.03000   28.52790  100.61040
 5654.00000   13.17080   30.29780  101.83340
 5654.50000   12.12590   41.82230  103.05630
 5655.00000   12.05780   45.33790  103.72450
 5655.50000   12.37340   46.08340  104.23940
 5656.00000   12.68890   46.91440  103.74950
 5656.50000   13.17260   56.75630  103.43510
 5657.00000   13.70380   71.06840  103.03560
 5657.50000   14.23490   74.20400  101.84510
