~Version ---------------------------------------------------
VERS.   2.0 : CWLS log ASCII Standard -VERSION 2.0
WRAP.    NO : One line per depth step
DLM . SPACE : Column Data Section Delimiter
~Well ------------------------------------------------------
STRT .F                 4946.0 : START DEPTH
STOP .F                 9646.0 : STOP DEPTH
STEP .F                    0.5 : STEP
NULL .                -9999.25 : NULL VALUE
COMP .                         : COMPANY
WELL .                         : WELL
FLD  .                         : FIELD
LOC  .                         : LOCATION
PROV .                         : PROVINCE
CNTY .                         : COUNTY
STAT .                         : STATE
CTRY .                         : COUNTRY
SRVC .                         : SERVICE COMPANY
DATE .                         : DATE
UWI  .                         : UNIQUE WELL ID
API  .                         : API NUMBER
SLAT .WGS84 2.5212332160271984 : SURFACE LATITUDE
SLON .WGS84  6.204841904963004 : SURFACE LONGITUDE
DATUM.F                2577.34 : DEPTH DATUM ELEV
~Curve Information -----------------------------------------
DEPT.F     : 
GRS .GAPI  : GAMMA RAY FROM SONIC
DTSM.US/F  : DELTA-T SHEAR
DTCO.US/F  : DELTA-T COMPRESSIONAL
~Params ----------------------------------------------------
~Other -----------------------------------------------------
~ASCII -----------------------------------------------------
# ...
 8328.00000   69.22120  148.85180   77.55710
 8328.50000   72.05110  153.31630   78.66090
 8329.00000   72.55250  158.01220   79.75250
 8329.50000   73.45110  165.23280   80.81150
 8330.00000   76.79480  176.42450   83.23690
 8330.50000   80.96780  187.61610   86.04470
 8331.00000   86.38820  198.44660   89.11390
 8331.50000   92.36310  199.60720   90.98870
 8332.00000   96.71890  190.50130   90.05840
 8332.50000   99.87270  188.70440   89.91080
 8333.00000  102.20870  192.84390   91.05610
 8333.50000  102.72980  200.29120   92.57490
 8334.00000  101.93090  204.20160   93.20760
 8334.50000  102.58640  203.50010   92.50090
 8335.00000  102.39570  195.94220   91.49960
 8335.50000  100.43570  184.00840   90.55960
 8336.00000   96.36350  172.07460   89.61950
 8336.50000   93.84890  160.83240   88.67940
 8337.00000   96.28410  158.46820   87.70840
 8337.50000   98.02090  156.10410   87.15940
 8338.00000   98.30180  155.55360   87.48580
 8338.50000   95.40330  156.35870   88.18540
 8339.00000   90.78470  157.16380   88.96270
 8339.50000   88.48530  158.23730   89.64140
 8340.00000   86.96760  159.01450   90.01650
 8340.50000   85.35670  158.96590   89.45490
 8341.00000   84.24310  154.69950   87.80110
 8341.50000   83.04780  150.43300   85.75300
 8342.00000   80.40840  146.16650   82.37770
 8342.50000   74.39020  141.90010   79.85220
 8343.00000   68.37200  140.11360   78.85760
 8343.50000   66.23730  140.55740   80.30210
 8344.00000   69.21580  143.21330   81.36120
 8344.50000   75.82840  144.95060   81.17710
 8345.00000   80.07680  145.33920   80.85230
 8345.50000   80.27890  144.58890   81.39470
 8346.00000   78.52010  143.92840   82.16750
 8346.50000   77.28940  143.34790   82.21010
 8347.00000   77.69410  143.55630   82.00170
 8347.50000   77.37150  144.64020   81.97780
 8348.00000   76.27240  151.31220   82.06390
 8348.50000   75.45720  160.32500   82.08210
 8349.00000   76.07700  166.26430   81.93840
 8349.50000   78.04490  161.23150   82.06670
 8350.00000   78.18720  156.66450   82.29100
 8350.50000   77.15590  160.42340   82.56610
 8351.00000   75.47940  153.95410   82.08520
 8351.50000   74.24790  147.47220   81.64970
 8352.00000   75.99720  145.49170   82.08100
 8352.50000   78.15790  144.17740   83.30160
 8353.00000   80.20150  143.83500   84.31830
 8353.50000   81.47290  144.29260   84.35020
 8354.00000   80.22240  145.19560   82.53260
 8354.50000   78.25170  147.05360   80.50070
 8355.00000   76.03420  148.91150   79.36980
 8355.50000   76.14890  149.48440   80.33080
 8356.00000   77.58500  149.22520   81.67600
 8356.50000   79.18750  149.91190   82.84270
 8357.00000   80.56330  167.55000   83.82460
 8357.50000   81.78890  190.00710   84.98940
 8358.00000   81.51670  205.37780   85.79410
 8358.50000   79.53040  207.46940   86.01180
 8359.00000   78.03360  208.79210   85.67740
 8359.50000   76.28900  204.96650   85.06460
 8360.00000   74.44850  200.24370   84.12660
 8360.50000   72.60790  199.60610   83.12350
 8361.00000   74.60810  200.74470   82.32860
 8361.50000   76.80600  202.13120   81.53370
 8362.00000   75.60770  202.40190   81.42260
 8362.50000   74.46690  202.22180   83.63040
 8363.00000   75.85430  202.57070   85.32180
 8363.50000   78.61140  203.38810   86.00280
 8364.00000   79.27290  203.72160   87.90000
 8364.50000   71.43010  203.75390   89.68910
 8365.00000   60.67860  205.06860   90.08000
 8365.50000   46.65400  209.55580   89.81010
 8366.00000   31.18450  209.95450   90.29240
 8366.50000   27.92880  206.51820   95.11710
 8367.00000   25.53370  204.20160   99.96890
 8367.50000   25.12940  210.93410   98.30040
 8368.00000   25.23870  212.13110   93.51780
 8368.50000   28.46380  207.78890   89.68990
 8369.00000   36.82610  206.00660   89.96080
 8369.50000   52.83650  207.89280   91.07930
 8370.00000   71.70320  207.69320   92.19780
 8370.50000   85.04760  203.18340   92.68810
 8371.00000   93.02230  196.02650   92.55700
 8371.50000   97.76390  192.22340   91.59880
 8372.00000   99.88110  193.46080   90.18550
 8372.50000  101.41790  196.36710   88.68930
 8373.00000  101.08370  199.83060   87.96590
 8373.50000   98.61500  200.42770   87.46160
 8374.00000   97.94650  192.02610   86.99370
 8374.50000   97.35820  176.82610   86.68180
 8375.00000   96.89140  161.88270   87.28090
 8375.50000   95.50350  150.05330   88.40420
 8376.00000   95.42500  169.61900   87.41970
 8376.50000   95.95970  192.33460   85.37770
 8377.00000   96.33790  202.43170   80.92180
 8377.50000   91.67640  201.84740   77.55290
 8378.00000   82.83200  200.69530   77.06120
 8378.50000   70.86190  199.54320   78.34970
 8379.00000   66.90360  198.44670   80.35720
 8379.50000   73.01090  198.94500   84.39830
 8380.00000   82.25080  201.54700   86.37850
 8380.50000   93.01380  204.14890   87.93020
 8381.00000   91.06690  206.75090   88.21370
 8381.50000   88.73530  208.30380   88.36860
 8382.00000   88.97960  206.62530   88.30650
 8382.50000   92.18120  202.17260   87.98910
 8383.00000   97.47760  197.71990   87.53370
 8383.50000  101.59420  185.75740   87.26420
 8384.00000  101.62840  172.68350   87.34620
 8384.50000  100.24470  170.62350   87.32590
 8385.00000   99.27500  183.13890   87.04580
 8385.50000   98.93260  196.41440   86.25470
 8386.00000   98.63300  200.23070   85.71470
 8386.50000   97.59090  198.74250   85.19070
 8387.00000   95.07550  197.53880   84.46540
 8387.50000   92.90740  199.23610   82.36980
 8388.00000   91.82240  205.32980   80.45590
 8388.50000   88.70810  205.70160   79.14680
 8389.00000   78.72320  203.28200   78.07160
 8389.50000   56.97910  200.59170   76.33020
 8390.00000   38.73210  200.59230   74.48470
 8390.50000   34.01300  199.80110   73.70390
 8391.00000   38.81800  199.87850   75.62780
 8391.50000   62.56710  200.62190   80.10960
 8392.00000   82.36160  199.46140   83.91140
 8392.50000  100.48250  197.92100   86.56910
 8393.00000  102.65510  199.03820   86.55190
 8393.50000  100.82240  201.90320   85.56700
 8394.00000   97.66880  203.68590   85.16220
 8394.50000   95.49060  203.95680   84.81070
 8395.00000   95.30830  204.38720   84.20980
 8395.50000   96.22340  204.85550   83.19350
 8396.00000   97.37150  205.32510   82.49430
 8396.50000   97.62040  205.52220   81.93530
 8397.00000   95.90140  204.62170   81.30750
 8397.50000   93.66510  195.97490   80.64270
 8398.00000   92.85760  181.57700   80.13820
 8398.50000   92.70190  167.17920   79.82080
 8399.00000   90.62690  157.28590   79.87570
 8399.50000   87.54780  156.40920   80.39290
 8400.00000   81.74060  163.34840   81.16240
 8400.50000   78.48300  191.93590   81.89470
 8401.00000   80.58340  204.95680   83.50720
 8401.50000   86.38310  205.72130   85.44080
 8402.00000   92.03340  204.95310   86.58400
 8402.50000   94.70750  205.12390   86.97770
 8403.00000   98.73270  206.93950   87.21590
 8403.50000  102.08250  208.50720   87.20600
 8404.00000  102.15060  208.50850   86.40940
 8404.50000  100.48320  206.63060   85.09790
 8405.00000   98.56840  204.43290   83.29710
 8405.50000   97.48480  202.59820   79.85310
 8406.00000   94.22580  202.95550   76.26530
 8406.50000   86.77470  204.29360   72.98320
 8407.00000   72.84630  197.56220   72.01340
 8407.50000   59.95240  187.96600   72.88380
 8408.00000   60.63470  154.06930   74.94460
 8408.50000   69.51140  150.79560   76.86110
 8409.00000   79.01710  162.99740   79.32200
 8409.50000   86.66080  178.90260   81.16760
 8410.00000   90.01140  194.84430   81.85980
 8410.50000   88.96840  201.94360   81.90980
 8411.00000   87.86380  201.37990   81.79270
 8411.50000   90.50310  198.96050   81.69200
 8412.00000   93.15500  196.65820   81.39070
 8412.50000   93.43750  195.45970   80.23500
 8413.00000   93.32180  194.05330   80.70530
 8413.50000   96.97080  194.01980   81.21840
 8414.00000  103.54250  195.53770   78.90540
 8414.50000  104.46130  196.20540   76.66300
 8415.00000   97.27850  194.88760   75.71710
 8415.50000   83.58870  193.97140   76.54430
 8416.00000   69.28440  196.29300   78.60890
 8416.50000   68.77640  201.13320   80.53660
