~Version ---------------------------------------------------
VERS.   2.0 : CWLS log ASCII Standard -VERSION 2.0
WRAP.    NO : One line per depth step
DLM . SPACE : Column Data Section Delimiter
~Well ------------------------------------------------------
STRT .F                 4946.0 : START DEPTH
STOP .F                 9646.0 : STOP DEPTH
STEP .F                    0.5 : STEP
NULL .                -9999.25 : NULL VALUE
COMP .                         : COMPANY
WELL .                         : WELL
FLD  .                         : FIELD
LOC  .                         : LOCATION
PROV .                         : PROVINCE
CNTY .                         : COUNTY
STAT .                         : STATE
CTRY .                         : COUNTRY
SRVC .                         : SERVICE COMPANY
DATE .                         : DATE
UWI  .                         : UNIQUE WELL ID
API  .                         : API NUMBER
SLAT .WGS84 2.5212332160271984 : SURFACE LATITUDE
SLON .WGS84  6.204841904963004 : SURFACE LONGITUDE
DATUM.F                2577.34 : DEPTH DATUM ELEV
~Curve Information -----------------------------------------
DEPT.F     : 
GRS .GAPI  : GAMMA RAY FROM SONIC
DTSM.US/F  : DELTA-T SHEAR
DTCO.US/F  : DELTA-T COMPRESSIONAL
~Params ----------------------------------------------------
~Other -----------------------------------------------------
~ASCII -----------------------------------------------------
# ...
 6192.00000  110.02320  149.66480   81.32210
 6192.50000  109.68990  149.81490   80.32000
 6193.00000  104.94940  147.63730   80.09210
 6193.50000   96.74740  145.07340   80.12130
 6194.00000   91.07360  143.77020   80.17940
 6194.50000   93.57750  142.72030   80.16680
 6195.00000  101.44990  141.11050   80.26600
 6195.50000  110.03600  136.78770   81.31600
 6196.00000  111.75630  133.30490   81.83610
 6196.50000  110.91050  130.22810   82.07750
 6197.00000  109.74870  127.37990   81.26000
 6197.50000  108.53990  125.98730   80.25000
 6198.00000  105.38140  125.06240   79.27100
 6198.50000   99.06810  125.41320   78.60750
 6199.00000   92.82990  126.52410   78.16890
 6199.50000   90.20660  126.34980   77.73040
 6200.00000   90.47410  124.46380   77.29180
 6200.50000   92.55750  119.12770   76.88880
 6201.00000   94.69140  112.45660   76.40070
 6201.50000   95.58990  106.65580   75.60680
 6202.00000   94.37060  106.33080   75.00200
 6202.50000   92.95320  124.73470   80.51790
 6203.00000   92.10530  163.11060   93.63710
 6203.50000   91.72200  201.51360  102.96940
 6204.00000   92.12730  189.76650   96.92090
 6204.50000   92.39220  163.26220   86.31130
 6205.00000   91.25390  143.02780   84.17510
 6205.50000   87.43660  142.93150   90.43330
 6206.00000   82.22720  146.48950   97.86100
 6206.50000   78.86150  150.37670   97.77600
 6207.00000   77.63680  154.26390   96.03400
 6207.50000   78.35270  154.86210   95.35820
 6208.00000   80.50790  152.67460   95.08100
 6208.50000   83.13060  141.57870   91.46550
 6209.00000   84.00880  136.24810   85.19660
 6209.50000   83.14430  137.01370   84.72760
 6210.00000   81.80470  125.77140   85.24280
 6210.50000   82.01170  122.12310   82.30250
 6211.00000   84.14060  123.51880   77.78750
 6211.50000   87.38770  125.94770   74.33490
 6212.00000   87.49670  128.63570   78.11400
 6212.50000   85.24950  131.32360   86.01140
 6213.00000   82.58380  134.40020   93.90880
 6213.50000   79.43960  137.07660   95.11110
 6214.00000   78.41090  136.65250   94.71690
 6214.50000   81.96330  134.01340   92.60170
 6215.00000   89.35510  132.26080   91.25910
 6215.50000   97.86920  141.95100   96.69860
 6216.00000  102.49080  155.00070  104.70090
 6216.50000  101.36970  177.79670  112.19030
 6217.00000   98.98720  181.55770  115.83960
 6217.50000   97.55410  165.41060  115.55450
 6218.00000  100.51040  146.50810  113.81020
 6218.50000  104.57350  138.74450  120.17590
 6219.00000  106.47400  139.34240  126.96590
 6219.50000  104.74700  141.01030  129.28580
 6220.00000  102.40030  140.85680  128.99490
 6220.50000  100.83320  139.53430  127.40870
 6221.00000  102.84260  139.08510  117.82620
 6221.50000  105.61500  141.11610  107.93470
 6222.00000  107.68930  140.68620   98.04310
 6222.50000  109.10240  137.49020   88.15160
 6223.00000  110.34690  132.67110   78.26000
 6223.50000  111.55690  132.49420   78.45490
 6224.00000  111.06440  132.19910   81.42280
 6224.50000  109.77400  131.14450   81.91800
 6225.00000  110.23230  129.64620   80.86600
 6225.50000  112.24140  127.92530   79.56520
 6226.00000  113.37930  126.20440   78.21590
 6226.50000  108.98340  124.43990   76.76470
 6227.00000  101.35250  123.37850   75.31360
 6227.50000   92.11710  124.84330   74.69360
 6228.00000   87.60260  145.75110   78.99490
 6228.50000   83.81240  165.74260   88.26240
 6229.00000   77.96980  183.37520   98.14660
 6229.50000   67.57680  184.32060  100.20560
 6230.00000   58.28810  183.87450  104.87310
 6230.50000   53.57440  183.96520  107.88920
 6231.00000   58.57930  184.91440  102.82280
 6231.50000   65.47900  185.82090   96.30060
 6232.00000   70.64940  186.53970   94.02750
 6232.50000   68.97120  187.07530   97.70370
 6233.00000   65.27600  185.09740  101.98250
 6233.50000   66.37570  182.39510  103.05130
 6234.00000   72.55800  184.74110  102.97820
 6234.50000   78.29100  188.42600  103.00030
 6235.00000   83.46320  188.31850  104.07140
 6235.50000   87.01540  185.58020  113.29640
 6236.00000   89.51620  183.84550  124.11510
 6236.50000   90.72430  182.11930  130.44570
 6237.00000   87.88550  180.80760  128.13200
 6237.50000   73.32600  179.94780  123.22450
 6238.00000   56.38430  176.71150  115.66950
 6238.50000   39.59960  171.37790  107.74300
 6239.00000   33.72600  167.83040  101.20270
 6239.50000   36.69530  152.38540   95.48730
 6240.00000   49.71620  135.90620   91.64280
 6240.50000   61.46360  120.20670   88.86130
 6241.00000   72.04730  119.93330   86.47760
 6241.50000   82.63100  120.88320   80.24140
 6242.00000   89.54540  122.42400   75.21430
 6242.50000   88.82280  123.82240   72.46720
 6243.00000   86.89080  125.01430   71.45510
 6243.50000   85.21520  126.20630   71.86850
 6244.00000   83.80540  126.87980   73.30790
 6244.50000   83.69140  125.84940   74.68010
 6245.00000   85.88130  124.41080   75.26710
 6245.50000   87.54040  124.11470   75.66660
 6246.00000   88.11720  125.26800   75.82240
 6246.50000   86.93100  126.87830   75.06990
 6247.00000   85.54360  128.60430   73.66130
 6247.50000   84.14710  128.91440   71.95860
 6248.00000   82.53910  128.73860   71.31170
 6248.50000   81.42000  128.57770   71.41390
 6249.00000   81.93750  128.15820   71.77130
 6249.50000   82.61720  126.79460   72.09220
 6250.00000   81.21450  126.59750   72.34550
 6250.50000   78.62710  127.82410   72.55940
 6251.00000   76.01960  129.57720   72.77340
 6251.50000   75.45880  130.88470   72.67830
 6252.00000   78.75340  130.40650   72.58780
 6252.50000   83.78150  128.68950   72.91360
 6253.00000   88.83190  128.48710   73.21790
 6253.50000   93.29170  130.00850   73.37000
 6254.00000   96.61300  131.63670   73.26000
 6254.50000   95.92610  132.45720   73.36590
 6255.00000   94.88400  134.87140   74.07460
 6255.50000   94.04490  137.64530   74.57260
 6256.00000   94.62030  140.56440   75.32030
 6256.50000   95.74540  140.99840   75.71920
 6257.00000   96.26960  139.42170   74.87970
 6257.50000   95.57860  136.75940   73.17890
 6258.00000   90.82400  134.49270   71.59830
 6258.50000   85.74240  133.00300   70.57740
 6259.00000   80.84490  131.99290   70.34040
 6259.50000   81.66980  131.02180   70.44150
 6260.00000   84.91220  130.84450   71.34810
 6260.50000   89.93790  131.37620   72.27980
 6261.00000   93.11580  133.14370   74.30540
 6261.50000   95.55840  135.70610   74.68020
 6262.00000   95.88530  138.67480   74.73880
 6262.50000   95.78080  140.75430   76.41120
 6263.00000   96.23310  141.08550   77.64690
 6263.50000   95.75580  139.73360   77.93540
 6264.00000   91.11780  137.62440   77.00820
 6264.50000   84.78110  135.85670   75.62810
 6265.00000   83.95670  134.13340   76.79060
 6265.50000   88.23490  133.66670   80.49280
 6266.00000   92.75140  133.80370   85.75870
 6266.50000   93.47220  133.79770   90.19920
 6267.00000   91.71680  132.55810   91.39700
 6267.50000   89.45120  130.41290   87.59890
 6268.00000   86.51060  129.76310   81.63790
 6268.50000   85.12550  129.95980   76.69470
 6269.00000   85.18420  130.17360   75.19170
 6269.50000   86.02280  130.28470   74.57550
 6270.00000   85.39880  129.47500   75.03960
 6270.50000   83.78160  127.70280   76.62120
 6271.00000   79.67470  125.82170   80.94550
 6271.50000   75.03810  124.02100   85.92900
 6272.00000   70.44480  123.49610   88.39470
 6272.50000   66.65740  123.88260   88.48590
 6273.00000   69.27970  125.68390   87.33120
 6273.50000   81.53860  128.79350   84.72040
 6274.00000   94.82450  132.15260   81.24440
 6274.50000  108.83180  135.37200   77.99800
 6275.00000  112.08950  135.78730   77.44280
 6275.50000  110.22340  134.87060   78.28300
 6276.00000  105.40200  131.22290   79.46950
 6276.50000   99.14480  128.29570   81.58210
 6277.00000   88.11600  128.81850   85.65850
 6277.50000   77.07780  131.49820   91.12200
 6278.00000   67.08390  133.00750   91.90190
 6278.50000   65.34910  131.23550   91.37250
 6279.00000   68.11770  130.98650   90.46620
 6279.50000   73.39810  131.97990   89.55990
 6280.00000   79.22380  131.57380   89.02480
 6280.50000   85.04950  129.32310   89.73320
