~Version ---------------------------------------------------
VERS.   2.0 : CWLS log ASCII Standard -VERSION 2.0
WRAP.    NO : One line per depth step
DLM . SPACE : Column Data Section Delimiter
~Well ------------------------------------------------------
STRT .F                 4946.0 : START DEPTH
STOP .F                 9646.0 : STOP DEPTH
STEP .F                    0.5 : STEP
NULL .                -9999.25 : NULL VALUE
COMP .                         : COMPANY
WELL .                         : WELL
FLD  .                         : FIELD
LOC  .                         : LOCATION
PROV .                         : PROVINCE
CNTY .                         : COUNTY
STAT .                         : STATE
CTRY .                         : COUNTRY
SRVC .                         : SERVICE COMPANY
DATE .                         : DATE
UWI  .                         : UNIQUE WELL ID
API  .                         : API NUMBER
SLAT .WGS84 2.5212332160271984 : SURFACE LATITUDE
SLON .WGS84  6.204841904963004 : SURFACE LONGITUDE
DATUM.F                2577.34 : DEPTH DATUM ELEV
~Curve Information -----------------------------------------
DEPT.F     : 
GRS .GAPI  : GAMMA RAY FROM SONIC
DTSM.US/F  : DELTA-T SHEAR
DTCO.US/F  : DELTA-T COMPRESSIONAL
~Params ----------------------------------------------------
~Other -----------------------------------------------------
~ASCII -----------------------------------------------------
# ...
 8684.00000   37.10670  156.75970   77.24310
 8684.50000   42.82470  158.72530   75.44370
 8685.00000   49.95770  162.07620   76.40130
 8685.50000   60.25080  164.65910   77.98870
 8686.00000   70.54390  161.69600   80.55740
 8686.50000   80.68230  155.33750   83.19920
 8687.00000   87.01460  150.93930   86.21350
 8687.50000   93.34690  151.82830   86.70860
 8688.00000   94.54030  152.45780   86.80370
 8688.50000   94.99020  153.08740   86.67860
 8689.00000   94.44210  151.31260   86.45350
 8689.50000   93.09920  148.80290   86.03090
 8690.00000   91.06950  146.50590   85.56810
 8690.50000   90.73310  146.73150   84.97090
 8691.00000   91.76930  148.53840   84.81950
 8691.50000   92.98400  150.34530   84.78300
 8692.00000   93.92260  152.24180   84.73850
 8692.50000   95.83420  153.58600   84.12710
 8693.00000   97.53480  153.58650   83.10710
 8693.50000   97.77000  153.65760   82.09770
 8694.00000   94.13450  153.72870   81.56900
 8694.50000   86.97310  154.11320   81.47200
 8695.00000   82.13310  154.63130   81.83610
 8695.50000   82.66560  155.13260   82.39620
 8696.00000   89.58580  155.70970   83.07170
 8696.50000   93.93550  156.35780   83.81600
 8697.00000   95.00020  156.80030   84.40920
 8697.50000   92.89800  155.60850   84.40950
 8698.00000   89.44110  154.41350   84.29390
 8698.50000   86.36680  154.83230   83.87020
 8699.00000   82.49440  154.95320   83.69570
 8699.50000   79.13690  153.67740   83.79830
 8700.00000   78.23880  149.50690   83.72350
 8700.50000   83.87490  144.72450   83.29650
 8701.00000   89.89390  137.08130   82.32070
 8701.50000   93.71820  129.43810   81.99840
 8702.00000   83.00530  122.91450   83.75120
 8702.50000   70.47510  123.11380   82.76950
 8703.00000   57.25660  130.25460   79.53600
 8703.50000   46.98080  136.11250   80.23760
 8704.00000   52.48180  130.46490   81.32880
 8704.50000   64.82580  127.39300   79.36500
 8705.00000   78.30190  128.29710   77.69780
 8705.50000   83.73680  130.02910   77.42800
 8706.00000   82.81340  131.76100   77.09830
 8706.50000   79.91360  132.63080   76.17790
 8707.00000   77.60790  131.50580   76.07480
 8707.50000   75.61730  130.25870   76.05760
 8708.00000   73.31450  129.01150   76.08460
 8708.50000   71.26350  127.76440   76.16560
 8709.00000   72.53500  126.85200   76.40690
 8709.50000   77.15080  126.79760   76.82000
 8710.00000   82.67940  135.34700   77.81920
 8710.50000   85.57670  140.79020   78.73650
 8711.00000   86.13080  139.95110   79.53370
 8711.50000   85.66570  138.47000   80.44590
 8712.00000   86.53070  137.04840   81.19030
 8712.50000   89.40620  136.00300   80.75020
 8713.00000   92.21360  135.45490   79.83200
 8713.50000   91.47080  135.45640   78.91390
 8714.00000   89.43380  136.66030   78.29680
 8714.50000   87.46000  138.18560   78.53370
 8715.00000   87.38670  137.94920   79.58460
 8715.50000   90.20430  138.03690   80.63560
 8716.00000   93.89700  139.72940   81.79340
 8716.50000   95.78670  140.37060   82.60190
 8717.00000   92.71640  139.61970   82.49080
 8717.50000   87.68200  139.42470   82.29200
 8718.00000   84.58640  140.34510   82.29260
 8718.50000   85.65200  141.34560   82.62530
 8719.00000   87.48300  142.34610   82.88970
 8719.50000   89.05170  143.34660   83.16750
 8720.00000   87.37440  144.34720   83.45830
 8720.50000   84.96760  144.61490   83.47440
 8721.00000   82.06970  144.42180   83.29030
 8721.50000   82.70450  143.44040   82.95830
 8722.00000   86.16230  142.50760   82.63110
 8722.50000   88.04250  143.55220   82.32400
 8723.00000   87.60980  143.47870   82.00320
 8723.50000   86.69790  141.66140   81.66720
 8724.00000   87.04950  140.24510   81.71540
 8724.50000   88.62240  140.85940   81.93910
 8725.00000   89.55560  141.66000   82.18220
 8725.50000   90.30960  142.54620   82.59780
 8726.00000   91.17630  146.13680   83.12140
 8726.50000   92.67690  152.50770   83.72310
 8727.00000   94.33500  157.17370   84.15800
 8727.50000   95.92330  157.30750   84.26860
 8728.00000   97.49370  155.41460   83.91670
 8728.50000   97.29950  151.88100   83.21580
 8729.00000   94.74360  148.34730   82.66420
 8729.50000   91.35980  144.81370   82.28720
 8730.00000   92.83330  141.28000   81.85700
 8730.50000   95.18890  139.48500   81.44730
 8731.00000   96.54860  139.26370   81.50900
 8731.50000   93.72690  139.33690   81.71070
 8732.00000   90.36650  140.07050   81.93930
 8732.50000   89.01990  153.83060   82.04820
 8733.00000   90.66120  176.47830   82.23120
 8733.50000   94.84780  203.15350   82.48040
 8734.00000   97.96350  218.44030   82.64250
 8734.50000   99.43700  211.77400   82.53460
 8735.00000  100.78230  187.57390   82.14730
 8735.50000  101.19210  163.37380   81.75480
 8736.00000   99.65210  141.41430   81.72170
 8736.50000   95.12340  141.38420   81.39780
 8737.00000   90.22930  142.28820   81.02670
 8737.50000   87.09310  142.46670   80.46460
 8738.00000   89.75700  142.02070   79.88450
 8738.50000   92.88930  141.56160   79.30440
 8739.00000   91.72720  141.10260   79.17840
 8739.50000   89.96180  140.87360   79.33480
 8740.00000   88.19630  140.99770   79.51830
 8740.50000   87.08400  141.30950   79.74240
 8741.00000   86.94400  141.83220   80.05470
 8741.50000   87.23680  141.67790   80.36710
 8742.00000   89.43910  140.96410   80.67940
 8742.50000   92.53850  141.55970   80.98940
 8743.00000   92.31770  142.48110   81.06850
 8743.50000   92.71550  142.55480   81.26800
 8744.00000   93.51990  141.17690   81.59630
 8744.50000   93.26010  140.84220   81.74980
 8745.00000   89.95300  140.78670   81.40560
 8745.50000   86.02770  141.05740   81.66020
 8746.00000   86.40700  141.94400   81.76210
 8746.50000   88.86150  142.76720   81.79290
 8747.00000   91.37110  142.22490   81.82640
 8747.50000   93.04530  141.52020   81.86480
 8748.00000   95.34050  141.01890   81.82130
 8748.50000   97.88500  141.08140   81.64150
 8749.00000   97.99790  141.57490   81.71190
 8749.50000   96.77250  141.74740   81.82470
 8750.00000   93.60000  141.18860   81.81030
 8750.50000   91.63310  140.87410   81.79600
 8751.00000   92.15850  141.03410   81.87380
 8751.50000   92.93020  143.11360   82.02470
 8752.00000   92.41060  143.13860   82.42300
 8752.50000   91.02730  144.08000   82.85690
 8753.00000   89.69020  165.99020   82.69070
 8753.50000   90.10560  192.47830   82.96450
 8754.00000   93.62060  196.63050   83.36790
 8754.50000   97.68810  194.18880   84.32380
 8755.00000   98.02580  194.90190   85.27510
 8755.50000   97.68650  196.47390   86.52350
 8756.00000  101.56490  196.51500   87.17910
 8756.50000  106.56020  197.04540   87.95270
 8757.00000  110.69530  201.74020   88.82720
 8757.50000  111.89850  204.42730   89.70140
 8758.00000  110.23320  205.01680   90.06020
 8758.50000  109.80390  206.03870   90.05470
 8759.00000  112.00030  211.52960   89.82220
 8759.50000  112.77250  217.63710   89.13380
 8760.00000  109.98860  218.49870   88.38890
 8760.50000  106.51870  214.58800   87.64410
 8761.00000  103.82210  209.66850   87.15320
 8761.50000  105.15070  206.46980   86.90840
 8762.00000  105.38190  205.07530   86.05680
 8762.50000  100.96870  203.83710   85.20280
 8763.00000   94.50030  203.39420   84.42680
 8763.50000   91.08900  203.10140   83.81330
 8764.00000   90.90400  202.26760   83.32180
 8764.50000   92.66090  201.37160   82.79000
 8765.00000   94.12230  200.52120   81.35520
 8765.50000   93.65880  197.85520   79.38440
 8766.00000   88.85850  194.64480   77.28400
 8766.50000   83.00430  194.51020   76.96200
 8767.00000   77.63120  195.17310   77.30520
 8767.50000   77.06220  200.47070   77.98650
 8768.00000   80.53440  209.40640   79.50460
 8768.50000   85.86360  215.23950   81.23140
 8769.00000   91.12620  216.55600   83.52410
 8769.50000   93.98200  214.83360   84.14700
 8770.00000   95.29270  212.92090   84.32660
 8770.50000   94.75960  209.38960   84.76530
 8771.00000   95.02240  206.77400   85.17500
 8771.50000   96.16670  206.77600   85.71980
 8772.00000   96.01350  206.16200   86.30660
 8772.50000   95.68960  205.23140   86.57520
