~Version ---------------------------------------------------
VERS.   2.0 : CWLS log ASCII Standard -VERSION 2.0
WRAP.    NO : One line per depth step
DLM . SPACE : Column Data Section Delimiter
~Well ------------------------------------------------------
STRT .F                  214.0 : START DEPTH
STOP .F                 9541.0 : STOP DEPTH
STEP .F                    0.5 : STEP
NULL .                -9999.25 : NULL VALUE
COMP .                         : COMPANY
WELL .                         : WELL
FLD  .                         : FIELD
LOC  .                         : LOCATION
PROV .                         : PROVINCE
CNTY .                         : COUNTY
STAT .                         : STATE
CTRY .                         : COUNTRY
SRVC .                         : SERVICE COMPANY
DATE .                         : DATE
UWI  .                         : UNIQUE WELL ID
API  .                         : API NUMBER
SLAT .WGS84 3.0492386049413014 : SURFACE LATITUDE
SLON .WGS84  8.877749962376996 : SURFACE LONGITUDE
DATUM.F                3582.44 : DEPTH DATUM ELEV
~Curve Information -----------------------------------------
DEPT   .F     : 
HCALR  .IN    : HRCC CALIPER CALIBRATED FROM RESISTIVITY LOG
DTCO   .US/F  : DELTA-T COMPRESSIONAL
DTSM   .US/F  : DELTA-T SHEAR
HLLD   .OHMM  : HALS LATEROLOG DEEP RESISTIVITY
HLLS   .OHMM  : HALS LATEROLOG SHALLOW RESISTIVITY
RXOZ   .OHMM  : INVADED FORMATION RESISTIVITY FILTERED AT 18 INCHES
TNPH_LS.DEC   : THERMAL NEUTRON POROSITY [LIMESTONE]
PEFZ   .B/E   : HRDD STANDARD RESOLUTION FORMATION PHOTOELECTRIC FACTOR
HDRA   .G/C3  : HRDD SPINE AND RIBS DENSITY CORRECTION
DPHZ_LS.DEC   : HGRD STANDARD RESOLUTION DENSITY POROSITY
RHOZ   .G/C3  : HRDD STANDARD RESOLUTION FORMATION DENSITY
NPHI_LS.DEC   : NEUTRON POROSITY LIMESTONE
GRD    .GAPI  : GAMMA RAY FROM DENSITY LOG
~Params ----------------------------------------------------
~Other -----------------------------------------------------
~ASCII -----------------------------------------------------
# ...
 5986.00000    8.20320   -9999.25   -9999.25 2226.33110 1043.87240  559.89890    0.01800    3.59120    0.01160   -0.10350    2.87900   -9999.25   34.77590
 5986.50000    8.20320   -9999.25   -9999.25  459.12660  364.39390  376.82640    0.02440    3.61940    0.00350   -0.09680    2.86930   -9999.25   41.16770
 5987.00000    8.20320   -9999.25   -9999.25  230.23580  190.43170  122.70290    0.03200    3.58310   -0.00680   -0.09170    2.86160   -9999.25   46.03900
 5987.50000    8.20320   -9999.25   -9999.25  229.64830  188.00510  108.34490    0.04100    3.53340   -0.01750   -0.09020    2.85590   -9999.25   45.78630
 5988.00000    8.20320   -9999.25   -9999.25  497.58690  365.79810  122.31790    0.04070    3.44520   -0.02230   -0.09480    2.86180   -9999.25   40.76700
 5988.50000    8.20310   -9999.25   -9999.25 1060.54630 1072.57860  318.60700    0.02820    3.37410   -0.02350   -0.10630    2.88150   -9999.25   35.65860
 5989.00000    8.20320   -9999.25   -9999.25 1712.82470 1455.23570  384.63130    0.01870    3.37520   -0.01660   -0.11780    2.89520   -9999.25   38.35800
 5989.50000    8.18010   -9999.25   -9999.25 1777.67420 1659.09510  326.71100    0.01820    3.39830   -0.00830   -0.11820    2.90120   -9999.25   49.02700
 5990.00000    8.17460   -9999.25   -9999.25  479.98950  696.42800  324.18500    0.02110    3.42140   -0.01050   -0.10980    2.89460   -9999.25   58.26830
 5990.50000    8.18310   -9999.25   -9999.25  394.52850  329.65430   33.57540    0.02430    3.46320   -0.01420   -0.10160    2.87760   -9999.25   63.02920
 5991.00000    8.18300   -9999.25   -9999.25  401.94270  304.82580   33.82550    0.02540    3.52580   -0.01630   -0.09280    2.86630   -9999.25   57.59990
 5991.50000    8.18310   -9999.25   -9999.25  583.94370  672.55160   34.85890    0.02450    3.55320   -0.01670   -0.09210    2.86280   -9999.25   47.56690
 5992.00000    8.18300   -9999.25   -9999.25 1479.56100 1207.43400  769.58090    0.02130    3.53130   -0.01710   -0.09780    2.87130   -9999.25   41.29670
 5992.50000    8.18300   -9999.25   -9999.25  652.40420  601.80620  383.35850    0.02000    3.46710   -0.01860   -0.10640    2.87910   -9999.25   39.90190
 5993.00000    8.17200   -9999.25   -9999.25  508.79960  422.22160  251.05550    0.02190    3.43450   -0.01730   -0.10650    2.88050   -9999.25   40.79260
 5993.50000    8.16300   -9999.25   -9999.25  518.90620  455.75000  246.82090    0.02170    3.44820   -0.00770   -0.10430    2.88020   -9999.25   40.29870
 5994.00000    8.16300   -9999.25   -9999.25  990.49920  795.27090  310.92400    0.01940    3.45570    0.00030   -0.10500    2.88070   -9999.25   37.39600
 5994.50000    8.16290   -9999.25   -9999.25 1291.76610 1103.01970  507.89180    0.01360    3.44290    0.00480   -0.11110    2.88480   -9999.25   35.58060
 5995.00000    8.16290   -9999.25   -9999.25 1257.92550 1082.59970  576.42960    0.01360    3.43010    0.00330   -0.11540    2.89330   -9999.25   37.39810
 5995.50000    8.15220   -9999.25   -9999.25  641.00950  555.29590  467.01170    0.01780    3.45100    0.00260   -0.11280    2.89110   -9999.25   40.71920
 5996.00000    8.13210   -9999.25   -9999.25  408.80410  306.28200  278.92320    0.02290    3.52360    0.01590   -0.10450    2.88320   -9999.25   42.93170
 5996.50000    8.11220   -9999.25   -9999.25  430.60230  309.19430  284.99880    0.02410    3.53020    0.02100   -0.10240    2.87740   -9999.25   38.28480
 5997.00000    8.09230   -9999.25   -9999.25 1260.52750  793.23770  311.13780    0.01960    3.46580    0.02000   -0.10890    2.88560   -9999.25   30.25310
 5997.50000    8.08270   -9999.25   -9999.25 1812.78610 1421.53530  706.03690    0.01300    3.39690    0.01890   -0.11500    2.89430   -9999.25   24.75710
 5998.00000    8.10330   -9999.25   -9999.25 1810.54040 1382.77980  603.32950    0.01110    3.38900    0.02600   -0.11580    2.89850   -9999.25   22.71720
 5998.50000    8.13290   -9999.25   -9999.25 1972.27150 1479.17690  602.21860    0.01030    3.41430    0.03520   -0.11300    2.89590   -9999.25   23.45970
 5999.00000    8.14270   -9999.25   -9999.25 3476.05150 1935.59170  933.80730    0.00980    3.45870    0.03550   -0.11240    2.89320   -9999.25   27.04450
 5999.50000    8.14290   -9999.25   -9999.25 4070.58500 3080.86890  938.79580    0.00930    3.49940    0.02990   -0.11380    2.89480   -9999.25   29.88470
 6000.00000    8.15290   -9999.25   -9999.25 4137.17140 2949.35500 1002.73600    0.01050    3.54080    0.02490   -0.11540    2.89700   -9999.25   32.36490
 6000.50000    8.16290   -9999.25   -9999.25 4150.46580 2661.49170 1009.05880    0.01210    3.53920    0.02930   -0.11620    2.89660   -9999.25   35.08940
 6001.00000    8.16290   -9999.25   -9999.25 1487.03140 1213.80220  787.32310    0.01460    3.52380    0.03650   -0.11420    2.89480   -9999.25   37.89450
 6001.50000    8.16300   -9999.25   -9999.25  794.61580  726.70740  396.94630    0.01660    3.47540    0.04900   -0.11160    2.89180   -9999.25   40.86940
 6002.00000    8.16300   -9999.25   -9999.25  688.55220  676.50720  303.64210    0.01820    3.42670    0.05050   -0.10990    2.88950   -9999.25   43.36230
 6002.50000    8.16300   -9999.25   -9999.25  813.18330  760.58060  345.71730    0.01980    3.40630    0.04390   -0.11020    2.88890   -9999.25   42.18590
 6003.00000    8.16250   -9999.25   -9999.25  835.40750  837.72400  353.91940    0.02140    3.41880    0.03550   -0.11010    2.88810   -9999.25   38.54520
 6003.50000    8.18480   -9999.25   -9999.25  651.40330  628.84170  302.54510    0.02370    3.44050    0.02780   -0.10810    2.88640   -9999.25   35.72730
 6004.00000    8.20320   -9999.25   -9999.25  563.42840  524.40140  264.11790    0.02800    3.49020    0.02070   -0.09810    2.87720   -9999.25   35.35220
 6004.50000    8.20330   -9999.25   -9999.25  434.13970  393.01860  262.46630    0.03700    3.54840    0.01810   -0.09530    2.87070   -9999.25   36.33930
 6005.00000    8.24620   -9999.25   -9999.25  170.78730  168.99290   15.80360    0.04480    3.59780    0.02160   -0.09440    2.86350   -9999.25   36.83920
 6005.50000    8.30350   -9999.25   -9999.25  178.56340  165.33270   15.17670    0.04850    3.62900    0.02520   -0.09980    2.87430   -9999.25   35.24720
 6006.00000    8.29510   -9999.25   -9999.25  208.61960  356.69980   15.44910    0.04200    3.63750    0.02360   -0.11050    2.88640   -9999.25   31.04810
 6006.50000    8.27570   -9999.25   -9999.25 2184.96800 1668.55250  753.80290    0.02860    3.62060    0.01820   -0.11210    2.89060   -9999.25   27.45670
 6007.00000    8.26370   -9999.25   -9999.25 4161.31640 3351.95630  688.33870    0.02250    3.55130    0.01610   -0.11150    2.89100   -9999.25   26.96520
 6007.50000    8.25570   -9999.25   -9999.25 4639.44730 3644.05930  653.52590    0.01860    3.46940    0.01920   -0.11160    2.89040   -9999.25   27.61870
 6008.00000    8.23570   -9999.25   -9999.25 5013.89010 4023.35640  595.90660    0.01640    3.43370    0.02180   -0.11030    2.88870   -9999.25   28.42430
 6008.50000    8.21560   -9999.25   -9999.25 4952.32570 4309.77880  590.11250    0.01540    3.42590    0.02080   -0.10660    2.88470   -9999.25   29.29490
 6009.00000    8.20300   -9999.25   -9999.25 4270.44480 4159.56450  629.44680    0.01630    3.43890    0.01360   -0.10640    2.88350   -9999.25   29.79260
 6009.50000    8.18810   -9999.25   -9999.25 3388.89530 3199.42990  713.83350    0.01810    3.42980    0.00710   -0.10760    2.88310   -9999.25   29.82930
 6010.00000    8.16260   -9999.25   -9999.25 1225.22630  921.23260  584.58170    0.02190    3.44140    0.00140   -0.10270    2.87960   -9999.25   28.79360
 6010.50000    8.16300   -9999.25   -9999.25  512.15160  482.07990  265.46440    0.02650    3.47870   -0.00300   -0.09660    2.86520   -9999.25   27.92370
 6011.00000    8.16300   -9999.25   -9999.25  291.72470  291.72470  184.74920    0.03030    3.52160   -0.00580   -0.08910    2.85460   -9999.25   28.77500
 6011.50000    8.16300   -9999.25   -9999.25  279.85820  279.85820  162.42130    0.03240    3.56040   -0.01100   -0.08770    2.85270   -9999.25   30.03090
