~Version ---------------------------------------------------
VERS.   2.0 : CWLS log ASCII Standard -VERSION 2.0
WRAP.    NO : One line per depth step
DLM . SPACE : Column Data Section Delimiter
~Well ------------------------------------------------------
STRT .F                  214.0 : START DEPTH
STOP .F                 9541.0 : STOP DEPTH
STEP .F                    0.5 : STEP
NULL .                -9999.25 : NULL VALUE
COMP .                         : COMPANY
WELL .                         : WELL
FLD  .                         : FIELD
LOC  .                         : LOCATION
PROV .                         : PROVINCE
CNTY .                         : COUNTY
STAT .                         : STATE
CTRY .                         : COUNTRY
SRVC .                         : SERVICE COMPANY
DATE .                         : DATE
UWI  .                         : UNIQUE WELL ID
API  .                         : API NUMBER
SLAT .WGS84 3.0492386049413014 : SURFACE LATITUDE
SLON .WGS84  8.877749962376996 : SURFACE LONGITUDE
DATUM.F                3582.44 : DEPTH DATUM ELEV
~Curve Information -----------------------------------------
DEPT   .F     : 
HCALR  .IN    : HRCC CALIPER CALIBRATED FROM RESISTIVITY LOG
DTCO   .US/F  : DELTA-T COMPRESSIONAL
DTSM   .US/F  : DELTA-T SHEAR
HLLD   .OHMM  : HALS LATEROLOG DEEP RESISTIVITY
HLLS   .OHMM  : HALS LATEROLOG SHALLOW RESISTIVITY
RXOZ   .OHMM  : INVADED FORMATION RESISTIVITY FILTERED AT 18 INCHES
TNPH_LS.DEC   : THERMAL NEUTRON POROSITY [LIMESTONE]
PEFZ   .B/E   : HRDD STANDARD RESOLUTION FORMATION PHOTOELECTRIC FACTOR
HDRA   .G/C3  : HRDD SPINE AND RIBS DENSITY CORRECTION
DPHZ_LS.DEC   : HGRD STANDARD RESOLUTION DENSITY POROSITY
RHOZ   .G/C3  : HRDD STANDARD RESOLUTION FORMATION DENSITY
NPHI_LS.DEC   : NEUTRON POROSITY LIMESTONE
GRD    .GAPI  : GAMMA RAY FROM DENSITY LOG
~Params ----------------------------------------------------
~Other -----------------------------------------------------
~ASCII -----------------------------------------------------
# ...
 4296.00000    8.68910   -9999.25   -9999.25  839.54110  586.74970  661.06340    0.01650    3.50750    0.00810   -0.10860    2.88680   -9999.25   30.72050
 4296.50000    8.70680   -9999.25   -9999.25  845.88200  584.84080  527.42920    0.01710    3.44990    0.01300   -0.11240    2.89000   -9999.25   28.12760
 4297.00000    8.70640   -9999.25   -9999.25  883.69840  582.38690  532.88070    0.01780    3.43510    0.02350   -0.11430    2.89470   -9999.25   27.04400
 4297.50000    8.70890   -9999.25   -9999.25  909.47800  580.48190  660.33690    0.01690    3.43000    0.03460   -0.11260    2.89050   -9999.25   27.10050
 4298.00000    8.72100   -9999.25   -9999.25  892.09450  594.83840  829.99320    0.01610    3.43840    0.03030   -0.10880    2.88650   -9999.25   26.70540
 4298.50000    8.68640   -9999.25   -9999.25  887.16370  613.25590  846.36740    0.01610    3.44680    0.02460   -0.10640    2.88410   -9999.25   26.43920
 4299.00000    8.68360   -9999.25   -9999.25  930.23540  675.54340  850.37130    0.01640    3.46750    0.02780   -0.10580    2.88290   -9999.25   27.06590
 4299.50000    8.66870   -9999.25   -9999.25  986.93150  692.53460  775.21590    0.01700    3.47240    0.03010   -0.10640    2.88300   -9999.25   29.05200
 4300.00000    8.68110   -9999.25   -9999.25  959.96880  707.42030  712.85130    0.01710    3.45680    0.02650   -0.10810    2.88440   -9999.25   31.67800
 4300.50000    8.67090   -9999.25   -9999.25  962.98010  670.72610  672.09290    0.01680    3.44030    0.02010   -0.10950    2.88590   -9999.25   35.76010
 4301.00000    8.69170   -9999.25   -9999.25  990.42800  626.64610  619.88850    0.01640    3.44500    0.01390   -0.10870    2.88530   -9999.25   39.84090
 4301.50000    8.71210   -9999.25   -9999.25  965.25490  610.66440  729.39090    0.01610    3.48290    0.00980   -0.10670    2.88310   -9999.25   46.14680
 4302.00000    8.73680   -9999.25   -9999.25  812.73700  607.38020  770.00780    0.01570    3.58440    0.00320   -0.10480    2.88040   -9999.25   55.56300
 4302.50000    8.76750   -9999.25   -9999.25  623.02280  470.95050  433.35010    0.01600    3.70750   -0.00010   -0.10350    2.87830   -9999.25   70.73050
 4303.00000    8.77160   -9999.25   -9999.25  610.61080  452.32420  365.72440    0.01780    3.76680    0.00080   -0.10270    2.87740   -9999.25   83.38540
 4303.50000    8.78710   -9999.25   -9999.25  694.01130  529.94820  383.93450    0.01980    3.74520    0.00400   -0.10260    2.87710   -9999.25   93.43750
 4304.00000    8.78690   -9999.25   -9999.25  750.05770  557.32780  512.58590    0.02150    3.72360    0.00760   -0.10370    2.87900   -9999.25   94.87110
 4304.50000    8.79140   -9999.25   -9999.25  737.09500  562.46580  397.44960    0.02320    3.64150    0.00940   -0.10600    2.88060   -9999.25   92.69920
 4305.00000    8.80720   -9999.25   -9999.25  751.35340  573.70410  365.52070    0.02460    3.57390    0.00940   -0.10650    2.88180   -9999.25   87.20750
 4305.50000    8.80680   -9999.25   -9999.25  789.46940  589.13560  444.02340    0.02620    3.55600    0.01000   -0.10580    2.88160   -9999.25   81.06370
 4306.00000    8.80690   -9999.25   -9999.25  720.26760  556.13060  564.54460    0.02720    3.51040    0.01340   -0.10510    2.88010   -9999.25   74.91980
 4306.50000    8.81130   -9999.25   -9999.25  705.82060  510.34720  509.23580    0.02790    3.42300    0.02140   -0.10400    2.87800   -9999.25   68.77600
 4307.00000    8.82740   -9999.25   -9999.25  737.34020  493.57480  491.28370    0.02620    3.39730    0.03170   -0.10140    2.87490   -9999.25   62.63210
 4307.50000    8.82690   -9999.25   -9999.25  801.36790  493.82710  505.79690    0.02390    3.39190    0.04360   -0.09960    2.87070   -9999.25   56.13550
 4308.00000    8.82700   -9999.25   -9999.25  871.20180  543.99630  577.23990    0.02060    3.42700    0.04660   -0.09750    2.86780   -9999.25   51.59880
 4308.50000    8.83130   -9999.25   -9999.25  992.74640  650.40590  715.99210    0.01760    3.49440    0.04780   -0.09630    2.86650   -9999.25   50.39520
 4309.00000    8.85170   -9999.25   -9999.25 1150.40710  748.54600  857.84200    0.01730    3.55910    0.04370   -0.09440    2.86470   -9999.25   52.17440
 4309.50000    8.86770   -9999.25   -9999.25 1145.84950  745.52340  881.20360    0.01800    3.62380    0.03570   -0.09260    2.85940   -9999.25   55.76150
 4310.00000    8.86720   -9999.25   -9999.25 1058.64360  708.16410  868.13820    0.01880    3.59000    0.02180   -0.09420    2.86240   -9999.25   60.20450
 4310.50000    8.86710   -9999.25   -9999.25  966.48720  662.78260  857.02810    0.02000    3.53170    0.01310   -0.09930    2.86760   -9999.25   61.25000
 4311.00000    8.86720   -9999.25   -9999.25  938.00710  634.34700  862.30630    0.02120    3.44400    0.01590   -0.10050    2.87150   -9999.25   59.76720
 4311.50000    8.87130   -9999.25   -9999.25  905.63570  601.50490  865.13420    0.02060    3.40240    0.02470   -0.10240    2.87460   -9999.25   54.10680
 4312.00000    8.89920   -9999.25   -9999.25  871.21720  568.78090  917.54610    0.01980    3.39570    0.02580   -0.10430    2.87780   -9999.25   45.06610
 4312.50000    8.95290   -9999.25   -9999.25  824.44340  537.83730  983.00530    0.01910    3.42200    0.01920   -0.10580    2.88040   -9999.25   36.95910
 4313.00000    8.96840   -9999.25   -9999.25  774.57480  507.81820  989.06200    0.01930    3.48320    0.01000   -0.10590    2.88090   -9999.25   31.29320
 4313.50000    8.96780   -9999.25   -9999.25  770.85960  518.54200  907.58870    0.01930    3.56270    0.00360   -0.10590    2.88120   -9999.25   28.63700
 4314.00000    8.96780   -9999.25   -9999.25  893.60750  601.84780  840.26600    0.01860    3.58450    0.00210   -0.10650    2.88130   -9999.25   26.40940
 4314.50000    8.96780   -9999.25   -9999.25 1051.57230  720.67180  882.51070    0.01860    3.59990    0.00450   -0.10490    2.88000   -9999.25   24.89590
 4315.00000    8.96770   -9999.25   -9999.25 1069.54690  739.69370  997.98510    0.01960    3.60970    0.01020   -0.10230    2.87410   -9999.25   23.49250
 4315.50000    8.96050   -9999.25   -9999.25  917.56370  651.93810 1154.57590    0.02120    3.60330    0.01210   -0.09710    2.86790   -9999.25   22.09740
 4316.00000    8.94760   -9999.25   -9999.25  910.16030  617.90230 1049.89550    0.02200    3.59970    0.01270   -0.09410    2.86210   -9999.25   21.35310
 4316.50000    8.95480   -9999.25   -9999.25  910.02790  602.52250  411.82280    0.02280    3.60960    0.01430   -0.09140    2.85750   -9999.25   22.54000
 4317.00000    8.96790   -9999.25   -9999.25  887.08580  593.08480  370.62740    0.02300    3.61900    0.01350   -0.09090    2.86030   -9999.25   25.65140
 4317.50000    8.96080   -9999.25   -9999.25  855.80150  565.31560  396.57190    0.02290    3.59900    0.01180   -0.09820    2.86800   -9999.25   28.55720
 4318.00000    8.94750   -9999.25   -9999.25  831.71920  545.24160  843.04430    0.02140    3.54760    0.01230   -0.10260    2.88810   -9999.25   31.34460
 4318.50000    8.94750   -9999.25   -9999.25  890.91300  564.02200  895.98710    0.01900    3.47540    0.01480   -0.11100    2.88930   -9999.25   35.34560
 4319.00000    8.94160   -9999.25   -9999.25 1028.15700  619.67310 1016.71230    0.01660    3.49100    0.01660   -0.10780    2.88180   -9999.25   45.65920
 4319.50000    8.92730   -9999.25   -9999.25 1186.54390  723.63450 1106.34350    0.01420    3.57950    0.01800   -0.10660    2.88430   -9999.25   57.52560
 4320.00000    8.92740   -9999.25   -9999.25 1354.96390  792.37200 1133.41820    0.01290    3.74300    0.01520   -0.11100    2.89310   -9999.25   68.93440
 4320.50000    8.92160   -9999.25   -9999.25 1412.33700  824.19580 1208.22710    0.01240    3.83910    0.01150   -0.11660    2.89990   -9999.25   77.25340
 4321.00000    8.90720   -9999.25   -9999.25 1408.68370  814.86850 1260.46390    0.01440    3.86450    0.01750   -0.11800    2.90000   -9999.25   77.13270
 4321.50000    8.90750   -9999.25   -9999.25 1341.42480  772.82740 1314.01220    0.01580    3.79820    0.02630   -0.11670    2.89590   -9999.25   72.27990
