~Version ---------------------------------------------------
VERS.   2.0 : CWLS log ASCII Standard -VERSION 2.0
WRAP.    NO : One line per depth step
DLM . SPACE : Column Data Section Delimiter
~Well ------------------------------------------------------
STRT .F                  214.0 : START DEPTH
STOP .F                 9541.0 : STOP DEPTH
STEP .F                    0.5 : STEP
NULL .                -9999.25 : NULL VALUE
COMP .                         : COMPANY
WELL .                         : WELL
FLD  .                         : FIELD
LOC  .                         : LOCATION
PROV .                         : PROVINCE
CNTY .                         : COUNTY
STAT .                         : STATE
CTRY .                         : COUNTRY
SRVC .                         : SERVICE COMPANY
DATE .                         : DATE
UWI  .                         : UNIQUE WELL ID
API  .                         : API NUMBER
SLAT .WGS84 3.0492386049413014 : SURFACE LATITUDE
SLON .WGS84  8.877749962376996 : SURFACE LONGITUDE
DATUM.F                3582.44 : DEPTH DATUM ELEV
~Curve Information -----------------------------------------
DEPT   .F     : 
HCALR  .IN    : HRCC CALIPER CALIBRATED FROM RESISTIVITY LOG
DTCO   .US/F  : DELTA-T COMPRESSIONAL
DTSM   .US/F  : DELTA-T SHEAR
HLLD   .OHMM  : HALS LATEROLOG DEEP RESISTIVITY
HLLS   .OHMM  : HALS LATEROLOG SHALLOW RESISTIVITY
RXOZ   .OHMM  : INVADED FORMATION RESISTIVITY FILTERED AT 18 INCHES
TNPH_LS.DEC   : THERMAL NEUTRON POROSITY [LIMESTONE]
PEFZ   .B/E   : HRDD STANDARD RESOLUTION FORMATION PHOTOELECTRIC FACTOR
HDRA   .G/C3  : HRDD SPINE AND RIBS DENSITY CORRECTION
DPHZ_LS.DEC   : HGRD STANDARD RESOLUTION DENSITY POROSITY
RHOZ   .G/C3  : HRDD STANDARD RESOLUTION FORMATION DENSITY
NPHI_LS.DEC   : NEUTRON POROSITY LIMESTONE
GRD    .GAPI  : GAMMA RAY FROM DENSITY LOG
~Params ----------------------------------------------------
~Other -----------------------------------------------------
~ASCII -----------------------------------------------------
# ...
 8066.00000    8.33170   55.08800  100.21140  513.00590  515.05710  248.20650    0.02640    5.04130    0.01610   -0.00390    2.71260    0.04510   48.12110
 8066.50000    8.31200   55.10520  103.40040  761.70670  814.43870  317.90840    0.02570    5.04110    0.01520   -0.00510    2.72060    0.04720   47.72280
 8067.00000    8.29230   55.04460  103.52980 1130.97560 1149.98850  645.47980    0.02540    5.08580    0.01260   -0.00060    2.71930    0.05820   51.13120
 8067.50000    8.28370   55.42270  103.52920  800.02420  677.56160  465.37300    0.02560    5.06780    0.00900    0.00570    2.71040    0.07470   57.23810
 8068.00000    8.28370   56.16120  104.90350  396.02340  383.32650  209.79320    0.02570    4.93780    0.00720    0.01060    2.70010    0.08560   62.68310
 8068.50000    8.27610   55.46010  107.85470  200.59220  216.86470  114.27270    0.02570    4.78950    0.00690    0.01790    2.68840    0.08810   64.88340
 8069.00000    8.26620   53.70000  108.96630  156.11110  156.11110   60.41060    0.02580    4.66320    0.00790    0.02770    2.67750    0.08990   64.96520
 8069.50000    8.27140   52.20290  111.28980  148.52840  148.52840   40.93930    0.02590    4.56310    0.01690    0.03260    2.66850    0.10390   68.09000
 8070.00000    8.15690   55.26280  117.00660  107.72120  107.72120   14.09630    0.02550    4.56380    0.03920    0.04640    2.65970    0.15770   75.61020
 8070.50000    8.11830   60.64970  124.12220   75.44750   75.44750    3.81860   -9999.25    4.63440    0.05780    0.09940    2.61790    0.23890   86.25530
 8071.00000    8.05740   66.03660  127.50240   64.20830   64.20830    0.89450   -9999.25    5.02320    0.06670    0.16760    2.47300    0.26490   88.27880
 8071.50000    9.12470   70.51040  124.34290   64.67340   64.67340    0.87370   -9999.25    5.55880    0.06630    0.20530    2.38100    0.22440   80.38310
 8072.00000    8.78420   72.45710  112.00220  110.84020  104.25700    1.07450   -9999.25    6.09440    0.08830    0.15130    2.37880    0.17690   66.93580
 8072.50000    8.87080   71.05050  103.30990   62.78510   64.09110    1.25860   -9999.25    6.63010    0.11970    0.11540    2.45030    0.14970   56.35350
 8073.00000    9.72220   68.37990   99.24650   42.57180   42.19920    0.69790   -9999.25    7.34440    0.11770    0.19950    2.50300    0.18310   52.36730
 8073.50000   10.62910   66.89770   98.67240   28.42490   29.96060    0.27660   -9999.25    7.75620    0.08860    0.35710    2.34960    0.20500   51.52680
 8074.00000    9.09580   64.78980  100.09520   23.75340   25.87620    0.23620   -9999.25    7.82480    0.01370    0.46460    2.00250    0.19090   51.36260
 8074.50000    9.49390   61.04550  102.04120   29.81500   29.19960    0.32350   -9999.25    7.29080    0.00390    0.34050    2.07340    0.14050   48.56010
 8075.00000    8.95230   58.36990  102.03120   63.07470   57.50380    1.38340   -9999.25    6.59280    0.06070    0.18200    2.00210    0.10230   47.98490
 8075.50000    8.96910   54.25220  100.46240  157.92200  157.92200   32.82340   -9999.25    6.44170    0.11040    0.03000    2.58470    0.08390   47.15400
 8076.00000    9.04140   48.61320  102.51360  151.67560  151.67560    3.70050   -9999.25    6.68070    0.14980    0.07160    2.65660    0.08000   46.36020
 8076.50000    9.74140   48.69880  108.24270  118.19980  118.19980    2.01380   -9999.25    7.24530    0.20430    0.10940    2.61360    0.09220   42.59790
 8077.00000    9.32750   52.68060  110.86780  116.10570  116.10570    1.52300   -9999.25    7.85660    0.26480    0.10510    2.53910    0.09380   42.18460
 8077.50000    9.23040   54.12320  112.51530  152.30040  135.48290    1.49640   -9999.25    7.82050    0.26570    0.09520    2.54430    0.08370   43.25680
 8078.00000    9.22860   57.64810  114.16280  198.50430  167.67020    1.49540   -9999.25    7.61620    0.24470    0.10040    2.55580    0.06980   44.92390
 8078.50000    9.22900   57.12940  111.91320  237.55180  190.78170    1.49560   -9999.25    7.40320    0.21950    0.11120    2.54320    0.07470   47.14680
 8079.00000    9.23920   55.50890  101.48770  168.00890  165.35640    1.49590   -9999.25    7.28660    0.21420    0.11860    2.52110    0.10770   48.43640
 8079.50000    9.24940   52.74520   94.93150   94.89940   69.66120    1.49610   -9999.25    7.28010    0.21390    0.11800    2.51770    0.13180   47.40250
 8080.00000    9.24940   48.11590   91.07030   70.98620   52.20670    1.49630   -9999.25    7.29980    0.21540    0.11650    2.52060    0.13450   42.27970
 8080.50000    9.24050   46.90460   89.48610  147.03230  118.13330    1.49570   -9999.25   -9999.25   -9999.25   -9999.25   -9999.25    0.07070   35.26880
 8081.00000    9.22940   46.63250   87.91470  319.42840  267.31200    1.49440   -9999.25   -9999.25   -9999.25   -9999.25   -9999.25    0.03750   29.80740
 8081.50000    9.21840   45.93110   86.37610  733.99860  522.41880    1.48610   -9999.25   -9999.25   -9999.25   -9999.25   -9999.25    0.02290   26.72680
 8082.00000    9.20930   44.76460   83.96410 1833.79270  749.15270    1.48160   -9999.25   -9999.25   -9999.25   -9999.25   -9999.25    0.01790   28.54160
 8082.50000    9.20930   44.27830   83.29660 2341.73800  685.19470    1.48020   -9999.25   -9999.25   -9999.25   -9999.25   -9999.25    0.01610   32.24300
 8083.00000    9.20920   44.70040   83.29660 2476.11990  453.31840    1.47040   -9999.25   -9999.25   -9999.25   -9999.25   -9999.25    0.01520   35.15940
 8083.50000    9.20930   45.20050   86.77280 3035.36300  301.24670    1.46760   -9999.25   -9999.25   -9999.25   -9999.25   -9999.25    0.01430   36.54740
 8084.00000    9.20930   45.89540   92.97380 2803.57670  209.16660    1.47810   -9999.25   -9999.25   -9999.25   -9999.25   -9999.25    0.01420   39.44140
 8084.50000    9.20930   46.70270   98.23810 2114.85180  103.89730    1.49510   -9999.25   -9999.25   -9999.25   -9999.25   -9999.25    0.01640   44.23600
 8085.00000    9.20930   47.70120   99.89560 1055.34130   39.36120    1.52460   -9999.25   -9999.25   -9999.25   -9999.25   -9999.25    0.02630   48.92120
 8085.50000    9.20930   49.63390  103.10740  427.13310   22.00690    1.54810   -9999.25   -9999.25   -9999.25   -9999.25   -9999.25    0.05640   48.79180
 8086.00000    9.20930   49.55540  104.72550  234.99930   18.50060    1.54390   -9999.25   -9999.25   -9999.25   -9999.25   -9999.25    0.09030   43.31320
 8086.50000    9.20930   48.28070  101.56960  172.76840   20.93120    1.53110   -9999.25   -9999.25   -9999.25   -9999.25   -9999.25    0.13420   38.29130
 8087.00000    9.20930   49.89690  105.51470  160.45780   27.29310    1.50710   -9999.25   -9999.25   -9999.25   -9999.25   -9999.25    0.14080   36.31450
 8087.50000    9.20920   55.76370  115.08250  201.08820   37.68750    1.49610   -9999.25   -9999.25   -9999.25   -9999.25   -9999.25    0.12950   38.27040
 8088.00000    9.20920   59.36660  120.71760  236.68320   50.53700    1.49350   -9999.25   -9999.25   -9999.25   -9999.25   -9999.25    0.11410   44.18060
 8088.50000    9.20930   57.34230  116.54740   -9999.25   -9999.25    1.49350   -9999.25   -9999.25   -9999.25   -9999.25   -9999.25    0.10570   48.54060
 8089.00000    9.20950   55.43610  109.24250   -9999.25   -9999.25    1.49360   -9999.25   -9999.25   -9999.25   -9999.25   -9999.25    0.10010   50.21750
 8089.50000    9.23290   53.59890  106.94550   -9999.25   -9999.25    1.49370   -9999.25   -9999.25   -9999.25   -9999.25   -9999.25    0.08630   49.71310
 8090.00000   -9999.25   53.93410  104.64850   -9999.25   -9999.25    1.49360   -9999.25   -9999.25   -9999.25   -9999.25   -9999.25    0.05810   48.13130
 8090.50000   -9999.25   54.31830  103.26240   -9999.25   -9999.25    1.49350   -9999.25   -9999.25   -9999.25   -9999.25   -9999.25    0.03900   46.51310
 8091.00000   -9999.25   54.21220  101.90390   -9999.25   -9999.25    1.49340   -9999.25   -9999.25   -9999.25   -9999.25   -9999.25    0.02670   44.39560
 8091.50000   -9999.25   53.76070  100.09000   -9999.25   -9999.25    1.49330   -9999.25   -9999.25   -9999.25   -9999.25   -9999.25    0.02060   42.27460
