~Version ---------------------------------------------------
VERS.   2.0 : CWLS log ASCII Standard -VERSION 2.0
WRAP.    NO : One line per depth step
DLM . SPACE : Column Data Section Delimiter
~Well ------------------------------------------------------
STRT .F                  214.0 : START DEPTH
STOP .F                 9541.0 : STOP DEPTH
STEP .F                    0.5 : STEP
NULL .                -9999.25 : NULL VALUE
COMP .                         : COMPANY
WELL .                         : WELL
FLD  .                         : FIELD
LOC  .                         : LOCATION
PROV .                         : PROVINCE
CNTY .                         : COUNTY
STAT .                         : STATE
CTRY .                         : COUNTRY
SRVC .                         : SERVICE COMPANY
DATE .                         : DATE
UWI  .                         : UNIQUE WELL ID
API  .                         : API NUMBER
SLAT .WGS84 3.0492386049413014 : SURFACE LATITUDE
SLON .WGS84  8.877749962376996 : SURFACE LONGITUDE
DATUM.F                3582.44 : DEPTH DATUM ELEV
~Curve Information -----------------------------------------
DEPT   .F     : 
HCALR  .IN    : HRCC CALIPER CALIBRATED FROM RESISTIVITY LOG
DTCO   .US/F  : DELTA-T COMPRESSIONAL
DTSM   .US/F  : DELTA-T SHEAR
HLLD   .OHMM  : HALS LATEROLOG DEEP RESISTIVITY
HLLS   .OHMM  : HALS LATEROLOG SHALLOW RESISTIVITY
RXOZ   .OHMM  : INVADED FORMATION RESISTIVITY FILTERED AT 18 INCHES
TNPH_LS.DEC   : THERMAL NEUTRON POROSITY [LIMESTONE]
PEFZ   .B/E   : HRDD STANDARD RESOLUTION FORMATION PHOTOELECTRIC FACTOR
HDRA   .G/C3  : HRDD SPINE AND RIBS DENSITY CORRECTION
DPHZ_LS.DEC   : HGRD STANDARD RESOLUTION DENSITY POROSITY
RHOZ   .G/C3  : HRDD STANDARD RESOLUTION FORMATION DENSITY
NPHI_LS.DEC   : NEUTRON POROSITY LIMESTONE
GRD    .GAPI  : GAMMA RAY FROM DENSITY LOG
~Params ----------------------------------------------------
~Other -----------------------------------------------------
~ASCII -----------------------------------------------------
# ...
 3048.00000    8.78660   -9999.25   -9999.25  603.65610  603.65610  305.29690    0.03980    3.66660    0.03270   -0.08710    2.84940   -9999.25   15.22740
 3048.50000    8.79920   -9999.25   -9999.25  635.33470  635.33470  292.67320    0.04010    3.78200    0.02610   -0.09520    2.86820   -9999.25   13.60210
 3049.00000    8.80680   -9999.25   -9999.25  625.49090  625.49090  276.55150    0.04140    3.93370    0.02340   -0.09920    2.87040   -9999.25   12.86890
 3049.50000    8.80670   -9999.25   -9999.25  484.72710  484.50120  257.30010    0.04400    4.07650    0.01890   -0.09480    2.85650   -9999.25   12.91650
 3050.00000    8.80690   -9999.25   -9999.25  397.35470  399.75310  238.55080    0.04920    4.13870    0.00980   -0.08400    2.84260   -9999.25   14.27000
 3050.50000    8.79460   -9999.25   -9999.25  251.24540  199.21960  214.71430    0.05680    4.21180   -0.00730   -0.06840    2.81490   -9999.25   18.29360
 3051.00000    8.79920   -9999.25   -9999.25  129.06260  132.09970   90.80670    0.06150    4.19940   -0.01590   -0.05730    2.80240   -9999.25   24.36410
 3051.50000    8.81910   -9999.25   -9999.25  125.60040  130.20400   89.40100    0.06620    4.11880   -0.01770   -0.05150    2.79730   -9999.25   29.23650
 3052.00000    8.82690   -9999.25   -9999.25  168.39760  182.28960  154.37190    0.06900    3.99740   -0.01820   -0.05320    2.79880   -9999.25   29.54350
 3052.50000    8.82690   -9999.25   -9999.25  171.95950  227.40880  164.54870    0.07290    3.83180   -0.01850   -0.05840    2.80100   -9999.25   27.22190
 3053.00000    8.82720   -9999.25   -9999.25  133.18750  151.91590  114.95200    0.07780    3.76560   -0.01810   -0.05800    2.80150   -9999.25   24.77750
 3053.50000    8.82720   -9999.25   -9999.25  113.57300  104.04250  105.77510    0.08440    3.76120   -0.01760   -0.05160    2.79700   -9999.25   22.97430
 3054.00000    8.86290   -9999.25   -9999.25   93.34280   90.60820  122.40620    0.09250    3.75680   -0.01480   -0.03880    2.78260   -9999.25   21.43060
 3054.50000    8.89930   -9999.25   -9999.25   65.44230   81.25790   55.80080    0.09660    3.74320   -0.01010   -0.02620    2.75840   -9999.25   19.91460
 3055.00000    8.93100   -9999.25   -9999.25   62.69370   66.87080   55.11370    0.09240    3.72290   -0.00640   -0.02160    2.74700   -9999.25   18.69870
 3055.50000    8.97110   -9999.25   -9999.25   64.47140   55.83440   67.31840    0.08640    3.70110   -0.00580   -0.02680    2.75400   -9999.25   18.12830
 3056.00000    8.99950   -9999.25   -9999.25  103.98090   66.91920  121.05300    0.08190    3.70400   -0.02010   -0.03450    2.76100   -9999.25   19.09930
 3056.50000    9.01960   -9999.25   -9999.25  167.70270  125.92440  179.18870    0.07800    3.70040   -0.03050   -0.03240    2.75760   -9999.25   21.78760
 3057.00000    9.02820   -9999.25   -9999.25  157.75730  156.05950   25.07650    0.07650    3.69800   -0.03230   -0.01800    2.74790   -9999.25   24.75240
 3057.50000    9.03950   -9999.25   -9999.25  115.87040  119.90710   12.93030    0.07580    3.70620   -0.03150    0.00020    2.73310   -9999.25   26.23570
 3058.00000    9.04830   -9999.25   -9999.25  134.26140  138.83180   11.55510    0.07230    3.72330   -0.02630    0.00670    2.70180   -9999.25   25.51030
 3058.50000    9.04830   -9999.25   -9999.25  190.59630  190.59630   21.40780    0.06300    3.76920   -0.01870   -0.00440    2.70690   -9999.25   22.73460
 3059.00000    9.04830   -9999.25   -9999.25  299.09730  299.09730   68.21650    0.05320    3.87520   -0.01000   -0.03350    2.74460   -9999.25   18.16460
 3059.50000    9.04830   -9999.25   -9999.25  267.86810  267.86810  123.70260    0.04770    4.01330   -0.00550   -0.05260    2.77230   -9999.25   15.47520
 3060.00000    9.04830   -9999.25   -9999.25  175.58390  216.49400   41.14050    0.04730    4.16080   -0.00440   -0.06380    2.79320   -9999.25   15.55310
 3060.50000    9.04820   -9999.25   -9999.25  111.55880  104.81790   32.22780    0.04870    4.31410   -0.00570   -0.07050    2.81410   -9999.25   16.45570
 3061.00000    9.04820   -9999.25   -9999.25   79.38800   77.99520   21.79680    0.05160    4.42150   -0.00820   -0.07040    2.82160   -9999.25   16.43960
 3061.50000    9.03760   -9999.25   -9999.25   72.76340   70.89910   29.19400    0.05410    4.53570   -0.01020   -0.06520    2.81650   -9999.25   16.33560
 3062.00000    9.02840   -9999.25   -9999.25   92.29170   80.29570   32.17070    0.05570    4.56830   -0.01260   -0.05350    2.80550   -9999.25   16.84250
 3062.50000    9.04950   -9999.25   -9999.25  135.33460  120.64810   50.32470    0.05590    4.49930   -0.01390   -0.04760    2.79450   -9999.25   17.88960
 3063.00000    9.06810   -9999.25   -9999.25  202.25380  177.44470   86.06510    0.05320    4.31390   -0.01170   -0.04840    2.79090   -9999.25   17.94050
 3063.50000    9.04710   -9999.25   -9999.25  300.97830  269.66590  106.69380    0.04780    4.05620   -0.00870   -0.05920    2.80060   -9999.25   17.92570
 3064.00000    9.00720   -9999.25   -9999.25  441.98710  442.10570  153.92220    0.04360    3.82730   -0.00590   -0.06530    2.81140   -9999.25   21.06460
 3064.50000    8.97770   -9999.25   -9999.25  553.66560  540.19090  325.34520    0.04110    3.79320   -0.00220   -0.06870    2.81840   -9999.25   30.48020
 3065.00000    8.94730   -9999.25   -9999.25  586.43700  586.43700  382.66900    0.04130    3.80220    0.00360   -0.06900    2.82180   -9999.25   47.72530
 3065.50000    8.92760   -9999.25   -9999.25  371.89150  406.08090  264.64950    0.04340    3.81120    0.01280   -0.07040    2.82260   -9999.25   66.26240
 3066.00000    8.91750   -9999.25   -9999.25  190.06290  220.31670  177.71370    0.04560    3.82010    0.02130   -0.06750    2.82160   -9999.25   84.47070
 3066.50000    8.90790   -9999.25   -9999.25  130.17120  127.98810  115.04620    0.05020    3.82910    0.02960   -0.06100    2.81670   -9999.25   88.04730
 3067.00000    8.89340   -9999.25   -9999.25  131.99980  132.11870   93.12010    0.05270    3.83340    0.02970   -0.05630    2.80780   -9999.25   79.92850
 3067.50000    8.85840   -9999.25   -9999.25  155.90360  155.90360   93.81990    0.05170    3.82080    0.02930   -0.05450    2.80140   -9999.25   68.84060
 3068.00000    8.83300   -9999.25   -9999.25  210.14430  210.13520  117.57670    0.05080    3.80810    0.02850   -0.05650    2.80140   -9999.25   59.59710
 3068.50000    8.81270   -9999.25   -9999.25  228.97640  228.97640  121.75300    0.05030    3.83200    0.02590   -0.06070    2.80470   -9999.25   51.55470
 3069.00000    8.79270   -9999.25   -9999.25  154.08280  155.66430  107.96410    0.04990    3.91680    0.02060   -0.06530    2.81060   -9999.25   44.33680
 3069.50000    8.77300   -9999.25   -9999.25  136.06540  142.94930  113.78380    0.04860    3.93060    0.02040   -0.06920    2.81640   -9999.25   38.24030
 3070.00000    8.73810   -9999.25   -9999.25  158.22310  133.36830  135.00280    0.04230    3.87020    0.01960   -0.07610    2.82690   -9999.25   31.66480
 3070.50000    8.71250   -9999.25   -9999.25  271.22680  236.09010  229.60670    0.03580    3.82640    0.01870   -0.08640    2.83880   -9999.25   27.01290
 3071.00000    8.69230   -9999.25   -9999.25  434.63980  417.92970  353.07600    0.03290    3.80020    0.01750   -0.09520    2.85690   -9999.25   25.97590
 3071.50000    8.67250   -9999.25   -9999.25  555.29830  562.32960  379.45100    0.03460    3.76600    0.01610   -0.10000    2.86430   -9999.25   26.39000
 3072.00000    8.63790   -9999.25   -9999.25  322.47110  341.00900  265.09600    0.04360    3.71510    0.01890   -0.09770    2.86880   -9999.25   27.10520
 3072.50000    8.61180   -9999.25   -9999.25  177.31300  172.92570  169.62280    0.04860    3.67500    0.02290   -0.08760    2.86060   -9999.25   26.49150
 3073.00000    8.60570   -9999.25   -9999.25  179.64070  172.24080  130.65030    0.04930    3.69530    0.02730   -0.07960    2.85030   -9999.25   25.10820
 3073.50000    8.60580   -9999.25   -9999.25  315.17370  291.58430  167.65550    0.04430    3.71560    0.02850   -0.07780    2.83950   -9999.25   22.74500
