~Version ---------------------------------------------------
VERS.   2.0 : CWLS log ASCII Standard -VERSION 2.0
WRAP.    NO : One line per depth step
DLM . SPACE : Column Data Section Delimiter
~Well ------------------------------------------------------
STRT .F                  214.0 : START DEPTH
STOP .F                 9541.0 : STOP DEPTH
STEP .F                    0.5 : STEP
NULL .                -9999.25 : NULL VALUE
COMP .                         : COMPANY
WELL .                         : WELL
FLD  .                         : FIELD
LOC  .                         : LOCATION
PROV .                         : PROVINCE
CNTY .                         : COUNTY
STAT .                         : STATE
CTRY .                         : COUNTRY
SRVC .                         : SERVICE COMPANY
DATE .                         : DATE
UWI  .                         : UNIQUE WELL ID
API  .                         : API NUMBER
SLAT .WGS84 3.0492386049413014 : SURFACE LATITUDE
SLON .WGS84  8.877749962376996 : SURFACE LONGITUDE
DATUM.F                3582.44 : DEPTH DATUM ELEV
~Curve Information -----------------------------------------
DEPT   .F     : 
HCALR  .IN    : HRCC CALIPER CALIBRATED FROM RESISTIVITY LOG
DTCO   .US/F  : DELTA-T COMPRESSIONAL
DTSM   .US/F  : DELTA-T SHEAR
HLLD   .OHMM  : HALS LATEROLOG DEEP RESISTIVITY
HLLS   .OHMM  : HALS LATEROLOG SHALLOW RESISTIVITY
RXOZ   .OHMM  : INVADED FORMATION RESISTIVITY FILTERED AT 18 INCHES
TNPH_LS.DEC   : THERMAL NEUTRON POROSITY [LIMESTONE]
PEFZ   .B/E   : HRDD STANDARD RESOLUTION FORMATION PHOTOELECTRIC FACTOR
HDRA   .G/C3  : HRDD SPINE AND RIBS DENSITY CORRECTION
DPHZ_LS.DEC   : HGRD STANDARD RESOLUTION DENSITY POROSITY
RHOZ   .G/C3  : HRDD STANDARD RESOLUTION FORMATION DENSITY
NPHI_LS.DEC   : NEUTRON POROSITY LIMESTONE
GRD    .GAPI  : GAMMA RAY FROM DENSITY LOG
~Params ----------------------------------------------------
~Other -----------------------------------------------------
~ASCII -----------------------------------------------------
# ...
 4712.00000    8.24340   -9999.25   -9999.25  718.55430  722.81740  356.74840    0.04540    3.31800    0.00990   -0.04250    2.77850   -9999.25   92.54890
 4712.50000    8.23570   -9999.25   -9999.25  802.39890  793.51070  311.95040    0.03750    3.31190    0.00850   -0.05430    2.80530   -9999.25   62.83670
 4713.00000    8.23100   -9999.25   -9999.25 1233.15650 1166.42770  345.18740    0.02610    3.36970    0.00660   -0.07430    2.84320   -9999.25   38.77840
 4713.50000    8.25130   -9999.25   -9999.25 1942.51920 1936.60160  639.68530    0.01810    3.44760    0.00520   -0.09510    2.86680   -9999.25   32.21510
 4714.00000    8.26360   -9999.25   -9999.25 2651.88180 2706.77540  900.18720    0.01610    3.56460    0.00350   -0.10750    2.88510   -9999.25   32.42270
 4714.50000    8.25610   -9999.25   -9999.25 4405.31690 4322.80420 1054.03330    0.01510    3.64340    0.00170   -0.11200    2.89090   -9999.25   33.13690
 4715.00000    8.24330   -9999.25   -9999.25 6836.89110 6857.42630 1121.89270    0.01560    3.65620   -0.01010   -0.11220    2.89230   -9999.25   34.32640
 4715.50000    8.24340   -9999.25   -9999.25 10525.53030 11690.56050 1337.62370    0.01690    3.67530   -0.01320   -0.11110    2.88900   -9999.25   37.75710
 4716.00000    8.23620   -9999.25   -9999.25 9363.42680 9740.94730 1424.76350    0.01990    3.67520   -0.00670   -0.10560    2.88030   -9999.25   42.82300
 4716.50000    8.22310   -9999.25   -9999.25 5247.68020 4812.48880 1140.60830    0.02370    3.63190    0.00590   -0.09870    2.87080   -9999.25   46.37750
 4717.00000    8.21630   -9999.25   -9999.25 2320.11500 2142.40530  762.50160    0.02570    3.58850    0.01610   -0.09320    2.86040   -9999.25   44.95150
 4717.50000    8.20290   -9999.25   -9999.25 1116.37560 1243.05820  436.77510    0.02410    3.54420    0.02050   -0.09390    2.86470   -9999.25   40.45830
 4718.00000    8.19640   -9999.25   -9999.25 1114.21180 1152.90760  410.27810    0.01970    3.47720    0.02340   -0.09940    2.87060   -9999.25   36.35430
 4718.50000    8.18290   -9999.25   -9999.25 1644.64380 1664.50050  449.07460    0.01630    3.46580    0.02880   -0.10310    2.87720   -9999.25   33.17780
 4719.00000    8.18310   -9999.25   -9999.25 2607.27050 2650.10500  701.21000    0.01560    3.55520    0.02770   -0.10740    2.88540   -9999.25   33.63070
 4719.50000    8.18310   -9999.25   -9999.25 2919.99800 3321.20020  715.43300    0.02020    3.63870    0.02210   -0.11120    2.89000   -9999.25   38.80500
 4720.00000    8.18310   -9999.25   -9999.25 2633.62210 2363.23290  655.75080    0.03110    3.69030    0.01960   -0.10690    2.88500   -9999.25   48.15750
 4720.50000    8.18290   -9999.25   -9999.25 1792.62020 1282.50040  689.02530    0.05090    3.70260    0.01870   -0.08770    2.85280   -9999.25   57.51000
 4721.00000    8.17720   -9999.25   -9999.25  335.15960  392.20940  308.86250    0.07270    3.68610    0.01830   -0.05840    2.80700   -9999.25   63.47390
 4721.50000    8.16270   -9999.25   -9999.25  256.84200  266.84010  249.04830    0.07580    3.65070    0.01330   -0.04150    2.77840   -9999.25   57.81770
 4722.00000    8.16300   -9999.25   -9999.25  253.14870  257.66180  207.49950    0.06190    3.60750    0.00580   -0.04890    2.79310   -9999.25   46.15080
 4722.50000    8.16300   -9999.25   -9999.25  374.93750  391.43140  206.47050    0.03960    3.56430    0.00010   -0.07130    2.83110   -9999.25   35.45070
 4723.00000    8.16300   -9999.25   -9999.25  420.06710  420.06710  186.54790    0.03200    3.52320    0.00790   -0.09120    2.86250   -9999.25   26.23020
 4723.50000    8.16280   -9999.25   -9999.25  388.51490  394.82530  154.22310    0.03100    3.44650    0.01530   -0.09950    2.87210   -9999.25   24.74090
 4724.00000    8.15750   -9999.25   -9999.25  338.64680  351.33490  158.84980    0.03060    3.37020    0.01570   -0.10230    2.87510   -9999.25   25.63190
 4724.50000    8.14250   -9999.25   -9999.25  304.30850  342.07440  166.83840    0.02970    3.33340    0.01280   -0.10220    2.87450   -9999.25   27.40390
 4725.00000    8.14280   -9999.25   -9999.25  305.56450  355.33280  193.05070    0.02860    3.36710    0.00900   -0.09990    2.87190   -9999.25   29.07450
 4725.50000    8.14290   -9999.25   -9999.25  338.75840  362.62120  169.59200    0.02860    3.39830    0.00410   -0.09730    2.86480   -9999.25   31.15410
 4726.00000    8.14290   -9999.25   -9999.25  365.50160  366.16760  173.85800    0.02860    3.38060   -0.00100   -0.08890    2.85010   -9999.25   35.13100
 4726.50000    8.14280   -9999.25   -9999.25  237.56480  219.98700  177.95350    0.03000    3.31600   -0.00620   -0.07580    2.82420   -9999.25   43.96550
 4727.00000    8.14280   -9999.25   -9999.25   83.86850   95.36100   76.08830    0.04060    3.21350   -0.00600   -0.05830    2.80430   -9999.25   52.12770
 4727.50000    8.13330   -9999.25   -9999.25   77.97710   78.31910   66.90030    0.04630    3.20280    0.00060   -0.04510    2.78460   -9999.25   54.88010
 4728.00000    8.12280   -9999.25   -9999.25  104.10150   98.46800   70.81270    0.04450    3.19730    0.00220   -0.04510    2.79120   -9999.25   53.11340
 4728.50000    8.12280   -9999.25   -9999.25  360.21140  350.26070  278.42710    0.03640    3.20390    0.00150   -0.05860    2.80930   -9999.25   52.00090
 4729.00000    8.13200   -9999.25   -9999.25  305.67340  323.79870  226.36640    0.03180    3.22950    0.00430   -0.07290    2.82430   -9999.25   52.95350
 4729.50000    8.14280   -9999.25   -9999.25  333.97290  302.20510  235.48310    0.03250    3.26200    0.01560   -0.07890    2.83580   -9999.25   52.91760
 4730.00000    8.15190   -9999.25   -9999.25  354.97230  311.71380  252.59280    0.03590    3.31230    0.02740   -0.07770    2.83380   -9999.25   51.36180
 4730.50000    8.16290   -9999.25   -9999.25  397.13700  424.22260  309.94460    0.03850    3.38010    0.03310   -0.07420    2.82520   -9999.25   50.51380
 4731.00000    8.16290   -9999.25   -9999.25  237.06700  252.64430  162.90260    0.04070    3.41890    0.03030   -0.06790    2.81670   -9999.25   52.70470
 4731.50000    8.15420   -9999.25   -9999.25  165.14310  168.14940  114.53320    0.04250    3.43520    0.02770   -0.06100    2.80830   -9999.25   52.26950
 4732.00000    8.15160   -9999.25   -9999.25  217.92410  196.68450  122.20970    0.04080    3.42460    0.02490   -0.06030    2.81360   -9999.25   46.04780
 4732.50000    8.16300   -9999.25   -9999.25  458.59080  374.05300  176.45960    0.03170    3.38370    0.01800   -0.07460    2.83600   -9999.25   40.07980
 4733.00000    8.16290   -9999.25   -9999.25  860.18620  737.84230  285.77390    0.02550    3.37950    0.01370   -0.09150    2.86300   -9999.25   37.64690
 4733.50000    8.16300   -9999.25   -9999.25 1221.34530 1070.17590  283.70740    0.01910    3.40130    0.01220   -0.10220    2.87160   -9999.25   37.84250
 4734.00000    8.16300   -9999.25   -9999.25 1294.22570 1106.13590  208.54500    0.01820    3.42300    0.01130   -0.10290    2.87690   -9999.25   39.94480
 4734.50000    8.16300   -9999.25   -9999.25 1161.74400  817.86400  119.19440    0.01790    3.46800    0.01040   -0.10000    2.87380   -9999.25   42.78910
 4735.00000    8.16300   -9999.25   -9999.25  880.11620  745.23860   98.38900    0.01950    3.52100    0.00350   -0.09790    2.86560   -9999.25   46.68370
 4735.50000    8.16300   -9999.25   -9999.25  726.63640  643.80660  102.67640    0.02380    3.52680   -0.00310   -0.09000    2.85290   -9999.25   49.17140
 4736.00000    8.16300   -9999.25   -9999.25  572.19840  561.50900  120.22490    0.02970    3.46890   -0.00270   -0.08240    2.84080   -9999.25   50.74930
 4736.50000    8.16300   -9999.25   -9999.25  554.46730  494.19020  131.73070    0.03900    3.39610   -0.00120   -0.07150    2.82450   -9999.25   50.01730
 4737.00000    8.16300   -9999.25   -9999.25  546.38080  464.51840  150.69360    0.04740    3.34380   -0.00170   -0.06360    2.81300   -9999.25   47.52510
 4737.50000    8.16300   -9999.25   -9999.25  573.60210  456.60320  231.28310    0.05300    3.30490   -0.00150   -0.06080    2.80860   -9999.25   44.28920
