~Version ---------------------------------------------------
VERS.   2.0 : CWLS log ASCII Standard -VERSION 2.0
WRAP.    NO : One line per depth step
DLM . SPACE : Column Data Section Delimiter
~Well ------------------------------------------------------
STRT .F                  214.0 : START DEPTH
STOP .F                 9541.0 : STOP DEPTH
STEP .F                    0.5 : STEP
NULL .                -9999.25 : NULL VALUE
COMP .                         : COMPANY
WELL .                         : WELL
FLD  .                         : FIELD
LOC  .                         : LOCATION
PROV .                         : PROVINCE
CNTY .                         : COUNTY
STAT .                         : STATE
CTRY .                         : COUNTRY
SRVC .                         : SERVICE COMPANY
DATE .                         : DATE
UWI  .                         : UNIQUE WELL ID
API  .                         : API NUMBER
SLAT .WGS84 3.0492386049413014 : SURFACE LATITUDE
SLON .WGS84  8.877749962376996 : SURFACE LONGITUDE
DATUM.F                3582.44 : DEPTH DATUM ELEV
~Curve Information -----------------------------------------
DEPT   .F     : 
HCALR  .IN    : HRCC CALIPER CALIBRATED FROM RESISTIVITY LOG
DTCO   .US/F  : DELTA-T COMPRESSIONAL
DTSM   .US/F  : DELTA-T SHEAR
HLLD   .OHMM  : HALS LATEROLOG DEEP RESISTIVITY
HLLS   .OHMM  : HALS LATEROLOG SHALLOW RESISTIVITY
RXOZ   .OHMM  : INVADED FORMATION RESISTIVITY FILTERED AT 18 INCHES
TNPH_LS.DEC   : THERMAL NEUTRON POROSITY [LIMESTONE]
PEFZ   .B/E   : HRDD STANDARD RESOLUTION FORMATION PHOTOELECTRIC FACTOR
HDRA   .G/C3  : HRDD SPINE AND RIBS DENSITY CORRECTION
DPHZ_LS.DEC   : HGRD STANDARD RESOLUTION DENSITY POROSITY
RHOZ   .G/C3  : HRDD STANDARD RESOLUTION FORMATION DENSITY
NPHI_LS.DEC   : NEUTRON POROSITY LIMESTONE
GRD    .GAPI  : GAMMA RAY FROM DENSITY LOG
~Params ----------------------------------------------------
~Other -----------------------------------------------------
~ASCII -----------------------------------------------------
# ...
 7650.00000    8.34220   -9999.25   -9999.25   33.74600   28.14280   26.85230    0.14490    3.90900   -0.00450    0.04780    2.63340    0.11810   69.56000
 7650.50000    8.32470   -9999.25   -9999.25   31.54770   26.84910   27.50050    0.14820    3.75480    0.00000    0.04740    2.63250    0.13100   70.98210
 7651.00000    8.32450   -9999.25   -9999.25   29.64040   25.61480   25.87340    0.15150    3.69430    0.00410    0.04850    2.63210    0.14210   70.84820
 7651.50000    8.34340   -9999.25   -9999.25   29.12010   24.70600   24.97630    0.16100    3.66060    0.00720    0.04940    2.63210    0.14890   70.81490
 7652.00000    8.34360   -9999.25   -9999.25   29.18700   24.80980   23.62940    0.17200    3.66370    0.01090    0.04900    2.63280    0.15510   72.23920
 7652.50000    8.32460   -9999.25   -9999.25   29.66410   24.98070   22.53450    0.17390    3.68350    0.01530    0.04850    2.63390    0.15990   74.15870
 7653.00000    8.32440   -9999.25   -9999.25   32.52930   25.64620   23.59680    0.16490    3.72940    0.01860    0.04730    2.63610    0.16060   72.75800
 7653.50000    8.34330   -9999.25   -9999.25   38.91190   32.29120   27.41200    0.15130    3.81750    0.01770    0.04500    2.64270    0.15460   68.12370
 7654.00000    8.34420   -9999.25   -9999.25   48.61470   40.91780   40.14440    0.13760    3.90250    0.01620    0.04000    2.64930    0.13800   66.16120
 7654.50000    8.34400   -9999.25   -9999.25   52.99070   44.02370   41.75060    0.13010    3.98440    0.01420    0.03590    2.65000    0.12130   66.17630
 7655.00000    8.34460   -9999.25   -9999.25   42.55780   34.90120   36.94070    0.13290    4.00300    0.01110    0.03680    2.64880    0.11710   67.36040
 7655.50000    8.36340   -9999.25   -9999.25   42.94850   36.82500   36.60390    0.13890    3.96810    0.01130    0.03900    2.64730    0.12120   68.19220
 7656.00000    8.36430   -9999.25   -9999.25   41.57060   38.39830   37.30240    0.14230    3.92050    0.01080    0.03950    2.64640    0.12720   68.28730
 7656.50000    8.36420   -9999.25   -9999.25   38.12460   28.89670   22.95760    0.14390    3.87360    0.00610    0.03960    2.64750    0.13190   68.14470
 7657.00000    8.36430   -9999.25   -9999.25   35.71000   27.52920   20.01340    0.14330    3.86040    0.00230    0.03860    2.64880    0.13980   68.06210
 7657.50000    8.36380   -9999.25   -9999.25   38.34090   28.82460   20.49450    0.14040    3.86060    0.00290    0.03690    2.64860    0.14850   68.58950
 7658.00000    8.34500   -9999.25   -9999.25   46.37110   30.92260   37.30140    0.13870    3.87160    0.00580    0.03680    2.64710    0.14680   69.88200
 7658.50000    8.34340   -9999.25   -9999.25   46.59640   29.86580   37.33730    0.13940    3.88040    0.00720    0.04070    2.64140    0.13660   73.74510
 7659.00000    8.32510   -9999.25   -9999.25   35.12140   27.03040   21.73490    0.14670    3.87670    0.00760    0.04610    2.63290    0.13140   78.47710
 7659.50000    8.34320   -9999.25   -9999.25   34.09700   26.01200   19.84270    0.15180    3.87280    0.00870    0.05220    2.62220    0.13390   81.59050
 7660.00000    8.36570   -9999.25   -9999.25   34.32530   26.74030   19.33490    0.15570    3.89680    0.01130    0.05900    2.61070    0.14070   82.13850
 7660.50000    8.38380   -9999.25   -9999.25   34.14570   27.02950   19.49720    0.16210    3.97110    0.01650    0.06360    2.60240    0.14410   81.87880
 7661.00000    8.41210   -9999.25   -9999.25   30.88240   23.98450   12.96140    0.17320    4.06590    0.02330    0.06850    2.59030    0.14170   80.98200
 7661.50000    8.46370   -9999.25   -9999.25   26.96390   21.62040    5.08630    0.18480    4.24460    0.04200    0.07870    2.57540    0.14220   80.05680
 7662.00000    8.55790   -9999.25   -9999.25   23.97110   20.23790    2.89750    0.18980    4.50310    0.07380    0.08390    2.56790    0.15370   79.56250
 7662.50000    8.59700   -9999.25   -9999.25   23.48860   18.94380    2.37220    0.19790    4.73490    0.10920    0.08970    2.56510    0.17450   79.30420
 7663.00000    8.57390   -9999.25   -9999.25   24.13850   19.13840    2.32440    0.20710    4.97820    0.13240    0.09180    2.56130    0.19580   79.89960
 7663.50000    8.53110   -9999.25   -9999.25   25.13170   20.33470    2.28510    0.21540    5.00180    0.13130    0.09390    2.56170    0.20920   82.17730
 7664.00000    8.43310   -9999.25   -9999.25   25.95110   21.10510    2.12700    0.21160    4.97490    0.12690    0.09230    2.56590    0.20600   83.56720
 7664.50000    8.41770   -9999.25   -9999.25   25.74970   21.15190    2.28350    0.20820    4.82870    0.11660    0.08840    2.56990    0.18970   82.77200
 7665.00000    8.47040   -9999.25   -9999.25   24.97810   20.35360    2.41580    0.20860    4.57840    0.09620    0.08660    2.57400    0.18180   81.25150
 7665.50000    8.47190   -9999.25   -9999.25   24.48630   20.25130    3.53980    0.20830    4.38740    0.07330    0.08170    2.59790    0.18850   80.53550
 7666.00000    8.40980   -9999.25   -9999.25   25.65690   21.85730    3.83380    0.20120    4.17250    0.05040    0.06890    2.62070    0.20410   81.33520
 7666.50000    8.34990   -9999.25   -9999.25   29.44420   25.22390   11.20230    0.18370    3.98150    0.02930    0.05360    2.63210    0.20610   81.66400
 7667.00000    8.29820   -9999.25   -9999.25   34.14500   29.10920   18.55130    0.16440    3.87150    0.00990    0.04770    2.63220    0.19190   79.78800
 7667.50000    8.27900   -9999.25   -9999.25   38.97770   33.59290   16.62300    0.14280    3.86060   -0.00610    0.05000    2.63230    0.16920   75.85210
 7668.00000    8.25910   -9999.25   -9999.25   42.05280   36.02680   19.18300    0.13410    3.84970   -0.01840    0.04940    2.63300    0.14640   70.70330
 7668.50000    8.24290   -9999.25   -9999.25   39.62650   34.45350   30.21130    0.13090    3.82850   -0.02190    0.04690    2.63340    0.13510   69.68730
 7669.00000    8.23970   -9999.25   -9999.25   35.27900   31.22130   29.46000    0.13380    3.71300   -0.01860    0.04680    2.63300    0.13380   72.00790
 7669.50000    8.22240   -9999.25   -9999.25   34.73770   30.11540   27.19450    0.13840    3.58640   -0.00570    0.04980    2.62980    0.13810   76.65570
 7670.00000    8.20870   -9999.25   -9999.25   39.23610   33.61720   28.36020    0.13860    3.47320    0.00970    0.05250    2.62650    0.13960   78.09060
 7670.50000    8.14430   -9999.25   -9999.25   47.15740   41.32830   34.25470    0.13540    3.39720    0.01770    0.05170    2.63380    0.13610   72.39480
 7671.00000    8.15640   -9999.25   -9999.25   58.76750   50.80800   44.72460    0.12140    3.50280    0.01480    0.04520    2.64790    0.12740   67.05790
 7671.50000    8.12180   -9999.25   -9999.25   77.42040   62.46220   61.82190    0.10480    3.69170    0.00740    0.03360    2.67230    0.11340   60.47780
 7672.00000    8.11930   -9999.25   -9999.25  101.99370   77.30040   85.07950    0.09010    3.82590   -0.00460    0.02180    2.68200    0.09510   55.07510
 7672.50000    8.09860   -9999.25   -9999.25  105.52840   95.67490   93.55990    0.07680    3.83860   -0.00920    0.01470    2.69580    0.08290   48.87980
 7673.00000    8.07220   -9999.25   -9999.25  109.87630  108.64670  103.19250    0.06300    3.79180   -0.00660    0.00620    2.70960    0.07990   45.04130
 7673.50000    8.01720   -9999.25   -9999.25  174.25520  196.17110  134.48340    0.04920    3.76940   -0.00400   -0.00420    2.72560    0.07680   40.75530
 7674.00000    7.99830   -9999.25   -9999.25  440.49640  370.08290  235.88600    0.03740    3.81450   -0.00140   -0.01500    2.73710    0.06260   38.56510
 7674.50000    7.98130   -9999.25   -9999.25  778.43140  643.10290  613.47340    0.02890    3.92640    0.00130   -0.01830    2.73100    0.04410   37.56200
 7675.00000    7.98190   -9999.25   -9999.25  723.59000  675.08000  624.11340    0.02900    3.98870    0.00290   -0.01340    2.71810    0.03450   38.07460
 7675.50000    7.98480   -9999.25   -9999.25  498.63470  458.40530  388.79100    0.03140    4.01650    0.00540   -0.00500    2.70650    0.02790   38.84220
