~Version ---------------------------------------------------
VERS.   2.0 : CWLS log ASCII Standard -VERSION 2.0
WRAP.    NO : One line per depth step
DLM . SPACE : Column Data Section Delimiter
~Well ------------------------------------------------------
STRT .F                  214.0 : START DEPTH
STOP .F                 9541.0 : STOP DEPTH
STEP .F                    0.5 : STEP
NULL .                -9999.25 : NULL VALUE
COMP .                         : COMPANY
WELL .                         : WELL
FLD  .                         : FIELD
LOC  .                         : LOCATION
PROV .                         : PROVINCE
CNTY .                         : COUNTY
STAT .                         : STATE
CTRY .                         : COUNTRY
SRVC .                         : SERVICE COMPANY
DATE .                         : DATE
UWI  .                         : UNIQUE WELL ID
API  .                         : API NUMBER
SLAT .WGS84 3.0492386049413014 : SURFACE LATITUDE
SLON .WGS84  8.877749962376996 : SURFACE LONGITUDE
DATUM.F                3582.44 : DEPTH DATUM ELEV
~Curve Information -----------------------------------------
DEPT   .F     : 
HCALR  .IN    : HRCC CALIPER CALIBRATED FROM RESISTIVITY LOG
DTCO   .US/F  : DELTA-T COMPRESSIONAL
DTSM   .US/F  : DELTA-T SHEAR
HLLD   .OHMM  : HALS LATEROLOG DEEP RESISTIVITY
HLLS   .OHMM  : HALS LATEROLOG SHALLOW RESISTIVITY
RXOZ   .OHMM  : INVADED FORMATION RESISTIVITY FILTERED AT 18 INCHES
TNPH_LS.DEC   : THERMAL NEUTRON POROSITY [LIMESTONE]
PEFZ   .B/E   : HRDD STANDARD RESOLUTION FORMATION PHOTOELECTRIC FACTOR
HDRA   .G/C3  : HRDD SPINE AND RIBS DENSITY CORRECTION
DPHZ_LS.DEC   : HGRD STANDARD RESOLUTION DENSITY POROSITY
RHOZ   .G/C3  : HRDD STANDARD RESOLUTION FORMATION DENSITY
NPHI_LS.DEC   : NEUTRON POROSITY LIMESTONE
GRD    .GAPI  : GAMMA RAY FROM DENSITY LOG
~Params ----------------------------------------------------
~Other -----------------------------------------------------
~ASCII -----------------------------------------------------
# ...
 5570.00000    8.20320   -9999.25   -9999.25  248.73310  228.00210  144.41500    0.04110    3.53820    0.01240   -0.09190    2.86130   -9999.25   60.24710
 5570.50000    8.20320   -9999.25   -9999.25  652.79660  466.03260  282.35560    0.03700    3.56820    0.01180   -0.09980    2.87120   -9999.25   53.57480
 5571.00000    8.20320   -9999.25   -9999.25 1802.76710 1686.98630  749.22020    0.02940    3.62110    0.00800   -0.10620    2.88200   -9999.25   45.37680
 5571.50000    8.20320   -9999.25   -9999.25 2952.73750 2791.61110 1365.11890    0.02470    3.64650    0.00460   -0.11020    2.88750   -9999.25   38.67390
 5572.00000    8.20320   -9999.25   -9999.25 2612.14750 2797.30710 1216.61680    0.02400    3.72900    0.00370   -0.11060    2.88870   -9999.25   35.24620
 5572.50000    8.20320   -9999.25   -9999.25 2496.37330 2658.81350 1222.97170    0.02440    3.83520    0.00370   -0.10970    2.88780   -9999.25   34.67500
 5573.00000    8.20320   -9999.25   -9999.25 2217.03830 2415.55830  942.59980    0.02470    3.94040    0.00230   -0.10850    2.88630   -9999.25   36.57850
 5573.50000    8.20320   -9999.25   -9999.25 2395.60940 2716.11430 1049.18380    0.02510    4.09410   -0.00290   -0.10740    2.88420   -9999.25   39.94400
 5574.00000    8.20320   -9999.25   -9999.25 1147.58390 1016.00650  611.82780    0.02870    4.11210   -0.01580   -0.10640    2.88360   -9999.25   43.42350
 5574.50000    8.20320   -9999.25   -9999.25  327.44520  322.21010  195.27810    0.03120    4.01190   -0.01620   -0.10740    2.88620   -9999.25   45.69430
 5575.00000    8.20320   -9999.25   -9999.25  326.32860  323.34590  200.28820    0.02950    3.89630   -0.01370   -0.11480    2.89950   -9999.25   42.33670
 5575.50000    8.20320   -9999.25   -9999.25  633.82070  400.28850  256.42180    0.02140    3.88930   -0.00540   -0.12340    2.91230   -9999.25   33.18730
 5576.00000    8.20320   -9999.25   -9999.25 3736.82980 4782.02830  811.14480    0.01550    4.02510   -0.00920   -0.13220    2.92530   -9999.25   25.12540
 5576.50000    8.20320   -9999.25   -9999.25 4689.73490 4629.27830  639.98850    0.01170    4.21960   -0.01390   -0.13700    2.93050   -9999.25   20.30380
 5577.00000    8.20320   -9999.25   -9999.25 4529.05910 4519.54640  578.71760    0.01100    4.35290   -0.01470   -0.13860    2.93180   -9999.25   20.35300
 5577.50000    8.19250   -9999.25   -9999.25 4543.16650 4543.17140  552.81970    0.01170    4.22800   -0.00840   -0.13660    2.92630   -9999.25   21.77680
 5578.00000    8.18310   -9999.25   -9999.25 4554.58890 4354.64450 1067.42410    0.01360    3.96570   -0.00050   -0.13000    2.91690   -9999.25   29.18790
 5578.50000    8.18320   -9999.25   -9999.25 1780.02670 2729.72920  867.09840    0.01910    3.75340    0.00410   -0.11880    2.89480   -9999.25   37.14520
 5579.00000    8.18310   -9999.25   -9999.25  323.08830  452.49340  203.11730    0.02860    3.61860    0.00910   -0.10120    2.87160   -9999.25   44.82640
 5579.50000    8.18310   -9999.25   -9999.25  233.01500  235.12630  141.35630    0.04000    3.52640    0.01370   -0.09120    2.85210   -9999.25   50.19530
 5580.00000    8.18310   -9999.25   -9999.25  212.10200  210.60640  111.88320    0.04650    3.43170    0.01850   -0.08700    2.85560   -9999.25   45.38700
 5580.50000    8.18310   -9999.25   -9999.25  265.43140  266.72990  130.71490    0.04840    3.39020    0.01950   -0.09060    2.85920   -9999.25   38.11590
 5581.00000    8.18310   -9999.25   -9999.25  298.27920  308.34170  119.26340    0.04630    3.39280    0.01670   -0.09480    2.86120   -9999.25   36.66410
 5581.50000    8.18310   -9999.25   -9999.25  347.10290  321.35540  140.20060    0.04370    3.47910    0.01580   -0.09450    2.86130   -9999.25   38.35280
 5582.00000    8.18310   -9999.25   -9999.25  316.50430  305.67660  124.82530    0.04080    3.67440    0.01480   -0.09260    2.86120   -9999.25   38.56380
 5582.50000    8.18310   -9999.25   -9999.25  421.06520  421.06640  169.74110    0.03250    3.87720    0.01080   -0.09310    2.86290   -9999.25   35.36670
 5583.00000    8.18310   -9999.25   -9999.25 1092.15330  922.98260  289.63200    0.02200    3.95520    0.00750   -0.09630    2.87090   -9999.25   31.51900
 5583.50000    8.18310   -9999.25   -9999.25 2042.23990 1733.63680  386.15720    0.01530    3.92240    0.00670   -0.10280    2.87940   -9999.25   29.40670
 5584.00000    8.18310   -9999.25   -9999.25 1756.82710 1589.08920  409.45460    0.01280    3.88280    0.00600   -0.10660    2.88620   -9999.25   27.96680
 5584.50000    8.18310   -9999.25   -9999.25 1929.21170 2012.77990  581.25620    0.01130    3.85560    0.00610   -0.11020    2.89060   -9999.25   26.43250
 5585.00000    8.18310   -9999.25   -9999.25 2495.71830 2241.83590  652.84920    0.01090    3.83480    0.00310   -0.11260    2.89340   -9999.25   25.69470
 5585.50000    8.18310   -9999.25   -9999.25 2598.04200 2286.09300  649.09330    0.01230    3.83240   -0.00300   -0.11380    2.89460   -9999.25   27.00460
 5586.00000    8.18310   -9999.25   -9999.25 2542.71680 1380.01120  614.01390    0.01670    3.80890   -0.01070   -0.11380    2.89440   -9999.25   30.90270
 5586.50000    8.18310   -9999.25   -9999.25  553.77620  473.92950  384.93340    0.02160    3.74100   -0.01880   -0.11330    2.89310   -9999.25   35.52260
 5587.00000    8.18310   -9999.25   -9999.25  402.17660  406.75780  320.29900    0.02630    3.67100   -0.01480   -0.11360    2.89160   -9999.25   37.16240
 5587.50000    8.18310   -9999.25   -9999.25  401.67270  390.73320  273.08520    0.03080    3.57520   -0.00300   -0.11080    2.88720   -9999.25   37.40730
 5588.00000    8.18310   -9999.25   -9999.25  574.60050  525.36130  306.97670    0.03400    3.48460    0.01220   -0.10740    2.87900   -9999.25   38.44550
 5588.50000    8.18310   -9999.25   -9999.25  405.41890  397.43360  226.51860    0.03660    3.42680    0.02240   -0.09920    2.87010   -9999.25   41.71150
 5589.00000    8.18310   -9999.25   -9999.25  327.87490  332.58910  204.01950    0.03800    3.44430    0.02600   -0.09470    2.86350   -9999.25   43.90080
 5589.50000    8.18310   -9999.25   -9999.25  426.20180  382.40340  191.66330    0.03600    3.50630    0.02740   -0.09290    2.85860   -9999.25   43.48340
 5590.00000    8.18310   -9999.25   -9999.25  611.68070  599.37920  305.27740    0.03170    3.57950    0.02000   -0.09960    2.86810   -9999.25   38.64060
 5590.50000    8.18310   -9999.25   -9999.25  787.75760  787.75760  431.38450    0.02950    3.64220    0.00880   -0.10530    2.88190   -9999.25   32.38230
 5591.00000    8.18310   -9999.25   -9999.25  797.02040  797.02040  451.73140    0.03010    3.67590    0.00010   -0.11010    2.88560   -9999.25   30.46120
 5591.50000    8.18310   -9999.25   -9999.25  628.98220  628.98220  368.20940    0.03380    3.67230   -0.00420   -0.10850    2.87980   -9999.25   31.72180
 5592.00000    8.18310   -9999.25   -9999.25  581.16560  581.17770  347.02090    0.04010    3.62730   -0.00100   -0.10170    2.86880   -9999.25   35.42850
 5592.50000    8.18310   -9999.25   -9999.25  479.63200  472.44310  313.66090    0.04020    3.58100    0.00190   -0.09400    2.86000   -9999.25   38.58120
 5593.00000    8.18310   -9999.25   -9999.25  434.79300  412.56340  266.67380    0.03680    3.52670    0.00470   -0.09320    2.86550   -9999.25   38.87140
 5593.50000    8.18320   -9999.25   -9999.25  577.15340  612.67180  337.24330    0.03010    3.53630    0.00680   -0.09890    2.87380   -9999.25   35.27980
 5594.00000    8.18320   -9999.25   -9999.25 1085.54930 1148.48630  435.58160    0.02340    3.60430    0.00950   -0.10820    2.88860   -9999.25   31.53700
 5594.50000    8.19450   -9999.25   -9999.25 2837.81350 2369.09790 1179.42240    0.01970    3.69760    0.01320   -0.11600    2.89450   -9999.25   30.37980
 5595.00000    8.20320   -9999.25   -9999.25 3136.20830 2797.42070 1413.00090    0.01900    3.71360    0.01650   -0.11720    2.89520   -9999.25   32.52370
 5595.50000    8.20320   -9999.25   -9999.25 2325.64310 2089.52640 1416.32090    0.02560    3.70060    0.01600   -0.11310    2.88970   -9999.25   36.22320
