~Version ---------------------------------------------------
VERS.   2.0 : CWLS log ASCII Standard -VERSION 2.0
WRAP.    NO : One line per depth step
DLM . SPACE : Column Data Section Delimiter
~Well ------------------------------------------------------
STRT .F                  214.0 : START DEPTH
STOP .F                 9541.0 : STOP DEPTH
STEP .F                    0.5 : STEP
NULL .                -9999.25 : NULL VALUE
COMP .                         : COMPANY
WELL .                         : WELL
FLD  .                         : FIELD
LOC  .                         : LOCATION
PROV .                         : PROVINCE
CNTY .                         : COUNTY
STAT .                         : STATE
CTRY .                         : COUNTRY
SRVC .                         : SERVICE COMPANY
DATE .                         : DATE
UWI  .                         : UNIQUE WELL ID
API  .                         : API NUMBER
SLAT .WGS84 3.0492386049413014 : SURFACE LATITUDE
SLON .WGS84  8.877749962376996 : SURFACE LONGITUDE
DATUM.F                3582.44 : DEPTH DATUM ELEV
~Curve Information -----------------------------------------
DEPT   .F     : 
HCALR  .IN    : HRCC CALIPER CALIBRATED FROM RESISTIVITY LOG
DTCO   .US/F  : DELTA-T COMPRESSIONAL
DTSM   .US/F  : DELTA-T SHEAR
HLLD   .OHMM  : HALS LATEROLOG DEEP RESISTIVITY
HLLS   .OHMM  : HALS LATEROLOG SHALLOW RESISTIVITY
RXOZ   .OHMM  : INVADED FORMATION RESISTIVITY FILTERED AT 18 INCHES
TNPH_LS.DEC   : THERMAL NEUTRON POROSITY [LIMESTONE]
PEFZ   .B/E   : HRDD STANDARD RESOLUTION FORMATION PHOTOELECTRIC FACTOR
HDRA   .G/C3  : HRDD SPINE AND RIBS DENSITY CORRECTION
DPHZ_LS.DEC   : HGRD STANDARD RESOLUTION DENSITY POROSITY
RHOZ   .G/C3  : HRDD STANDARD RESOLUTION FORMATION DENSITY
NPHI_LS.DEC   : NEUTRON POROSITY LIMESTONE
GRD    .GAPI  : GAMMA RAY FROM DENSITY LOG
~Params ----------------------------------------------------
~Other -----------------------------------------------------
~ASCII -----------------------------------------------------
# ...
 5154.00000    8.55110   -9999.25   -9999.25  645.13290  717.25810  438.48760    0.01990    4.14340   -0.01990   -0.11410    2.89750   -9999.25   31.24060
 5154.50000    8.54540   -9999.25   -9999.25  369.01640  401.97690  238.86490    0.02650    4.04710   -0.01340   -0.10650    2.88960   -9999.25   29.14080
 5155.00000    8.54530   -9999.25   -9999.25  369.31920  439.46810  246.92230    0.02900    3.97510   -0.00540   -0.10470    2.88050   -9999.25   27.91310
 5155.50000    8.54580   -9999.25   -9999.25  682.90660  954.00850  369.26710    0.02840    3.90310    0.00680   -0.11030    2.88790   -9999.25   28.76580
 5156.00000    8.51730   -9999.25   -9999.25 1195.22470 1356.96120  682.68730    0.02470    3.86930    0.02020   -0.12250    2.89550   -9999.25   31.05020
 5156.50000    8.50540   -9999.25   -9999.25 1458.64290 2060.09470  767.47060    0.02210    3.87710    0.02290   -0.12890    2.91260   -9999.25   32.97900
 5157.00000    8.50470   -9999.25   -9999.25 1779.31360 2763.22800  797.29660    0.02140    3.90520    0.01150   -0.11400    2.90110   -9999.25   34.64260
 5157.50000    8.51770   -9999.25   -9999.25  566.50980  788.28620    5.77740    0.02290    3.98030    0.01120   -0.08550    2.86620   -9999.25   36.59650
 5158.00000    8.55100   -9999.25   -9999.25  302.20600  463.72500    3.75670    0.02590    4.01310    0.01630   -0.06270    2.82980   -9999.25   40.39480
 5158.50000    8.57820   -9999.25   -9999.25  242.07220  323.28950    3.75670    0.02610    3.97400    0.03090   -0.05900    2.80360   -9999.25   43.14200
 5159.00000    8.58540   -9999.25   -9999.25  200.28650  254.22880   22.84020    0.02330    3.83380    0.02960   -0.07430    2.81840   -9999.25   43.16320
 5159.50000    8.58560   -9999.25   -9999.25  197.95840  244.84580   33.10580    0.01700    3.80760    0.02540   -0.09380    2.85250   -9999.25   38.85350
 5160.00000    8.58520   -9999.25   -9999.25  228.48180  314.78930   48.03010    0.01110    4.04800    0.01690   -0.11420    2.88910   -9999.25   30.14340
 5160.50000    8.61080   -9999.25   -9999.25  596.50000  930.65070  469.71270    0.00730    4.65110   -0.00280   -0.13960    2.93460   -9999.25   24.07090
 5161.00000    8.62560   -9999.25   -9999.25  938.52680 1011.31370  506.26420    0.01140    4.92910   -0.01340   -0.15130    2.95600   -9999.25   25.07420
 5161.50000    8.62590   -9999.25   -9999.25  582.98730  783.79930  429.66740    0.01620    4.74500   -0.01450   -0.14780    2.95650   -9999.25   30.72550
 5162.00000    8.61350   -9999.25   -9999.25  430.14720  614.09280  382.53410    0.02150    4.41120    0.00380   -0.12600    2.93860   -9999.25   36.37680
 5162.50000    8.59320   -9999.25   -9999.25  370.06320  517.19150  388.77930    0.02710    4.12000    0.01440   -0.10510    2.90110   -9999.25   42.38090
 5163.00000    8.57330   -9999.25   -9999.25  346.18920  413.06880  276.49880    0.03230    4.05120    0.00580   -0.10640    2.88460   -9999.25   47.52300
 5163.50000    8.55350   -9999.25   -9999.25  352.31050  423.32200  272.98900    0.04120    4.04960   -0.00910   -0.11020    2.88340   -9999.25   48.83610
 5164.00000    8.58190   -9999.25   -9999.25  345.85530  399.01730  257.59700    0.04700    4.02850   -0.00820   -0.10810    2.88360   -9999.25   47.03640
 5164.50000    8.62970   -9999.25   -9999.25  167.45390  211.04050  106.89560    0.05810    3.94750    0.00180   -0.09470    2.88050   -9999.25   44.19610
 5165.00000    8.63410   -9999.25   -9999.25  126.23670  140.61290   78.85420    0.06880    3.86640    0.01850   -0.08260    2.85580   -9999.25   43.03590
 5165.50000    8.63790   -9999.25   -9999.25  115.41950  118.85510   48.27850    0.07480    3.82820    0.02630   -0.06920    2.83400   -9999.25   42.35290
 5166.00000    8.69290   -9999.25   -9999.25  117.00510  120.06590    5.10910    0.07340    3.89220    0.02860   -0.05420    2.81290   -9999.25   40.47630
 5166.50000    8.71440   -9999.25   -9999.25  153.97130  152.78350    4.94970    0.06290    4.03180    0.02690   -0.05560    2.81950   -9999.25   36.28930
 5167.00000    8.68330   -9999.25   -9999.25  364.90540  289.07240    5.49270    0.05200    4.15750    0.02080   -0.07990    2.82870   -9999.25   33.67510
 5167.50000    8.68960   -9999.25   -9999.25  591.31140  635.26390  303.72450    0.04440    4.15790    0.02020   -0.10540    2.83270   -9999.25   34.02260
 5168.00000    8.76270   -9999.25   -9999.25  262.59260  279.59900  189.87520    0.04920    4.01840    0.01900   -0.11300    2.88830   -9999.25   36.86480
 5168.50000    8.87930   -9999.25   -9999.25  141.76880  136.08070  102.13260    0.06570    3.84150    0.01750   -0.09660    2.86820   -9999.25   44.34690
 5169.00000    8.93580   -9999.25   -9999.25   91.18310   86.82550   68.85710    0.08630    3.72700    0.01240   -0.07070    2.83330   -9999.25   54.70010
 5169.50000    8.97580   -9999.25   -9999.25   60.87520   58.25900   49.83560    0.09310    3.67800    0.00480   -0.04680    2.79830   -9999.25   64.92310
 5170.00000    9.05440   -9999.25   -9999.25   58.59180   57.19390    7.82360    0.09260    3.77510   -0.00820   -0.02980    2.76340   -9999.25   64.12110
 5170.50000    9.24090   -9999.25   -9999.25   87.60430   86.23720    7.97100    0.08170    3.84930   -0.01230   -0.03910    2.75910   -9999.25   52.83870
 5171.00000    9.05730   -9999.25   -9999.25  184.94220  173.22980    9.10570    0.05930    3.79680    0.01560   -0.08360    2.77450   -9999.25   39.70560
 5171.50000    8.91140   -9999.25   -9999.25  532.74930  428.98390  515.86020    0.04350    3.70510    0.08910   -0.12250    2.86820   -9999.25   27.58830
 5172.00000    8.95050   -9999.25   -9999.25 1534.65270 1062.33000  652.31430    0.06060    4.14470    0.10210   -0.17940    2.99380   -9999.25   27.08310
 5172.50000    9.02330   -9999.25   -9999.25  769.50150 1155.22270   23.86820    0.10370    4.92990    0.09860   -0.14290    2.99340   -9999.25   33.79800
 5173.00000    9.30310   -9999.25   -9999.25   95.58840  166.65470    0.36000    0.15710    5.95080    0.05530    0.12360    2.98970   -9999.25   42.46590
 5173.50000   11.08180   -9999.25   -9999.25   42.31570   41.21550    0.20380    0.29020    6.99950   -0.00740    0.38210    2.37980   -9999.25   51.13380
 5174.00000   12.87550   -9999.25   -9999.25   24.34490   24.77310    0.20420    0.42320    7.89190   -0.00500    0.58340    2.30520   -9999.25   54.46540
 5174.50000    9.63080   -9999.25   -9999.25   36.94700   35.17510    0.24900    0.39400    7.62040    0.04990    0.29570    2.34700   -9999.25   54.06790
 5175.00000    9.61860   -9999.25   -9999.25   57.63890   53.41270    1.14280    0.31630    6.82840    0.06820    0.13210    2.38880   -9999.25   53.20850
 5175.50000    9.50430   -9999.25   -9999.25   35.28360   33.95790    0.90630    0.27340    6.03880    0.06770    0.07670    2.43060   -9999.25   51.75960
 5176.00000   10.55620   -9999.25   -9999.25   33.78800   33.80850    0.49110    0.21240    5.64830    0.02820    0.14900    2.48220   -9999.25   50.99900
 5176.50000    8.99780   -9999.25   -9999.25   38.68780   41.44760    0.53430    0.17500    5.25780    0.01080    0.15560    2.53810   -9999.25   51.42380
 5177.00000    9.00240   -9999.25   -9999.25  108.94560   78.57440    4.48330    0.15100    4.86730    0.02090    0.02930    2.66900   -9999.25   55.62470
 5177.50000    8.98430   -9999.25   -9999.25  116.09140  101.02380   65.04030    0.12900    4.46390    0.04050   -0.05010    2.75210   -9999.25   61.84830
 5178.00000    8.92820   -9999.25   -9999.25  129.08250   99.98190   72.02750    0.11360    4.06240    0.05830   -0.08290    2.84280   -9999.25   65.70520
 5178.50000    8.92750   -9999.25   -9999.25  140.37550  120.05880  123.38850    0.11030    3.79360    0.04820   -0.08110    2.82790   -9999.25   64.85360
 5179.00000    8.94910   -9999.25   -9999.25  147.93040  145.15650  131.36570    0.12010    3.79350    0.02570   -0.06440    2.80360   -9999.25   64.96770
 5179.50000    9.04990   -9999.25   -9999.25   85.62730   81.59860    4.73970    0.14830    3.96010    0.02470   -0.02420    2.76330   -9999.25   71.84100
