~Version ---------------------------------------------------
VERS.   2.0 : CWLS log ASCII Standard -VERSION 2.0
WRAP.    NO : One line per depth step
DLM . SPACE : Column Data Section Delimiter
~Well ------------------------------------------------------
STRT .F                  214.0 : START DEPTH
STOP .F                 9541.0 : STOP DEPTH
STEP .F                    0.5 : STEP
NULL .                -9999.25 : NULL VALUE
COMP .                         : COMPANY
WELL .                         : WELL
FLD  .                         : FIELD
LOC  .                         : LOCATION
PROV .                         : PROVINCE
CNTY .                         : COUNTY
STAT .                         : STATE
CTRY .                         : COUNTRY
SRVC .                         : SERVICE COMPANY
DATE .                         : DATE
UWI  .                         : UNIQUE WELL ID
API  .                         : API NUMBER
SLAT .WGS84 3.0492386049413014 : SURFACE LATITUDE
SLON .WGS84  8.877749962376996 : SURFACE LONGITUDE
DATUM.F                3582.44 : DEPTH DATUM ELEV
~Curve Information -----------------------------------------
DEPT   .F     : 
HCALR  .IN    : HRCC CALIPER CALIBRATED FROM RESISTIVITY LOG
DTCO   .US/F  : DELTA-T COMPRESSIONAL
DTSM   .US/F  : DELTA-T SHEAR
HLLD   .OHMM  : HALS LATEROLOG DEEP RESISTIVITY
HLLS   .OHMM  : HALS LATEROLOG SHALLOW RESISTIVITY
RXOZ   .OHMM  : INVADED FORMATION RESISTIVITY FILTERED AT 18 INCHES
TNPH_LS.DEC   : THERMAL NEUTRON POROSITY [LIMESTONE]
PEFZ   .B/E   : HRDD STANDARD RESOLUTION FORMATION PHOTOELECTRIC FACTOR
HDRA   .G/C3  : HRDD SPINE AND RIBS DENSITY CORRECTION
DPHZ_LS.DEC   : HGRD STANDARD RESOLUTION DENSITY POROSITY
RHOZ   .G/C3  : HRDD STANDARD RESOLUTION FORMATION DENSITY
NPHI_LS.DEC   : NEUTRON POROSITY LIMESTONE
GRD    .GAPI  : GAMMA RAY FROM DENSITY LOG
~Params ----------------------------------------------------
~Other -----------------------------------------------------
~ASCII -----------------------------------------------------
# ...
 6818.00000    8.94660   -9999.25   -9999.25  160.44670  149.81350  204.00010    0.04690    4.42230    0.01780   -0.03260    2.76670   -9999.25   38.01600
 6818.50000    8.99710   -9999.25   -9999.25   78.15850   56.42520    9.70310    0.05580    4.43000    0.02430   -0.02430    2.75600   -9999.25   42.09630
 6819.00000    8.91550   -9999.25   -9999.25   76.66920   52.81120    6.92300    0.05400    4.53800    0.02930   -0.01750    2.74530   -9999.25   38.73580
 6819.50000    8.84260   -9999.25   -9999.25  108.91010   67.96120    7.04830    0.03480    4.66620    0.02360   -0.01740    2.73650   -9999.25   29.46290
 6820.00000    8.79630   -9999.25   -9999.25  731.88700  476.30200  208.07390    0.01490    4.89090    0.00160   -0.02070    2.73890   -9999.25   20.18990
 6820.50000    8.78680   -9999.25   -9999.25 1935.09750 1525.81620 1285.48970    0.00100    5.04720   -0.01210   -0.02760    2.76040   -9999.25   13.16110
 6821.00000    8.78780   -9999.25   -9999.25 1877.78200 1444.24390 1111.23270    0.00100    5.04770   -0.01300   -0.03530    2.77430   -9999.25   13.49900
 6821.50000    8.74180   -9999.25   -9999.25  571.45950  488.61410  479.67790    0.00490    4.93060   -0.01270   -0.04300    2.78330   -9999.25   16.64350
 6822.00000    8.69680   -9999.25   -9999.25  327.16610  303.16310  229.37210    0.00890    4.70130   -0.00730   -0.05090    2.79230   -9999.25   20.56870
 6822.50000    8.67120   -9999.25   -9999.25  240.88930  249.01520  177.68620    0.01410    4.44570    0.01000   -0.05680    2.80140   -9999.25   24.02660
 6823.00000    8.66600   -9999.25   -9999.25  201.11380  214.22670  165.03790    0.01750    4.32410    0.01930   -0.05710    2.80120   -9999.25   25.62940
 6823.50000    8.66630   -9999.25   -9999.25  143.19640  136.03200  122.03370    0.02280    4.32930    0.01860   -0.05180    2.79430   -9999.25   27.23220
 6824.00000    8.65110   -9999.25   -9999.25  108.47840  110.04320   90.98440    0.03170    4.41260    0.00460   -0.04520    2.78020   -9999.25   29.94150
 6824.50000    8.64600   -9999.25   -9999.25   88.19960   94.40800   77.78110    0.04010    4.50040   -0.00410   -0.03790    2.76870   -9999.25   33.20140
 6825.00000    8.64580   -9999.25   -9999.25   81.22740   82.76030   66.49370    0.04480    4.53980   -0.00400   -0.02920    2.75290   -9999.25   35.64560
 6825.50000    8.64590   -9999.25   -9999.25   76.28740   75.05130   56.41980    0.04580    4.55420   -0.00220   -0.02030    2.74030   -9999.25   36.25120
 6826.00000    8.64600   -9999.25   -9999.25   80.51810   80.42920   58.93970    0.04310    4.56080    0.00370   -0.01310    2.73070   -9999.25   35.79540
 6826.50000    8.64570   -9999.25   -9999.25   95.57000   91.13440   64.16650    0.03970    4.58610    0.01030   -0.00710    2.72140   -9999.25   34.78970
 6827.00000    8.62830   -9999.25   -9999.25  105.86830   97.31860   85.09990    0.03220    4.62270    0.01420   -0.00460    2.71660   -9999.25   34.54890
 6827.50000    8.62570   -9999.25   -9999.25   97.15170  103.27920   32.46500    0.02440    4.68650    0.01720   -0.00480    2.71800   -9999.25   35.47250
 6828.00000    8.60810   -9999.25   -9999.25  140.73330  142.60010   28.04180    0.01740    4.79460    0.01520   -0.00710    2.72190   -9999.25   39.89190
 6828.50000    8.58810   -9999.25   -9999.25  207.34820  196.89170   31.26390    0.01160    4.95350    0.01040   -0.00970    2.72590   -9999.25   46.22270
 6829.00000    8.56810   -9999.25   -9999.25  281.41350  238.66870  134.01090    0.01090    5.06110    0.01120   -0.01070    2.72730   -9999.25   49.98130
 6829.50000    8.54790   -9999.25   -9999.25  225.95890  216.53490  207.36700    0.01140    5.09780    0.01570   -0.01030    2.72640   -9999.25   50.88360
 6830.00000    8.52800   -9999.25   -9999.25  210.66050  206.61610  190.82380    0.01190    5.10050    0.02490   -0.00930    2.72230   -9999.25   49.84020
 6830.50000    8.52520   -9999.25   -9999.25  234.72790  230.07120  217.40050    0.01360    5.04930    0.02890   -0.00760    2.71960   -9999.25   46.92860
 6831.00000    8.50790   -9999.25   -9999.25  210.01540  205.84280  187.77090    0.01620    4.99480    0.02320   -0.00650    2.72000   -9999.25   45.48220
 6831.50000    8.48850   -9999.25   -9999.25  164.50340  165.80090  153.62380    0.01960    4.92380    0.01670   -0.00650    2.72260   -9999.25   44.51600
 6832.00000    8.46890   -9999.25   -9999.25  162.44090  158.73160  122.31170    0.02210    4.82930    0.01100   -0.00800    2.72730   -9999.25   44.62630
 6832.50000    8.43130   -9999.25   -9999.25  193.59750  166.98620  138.64340    0.02330    4.77260    0.00700   -0.01200    2.73310   -9999.25   45.38840
 6833.00000    8.40820   -9999.25   -9999.25  203.15260  175.42140  162.38050    0.02200    4.69930    0.00290   -0.01730    2.73890   -9999.25   45.72220
 6833.50000    8.38750   -9999.25   -9999.25  207.87780  181.59820  168.36600    0.02120    4.66430   -0.00190   -0.01980    2.74110   -9999.25   44.76180
 6834.00000    8.38490   -9999.25   -9999.25  169.53290  172.91310  156.33520    0.02250    4.65760   -0.00680   -0.01800    2.73660   -9999.25   41.51300
 6834.50000    8.36800   -9999.25   -9999.25  144.60560  146.88620  134.08980    0.02540    4.65640   -0.01100   -0.01260    2.72610   -9999.25   38.52900
 6835.00000    8.34750   -9999.25   -9999.25  126.80280  124.77690  119.50000    0.02820    4.65550   -0.01330   -0.00560    2.71580   -9999.25   36.93210
 6835.50000    8.34420   -9999.25   -9999.25  123.26580  123.05350  110.39230    0.03090    4.63390   -0.01320   -0.00040    2.70980   -9999.25   36.76600
 6836.00000    8.34510   -9999.25   -9999.25  128.74670  126.83860  122.87120    0.03160    4.56350   -0.01270    0.00070    2.70860   -9999.25   37.43720
 6836.50000    8.31100   -9999.25   -9999.25  132.84640  130.12580  134.07090    0.03160    4.48820   -0.01210    0.00070    2.70810   -9999.25   39.73880
 6837.00000    8.30400   -9999.25   -9999.25  135.17050  132.79960  120.08690    0.03010    4.46710   -0.01090    0.00210    2.70510   -9999.25   42.01290
 6837.50000    8.30380   -9999.25   -9999.25  147.84690  144.28510  130.31770    0.02860    4.47850   -0.00870    0.00520    2.70170   -9999.25   45.60970
 6838.00000    8.30380   -9999.25   -9999.25  154.90290  150.24480  128.43990    0.02800    4.48990   -0.00090    0.00480    2.70390   -9999.25   49.70280
 6838.50000    8.30380   -9999.25   -9999.25  158.68440  150.26800  142.22710    0.02870    4.51030    0.00680    0.00290    2.70680   -9999.25   57.50920
 6839.00000    8.30380   -9999.25   -9999.25  156.47090  150.29120  141.28420    0.03180    4.53540    0.01660    0.00050    2.70970   -9999.25   71.47800
 6839.50000    8.30380   -9999.25   -9999.25  167.08090  163.47010  159.53170    0.03800    4.53700    0.02180   -0.00090    2.71270   -9999.25   88.51720
 6840.00000    8.30380   -9999.25   -9999.25  162.91430  161.77070  160.60080    0.04480    4.52030    0.01530   -0.00120    2.71120   -9999.25  102.39190
 6840.50000    8.30380   -9999.25   -9999.25  150.94060  154.49480  152.11500    0.05110    4.49730    0.00350    0.00170    2.70590   -9999.25   93.72690
 6841.00000    8.30380   -9999.25   -9999.25  158.30580  155.97520  144.64070    0.05490    4.49500    0.00350    0.00720    2.69680   -9999.25   85.06200
 6841.50000    8.30380   -9999.25   -9999.25  173.47970  160.84060  146.11400    0.05800    4.48420    0.00610    0.01500    2.68780   -9999.25   70.14780
 6842.00000    8.30380   -9999.25   -9999.25  160.98320  152.56710  140.56300    0.05970    4.43380    0.00260    0.01760    2.68190   -9999.25   59.79190
 6842.50000    8.30380   -9999.25   -9999.25  140.00500  139.23600  124.79720    0.06080    4.35330   -0.00410    0.01820    2.68120   -9999.25   51.62240
 6843.00000    8.30380   -9999.25   -9999.25  146.16840  144.63440  123.06550    0.05580    4.35650   -0.00470    0.01820    2.68050   -9999.25   48.03360
 6843.50000    8.30380   -9999.25   -9999.25  170.02780  159.17220  145.82720    0.04970    4.38440   -0.00420    0.01980    2.67980   -9999.25   46.06800
