~Version ---------------------------------------------------
VERS.   2.0 : CWLS log ASCII Standard -VERSION 2.0
WRAP.    NO : One line per depth step
DLM . SPACE : Column Data Section Delimiter
~Well ------------------------------------------------------
STRT .F                  214.0 : START DEPTH
STOP .F                 9541.0 : STOP DEPTH
STEP .F                    0.5 : STEP
NULL .                -9999.25 : NULL VALUE
COMP .                         : COMPANY
WELL .                         : WELL
FLD  .                         : FIELD
LOC  .                         : LOCATION
PROV .                         : PROVINCE
CNTY .                         : COUNTY
STAT .                         : STATE
CTRY .                         : COUNTRY
SRVC .                         : SERVICE COMPANY
DATE .                         : DATE
UWI  .                         : UNIQUE WELL ID
API  .                         : API NUMBER
SLAT .WGS84 3.0492386049413014 : SURFACE LATITUDE
SLON .WGS84  8.877749962376996 : SURFACE LONGITUDE
DATUM.F                3582.44 : DEPTH DATUM ELEV
~Curve Information -----------------------------------------
DEPT   .F     : 
HCALR  .IN    : HRCC CALIPER CALIBRATED FROM RESISTIVITY LOG
DTCO   .US/F  : DELTA-T COMPRESSIONAL
DTSM   .US/F  : DELTA-T SHEAR
HLLD   .OHMM  : HALS LATEROLOG DEEP RESISTIVITY
HLLS   .OHMM  : HALS LATEROLOG SHALLOW RESISTIVITY
RXOZ   .OHMM  : INVADED FORMATION RESISTIVITY FILTERED AT 18 INCHES
TNPH_LS.DEC   : THERMAL NEUTRON POROSITY [LIMESTONE]
PEFZ   .B/E   : HRDD STANDARD RESOLUTION FORMATION PHOTOELECTRIC FACTOR
HDRA   .G/C3  : HRDD SPINE AND RIBS DENSITY CORRECTION
DPHZ_LS.DEC   : HGRD STANDARD RESOLUTION DENSITY POROSITY
RHOZ   .G/C3  : HRDD STANDARD RESOLUTION FORMATION DENSITY
NPHI_LS.DEC   : NEUTRON POROSITY LIMESTONE
GRD    .GAPI  : GAMMA RAY FROM DENSITY LOG
~Params ----------------------------------------------------
~Other -----------------------------------------------------
~ASCII -----------------------------------------------------
# ...
 3880.00000    8.88730   -9999.25   -9999.25  828.61960  706.78530  367.10720    0.02670    3.58050    0.03230   -0.10320    2.87700   -9999.25   42.45900
 3880.50000    8.88730   -9999.25   -9999.25  610.24150  591.93210  341.68420    0.02740    3.58730    0.03750   -0.10460    2.87910   -9999.25   44.04720
 3881.00000    8.88720   -9999.25   -9999.25  505.07240  495.74260  279.58810    0.02740    3.63630    0.04110   -0.10380    2.87910   -9999.25   43.94120
 3881.50000    8.88730   -9999.25   -9999.25  463.58290  433.19620  268.33780    0.02430    3.76180    0.03360   -0.10370    2.87960   -9999.25   41.98150
 3882.00000    8.89280   -9999.25   -9999.25  516.86570  477.59580  273.96120    0.01870    4.03330    0.02310   -0.10720    2.88720   -9999.25   37.30800
 3882.50000    8.93040   -9999.25   -9999.25  749.93790  753.16630  355.47250    0.01070    4.22110    0.01550   -0.11650    2.90320   -9999.25   32.59060
 3883.00000    8.95590   -9999.25   -9999.25 1655.90310 1602.95390  505.15090    0.00120    4.44340    0.01110   -0.12930    2.92750   -9999.25   28.11570
 3883.50000    8.99710   -9999.25   -9999.25 3452.47290 3261.33590  730.65010   -0.00270    4.64050    0.00750   -0.14260    2.94600   -9999.25   24.29570
 3884.00000    8.92540   -9999.25   -9999.25 3546.10060 3368.28880  784.82700   -0.00300    4.77710   -0.00680   -0.15160    2.95370   -9999.25   20.24650
 3884.50000    8.90730   -9999.25   -9999.25 3139.20700 3125.37840  877.05970    0.00020    4.79330   -0.01760   -0.15060    2.95000   -9999.25   15.76730
 3885.00000    8.90470   -9999.25   -9999.25 2721.36350 2721.36350  819.32900    0.00630    4.67060   -0.01960   -0.14210    2.93320   -9999.25   14.14570
 3885.50000    8.88470   -9999.25   -9999.25 2141.45070 1825.70750  575.22520    0.01340    4.35110   -0.01630   -0.12990    2.91660   -9999.25   14.28710
 3886.00000    8.86460   -9999.25   -9999.25 1561.53770 1370.50660  421.26220    0.01470    3.99090   -0.00670   -0.12200    2.90600   -9999.25   15.26090
 3886.50000    8.84710   -9999.25   -9999.25 1269.34460 1243.35450  402.31530    0.01390    3.76260    0.00280   -0.11930    2.90280   -9999.25   16.02290
 3887.00000    8.84700   -9999.25   -9999.25 1394.41490 1330.44590  475.50960    0.01320    3.69040    0.01410   -0.11840    2.90110   -9999.25   16.62390
 3887.50000    8.84710   -9999.25   -9999.25 1586.19380 1441.08310  543.24660    0.01240    3.69570    0.02630   -0.11690    2.89840   -9999.25   17.67630
 3888.00000    8.84710   -9999.25   -9999.25 1544.33560 1410.31090  531.28490    0.01190    3.70470    0.02510   -0.11190    2.89220   -9999.25   18.94400
 3888.50000    8.84710   -9999.25   -9999.25 1440.51280 1344.67930  501.97290    0.01120    3.70430    0.02090   -0.11080    2.89120   -9999.25   20.18100
 3889.00000    8.84710   -9999.25   -9999.25 1265.89920 1198.05410  490.30080    0.01090    3.70130    0.01290   -0.11270    2.89460   -9999.25   20.61400
 3889.50000    8.84710   -9999.25   -9999.25 1092.15270  959.87030  537.81810    0.01120    3.69180    0.00940   -0.11790    2.90120   -9999.25   20.24320
 3890.00000    8.84700   -9999.25   -9999.25  940.82030  784.21770  512.80710    0.01190    3.74290    0.01040   -0.12200    2.90930   -9999.25   20.64620
 3890.50000    8.84710   -9999.25   -9999.25  810.45710  695.81350  493.49750    0.01270    3.79790    0.02490   -0.12610    2.90940   -9999.25   21.08850
 3891.00000    8.84960   -9999.25   -9999.25  630.00160  550.42340  374.61550    0.01370    3.81260    0.03990   -0.12180    2.90120   -9999.25   21.99400
 3891.50000    8.86710   -9999.25   -9999.25  499.35380  430.32790  302.61940    0.01550    3.76980    0.03640   -0.11390    2.89090   -9999.25   23.01970
 3892.00000    8.86720   -9999.25   -9999.25  463.85560  403.52060  255.34180    0.01750    3.67580    0.02870   -0.10750    2.88360   -9999.25   24.97130
 3892.50000    8.86720   -9999.25   -9999.25  516.43350  402.29920  282.66280    0.01900    3.64800    0.01820   -0.10530    2.88090   -9999.25   28.47310
 3893.00000    8.86960   -9999.25   -9999.25  470.36870  398.85850  283.13060    0.02060    3.69490    0.01090   -0.10480    2.87950   -9999.25   37.44130
 3893.50000    8.88710   -9999.25   -9999.25  456.56760  381.04390  255.15180    0.02160    3.73820    0.00370   -0.10360    2.87640   -9999.25   41.55140
 3894.00000    8.88740   -9999.25   -9999.25  439.20740  331.88890  216.79970    0.02240    3.77770   -0.00660   -0.09560    2.86330   -9999.25   41.05150
 3894.50000    8.88970   -9999.25   -9999.25  303.08120  289.73210  180.41190    0.02370    3.80140   -0.01330   -0.08750    2.84640   -9999.25   38.91810
 3895.00000    8.90730   -9999.25   -9999.25  213.91760  189.01660  136.48380    0.02670    3.82370   -0.01420   -0.07440    2.82200   -9999.25   37.06810
 3895.50000    8.90750   -9999.25   -9999.25  147.45470  116.63470   89.61730    0.03200    3.86640   -0.00860   -0.06450    2.81790   -9999.25   35.78960
 3896.00000    8.90740   -9999.25   -9999.25  124.36170  112.63970   70.26100    0.03670    3.88350   -0.00300   -0.06380    2.81540   -9999.25   34.20550
 3896.50000    8.90970   -9999.25   -9999.25  124.69320  106.99400   67.26640    0.04050    3.87110    0.00080   -0.06870    2.82320   -9999.25   31.54760
 3897.00000    8.92740   -9999.25   -9999.25  127.19870  109.09630   71.95930    0.04280    3.80530    0.00470   -0.07430    2.83090   -9999.25   30.48090
 3897.50000    8.92760   -9999.25   -9999.25  130.19830  112.91080   81.03480    0.04470    3.69170    0.00900   -0.07830    2.83610   -9999.25   31.67590
 3898.00000    8.92760   -9999.25   -9999.25  137.81390  116.85870   87.96540    0.04580    3.61230    0.01060   -0.07970    2.83980   -9999.25   35.22550
 3898.50000    8.92980   -9999.25   -9999.25  194.66140  155.36130  109.74960    0.04810    3.53170    0.01200   -0.08100    2.84170   -9999.25   38.45890
 3899.00000    8.94750   -9999.25   -9999.25  271.36370  206.95740  139.40570    0.05040    3.55320    0.01160   -0.08190    2.84270   -9999.25   38.29660
 3899.50000    8.94780   -9999.25   -9999.25  341.88950  251.79920  205.34040    0.05000    3.58220    0.01110   -0.08210    2.84290   -9999.25   34.71440
 3900.00000    8.94770   -9999.25   -9999.25  328.69200  226.70810  228.33160    0.04960    3.61120    0.00580   -0.08010    2.84020   -9999.25   30.12550
 3900.50000    8.94770   -9999.25   -9999.25  286.17390  196.61930  201.42430    0.04900    3.64470    0.00080   -0.07890    2.83730   -9999.25   26.31950
 3901.00000    8.94770   -9999.25   -9999.25  265.99260  182.05710  172.33790    0.04830    3.65700    0.00080   -0.07540    2.83040   -9999.25   24.09580
 3901.50000    8.94770   -9999.25   -9999.25  245.79650  175.12500  164.41990    0.04790    3.63150    0.00200   -0.07190    2.82690   -9999.25   20.86390
 3902.00000    8.94770   -9999.25   -9999.25  228.68030  161.23750  151.44520    0.04740    3.61680    0.00190   -0.07040    2.82520   -9999.25   18.56270
 3902.50000    8.94770   -9999.25   -9999.25  221.87550  151.01900  145.69010    0.04120    3.56350   -0.00110   -0.07040    2.82640   -9999.25   16.72940
 3903.00000    8.94770   -9999.25   -9999.25  230.21250  153.97350  137.38380    0.04280    3.55340   -0.00390   -0.07260    2.82900   -9999.25   16.74200
 3903.50000    8.94770   -9999.25   -9999.25  227.64120  156.18330  144.43270    0.04440    3.58650   -0.00280   -0.07590    2.83130   -9999.25   16.74030
 3904.00000    8.94770   -9999.25   -9999.25  219.46700  149.16530  134.98110    0.04540    3.61710    0.00050   -0.07570    2.83200   -9999.25   16.60710
 3904.50000    8.94770   -9999.25   -9999.25  215.73860  147.96460  129.94650    0.04570    3.69240    0.00660   -0.07440    2.83150   -9999.25   16.68820
 3905.00000    8.94770   -9999.25   -9999.25  221.57740  148.94610  128.23580    0.04700    3.68820    0.01280   -0.07460    2.83200   -9999.25   17.50620
 3905.50000    8.94770   -9999.25   -9999.25  219.72860  146.66940  123.55800    0.04910    3.68400    0.01960   -0.07610    2.83280   -9999.25   19.75560
