~Version ---------------------------------------------------
VERS.   2.0 : CWLS log ASCII Standard -VERSION 2.0
WRAP.    NO : One line per depth step
DLM . SPACE : Column Data Section Delimiter
~Well ------------------------------------------------------
STRT .F                  214.0 : START DEPTH
STOP .F                 9541.0 : STOP DEPTH
STEP .F                    0.5 : STEP
NULL .                -9999.25 : NULL VALUE
COMP .                         : COMPANY
WELL .                         : WELL
FLD  .                         : FIELD
LOC  .                         : LOCATION
PROV .                         : PROVINCE
CNTY .                         : COUNTY
STAT .                         : STATE
CTRY .                         : COUNTRY
SRVC .                         : SERVICE COMPANY
DATE .                         : DATE
UWI  .                         : UNIQUE WELL ID
API  .                         : API NUMBER
SLAT .WGS84 3.0492386049413014 : SURFACE LATITUDE
SLON .WGS84  8.877749962376996 : SURFACE LONGITUDE
DATUM.F                3582.44 : DEPTH DATUM ELEV
~Curve Information -----------------------------------------
DEPT   .F     : 
HCALR  .IN    : HRCC CALIPER CALIBRATED FROM RESISTIVITY LOG
DTCO   .US/F  : DELTA-T COMPRESSIONAL
DTSM   .US/F  : DELTA-T SHEAR
HLLD   .OHMM  : HALS LATEROLOG DEEP RESISTIVITY
HLLS   .OHMM  : HALS LATEROLOG SHALLOW RESISTIVITY
RXOZ   .OHMM  : INVADED FORMATION RESISTIVITY FILTERED AT 18 INCHES
TNPH_LS.DEC   : THERMAL NEUTRON POROSITY [LIMESTONE]
PEFZ   .B/E   : HRDD STANDARD RESOLUTION FORMATION PHOTOELECTRIC FACTOR
HDRA   .G/C3  : HRDD SPINE AND RIBS DENSITY CORRECTION
DPHZ_LS.DEC   : HGRD STANDARD RESOLUTION DENSITY POROSITY
RHOZ   .G/C3  : HRDD STANDARD RESOLUTION FORMATION DENSITY
NPHI_LS.DEC   : NEUTRON POROSITY LIMESTONE
GRD    .GAPI  : GAMMA RAY FROM DENSITY LOG
~Params ----------------------------------------------------
~Other -----------------------------------------------------
~ASCII -----------------------------------------------------
# ...
 2632.00000    8.46340   -9999.25   -9999.25   72.04600   72.43820   50.19670    0.06520    3.97360    0.00660   -0.04630    2.78750   -9999.25   12.63640
 2632.50000    8.48420   -9999.25   -9999.25   69.16550   73.72980   63.59740    0.07560    3.75230    0.00820   -0.03810    2.77790   -9999.25   15.27800
 2633.00000    8.48530   -9999.25   -9999.25   68.88620   76.42390   78.31620    0.08030    3.58060    0.00980   -0.03810    2.77370   -9999.25   17.37950
 2633.50000    8.50470   -9999.25   -9999.25   70.64270   69.92560   69.53510    0.08300    3.54630    0.01460   -0.03960    2.77310   -9999.25   19.52690
 2634.00000    8.50600   -9999.25   -9999.25   72.38520   64.87730   65.61840    0.08510    3.64160    0.02100   -0.03810    2.77260   -9999.25   21.45570
 2634.50000    8.52470   -9999.25   -9999.25   74.80410   79.29030   85.80690    0.08310    3.79230    0.02580   -0.03690    2.77220   -9999.25   21.89430
 2635.00000    8.52510   -9999.25   -9999.25   88.94710   97.21300   82.35220    0.07520    3.96410    0.01670   -0.03960    2.77520   -9999.25   20.50410
 2635.50000    8.52600   -9999.25   -9999.25  141.85400  125.52740  109.36520    0.06850    4.11440    0.00630   -0.04840    2.78540   -9999.25   18.95960
 2636.00000    8.54470   -9999.25   -9999.25  241.98150  222.45900  188.52850    0.06490    4.07610    0.00030   -0.05890    2.80570   -9999.25   19.54970
 2636.50000    8.54620   -9999.25   -9999.25  331.87340  336.66640  311.66980    0.06240    3.96910    0.00570   -0.06990    2.82190   -9999.25   26.40050
 2637.00000    8.56490   -9999.25   -9999.25  237.14840  243.35740  311.91740    0.06210    3.80660    0.01600   -0.07470    2.82970   -9999.25   32.88880
 2637.50000    8.56550   -9999.25   -9999.25  179.19310  168.71770  275.38450    0.06210    3.69240    0.02360   -0.07460    2.83120   -9999.25   32.30350
 2638.00000    8.56540   -9999.25   -9999.25  148.47480  131.95790  254.69720    0.06290    3.67060    0.02330   -0.07170    2.82640   -9999.25   28.88860
 2638.50000    8.56540   -9999.25   -9999.25  143.02850  128.70500  148.22400    0.06390    3.68990    0.02010   -0.06690    2.82000   -9999.25   26.09640
 2639.00000    8.56540   -9999.25   -9999.25  145.65820  142.07970  130.34080    0.06410    3.72130    0.01800   -0.06110    2.80870   -9999.25   25.52810
 2639.50000    8.56540   -9999.25   -9999.25  160.20200  156.84420  114.61520    0.06430    3.70170    0.01350   -0.05600    2.80320   -9999.25   25.13250
 2640.00000    8.56550   -9999.25   -9999.25  169.64960  156.77890  137.42540    0.06430    3.63960    0.00650   -0.05330    2.79770   -9999.25   23.73660
 2640.50000    8.56470   -9999.25   -9999.25  148.17340  130.17970  124.17430    0.06640    3.57900   -0.00220   -0.05180    2.79210   -9999.25   22.04140
 2641.00000    8.54590   -9999.25   -9999.25  129.94480  124.55210  107.82590    0.06910    3.53760   -0.00010   -0.04850    2.78700   -9999.25   21.57940
 2641.50000    8.54510   -9999.25   -9999.25  125.21620  127.45550   98.46720    0.06900    3.56510    0.00570   -0.04340    2.78300   -9999.25   23.20700
 2642.00000    8.54510   -9999.25   -9999.25  154.67760  159.56840  123.52040    0.06890    3.61350    0.00750   -0.04410    2.78430   -9999.25   26.04850
 2642.50000    8.54590   -9999.25   -9999.25  207.76920  207.91220  190.95710    0.06890    3.64910    0.00110   -0.05150    2.79640   -9999.25   27.72500
 2643.00000    8.56470   -9999.25   -9999.25  238.86780  234.34340  235.18170    0.06940    3.67110   -0.01570   -0.05970    2.80670   -9999.25   27.78960
 2643.50000    8.56560   -9999.25   -9999.25  230.13390  209.45490  198.54530    0.06980    3.67150   -0.01230   -0.06310    2.81000   -9999.25   27.05040
 2644.00000    8.56570   -9999.25   -9999.25  200.88140  178.14050  173.40680    0.07010    3.67310   -0.00720   -0.06250    2.81030   -9999.25   26.68220
 2644.50000    8.56450   -9999.25   -9999.25  180.96780  152.23760  165.59190    0.07040    3.68070   -0.00080   -0.05990    2.80670   -9999.25   26.75040
 2645.00000    8.52590   -9999.25   -9999.25  162.40390  141.15080  143.66080    0.07060    3.67920   -0.00090   -0.05610    2.80040   -9999.25   27.14040
 2645.50000    8.48530   -9999.25   -9999.25  150.70790  131.56780  130.51050    0.06840    3.69930   -0.00560   -0.05250    2.79650   -9999.25   27.43280
 2646.00000    8.44480   -9999.25   -9999.25  152.48170  139.18340  138.00150    0.06200    3.72010   -0.01210   -0.05320    2.79830   -9999.25   26.98740
 2646.50000    8.40610   -9999.25   -9999.25  184.38430  162.51050  158.88570    0.05180    3.73930   -0.01870   -0.05920    2.80960   -9999.25   23.83680
 2647.00000    8.42380   -9999.25   -9999.25  266.34270  242.15240  246.08660    0.04620    3.76440   -0.01920   -0.07150    2.82980   -9999.25   22.72260
 2647.50000    8.44380   -9999.25   -9999.25  397.17780  401.10090  339.21230    0.03740    3.82250   -0.01890   -0.08640    2.84920   -9999.25   23.70250
 2648.00000    8.44530   -9999.25   -9999.25  686.12220  730.65010  473.37670    0.03020    3.86710   -0.01460   -0.09720    2.86840   -9999.25   24.45870
 2648.50000    8.46390   -9999.25   -9999.25 1402.55680 1373.29390  575.78250    0.02620    3.91600   -0.00680   -0.10800    2.88620   -9999.25   24.68390
 2649.00000    8.46510   -9999.25   -9999.25 1632.72310 1620.26710  634.65290    0.02540    3.95230   -0.00350   -0.10680    2.88710   -9999.25   23.44890
 2649.50000    8.44580   -9999.25   -9999.25 1178.38610  900.12790  524.23990    0.02900    3.90950    0.00020   -0.09760    2.87300   -9999.25   21.65180
 2650.00000    8.44440   -9999.25   -9999.25  418.74530  372.88280  257.32400    0.03640    3.80090    0.00410   -0.08850    2.85150   -9999.25   19.82450
 2650.50000    8.42400   -9999.25   -9999.25  233.50820  225.24480  206.64360    0.04570    3.68300    0.00800   -0.07410    2.83360   -9999.25   19.36050
 2651.00000    8.40390   -9999.25   -9999.25  226.54890  230.86000  223.89030    0.04980    3.67300    0.00730   -0.07210    2.82680   -9999.25   19.08010
 2651.50000    8.38480   -9999.25   -9999.25  246.22030  248.71030  233.21640    0.05000    3.66300    0.00550   -0.07160    2.82600   -9999.25   16.88340
 2652.00000    8.38340   -9999.25   -9999.25  256.68370  267.60050  232.45390    0.04910    3.66920    0.00340   -0.07000    2.82410   -9999.25   14.77170
 2652.50000    8.36480   -9999.25   -9999.25  256.61730  282.05350  236.32500    0.04800    3.65910    0.00110   -0.06840    2.82220   -9999.25   15.69970
 2653.00000    8.36360   -9999.25   -9999.25  267.00970  297.28700  241.02310    0.04670    3.62480   -0.00010   -0.06790    2.82110   -9999.25   17.78250
 2653.50000    8.34320   -9999.25   -9999.25  292.51020  309.90140  236.32340    0.04520    3.58220    0.00220   -0.06840    2.82110   -9999.25   19.60430
 2654.00000    8.30320   -9999.25   -9999.25  299.92610  313.41790  225.89860    0.04370    3.55020    0.00450   -0.06930    2.82170   -9999.25   21.29600
 2654.50000    8.26350   -9999.25   -9999.25  295.04920  307.62430  229.81500    0.04220    3.51260    0.00630   -0.07050    2.82300   -9999.25   23.10780
 2655.00000    8.24440   -9999.25   -9999.25  297.63470  311.60040  219.72950    0.04000    3.45910    0.00730   -0.07090    2.82380   -9999.25   24.74040
 2655.50000    8.26350   -9999.25   -9999.25  302.26470  317.28870  242.16420    0.03910    3.41650    0.00810   -0.06940    2.82250   -9999.25   25.22450
 2656.00000    8.28380   -9999.25   -9999.25  293.97080  298.15810  212.58230    0.04050    3.42330    0.00300   -0.06530    2.81960   -9999.25   24.54820
 2656.50000    8.30410   -9999.25   -9999.25  256.33900  256.33900  215.43520    0.04250    3.46180   -0.00130   -0.06060    2.81260   -9999.25   23.29730
 2657.00000    8.32350   -9999.25   -9999.25  236.84150  228.73010  190.35370    0.04460    3.50020   -0.00960   -0.05580    2.80400   -9999.25   22.38800
 2657.50000    8.32410   -9999.25   -9999.25  252.56230  250.15070  208.96550    0.04760    3.55760   -0.01350   -0.05180    2.79560   -9999.25   22.68430
