~Version ---------------------------------------------------
VERS.   2.0 : CWLS log ASCII Standard -VERSION 2.0
WRAP.    NO : One line per depth step
DLM . SPACE : Column Data Section Delimiter
~Well ------------------------------------------------------
STRT .F                  214.0 : START DEPTH
STOP .F                 9541.0 : STOP DEPTH
STEP .F                    0.5 : STEP
NULL .                -9999.25 : NULL VALUE
COMP .                         : COMPANY
WELL .                         : WELL
FLD  .                         : FIELD
LOC  .                         : LOCATION
PROV .                         : PROVINCE
CNTY .                         : COUNTY
STAT .                         : STATE
CTRY .                         : COUNTRY
SRVC .                         : SERVICE COMPANY
DATE .                         : DATE
UWI  .                         : UNIQUE WELL ID
API  .                         : API NUMBER
SLAT .WGS84 3.0492386049413014 : SURFACE LATITUDE
SLON .WGS84  8.877749962376996 : SURFACE LONGITUDE
DATUM.F                3582.44 : DEPTH DATUM ELEV
~Curve Information -----------------------------------------
DEPT   .F     : 
HCALR  .IN    : HRCC CALIPER CALIBRATED FROM RESISTIVITY LOG
DTCO   .US/F  : DELTA-T COMPRESSIONAL
DTSM   .US/F  : DELTA-T SHEAR
HLLD   .OHMM  : HALS LATEROLOG DEEP RESISTIVITY
HLLS   .OHMM  : HALS LATEROLOG SHALLOW RESISTIVITY
RXOZ   .OHMM  : INVADED FORMATION RESISTIVITY FILTERED AT 18 INCHES
TNPH_LS.DEC   : THERMAL NEUTRON POROSITY [LIMESTONE]
PEFZ   .B/E   : HRDD STANDARD RESOLUTION FORMATION PHOTOELECTRIC FACTOR
HDRA   .G/C3  : HRDD SPINE AND RIBS DENSITY CORRECTION
DPHZ_LS.DEC   : HGRD STANDARD RESOLUTION DENSITY POROSITY
RHOZ   .G/C3  : HRDD STANDARD RESOLUTION FORMATION DENSITY
NPHI_LS.DEC   : NEUTRON POROSITY LIMESTONE
GRD    .GAPI  : GAMMA RAY FROM DENSITY LOG
~Params ----------------------------------------------------
~Other -----------------------------------------------------
~ASCII -----------------------------------------------------
# ...
 7234.00000    8.94910   -9999.25   -9999.25  229.78000  152.86920   46.11610    0.05060    5.35440    0.00780    0.03780    2.71120    0.07710   38.61640
 7234.50000    8.86080   -9999.25   -9999.25  428.45530  136.09990   88.38920    0.06440    5.93740    0.04730   -0.00440    2.47510    0.05660   38.48450
 7235.00000    8.81330   -9999.25   -9999.25  336.30340   42.36860    1.91350    0.12030    6.53310    0.07060    0.11440    2.13050    0.06930   40.18920
 7235.50000    9.21620   -9999.25   -9999.25   66.97100   15.83170    0.21260    0.21240    7.47630    0.04940    0.28310    2.01460    0.16190   43.90580
 7236.00000   10.78990   -9999.25   -9999.25   25.26190   13.18110    0.20910    0.37310    8.43030    0.00700    0.58390    1.60640    0.31240   46.25800
 7236.50000   14.64560   -9999.25   -9999.25   13.89740   14.90510    0.20770    0.48640    9.38440   -0.01410    0.70030    1.45330    0.52400   47.14740
 7237.00000   19.67200   -9999.25   -9999.25   14.91240   20.17270    0.20640    0.58800    9.95620   -0.01190    0.70000    1.42100    0.66670   46.56480
 7237.50000   23.77670   -9999.25   -9999.25   16.31950   21.82410    0.20500    0.59850   10.01190   -0.00810    0.69980    1.38870    0.72740   45.18360
 7238.00000   23.91750   -9999.25   -9999.25   13.89420   19.82480    0.20370    0.53820   10.03990   -0.01640    0.69960    1.37150    0.66370   40.21240
 7238.50000   23.97790   -9999.25   -9999.25   15.24860   18.81250    0.20230    0.47580   10.02650   -0.03000    0.69930    1.43610    0.50400   33.50910
 7239.00000   23.99800   -9999.25   -9999.25   19.19980   20.44360    0.20100    0.40510   10.00570   -0.02180    0.69910    1.59390    0.28380   30.48340
 7239.50000   18.84710   -9999.25   -9999.25   19.33390   22.95810    0.20430    0.30840    9.48550    0.01810    0.60930    1.89050    0.22030   29.80790
 7240.00000   12.27970   -9999.25   -9999.25   72.92850   42.48320    0.37140    0.21170    8.29820    0.09250    0.28190    2.55460    0.17490   30.86090
 7240.50000    8.78670   -9999.25   -9999.25  243.61990   87.05050    2.08470    0.12320    7.12240    0.12500    0.13090    2.69700    0.13360   33.28610
 7241.00000    8.66600   -9999.25   -9999.25   80.02210   51.95520   30.21670    0.08960    5.95890    0.10100    0.02690    2.68460    0.09550   35.86840
 7241.50000    8.62570   -9999.25   -9999.25   36.00670   35.72480   37.29590    0.09760    4.93750    0.06270    0.01160    2.67230    0.08410   38.78490
 7242.00000    8.62570   -9999.25   -9999.25   43.89560   35.86610    3.30250    0.11250    4.60210    0.04080    0.02810    2.65720    0.08990   39.43120
 7242.50000    8.62570   -9999.25   -9999.25  216.90250   36.01100    3.15760    0.10750    4.55850    0.04000    0.04050    2.64430    0.09910   38.77260
 7243.00000    8.62590   -9999.25   -9999.25  219.43130   36.15640    3.29760    0.09480    4.64490    0.03960    0.03830    2.66510    0.10030   37.44330
 7243.50000    8.62520   -9999.25   -9999.25   69.66080   36.57830   58.69660    0.06950    4.78190    0.03660    0.01870    2.68500    0.09500   36.96780
 7244.00000    8.60560   -9999.25   -9999.25   52.98870   71.53380   75.36860    0.04740    4.93510    0.03170    0.01990    2.67360    0.07750   34.44110
 7244.50000    8.58610   -9999.25   -9999.25  659.20720  701.01720    4.49830    0.03200    5.13650    0.02720    0.03550    2.65010    0.05640   30.11740
 7245.00000    8.58470   -9999.25   -9999.25  911.99990  857.55660    3.74850    0.01670    5.38140    0.02510    0.04910    2.63590    0.03570   26.35900
 7245.50000    8.56600   -9999.25   -9999.25 1537.76380 1358.75920    3.76550    0.00730    5.55940    0.02890    0.03670    2.68100    0.02330   25.92640
 7246.00000    8.56530   -9999.25   -9999.25 2047.15870 1982.01950   22.50970    0.00240    5.58800    0.02510    0.00640    2.71840    0.01630   27.79490
 7246.50000    8.56540   -9999.25   -9999.25 1955.45830 1923.76610   49.21790   -0.00180    5.48930    0.02020   -0.00700    2.72050    0.01410   29.33800
 7247.00000    8.56560   -9999.25   -9999.25 1856.63530 1869.99450   49.83740   -0.00350    5.41060    0.01090   -0.00690    2.72090    0.01300   29.24950
 7247.50000    8.56410   -9999.25   -9999.25 1820.18930 1826.77530  936.78230   -0.00490    5.37550    0.00990   -0.00610    2.72130    0.01210   28.22550
 7248.00000    8.52650   -9999.25   -9999.25 1830.49170 1883.01050 1232.04000   -0.00640    5.37740    0.01550   -0.00730    2.72160    0.01150   26.27640
 7248.50000    8.52510   -9999.25   -9999.25 2230.89090 2009.32210 1302.85780   -0.00810    5.39340    0.02470   -0.00940    2.72550    0.01060   24.02910
 7249.00000    8.52460   -9999.25   -9999.25 5657.52730 4757.77780 2000.20060   -0.00980    5.44480    0.02830   -0.01090    2.73090    0.00900   21.53700
 7249.50000    8.50510   -9999.25   -9999.25 19673.36130 25052.13280 1987.42380   -0.01150    5.48180    0.02610   -0.01270    2.73620    0.00730   19.77210
 7250.00000    8.48480   -9999.25   -9999.25 18178.98630 21740.91800 1974.72860   -0.01230    5.48930    0.00330   -0.02010    2.74280    0.00620   19.36220
 7250.50000    8.46520   -9999.25   -9999.25 14945.71480 15257.80960 1962.11350   -0.01260    5.48360   -0.00010   -0.02260    2.75000    0.00530   19.19240
 7251.00000    8.46540   -9999.25   -9999.25 10954.56450 14396.80270 1949.58010   -0.01290    5.41860    0.00740   -0.02200    2.74670    0.00500   19.02920
 7251.50000    8.48370   -9999.25   -9999.25 5262.14210 5466.64010 1937.12660   -0.01300    5.39260    0.00860   -0.01800    2.74110    0.00510   19.01430
 7252.00000    8.46500   -9999.25   -9999.25 2734.53780 1610.59000 1924.75280   -0.01250    5.41070    0.00400   -0.01790    2.73950    0.00520   18.78440
 7252.50000    8.44460   -9999.25   -9999.25 1438.84360 1314.26620 1331.68880   -0.01180    5.43110   -0.00730   -0.02190    2.74470    0.00550   18.17990
 7253.00000    8.42520   -9999.25   -9999.25 1356.11510 1315.21960  825.84850   -0.01110    5.42960   -0.01390   -0.02310    2.74780    0.00580   17.40590
 7253.50000    8.42380   -9999.25   -9999.25 1557.09750 1720.73960  858.80990   -0.00920    5.41770   -0.01230   -0.02120    2.74780    0.00580   16.15050
 7254.00000    8.40530   -9999.25   -9999.25 2385.35230 2855.93330 1303.83020   -0.00500    5.42280   -0.01070   -0.01820    2.74350    0.00630   15.97580
 7254.50000    8.40320   -9999.25   -9999.25 2092.38110 2494.98410 1847.20470   -0.00070    5.45800   -0.00310   -0.01840    2.73850    0.00770   18.04380
 7255.00000    8.36510   -9999.25   -9999.25  320.89160  367.34510   18.94290    0.00910    5.50640    0.00720   -0.01730    2.73310    0.01030   23.14630
 7255.50000    8.34430   -9999.25   -9999.25  123.42730  137.58970   10.51730    0.02030    5.50460    0.02190   -0.01090    2.72490    0.01730   29.97170
 7256.00000    8.32210   -9999.25   -9999.25   81.81350   82.80500    8.65440    0.03180    5.34520    0.01950   -0.00170    2.71410    0.02860   34.61460
 7256.50000    8.24530   -9999.25   -9999.25   76.33200   75.67530   19.87830    0.03920    5.09080    0.01260    0.00520    2.70400    0.04300   35.65970
 7257.00000    8.22420   -9999.25   -9999.25   76.73490   78.64050   38.03150    0.04040    4.80540    0.00360    0.00560    2.70200    0.04800   34.13490
 7257.50000    8.24280   -9999.25   -9999.25   79.95650   81.86940   62.30980    0.04130    4.57070   -0.00380    0.00550    2.69960    0.04390   32.27730
 7258.00000    8.24250   -9999.25   -9999.25   95.69340   91.14960   89.60690    0.03650    4.52960   -0.00720    0.00820    2.69730    0.03520   32.17610
 7258.50000    8.20420   -9999.25   -9999.25  125.08880  122.29350  131.14310    0.03460    4.56340   -0.00630    0.01180    2.69240    0.02820   36.30630
 7259.00000    8.18300   -9999.25   -9999.25  164.57300  158.87730  157.20060    0.03520    4.59410   -0.00530    0.01580    2.68680    0.02470   45.37380
 7259.50000    8.16360   -9999.25   -9999.25  136.29440  124.29070   67.11570    0.03730    4.61950   -0.00300    0.02070    2.67910    0.02460   51.36100
