~Version ---------------------------------------------------
VERS.   2.0 : CWLS log ASCII Standard -VERSION 2.0
WRAP.    NO : One line per depth step
DLM . SPACE : Column Data Section Delimiter
~Well ------------------------------------------------------
STRT .F                  214.0 : START DEPTH
STOP .F                 9541.0 : STOP DEPTH
STEP .F                    0.5 : STEP
NULL .                -9999.25 : NULL VALUE
COMP .                         : COMPANY
WELL .                         : WELL
FLD  .                         : FIELD
LOC  .                         : LOCATION
PROV .                         : PROVINCE
CNTY .                         : COUNTY
STAT .                         : STATE
CTRY .                         : COUNTRY
SRVC .                         : SERVICE COMPANY
DATE .                         : DATE
UWI  .                         : UNIQUE WELL ID
API  .                         : API NUMBER
SLAT .WGS84 3.0492386049413014 : SURFACE LATITUDE
SLON .WGS84  8.877749962376996 : SURFACE LONGITUDE
DATUM.F                3582.44 : DEPTH DATUM ELEV
~Curve Information -----------------------------------------
DEPT   .F     : 
HCALR  .IN    : HRCC CALIPER CALIBRATED FROM RESISTIVITY LOG
DTCO   .US/F  : DELTA-T COMPRESSIONAL
DTSM   .US/F  : DELTA-T SHEAR
HLLD   .OHMM  : HALS LATEROLOG DEEP RESISTIVITY
HLLS   .OHMM  : HALS LATEROLOG SHALLOW RESISTIVITY
RXOZ   .OHMM  : INVADED FORMATION RESISTIVITY FILTERED AT 18 INCHES
TNPH_LS.DEC   : THERMAL NEUTRON POROSITY [LIMESTONE]
PEFZ   .B/E   : HRDD STANDARD RESOLUTION FORMATION PHOTOELECTRIC FACTOR
HDRA   .G/C3  : HRDD SPINE AND RIBS DENSITY CORRECTION
DPHZ_LS.DEC   : HGRD STANDARD RESOLUTION DENSITY POROSITY
RHOZ   .G/C3  : HRDD STANDARD RESOLUTION FORMATION DENSITY
NPHI_LS.DEC   : NEUTRON POROSITY LIMESTONE
GRD    .GAPI  : GAMMA RAY FROM DENSITY LOG
~Params ----------------------------------------------------
~Other -----------------------------------------------------
~ASCII -----------------------------------------------------
# ...
 1800.00000    8.08250   -9999.25   -9999.25   -9999.25   -9999.25   -9999.25    0.07840   -9999.25   -9999.25   -9999.25   -9999.25   -9999.25   22.55430
 1800.50000    8.10630   -9999.25   -9999.25   -9999.25   -9999.25   -9999.25    0.08560   -9999.25   -9999.25   -9999.25   -9999.25   -9999.25   22.84200
 1801.00000    8.13140   -9999.25   -9999.25   -9999.25   -9999.25   -9999.25    0.09140   -9999.25   -9999.25   -9999.25   -9999.25   -9999.25   22.43290
 1801.50000    8.11550   -9999.25   -9999.25   -9999.25   -9999.25   -9999.25    0.09570   -9999.25   -9999.25   -9999.25   -9999.25   -9999.25   21.48730
 1802.00000    8.07830   -9999.25   -9999.25   -9999.25   -9999.25   -9999.25    0.09570   -9999.25   -9999.25   -9999.25   -9999.25   -9999.25   20.28240
 1802.50000    8.04810   -9999.25   -9999.25   -9999.25   -9999.25   -9999.25    0.09530   -9999.25   -9999.25   -9999.25   -9999.25   -9999.25   20.59360
 1803.00000    8.06980   -9999.25   -9999.25    0.19930    0.19390    0.20180    0.09550    9.80640   -0.01510   -0.17740    2.77630   -9999.25   24.95630
 1803.50000    8.42750   -9999.25   -9999.25    0.22700    0.19400    0.20240    0.10070    9.33510    0.02400   -0.17520    2.88260   -9999.25   30.23700
 1804.00000    8.48590   -9999.25   -9999.25    0.60280    0.19410    0.20320    0.10050    8.01910    0.05620   -0.13970    2.99530   -9999.25   32.96700
 1804.50000    8.48260   -9999.25   -9999.25    3.90630    1.00470    2.09200    0.08850    5.46430    0.04080   -0.05400    2.99380   -9999.25   31.14130
 1805.00000    8.40670   -9999.25   -9999.25   19.84590   20.33840   25.87420    0.06490    4.07850    0.06950   -0.06300    2.90520   -9999.25   29.22740
 1805.50000    8.34390   -9999.25   -9999.25   81.36180  209.65480  202.02200    0.03960    3.42540    0.05640   -0.08850    2.80410   -9999.25   32.19800
 1806.00000    8.28030   -9999.25   -9999.25   55.85910   65.25100   53.07530    0.03470    3.18800    0.03780   -0.10880    2.84250   -9999.25   38.24160
 1806.50000    8.30280   -9999.25   -9999.25   39.09680   52.67950   50.82900    0.03070    3.15060    0.02410   -0.10630    2.88090   -9999.25   40.83280
 1807.00000    8.28420   -9999.25   -9999.25   39.56740   52.74360   51.64790    0.02830    3.21220    0.02240   -0.10260    2.88800   -9999.25   36.96380
 1807.50000    8.28350   -9999.25   -9999.25   85.37670  162.98960  129.90710    0.02390    3.25960    0.01210   -0.10150    2.87970   -9999.25   32.19510
 1808.00000    8.28370   -9999.25   -9999.25  218.34500  298.53480  188.30710    0.01840    3.28330    0.00930   -0.10180    2.87130   -9999.25   32.07480
 1808.50000    8.28370   -9999.25   -9999.25  208.00460  244.07400  174.07540    0.01800    3.28920    0.00700   -0.10270    2.87170   -9999.25   36.26810
 1809.00000    8.28360   -9999.25   -9999.25  159.06960  183.45280  142.62120    0.02000    3.29410    0.00410   -0.10250    2.87530   -9999.25   38.73900
 1809.50000    8.28460   -9999.25   -9999.25  121.64700  135.52300  108.45940    0.02190    3.31630    0.00180   -0.09740    2.87730   -9999.25   38.00020
 1810.00000    8.30350   -9999.25   -9999.25  104.31190  100.37020   84.72260    0.02290    3.34950    0.00700   -0.09230    2.87370   -9999.25   34.77800
 1810.50000    8.30310   -9999.25   -9999.25  106.38350  106.31870  101.90760    0.02210    3.37200    0.01190   -0.08930    2.86870   -9999.25   30.31840
 1811.00000    8.28420   -9999.25   -9999.25  190.14230  207.21460  160.51670    0.02070    3.40040    0.00830   -0.08950    2.85860   -9999.25   24.93060
 1811.50000    8.28360   -9999.25   -9999.25  310.97240  340.61220  240.65700    0.01990    3.38010    0.00270   -0.09500    2.85010   -9999.25   20.86310
 1812.00000    8.28370   -9999.25   -9999.25  301.72610  311.79870  266.12590    0.01920    3.34450    0.00060   -0.09960    2.85640   -9999.25   20.41690
 1812.50000    8.28350   -9999.25   -9999.25  243.46280  269.71080  252.48250    0.01930    3.30900    0.00460   -0.10420    2.86720   -9999.25   22.52770
 1813.00000    8.28420   -9999.25   -9999.25  211.91780  242.81840  232.93130    0.01930    3.29480    0.01760   -0.10330    2.87600   -9999.25   25.33570
 1813.50000    8.30490   -9999.25   -9999.25  226.46420  255.34680  235.57940    0.02120    3.30880    0.02560   -0.09950    2.87680   -9999.25   26.67640
 1814.00000    8.34310   -9999.25   -9999.25  331.08930  364.15930  287.49960    0.02340    3.32210    0.01950   -0.09570    2.87180   -9999.25   27.65460
 1814.50000    8.34430   -9999.25   -9999.25  365.63810  376.84010  379.27040    0.02510    3.33540    0.00870   -0.09430    2.86670   -9999.25   29.11250
 1815.00000    8.34410   -9999.25   -9999.25  342.87340  348.25690  419.02950    0.02300    3.30150   -0.00210   -0.09570    2.86180   -9999.25   30.78380
 1815.50000    8.34420   -9999.25   -9999.25  362.50640  403.33990  359.78190    0.02130    3.26070   -0.00480   -0.09900    2.86440   -9999.25   30.23950
 1816.00000    8.34350   -9999.25   -9999.25  415.71380  569.90580  313.32690    0.01970    3.23930   -0.00130   -0.10110    2.86750   -9999.25   28.99450
 1816.50000    8.32390   -9999.25   -9999.25  325.01990  285.60430  278.33220    0.01880    3.24670    0.00480   -0.09960    2.87140   -9999.25   28.22730
 1817.00000    8.30360   -9999.25   -9999.25  128.41220  154.33430  140.65240    0.01990    3.27450    0.01310   -0.09620    2.87040   -9999.25   28.05880
 1817.50000    8.28430   -9999.25   -9999.25  111.47590  122.17560  121.72920    0.02020    3.29500    0.01150   -0.09400    2.86710   -9999.25   27.71130
 1818.00000    8.28280   -9999.25   -9999.25  133.97410  139.17620  131.82900    0.01960    3.26700    0.00730   -0.09620    2.86170   -9999.25   27.97310
 1818.50000    8.26410   -9999.25   -9999.25  227.21030  306.97330  175.71710    0.01910    3.24120    0.00360   -0.10090    2.86550   -9999.25   28.59910
 1819.00000    8.26350   -9999.25   -9999.25  228.59140  302.57270  214.47450    0.01750    3.22100    0.00360   -0.10630    2.87190   -9999.25   29.97060
 1819.50000    8.26360   -9999.25   -9999.25  236.11040  317.84480  250.25260    0.01790    3.23290    0.00270   -0.10900    2.87950   -9999.25   32.88970
 1820.00000    8.26360   -9999.25   -9999.25  244.35570  271.65380  276.26250    0.01960    3.25480   -0.00320   -0.10900    2.88580   -9999.25   39.04160
 1820.50000    8.26360   -9999.25   -9999.25  123.97010  142.40460  151.12030    0.02160    3.27750   -0.00900   -0.10720    2.88630   -9999.25   45.90410
 1821.00000    8.26360   -9999.25   -9999.25   69.44430   94.23730   95.39340    0.02240    3.30270   -0.01600   -0.10160    2.88130   -9999.25   49.69130
 1821.50000    8.26360   -9999.25   -9999.25   75.10960   94.45500   94.06950    0.02270    3.34860   -0.01130   -0.09700    2.87510   -9999.25   47.23440
 1822.00000    8.26360   -9999.25   -9999.25  142.81680  215.33910  139.83610    0.01880    3.37030    0.00310   -0.09550    2.87000   -9999.25   40.70640
 1822.50000    8.26360   -9999.25   -9999.25  275.43940  381.34210  270.58600    0.01550    3.39560    0.00930   -0.09930    2.86840   -9999.25   35.20230
 1823.00000    8.26360   -9999.25   -9999.25  273.85780  344.35080  287.78700    0.01670    3.37720    0.01040   -0.10130    2.87020   -9999.25   33.51420
 1823.50000    8.26360   -9999.25   -9999.25  163.12470  212.26860  211.65930    0.01780    3.34820    0.00750   -0.10220    2.87240   -9999.25   33.25790
 1824.00000    8.26350   -9999.25   -9999.25  151.60070  190.28290  191.79130    0.01950    3.33040    0.00760   -0.09870    2.87280   -9999.25   32.95400
 1824.50000    8.26420   -9999.25   -9999.25  154.91270  197.64430  180.85600    0.02080    3.29410    0.00810   -0.09880    2.87190   -9999.25   30.09100
 1825.00000    8.28290   -9999.25   -9999.25  251.67360  313.33720  278.82840    0.02300    3.27220    0.01040   -0.10110    2.87160   -9999.25   26.36250
 1825.50000    8.28440   -9999.25   -9999.25  279.23280  375.28370  310.47460    0.02370    3.27680    0.01370   -0.10260    2.87310   -9999.25   24.07370
