~Version ---------------------------------------------------
VERS.   2.0 : CWLS log ASCII Standard -VERSION 2.0
WRAP.    NO : One line per depth step
DLM . SPACE : Column Data Section Delimiter
~Well ------------------------------------------------------
STRT .F                  214.0 : START DEPTH
STOP .F                 9541.0 : STOP DEPTH
STEP .F                    0.5 : STEP
NULL .                -9999.25 : NULL VALUE
COMP .                         : COMPANY
WELL .                         : WELL
FLD  .                         : FIELD
LOC  .                         : LOCATION
PROV .                         : PROVINCE
CNTY .                         : COUNTY
STAT .                         : STATE
CTRY .                         : COUNTRY
SRVC .                         : SERVICE COMPANY
DATE .                         : DATE
UWI  .                         : UNIQUE WELL ID
API  .                         : API NUMBER
SLAT .WGS84 3.0492386049413014 : SURFACE LATITUDE
SLON .WGS84  8.877749962376996 : SURFACE LONGITUDE
DATUM.F                3582.44 : DEPTH DATUM ELEV
~Curve Information -----------------------------------------
DEPT   .F     : 
HCALR  .IN    : HRCC CALIPER CALIBRATED FROM RESISTIVITY LOG
DTCO   .US/F  : DELTA-T COMPRESSIONAL
DTSM   .US/F  : DELTA-T SHEAR
HLLD   .OHMM  : HALS LATEROLOG DEEP RESISTIVITY
HLLS   .OHMM  : HALS LATEROLOG SHALLOW RESISTIVITY
RXOZ   .OHMM  : INVADED FORMATION RESISTIVITY FILTERED AT 18 INCHES
TNPH_LS.DEC   : THERMAL NEUTRON POROSITY [LIMESTONE]
PEFZ   .B/E   : HRDD STANDARD RESOLUTION FORMATION PHOTOELECTRIC FACTOR
HDRA   .G/C3  : HRDD SPINE AND RIBS DENSITY CORRECTION
DPHZ_LS.DEC   : HGRD STANDARD RESOLUTION DENSITY POROSITY
RHOZ   .G/C3  : HRDD STANDARD RESOLUTION FORMATION DENSITY
NPHI_LS.DEC   : NEUTRON POROSITY LIMESTONE
GRD    .GAPI  : GAMMA RAY FROM DENSITY LOG
~Params ----------------------------------------------------
~Other -----------------------------------------------------
~ASCII -----------------------------------------------------
# ...
 6402.00000    8.28390   -9999.25   -9999.25  894.01580  995.98790  665.27970   -0.00040    5.24570   -0.00230   -0.00760    2.72120   -9999.25   20.20560
 6402.50000    8.26940   -9999.25   -9999.25 1223.05090 1493.13220  807.65410   -0.00010    5.26170   -0.00760   -0.00430    2.71800   -9999.25   31.77280
 6403.00000    8.26380   -9999.25   -9999.25 2189.95070 2299.74290  195.32120    0.00030    5.21650   -0.00980   -0.00800    2.72920   -9999.25   42.79910
 6403.50000    8.26380   -9999.25   -9999.25 3156.85030 3106.35380  201.36000    0.00070    5.15500   -0.00710   -0.01940    2.74110   -9999.25   54.53590
 6404.00000    8.24950   -9999.25   -9999.25 3652.26460 4158.74950  280.23440    0.00060    5.09800   -0.00380   -0.02740    2.75300   -9999.25   58.72890
 6404.50000    8.24390   -9999.25   -9999.25 4627.87060 5254.54390 1998.99300   -0.00060    5.06580   -0.00170   -0.03030    2.75690   -9999.25   53.58970
 6405.00000    8.23030   -9999.25   -9999.25 5028.24020 6627.22900 2028.35140   -0.00180    5.06170   -0.00100   -0.02860    2.75780   -9999.25   46.66140
 6405.50000    8.22340   -9999.25   -9999.25 3255.53490 5276.64940 1670.52120   -0.00270    5.05780    0.00380   -0.02880    2.75370   -9999.25   41.00800
 6406.00000    8.22330   -9999.25   -9999.25 2347.18800 1945.74260 1128.42970   -0.00360    5.05670    0.00770   -0.02680    2.75150   -9999.25   38.35180
 6406.50000    8.22330   -9999.25   -9999.25 1438.84120 1630.70410  877.40450   -0.00360    5.05630    0.01150   -0.02260    2.74920   -9999.25   34.92130
 6407.00000    8.22320   -9999.25   -9999.25 1366.90140 1599.06460  876.32480   -0.00290    5.05470    0.01460   -0.02030    2.74800   -9999.25   29.53210
 6407.50000    8.23580   -9999.25   -9999.25 1669.50630 1793.59780 1101.43360   -0.00290    5.06910    0.01580   -0.02050    2.74640   -9999.25   26.93600
 6408.00000    8.24340   -9999.25   -9999.25 2955.72170 3144.30200 1548.24630   -0.00280    5.07930    0.01560   -0.02110    2.74560   -9999.25   27.12070
 6408.50000    8.24350   -9999.25   -9999.25 5571.63770 7286.41700 2066.22190   -0.00220    5.07750    0.01560   -0.02120    2.74490   -9999.25   28.32360
 6409.00000    8.24350   -9999.25   -9999.25 5124.69920 5843.52930 2066.22190   -0.00150    5.07580    0.01880   -0.02020    2.74410   -9999.25   28.69240
 6409.50000    8.24350   -9999.25   -9999.25 2765.90530 4096.02980 2009.31100   -0.00110    5.07400    0.02080   -0.01980    2.74360   -9999.25   28.64340
 6410.00000    8.24350   -9999.25   -9999.25 2376.98460 3089.42020 1520.80270   -0.00120    5.06040    0.02110   -0.01930    2.74350   -9999.25   28.96490
 6410.50000    8.24350   -9999.25   -9999.25 2283.48900 2843.61790 1522.21770   -0.00130    5.01660    0.02020   -0.01970    2.74470   -9999.25   31.07160
 6411.00000    8.24350   -9999.25   -9999.25 2304.25340 2833.32710 1275.78860   -0.00110    4.97270    0.01600   -0.02410    2.75320   -9999.25   32.62140
 6411.50000    8.25500   -9999.25   -9999.25 2158.20950 2805.69820 1196.19030   -0.00090    4.93540    0.00540   -0.03020    2.75830   -9999.25   31.87000
 6412.00000    8.26350   -9999.25   -9999.25 2059.27810 2709.39330 1057.97780   -0.00060    4.94470   -0.00340   -0.02840    2.75690   -9999.25   25.38290
 6412.50000    8.26350   -9999.25   -9999.25 1805.24560 2385.91530 1014.56960   -0.00050    4.99480   -0.00320   -0.02320    2.74600   -9999.25   20.88770
 6413.00000    8.26360   -9999.25   -9999.25 1551.21300 1956.81570  927.69980   -0.00170    5.04490    0.00520   -0.01890    2.74270   -9999.25   16.39250
 6413.50000    8.26360   -9999.25   -9999.25 1377.88460 1737.67020  899.79540   -0.00300    5.09510    0.01370   -0.01720    2.73940   -9999.25   15.85450
 6414.00000    8.26360   -9999.25   -9999.25 1677.45030 2251.42630  981.37900   -0.00340    5.14520    0.02190   -0.01570    2.73760   -9999.25   20.26730
 6414.50000    8.26360   -9999.25   -9999.25 2319.83470 2765.18260 1284.19690   -0.00370    5.20660    0.01750   -0.01440    2.73550   -9999.25   26.95730
 6415.00000    8.26350   -9999.25   -9999.25 2901.28390 3733.48950 1642.51610   -0.00380    5.25730    0.01220   -0.01430    2.73470   -9999.25   33.08800
 6415.50000    8.26350   -9999.25   -9999.25 3531.77830 4340.56540 1416.70350   -0.00400    5.31600    0.00330   -0.01340    2.73370   -9999.25   34.67540
 6416.00000    8.25340   -9999.25   -9999.25 3188.21730 4292.99850 1355.77560   -0.00430    5.35510   -0.00190   -0.01110    2.73130   -9999.25   33.26070
 6416.50000    8.25700   -9999.25   -9999.25 2554.23800 3665.66040 1319.80380   -0.00440    5.35750   -0.00650   -0.01010    2.72990   -9999.25   32.17230
 6417.00000    8.26350   -9999.25   -9999.25 1974.43700 2694.26420 1271.14930   -0.00450    5.34640   -0.00980   -0.01100    2.72990   -9999.25   31.54870
 6417.50000    8.26360   -9999.25   -9999.25 1394.63610 1821.74580 1065.54470   -0.00500    5.31420   -0.01300   -0.01210    2.73030   -9999.25   29.37540
 6418.00000    8.26360   -9999.25   -9999.25 1264.70300 1586.16860  957.36000   -0.00480    5.29530   -0.00590   -0.01140    2.72990   -9999.25   25.11940
 6418.50000    8.26330   -9999.25   -9999.25 1357.04460 1653.42690  968.32260   -0.00390    5.28450    0.00230   -0.00950    2.72710   -9999.25   23.92210
 6419.00000    8.27790   -9999.25   -9999.25 1823.77120 2346.69260 1162.65830   -0.00260    5.25890    0.00680   -0.00750    2.72370   -9999.25   25.46980
 6419.50000    8.28350   -9999.25   -9999.25 2319.97490 2986.04740 1439.36180   -0.00050    5.23340    0.00600   -0.00960    2.72870   -9999.25   32.72080
 6420.00000    8.28370   -9999.25   -9999.25 2846.09810 3516.26660 1766.39840    0.00230    5.16440    0.00570   -0.01660    2.73700   -9999.25   39.04120
 6420.50000    8.28370   -9999.25   -9999.25 3491.57540 4304.56490 2017.92130    0.00280    5.06190    0.00840   -0.02180    2.74430   -9999.25   41.94130
 6421.00000    8.28370   -9999.25   -9999.25 5166.30520 6594.47170   -9999.25    0.00020    5.07170    0.02020   -0.02360    2.75050   -9999.25   42.22430
 6421.50000    8.28370   -9999.25   -9999.25 8282.64450 10040.75100   -9999.25   -0.00270    5.08140    0.02280   -0.02400    2.75510   -9999.25   43.13030
 6422.00000    8.28370   -9999.25   -9999.25 10619.38090 10453.49120   -9999.25   -0.00510    5.14000    0.01610   -0.02670    2.75730   -9999.25   44.97170
 6422.50000    8.28370   -9999.25   -9999.25 13615.36820 13981.03420   -9999.25   -0.00530    5.21420   -0.00270   -0.02970    2.75810   -9999.25   45.54420
 6423.00000    8.28370   -9999.25   -9999.25 17298.88280 20458.91410   -9999.25   -0.00450    5.28330   -0.00510   -0.02860    2.75030   -9999.25   46.11100
 6423.50000    8.28370   -9999.25   -9999.25 18129.33400 21766.61910   -9999.25   -0.00410    5.31230   -0.00150   -0.02240    2.74030   -9999.25   49.38780
 6424.00000    8.28400   -9999.25   -9999.25 12723.79390 13674.24510   -9999.25   -0.00410    5.32840    0.00340   -0.01600    2.73370   -9999.25   53.13420
 6424.50000    8.25890   -9999.25   -9999.25 7165.94920 8343.15330   -9999.25   -0.00440    5.36450    0.00620   -0.01220    2.72960   -9999.25   52.30470
 6425.00000    8.24370   -9999.25   -9999.25 5413.89450 6487.34570   -9999.25   -0.00600    5.40070    0.00520   -0.00990    2.72700   -9999.25   46.00000
 6425.50000    8.24360   -9999.25   -9999.25 5565.64600 6922.71920   -9999.25   -0.00740    5.43190    0.00450   -0.00940    2.72640   -9999.25   38.43200
 6426.00000    8.25560   -9999.25   -9999.25 7162.04000 9158.65720   -9999.25   -0.00830    5.41210    0.00490   -0.01020    2.72890   -9999.25   35.63880
 6426.50000    8.26350   -9999.25   -9999.25 10732.70700 12095.79590   -9999.25   -0.00730    5.35890    0.00520   -0.01290    2.73200   -9999.25   36.11270
 6427.00000    8.26350   -9999.25   -9999.25 11812.61910 11984.05370   -9999.25   -0.00630    5.30800    0.00500   -0.01500    2.73590   -9999.25   37.43790
 6427.50000    8.26360   -9999.25   -9999.25 9306.52730 10095.28130   -9999.25   -0.00510    5.27670    0.00320   -0.01500    2.73470   -9999.25   36.97170
