~Version ---------------------------------------------------
VERS.   2.0 : CWLS log ASCII Standard -VERSION 2.0
WRAP.    NO : One line per depth step
DLM . SPACE : Column Data Section Delimiter
~Well ------------------------------------------------------
STRT .F                  214.0 : START DEPTH
STOP .F                 9541.0 : STOP DEPTH
STEP .F                    0.5 : STEP
NULL .                -9999.25 : NULL VALUE
COMP .                         : COMPANY
WELL .                         : WELL
FLD  .                         : FIELD
LOC  .                         : LOCATION
PROV .                         : PROVINCE
CNTY .                         : COUNTY
STAT .                         : STATE
CTRY .                         : COUNTRY
SRVC .                         : SERVICE COMPANY
DATE .                         : DATE
UWI  .                         : UNIQUE WELL ID
API  .                         : API NUMBER
SLAT .WGS84 3.0492386049413014 : SURFACE LATITUDE
SLON .WGS84  8.877749962376996 : SURFACE LONGITUDE
DATUM.F                3582.44 : DEPTH DATUM ELEV
~Curve Information -----------------------------------------
DEPT   .F     : 
HCALR  .IN    : HRCC CALIPER CALIBRATED FROM RESISTIVITY LOG
DTCO   .US/F  : DELTA-T COMPRESSIONAL
DTSM   .US/F  : DELTA-T SHEAR
HLLD   .OHMM  : HALS LATEROLOG DEEP RESISTIVITY
HLLS   .OHMM  : HALS LATEROLOG SHALLOW RESISTIVITY
RXOZ   .OHMM  : INVADED FORMATION RESISTIVITY FILTERED AT 18 INCHES
TNPH_LS.DEC   : THERMAL NEUTRON POROSITY [LIMESTONE]
PEFZ   .B/E   : HRDD STANDARD RESOLUTION FORMATION PHOTOELECTRIC FACTOR
HDRA   .G/C3  : HRDD SPINE AND RIBS DENSITY CORRECTION
DPHZ_LS.DEC   : HGRD STANDARD RESOLUTION DENSITY POROSITY
RHOZ   .G/C3  : HRDD STANDARD RESOLUTION FORMATION DENSITY
NPHI_LS.DEC   : NEUTRON POROSITY LIMESTONE
GRD    .GAPI  : GAMMA RAY FROM DENSITY LOG
~Params ----------------------------------------------------
~Other -----------------------------------------------------
~ASCII -----------------------------------------------------
# ...
 3464.00000    8.53550   -9999.25   -9999.25 2145.85080 1789.85410  850.27230    0.02340    3.64160   -0.00430   -0.10220    2.89120   -9999.25   34.70550
 3464.50000    8.56590   -9999.25   -9999.25 3058.91600 2928.88920  946.58590    0.01830    3.55440    0.01050   -0.10690    2.89880   -9999.25   34.78130
 3465.00000    8.56010   -9999.25   -9999.25 3185.57200 3227.25950  902.88400    0.01610    3.58720    0.02390   -0.11410    2.89650   -9999.25   37.71230
 3465.50000    8.54500   -9999.25   -9999.25 2099.87600 2403.39430  758.24720    0.01750    3.67610    0.02380   -0.11730    2.88810   -9999.25   42.56040
 3466.00000    8.55060   -9999.25   -9999.25 1630.78470 1749.34740  644.46610    0.01920    3.71120    0.01990   -0.11430    2.87900   -9999.25   47.94790
 3466.50000    8.56570   -9999.25   -9999.25 1419.22640 1474.53280  611.41920    0.02150    3.68370    0.01590   -0.10940    2.87090   -9999.25   51.60970
 3467.00000    8.56540   -9999.25   -9999.25 1261.19470 1287.00090  589.10880    0.02500    3.65630    0.01210   -0.10430    2.85600   -9999.25   53.19370
 3467.50000    8.56560   -9999.25   -9999.25 1127.90200 1127.90200  549.34270    0.02900    3.62640    0.00920   -0.09740    2.83990   -9999.25   54.92800
 3468.00000    8.57050   -9999.25   -9999.25 1166.74340 1166.74340  543.09070    0.03310    3.59330    0.01270   -0.08570    2.83010   -9999.25   58.71590
 3468.50000    8.58070   -9999.25   -9999.25 1428.11510 1457.18960  581.83850    0.03480    3.56870    0.02070   -0.07690    2.83070   -9999.25   62.72550
 3469.00000    8.57030   -9999.25   -9999.25 2121.52590 1975.81310  679.36850    0.03420    3.58440    0.02720   -0.07070    2.85190   -9999.25   62.80470
 3469.50000    8.58590   -9999.25   -9999.25 2814.93650 2999.85910  750.14420    0.03150    3.63930    0.02150   -0.07450    2.87370   -9999.25   57.80680
 3470.00000    8.59090   -9999.25   -9999.25 4397.55320 4320.02590  763.98410    0.02770    3.74950    0.01140   -0.08970    2.88760   -9999.25   51.42340
 3470.50000    8.61150   -9999.25   -9999.25 5383.79050 5697.49120  763.64190    0.02580    3.87000    0.00410   -0.10140    2.87630   -9999.25   50.32110
 3471.00000    8.63680   -9999.25   -9999.25 4877.66990 4943.37010  821.51570    0.02730    3.87360    0.00060   -0.10990    2.86430   -9999.25   51.78500
 3471.50000    8.67230   -9999.25   -9999.25 2661.51810 2635.29830  816.47600    0.02960    3.80030   -0.00360   -0.10140    2.86230   -9999.25   52.69900
 3472.00000    8.69730   -9999.25   -9999.25 1586.90540 1508.03690  718.72050    0.03020    3.65480   -0.00210   -0.09300    2.86220   -9999.25   51.34720
 3472.50000    8.73230   -9999.25   -9999.25 1083.76940 1105.69200  586.07820    0.02890    3.57530    0.00060   -0.09310    2.86220   -9999.25   48.02230
 3473.00000    8.74690   -9999.25   -9999.25  778.58260  792.80710  496.83810    0.02850    3.60940    0.00540   -0.09480    2.86180   -9999.25   45.87150
 3473.50000    8.75210   -9999.25   -9999.25  685.88040  695.46900  438.60240    0.02950    3.67930    0.00340   -0.09300    2.86220   -9999.25   44.20600
 3474.00000    8.77780   -9999.25   -9999.25  708.96540  779.19840  438.26570    0.02990    3.67190    0.00200   -0.09330    2.86580   -9999.25   43.35750
 3474.50000    8.81290   -9999.25   -9999.25  948.65480 1041.73130  477.25110    0.02910    3.63470    0.00240   -0.09570    2.86790   -9999.25   42.97300
 3475.00000    8.82700   -9999.25   -9999.25 1280.36250 1392.71800  566.03360    0.02790    3.62630    0.00280   -0.09770    2.86800   -9999.25   42.51410
 3475.50000    8.82210   -9999.25   -9999.25 1339.90580 1536.31590  588.72990    0.02730    3.68760    0.00680   -0.09850    2.86540   -9999.25   40.97840
 3476.00000    8.82270   -9999.25   -9999.25 1278.23800 1473.32310  574.95050    0.02680    3.76530    0.00860   -0.09670    2.86110   -9999.25   38.42350
 3476.50000    8.87350   -9999.25   -9999.25 1210.43320 1354.13400  555.99410    0.02730    3.80750    0.00750   -0.09410    2.85860   -9999.25   35.37980
 3477.00000    8.88200   -9999.25   -9999.25 1121.08000 1239.60190  538.20090    0.02840    3.76260   -0.00030   -0.09140    2.85840   -9999.25   34.67210
 3477.50000    8.85640   -9999.25   -9999.25 1050.07590 1148.10420  486.21400    0.02870    3.71770   -0.01260   -0.09100    2.86110   -9999.25   36.59240
 3478.00000    8.83710   -9999.25   -9999.25  989.43240 1081.25450  491.17900    0.02850    3.69300   -0.01140   -0.09300    2.86590   -9999.25   40.00950
 3478.50000    8.87320   -9999.25   -9999.25  944.30170 1055.45650  480.88550    0.02760    3.70110   -0.00390   -0.09630    2.86860   -9999.25   41.57570
 3479.00000    8.88770   -9999.25   -9999.25  942.64060 1051.55490  523.76760    0.02680    3.74640    0.00900   -0.09780    2.86960   -9999.25   40.23980
 3479.50000    8.88750   -9999.25   -9999.25  950.86250 1051.29410  508.48610    0.02590    3.75580    0.01860   -0.09870    2.87060   -9999.25   39.15870
 3480.00000    8.89250   -9999.25   -9999.25  866.84850  990.97620  528.14780    0.02600    3.72560    0.02170   -0.09960    2.87170   -9999.25   39.47660
 3480.50000    8.90260   -9999.25   -9999.25  832.37700  895.31980  478.87640    0.02580    3.70590    0.01980   -0.09960    2.87380   -9999.25   42.05110
 3481.00000    8.89230   -9999.25   -9999.25  983.10780  942.73220  507.17240    0.02420    3.73210    0.01270   -0.09950    2.87660   -9999.25   42.04340
 3481.50000    8.90780   -9999.25   -9999.25 1464.01720 1421.09990  566.95230    0.01950    3.86140    0.01160   -0.10230    2.88050   -9999.25   39.60800
 3482.00000    8.90750   -9999.25   -9999.25 1970.93680 2149.41700  636.83110    0.01540    4.05180    0.01370   -0.10440    2.88530   -9999.25   35.14300
 3482.50000    8.90750   -9999.25   -9999.25 2477.85620 2483.93600  660.56600    0.01210    4.21510    0.01570   -0.10790    2.89430   -9999.25   31.29780
 3483.00000    8.90730   -9999.25   -9999.25 3256.97920 3012.98190  682.47600    0.00830    4.28910    0.01660   -0.11300    2.90740   -9999.25   30.35730
 3483.50000    8.90210   -9999.25   -9999.25 4403.17480 4562.74220  711.46540    0.00550    4.39910    0.01740   -0.12090    2.91730   -9999.25   31.88240
 3484.00000    8.88700   -9999.25   -9999.25 5952.74270 6311.77640  755.35020    0.00540    4.52840    0.01470   -0.12950    2.92310   -9999.25   35.69610
 3484.50000    8.88730   -9999.25   -9999.25 6709.20610 7526.35210  834.48520    0.00710    4.57110    0.00750   -0.13260    2.91320   -9999.25   37.76350
 3485.00000    8.88720   -9999.25   -9999.25 4882.97460 5113.70260  900.99800    0.01190    4.38820    0.00320   -0.12760    2.89550   -9999.25   36.91940
 3485.50000    8.88220   -9999.25   -9999.25 2339.77320 2868.80300  817.81290    0.01840    4.08760    0.00440   -0.11620    2.88140   -9999.25   33.50250
 3486.00000    8.87210   -9999.25   -9999.25 1159.67940 1264.39060  720.00550    0.02320    3.81660    0.01020   -0.10190    2.87020   -9999.25   30.91780
 3486.50000    8.88220   -9999.25   -9999.25  814.34790  926.29220  618.45510    0.02500    3.84560    0.01760   -0.09550    2.86950   -9999.25   31.31590
 3487.00000    8.86140   -9999.25   -9999.25  921.75010  971.57240  527.97530    0.02450    4.00950    0.01690   -0.09650    2.87390   -9999.25   33.56870
 3487.50000    8.84120   -9999.25   -9999.25 1326.48790 1462.22030  507.24150    0.02190    4.13520    0.00110   -0.10020    2.87670   -9999.25   36.42850
 3488.00000    8.82130   -9999.25   -9999.25 2006.37130 2021.42020  519.77630    0.01820    4.08990   -0.01410   -0.10300    2.86530   -9999.25   39.35210
 3488.50000    8.80630   -9999.25   -9999.25 2285.75540 2580.62010  543.74700    0.01640    3.98680   -0.01890   -0.09650    2.85320   -9999.25   40.49190
 3489.00000    8.80150   -9999.25   -9999.25 2374.14970 2641.40190  544.86810    0.01470    3.94280   -0.01900   -0.08770    2.85240   -9999.25   40.91020
 3489.50000    8.78640   -9999.25   -9999.25 2383.94750 2700.63620  555.67770    0.01490    4.00130   -0.01650   -0.08790    2.86510   -9999.25   41.30730
