~Version ---------------------------------------------------
VERS.   2.0 : CWLS log ASCII Standard -VERSION 2.0
WRAP.    NO : One line per depth step
DLM . SPACE : Column Data Section Delimiter
~Well ------------------------------------------------------
STRT .F                  214.0 : START DEPTH
STOP .F                 9541.0 : STOP DEPTH
STEP .F                    0.5 : STEP
NULL .                -9999.25 : NULL VALUE
COMP .                         : COMPANY
WELL .                         : WELL
FLD  .                         : FIELD
LOC  .                         : LOCATION
PROV .                         : PROVINCE
CNTY .                         : COUNTY
STAT .                         : STATE
CTRY .                         : COUNTRY
SRVC .                         : SERVICE COMPANY
DATE .                         : DATE
UWI  .                         : UNIQUE WELL ID
API  .                         : API NUMBER
SLAT .WGS84 3.0492386049413014 : SURFACE LATITUDE
SLON .WGS84  8.877749962376996 : SURFACE LONGITUDE
DATUM.F                3582.44 : DEPTH DATUM ELEV
~Curve Information -----------------------------------------
DEPT   .F     : 
HCALR  .IN    : HRCC CALIPER CALIBRATED FROM RESISTIVITY LOG
DTCO   .US/F  : DELTA-T COMPRESSIONAL
DTSM   .US/F  : DELTA-T SHEAR
HLLD   .OHMM  : HALS LATEROLOG DEEP RESISTIVITY
HLLS   .OHMM  : HALS LATEROLOG SHALLOW RESISTIVITY
RXOZ   .OHMM  : INVADED FORMATION RESISTIVITY FILTERED AT 18 INCHES
TNPH_LS.DEC   : THERMAL NEUTRON POROSITY [LIMESTONE]
PEFZ   .B/E   : HRDD STANDARD RESOLUTION FORMATION PHOTOELECTRIC FACTOR
HDRA   .G/C3  : HRDD SPINE AND RIBS DENSITY CORRECTION
DPHZ_LS.DEC   : HGRD STANDARD RESOLUTION DENSITY POROSITY
RHOZ   .G/C3  : HRDD STANDARD RESOLUTION FORMATION DENSITY
NPHI_LS.DEC   : NEUTRON POROSITY LIMESTONE
GRD    .GAPI  : GAMMA RAY FROM DENSITY LOG
~Params ----------------------------------------------------
~Other -----------------------------------------------------
~ASCII -----------------------------------------------------
# ...
 2216.00000    8.56530   -9999.25   -9999.25  541.92470  508.48580  279.22790    0.05160    3.92730    0.00560   -0.06490    2.81460   -9999.25   21.43300
 2216.50000    8.56540   -9999.25   -9999.25  500.54140  451.04200  271.05080    0.05520    3.91390   -0.01230   -0.06240    2.81170   -9999.25   22.41030
 2217.00000    8.56550   -9999.25   -9999.25  375.81490  357.98140  273.30000    0.05820    3.83970   -0.02540   -0.06220    2.81080   -9999.25   24.77910
 2217.50000    8.57690   -9999.25   -9999.25  335.72900  337.39940  248.04710    0.05770    3.76540   -0.02230   -0.06140    2.80950   -9999.25   25.99710
 2218.00000    8.58550   -9999.25   -9999.25  309.04960  295.02760  205.76600    0.05700    3.74290   -0.01490   -0.05800    2.80520   -9999.25   26.38210
 2218.50000    8.58550   -9999.25   -9999.25  283.78930  262.18660  212.05740    0.05690    3.72580   -0.00850   -0.05460    2.80050   -9999.25   26.73440
 2219.00000    8.58560   -9999.25   -9999.25  260.59380  226.98670  229.60010    0.05810    3.77020   -0.00700   -0.05430    2.79920   -9999.25   27.02430
 2219.50000    8.59670   -9999.25   -9999.25  230.92380  201.29940  198.15880    0.06060    3.81620   -0.00490   -0.05530    2.79920   -9999.25   26.84750
 2220.00000    8.60560   -9999.25   -9999.25  227.77220  200.18390  150.99100    0.06300    3.88530    0.00010   -0.05710    2.80020   -9999.25   25.75300
 2220.50000    8.60560   -9999.25   -9999.25  235.42860  223.47580  136.53210    0.06530    3.95730    0.00570   -0.06260    2.80870   -9999.25   23.15110
 2221.00000    8.60560   -9999.25   -9999.25  279.23730  273.53290  197.26570    0.06610    4.01980    0.00810   -0.06810    2.81910   -9999.25   21.86180
 2221.50000    8.60570   -9999.25   -9999.25  340.84840  334.80240  312.04940    0.06570    4.09680    0.00800   -0.07220    2.82550   -9999.25   22.57140
 2222.00000    8.60570   -9999.25   -9999.25  416.05350  397.84450  232.16070    0.06950    4.10540    0.00320   -0.07290    2.82630   -9999.25   25.88020
 2222.50000    8.61620   -9999.25   -9999.25  424.47110  388.53150  244.28510    0.07710    4.05280   -0.00470   -0.06680    2.81430   -9999.25   30.35790
 2223.00000    8.62570   -9999.25   -9999.25  311.32440  316.69090  249.44650    0.08470    3.94000   -0.00460   -0.05400    2.79600   -9999.25   33.41690
 2223.50000    8.62570   -9999.25   -9999.25  240.96660  274.26930  298.88160    0.08820    3.81320    0.00740   -0.03620    2.77270   -9999.25   33.34290
 2224.00000    8.62580   -9999.25   -9999.25  247.63330  271.66620  296.99150    0.08530    3.76090    0.02070   -0.02750    2.75600   -9999.25   30.62720
 2224.50000    8.62580   -9999.25   -9999.25  351.17850  286.34220  331.37680    0.06900    3.80150    0.03270   -0.03180    2.76430   -9999.25   27.72710
 2225.00000    8.62570   -9999.25   -9999.25  526.36880  463.87160  485.72010    0.05790    3.96640    0.02870   -0.04640    2.79150   -9999.25   28.51540
 2225.50000    8.62580   -9999.25   -9999.25  811.16570  808.63850  542.09310    0.05310    4.13580    0.01580   -0.06500    2.81460   -9999.25   30.03310
 2226.00000    8.62650   -9999.25   -9999.25  918.85720  717.13450  387.11040    0.05110    4.21460   -0.00300   -0.07500    2.82760   -9999.25   33.00050
 2226.50000    8.59720   -9999.25   -9999.25  536.33000  450.68240  245.79610    0.04920    4.19860   -0.01720   -0.07470    2.82690   -9999.25   39.97590
 2227.00000    8.55750   -9999.25   -9999.25  424.16020  369.64520  200.48590    0.04720    4.04000   -0.02180   -0.06970    2.82320   -9999.25   47.20580
 2227.50000    8.51720   -9999.25   -9999.25  447.68550  380.25050  213.87040    0.04320    3.95400   -0.01580   -0.06580    2.81700   -9999.25   52.72720
 2228.00000    8.47640   -9999.25   -9999.25  586.79930  482.28990  283.17830    0.04100    3.86790   -0.00420   -0.06760    2.82350   -9999.25   52.18840
 2228.50000    8.46500   -9999.25   -9999.25  656.73610  547.06420  345.73230    0.03950    3.82950    0.01200   -0.07490    2.82960   -9999.25   47.19760
 2229.00000    8.46460   -9999.25   -9999.25  593.32520  531.40660  328.56790    0.03810    3.87850    0.01630   -0.08450    2.84350   -9999.25   40.30820
 2229.50000    8.46440   -9999.25   -9999.25  607.16180  540.19920  282.19260    0.03900    3.94160    0.01960   -0.09100    2.85440   -9999.25   37.25550
 2230.00000    8.47860   -9999.25   -9999.25  641.34430  574.18120  263.73250    0.03920    3.89530    0.02030   -0.09300    2.86010   -9999.25   36.18640
 2230.50000    8.49880   -9999.25   -9999.25  628.68430  610.30110  218.29410    0.03920    3.86430    0.02020   -0.09320    2.86070   -9999.25   35.29200
 2231.00000    8.50490   -9999.25   -9999.25  583.20020  600.38060  202.19620    0.03970    3.83210    0.01980   -0.09060    2.85260   -9999.25   33.43780
 2231.50000    8.50510   -9999.25   -9999.25  512.79920  471.44100  184.64190    0.04040    3.83410    0.01740   -0.08550    2.84790   -9999.25   30.92680
 2232.00000    8.50500   -9999.25   -9999.25  432.75810  414.34770  189.76480    0.04120    3.84300    0.01520   -0.08230    2.84140   -9999.25   28.87130
 2232.50000    8.50500   -9999.25   -9999.25  369.08410  354.82680  173.84610    0.04300    3.84010    0.01240   -0.07710    2.83490   -9999.25   26.86820
 2233.00000    8.50500   -9999.25   -9999.25  311.15340  268.78940  146.03300    0.04400    3.81200    0.00870   -0.06650    2.82160   -9999.25   27.47590
 2233.50000    8.50500   -9999.25   -9999.25  303.14660  271.50510  123.47100    0.04280    3.78390    0.00990   -0.05710    2.80750   -9999.25   29.73810
 2234.00000    8.50500   -9999.25   -9999.25  411.95000  321.68840  162.55060    0.03780    3.78760    0.00450   -0.05560    2.80950   -9999.25   34.11810
 2234.50000    8.50500   -9999.25   -9999.25  807.91570  673.66020  261.63250    0.03100    3.81520   -0.00080   -0.07710    2.82970   -9999.25   37.09870
 2235.00000    8.50500   -9999.25   -9999.25 1513.02560 1446.03050  573.66540    0.02840    3.82370    0.00120   -0.09250    2.85670   -9999.25   37.70650
 2235.50000    8.50500   -9999.25   -9999.25 1467.11800 1486.30660  627.78650    0.02900    3.80020    0.00940   -0.09590    2.86360   -9999.25   36.77430
 2236.00000    8.50500   -9999.25   -9999.25 1317.24940 1101.60410  625.77600    0.03120    3.71550    0.00950   -0.09280    2.85820   -9999.25   34.79280
 2236.50000    8.50520   -9999.25   -9999.25  568.35640  489.42710  355.08220    0.03530    3.63330    0.00900   -0.08680    2.84990   -9999.25   32.48860
 2237.00000    8.49250   -9999.25   -9999.25  414.09800  375.55530  211.26480    0.03710    3.59090    0.00990   -0.08090    2.84010   -9999.25   30.41220
 2237.50000    8.49720   -9999.25   -9999.25  412.69160  374.50610  170.65770    0.03820    3.59260    0.01320   -0.07880    2.83650   -9999.25   28.34430
 2238.00000    8.50500   -9999.25   -9999.25  466.31660  420.98410  210.43110    0.03930    3.63600    0.01780   -0.08180    2.84260   -9999.25   26.79610
 2238.50000    8.50500   -9999.25   -9999.25  504.24730  479.75630  316.81980    0.04060    3.71650    0.02280   -0.08680    2.84660   -9999.25   25.71640
 2239.00000    8.51730   -9999.25   -9999.25  436.91350  406.53550  329.59620    0.04330    3.79700    0.02610   -0.08570    2.84640   -9999.25   26.42530
 2239.50000    8.52520   -9999.25   -9999.25  328.01480  289.39790  201.32860    0.04860    3.84700    0.02320   -0.07860    2.83400   -9999.25   28.64720
 2240.00000    8.53710   -9999.25   -9999.25  229.09930  208.70050  122.50260    0.05440    3.84310    0.02010   -0.06340    2.80730   -9999.25   30.67190
 2240.50000    8.54530   -9999.25   -9999.25  197.24980  191.82530   78.31130    0.05710    3.82770    0.02330   -0.04730    2.78390   -9999.25   31.68630
 2241.00000    8.54530   -9999.25   -9999.25  212.42830  194.19790   75.57130    0.05740    3.78810    0.02800   -0.04130    2.77980   -9999.25   31.52580
 2241.50000    8.55710   -9999.25   -9999.25  310.76860  295.40950  119.46910    0.05410    3.72240    0.02560   -0.04940    2.79880   -9999.25   31.29620
