~Version ---------------------------------------------------
VERS.   2.0 : CWLS log ASCII Standard -VERSION 2.0
WRAP.    NO : One line per depth step
DLM . SPACE : Column Data Section Delimiter
~Well ------------------------------------------------------
STRT .F                   55.0 : START DEPTH
STOP .F                 9359.0 : STOP DEPTH
STEP .F                    0.5 : STEP
NULL .                -9999.25 : NULL VALUE
COMP .                         : COMPANY
WELL .                         : WELL
FLD  .                         : FIELD
LOC  .                         : LOCATION
PROV .                         : PROVINCE
CNTY .                         : COUNTY
STAT .                         : STATE
CTRY .                         : COUNTRY
SRVC .                         : SERVICE COMPANY
DATE .                         : DATE
UWI  .                         : UNIQUE WELL ID
API  .                         : API NUMBER
SLAT .WGS84 2.1460273341691973 : SURFACE LATITUDE
SLON .WGS84  5.948631642481004 : SURFACE LONGITUDE
DATUM.F                    nan : DEPTH DATUM ELEV
~Curve Information -----------------------------------------
DEPT   .F     : 1 MEASURED DEPTH
SPR    .MV    : SPONTANEOUS POTENTIAL FROM RESISTIVITY LOG
AHT10  .OHMM  : ARRAY INDUCTION TWO FOOT RESISTIVITY A10
AHT30  .OHMM  : ARRAY INDUCTION TWO FOOT RESISTIVITY A30
AHT90  .OHMM  : ARRAY INDUCTION TWO FOOT RESISTIVITY A90
GR_EDTC.GAPI  : GAMMA RAY
TNPH_LS.DEC   : THERMAL NEUTRON POROSITY [LIMESTONE]
HCALD  .M     : HRCC CALIPER CALIBRATED FROM DENSITY LOG
HDRA   .G/C3  : HRDD SPINE AND RIBS DENSITY CORRECTION
PEFZ   .B/E   : HRDD STANDARD RESOLUTION FORMATION PHOTOELECTRIC FACTOR
DPHZ_LS.DEC   : HGRD STANDARD RESOLUTION DENSITY POROSITY
RHOZ   .G/C3  : HRDD STANDARD RESOLUTION FORMATION DENSITY
DTCO   .US/F  : DELTA-T COMPRESSIONAL
DTSM   .US/F  : DELTA-T SHEAR
~Params ----------------------------------------------------
~Other -----------------------------------------------------
~ASCII -----------------------------------------------------
# ...
 9337.00000    4.48570   45.00380   47.91530   50.92940   -9999.25   -9999.25    7.66360   -0.00050    3.88850    0.04350    2.63470   65.75160  111.65120
 9337.50000    4.29310   51.29380   56.11190   61.66630   -9999.25   -9999.25    7.66160   -0.00080    3.88720    0.04730    2.62830   66.53630  111.65290
 9338.00000    3.82640   47.23340   52.98840   55.98320   -9999.25   -9999.25    7.66080   -0.00250    3.85350    0.06030    2.60930   67.52690  111.64750
 9338.50000    2.98530   41.74220   47.44790   48.66990   -9999.25   -9999.25    7.64290   -0.00590    3.86290    0.07600    2.58350   68.17020  111.66410
 9339.00000    2.02800   40.78770   45.92360   47.63190   -9999.25   -9999.25    7.59480   -0.00920    3.98540    0.08880    2.56200   68.10180  111.69080
 9339.50000    1.07080   39.21220   44.06620   46.26330   -9999.25   -9999.25    7.56240   -0.01220    4.18080    0.09430    2.55310   67.32440  111.85790
 9340.00000   -0.34090   37.65570   41.44190   43.66110   -9999.25   -9999.25    7.53240   -0.01070    4.35580    0.09000    2.56220   66.08060  111.68730
 9340.50000   -2.23520   34.58540   38.89760   41.32620   -9999.25   -9999.25    7.51990   -0.00660    4.35870    0.08230    2.57760   65.03990  111.48080
 9341.00000   -4.73730   40.64170   40.61270   44.42150   -9999.25   -9999.25    7.51820   -0.00340    4.26720    0.07610    2.57640   63.52880  111.58270
 9341.50000   -8.35280   48.57450   50.02850   55.53710   -9999.25   -9999.25   -9999.25   -9999.25   -9999.25   -9999.25    2.57290   62.73940  111.82990
 9342.00000  -11.54840   52.88290   58.84190   62.26480   -9999.25   -9999.25   -9999.25   -9999.25   -9999.25   -9999.25    2.56710   63.58730  111.83710
 9342.50000  -14.57770   54.43890   64.80930   71.69630   -9999.25   -9999.25   -9999.25   -9999.25   -9999.25   -9999.25    2.56090   64.62380  111.53370
 9343.00000  -16.71500   69.47970   80.85390   94.44030   -9999.25   -9999.25   -9999.25   -9999.25   -9999.25   -9999.25    2.55670   65.06510  111.51120
 9343.50000  -19.19850   93.55680  104.96620  140.54260   -9999.25   -9999.25   -9999.25   -9999.25   -9999.25   -9999.25    2.55410   65.16940  112.41730
 9344.00000  -21.71770  116.34320  118.26560  150.04840   -9999.25   -9999.25   -9999.25   -9999.25   -9999.25   -9999.25    2.55380   65.26530  112.72200
 9344.50000  -24.14170  107.94890   86.41830   75.74280   -9999.25   -9999.25   -9999.25   -9999.25   -9999.25   -9999.25    2.55830   65.34370  112.14510
 9345.00000  -25.80270   69.99180   63.69500   58.32450   -9999.25   -9999.25   -9999.25   -9999.25   -9999.25   -9999.25    2.56920   65.30380  111.47210
 9345.50000  -27.27570   50.53570   47.21830   40.62570   -9999.25   -9999.25   -9999.25   -9999.25   -9999.25   -9999.25    2.57250   65.33760  111.59000
 9346.00000  -28.42340   34.61830   29.91950   24.76340   -9999.25   -9999.25   -9999.25   -9999.25   -9999.25   -9999.25    2.56920   65.38770  111.65390
 9346.50000  -29.83320   19.20240   15.41050   14.11530   -9999.25   -9999.25   -9999.25   -9999.25   -9999.25   -9999.25    2.56440   65.41290  111.46740
 9347.00000  -31.77850   10.94430   12.22180   12.87920   -9999.25   -9999.25   -9999.25   -9999.25   -9999.25   -9999.25    2.56140   65.41610  111.54470
 9347.50000  -33.39670   16.02130   18.14020   21.20050   -9999.25   -9999.25   -9999.25   -9999.25   -9999.25   -9999.25    2.56660   65.41950  111.62210
 9348.00000  -35.20510   29.62230   33.31630   46.52920   -9999.25   -9999.25   -9999.25   -9999.25   -9999.25   -9999.25    2.57410   65.44080  111.58580
 9348.50000  -37.11770   49.87430   66.31420   86.96050   -9999.25   -9999.25   -9999.25   -9999.25   -9999.25   -9999.25    2.57830   65.46860  111.43450
 9349.00000  -39.35840   62.78330   84.52770   94.59910   -9999.25   -9999.25   -9999.25   -9999.25   -9999.25   -9999.25    2.58020   65.33900  111.30180
 9349.50000  -41.59770   69.47490  100.02900  278.88430   -9999.25   -9999.25   -9999.25   -9999.25   -9999.25   -9999.25    2.58050   65.29980  111.42760
 9350.00000  -43.84220   78.29970  157.52260 1201.87680   -9999.25   -9999.25   -9999.25   -9999.25   -9999.25   -9999.25    2.56340   65.29750  111.49080
 9350.50000  -46.04710   94.72730  303.16030 1629.22310   -9999.25   -9999.25   -9999.25   -9999.25   -9999.25   -9999.25    2.25960   65.30020  111.49360
 9351.00000  -48.10730  104.71390  318.98870 1878.74610   -9999.25   -9999.25   -9999.25   -9999.25   -9999.25   -9999.25    2.17450   65.31890  111.49640
 9351.50000  -49.49370   -9999.25   -9999.25   -9999.25   -9999.25   -9999.25   -9999.25   -9999.25   -9999.25   -9999.25    2.09450   65.34480  111.49910
 9352.00000  -50.95340   -9999.25   -9999.25   -9999.25   -9999.25   -9999.25   -9999.25   -9999.25   -9999.25   -9999.25    2.16610   65.34430  111.50560
 9352.50000  -52.36920   -9999.25   -9999.25   -9999.25   -9999.25   -9999.25   -9999.25   -9999.25   -9999.25   -9999.25    2.22810   65.30380  111.51780
 9353.00000  -54.31760   -9999.25   -9999.25   -9999.25   -9999.25   -9999.25   -9999.25   -9999.25   -9999.25   -9999.25    2.24180   65.35480  111.53000
 9353.50000  -56.53080   -9999.25   -9999.25   -9999.25   -9999.25   -9999.25   -9999.25   -9999.25   -9999.25   -9999.25    2.24190   65.33100  111.53750
 9354.00000  -59.42350   -9999.25   -9999.25   -9999.25   -9999.25   -9999.25   -9999.25   -9999.25   -9999.25   -9999.25    2.24110   65.23940  111.53500
 9354.50000  -64.52380   -9999.25   -9999.25   -9999.25   -9999.25   -9999.25   -9999.25   -9999.25   -9999.25   -9999.25    2.24030   65.19190  111.53260
 9355.00000  -70.31050   -9999.25   -9999.25   -9999.25   -9999.25   -9999.25   -9999.25   -9999.25   -9999.25   -9999.25    2.23940   65.23540  111.53010
 9355.50000  -76.69800   -9999.25   -9999.25   -9999.25   -9999.25   -9999.25   -9999.25   -9999.25   -9999.25   -9999.25    2.23730   65.23270  111.52770
 9356.00000  -85.93630   -9999.25   -9999.25   -9999.25   -9999.25   -9999.25   -9999.25   -9999.25   -9999.25   -9999.25    2.22950   65.19470  111.52520
 9356.50000  -95.48440   -9999.25   -9999.25   -9999.25   -9999.25   -9999.25   -9999.25   -9999.25   -9999.25   -9999.25    2.22150   65.19870  111.52280
 9357.00000 -109.52340   -9999.25   -9999.25   -9999.25   -9999.25   -9999.25   -9999.25   -9999.25   -9999.25   -9999.25    2.21530   65.22950  111.52030
 9357.50000 -118.61020   -9999.25   -9999.25   -9999.25   -9999.25   -9999.25   -9999.25   -9999.25   -9999.25   -9999.25    2.21500   65.30620  111.51790
 9358.00000 -124.02700   -9999.25   -9999.25   -9999.25   -9999.25   -9999.25   -9999.25   -9999.25   -9999.25   -9999.25    2.21430   65.49320  111.53330
 9358.50000 -124.39230   -9999.25   -9999.25   -9999.25   -9999.25   -9999.25   -9999.25   -9999.25   -9999.25   -9999.25    2.21360   65.75830  111.57400
 9359.00000 -116.45870   -9999.25   -9999.25   -9999.25   -9999.25   -9999.25   -9999.25   -9999.25   -9999.25   -9999.25    2.21290   66.33740  111.59140
