~Version ---------------------------------------------------
VERS.   2.0 : CWLS log ASCII Standard -VERSION 2.0
WRAP.    NO : One line per depth step
DLM . SPACE : Column Data Section Delimiter
~Well ------------------------------------------------------
STRT .F                   55.0 : START DEPTH
STOP .F                 9359.0 : STOP DEPTH
STEP .F                    0.5 : STEP
NULL .                -9999.25 : NULL VALUE
COMP .                         : COMPANY
WELL .                         : WELL
FLD  .                         : FIELD
LOC  .                         : LOCATION
PROV .                         : PROVINCE
CNTY .                         : COUNTY
STAT .                         : STATE
CTRY .                         : COUNTRY
SRVC .                         : SERVICE COMPANY
DATE .                         : DATE
UWI  .                         : UNIQUE WELL ID
API  .                         : API NUMBER
SLAT .WGS84 2.1460273341691973 : SURFACE LATITUDE
SLON .WGS84  5.948631642481004 : SURFACE LONGITUDE
DATUM.F                    nan : DEPTH DATUM ELEV
~Curve Information -----------------------------------------
DEPT   .F     : 1 MEASURED DEPTH
SPR    .MV    : SPONTANEOUS POTENTIAL FROM RESISTIVITY LOG
AHT10  .OHMM  : ARRAY INDUCTION TWO FOOT RESISTIVITY A10
AHT30  .OHMM  : ARRAY INDUCTION TWO FOOT RESISTIVITY A30
AHT90  .OHMM  : ARRAY INDUCTION TWO FOOT RESISTIVITY A90
GR_EDTC.GAPI  : GAMMA RAY
TNPH_LS.DEC   : THERMAL NEUTRON POROSITY [LIMESTONE]
HCALD  .M     : HRCC CALIPER CALIBRATED FROM DENSITY LOG
HDRA   .G/C3  : HRDD SPINE AND RIBS DENSITY CORRECTION
PEFZ   .B/E   : HRDD STANDARD RESOLUTION FORMATION PHOTOELECTRIC FACTOR
DPHZ_LS.DEC   : HGRD STANDARD RESOLUTION DENSITY POROSITY
RHOZ   .G/C3  : HRDD STANDARD RESOLUTION FORMATION DENSITY
DTCO   .US/F  : DELTA-T COMPRESSIONAL
DTSM   .US/F  : DELTA-T SHEAR
~Params ----------------------------------------------------
~Other -----------------------------------------------------
~ASCII -----------------------------------------------------
# ...
 7907.00000  -28.24580   29.56950   27.52270   26.28800   80.28480    0.18210    7.98160   -0.00130    4.35990    0.02150    2.67300   76.67230  138.29560
 7907.50000  -27.49110   29.38840   26.62950   25.99860   80.21560    0.17940    7.98650   -0.00120    4.35930    0.02800    2.66100   76.57890  138.86090
 7908.00000  -26.88570   25.00930   23.38660   21.45760   81.81890    0.18040    7.99140   -0.00190    4.36850    0.03480    2.65120   76.40110  139.38860
 7908.50000  -26.29770   21.55370   20.48670   19.90800   84.60080    0.18360    7.99120   -0.00330    4.37850    0.03470    2.65110   76.19490  139.91620
 7909.00000  -25.93050   20.01660   19.17870   18.74250   85.48010    0.18700    8.00630   -0.00610    4.37020    0.03340    2.65220   76.13990  140.43020
 7909.50000  -25.62830   18.58910   18.18490   17.64520   84.09020    0.19150    8.00860   -0.00690    4.34200    0.03310    2.65340   76.30390  140.92320
 7910.00000  -25.51410   17.49250   17.24260   16.99600   82.15870    0.19200    8.01010   -0.00680    4.32230    0.03430    2.65460   76.71010  141.46920
 7910.50000  -25.47160   17.28750   16.87440   16.51810   81.23470    0.18760    8.00840   -0.00620    4.30140    0.03530    2.65110   77.13680  142.05030
 7911.00000  -25.15760   17.29550   16.78190   16.52570   81.75570    0.18260    8.00980   -0.00540    4.28880    0.03470    2.64980   77.01810  142.50770
 7911.50000  -24.87600   17.36960   16.94520   16.49310   82.26380    0.18340    8.01120   -0.00430    4.29650    0.03550    2.64850   76.99660  142.79900
 7912.00000  -24.58680   17.77130   17.18820   16.40800   82.18190    0.18830    8.01250   -0.00370    4.33370    0.04050    2.64200   77.18120  142.93960
 7912.50000  -24.35730   18.52050   17.59010   17.03620   82.75540    0.19360    8.00900   -0.00330    4.37880    0.04820    2.62630   77.45470  143.12020
 7913.00000  -24.17560   19.30750   18.23270   17.50510   84.23720    0.19140    8.00320   -0.00380    4.38720    0.05050    2.62500   77.78510  143.30080
 7913.50000  -24.17880   17.81330   17.55830   17.04940   86.49880    0.18610    7.99990   -0.00370    4.35830    0.04620    2.63180   78.09510  144.12220
 7914.00000  -24.35370   16.42420   16.28540   15.86020   87.59890    0.18100    7.99670   -0.00340    4.29790    0.04060    2.63860   78.75380  145.54180
 7914.50000  -24.52110   16.05770   15.47340   15.03830   87.82060    0.18050    7.99460   -0.00340    4.25690    0.03950    2.64090   79.54000  147.34590
 7915.00000  -24.80580   15.73420   15.27640   14.67800   87.85840    0.18590    7.99670   -0.00360    4.21150    0.04260    2.63620   80.43360  148.57730
 7915.50000  -25.31640   15.31900   14.67180   14.32620   88.32560    0.19790    8.00640   -0.00470    4.15070    0.04840    2.62760   80.98720  148.19000
 7916.00000  -25.68580   14.66200   14.18800   13.98290   88.78270    0.21020    7.99730   -0.00480    4.08960    0.05530    2.61890   80.03650  146.43390
 7916.50000  -26.14910   14.03320   13.61950   13.39990   89.34230    0.22550    8.00520   -0.00370    4.04190    0.05790    2.61320   77.43990  143.77810
 7917.00000  -26.59490   13.30230   12.92180   12.47040   89.44440    0.22840    8.01310   -0.00260    4.03420    0.05470    2.61280   74.49890  139.79820
 7917.50000  -26.88320   13.26240   12.83100   12.46640   87.21650    0.21590    8.01680   -0.00150    4.08910    0.04300    2.63100   72.70360  135.76670
 7918.00000  -27.31190   14.66200   13.91290   13.51360   80.91840    0.19720    8.01020   -0.00230    4.17480    0.02780    2.66050   71.96370  133.68980
 7918.50000  -27.74060   17.53700   17.61710   15.96930   73.64330    0.17980    7.99360   -0.00340    4.25950    0.01770    2.68510   72.09890  132.60150
 7919.00000  -28.39610   25.39510   23.20580   20.10590   68.28910    0.16590    7.97830   -0.00340    4.34030    0.01580    2.68530   73.54470  133.56610
 7919.50000  -28.69200   29.97200   27.19320   25.62700   68.58070    0.15940    7.97780   -0.00270    4.37530    0.02440    2.66980   74.95470  134.45830
 7920.00000  -28.95050   28.36320   26.87140   26.33420   71.63830    0.16270    7.97740   -0.00140    4.31060    0.03450    2.63920   75.11910  134.23670
 7920.50000  -29.50710   26.84070   26.12100   25.27570   76.53860    0.16880    7.97690   -0.00060    4.30090    0.04930    2.60860   74.14720  133.74760
 7921.00000  -29.89420   25.98330   25.39150   24.27100   79.22950    0.18110    7.97640   -0.00310    4.31180    0.06290    2.60170   71.87620  132.14050
 7921.50000  -30.23200   25.49990   24.68240   24.04850   78.23040    0.18550    7.97590   -0.00440    4.32310    0.06410    2.60220   70.00690  129.74080
 7922.00000  -30.78820   25.20380   24.41160   23.68360   74.15230    0.18280    7.97540   -0.00460    4.29190    0.04470    2.63070   68.97900  127.46640
 7922.50000  -31.42190   25.30780   24.68020   23.43520   68.83850    0.17750    7.97500   -0.00280    4.26230    0.02300    2.66340   68.68490  126.38700
 7923.00000  -31.91000   27.97600   26.09460   24.86180   65.25720    0.16920    7.97450   -0.00130    4.28990    0.01100    2.68990   69.31250  126.76000
 7923.50000  -32.63280   30.53440   28.65680   26.97520   66.00130    0.16100    7.97400   -0.00080    4.36350    0.01810    2.68340   70.70520  128.27390
 7924.00000  -33.35560   33.09970   31.47050   29.51880   69.90280    0.15430    7.97350   -0.00110    4.41940    0.02950    2.66450   72.55580  129.63910
 7924.50000  -34.07840   36.83540   34.56060   32.77800   71.80240    0.15320    7.97310   -0.00290    4.49640    0.04310    2.62880   73.74980  130.66980
 7925.00000  -34.80130   40.78800   37.41130   36.39710   71.75770    0.15720    7.97260   -0.00450    4.57030    0.05500    2.60920   74.25210  131.41860
 7925.50000  -35.52410   40.24520   38.52460   36.97660   71.07400    0.16180    7.97210   -0.00700    4.59660    0.06200    2.60000   74.08260  131.74890
 7926.00000  -36.65930   37.46470   37.25070   36.53220   69.68080    0.16540    7.97160   -0.00820    4.60680    0.06750    2.59850   73.52710  131.66270
 7926.50000  -37.69150   37.71320   36.80440   36.25570   68.24190    0.16860    7.97110   -0.00840    4.60370    0.06640    2.59960   72.91020  131.51540
 7927.00000  -38.64850   38.98540   37.53570   36.58010   67.12130    0.16780    7.97070   -0.00760    4.59220    0.06370    2.60380   72.34690  131.23150
 7927.50000  -39.19540   37.59250   36.20550   35.57430   68.40810    0.16440    7.97020   -0.00750    4.57710    0.06000    2.60960   72.13780  130.95140
 7928.00000  -39.48290   34.89620   34.37530   33.29740   70.68600    0.16240    7.96970   -0.00730    4.55650    0.05760    2.61050   72.20100  130.99090
 7928.50000  -40.10280   32.83910   32.36780   31.60420   71.65150    0.16200    7.96920   -0.00730    4.54400    0.05840    2.61080   72.37050  131.16380
 7929.00000  -40.78320   32.69060   32.21920   31.60420   71.32950    0.16380    7.96870   -0.00750    4.52820    0.05870    2.61180   72.60060  131.00490
 7929.50000  -40.76510   34.50740   33.04510   32.03230   69.81420    0.16240    7.96830   -0.00600    4.49830    0.05570    2.61700   72.85610  130.99230
 7930.00000  -40.85360   38.34530   35.97000   35.05710   68.35310    0.16180    7.96780   -0.00320    4.46390    0.05160    2.62200   73.16270  131.17790
 7930.50000  -40.94200   43.88510   41.32090   38.87480   67.13800    0.16200    7.96920   -0.00120    4.42440    0.05030    2.62200   73.80610  131.50920
 7931.00000  -41.01410   50.22520   47.51900   43.81020   65.74190    0.16220    7.97250    0.00040    4.41630    0.05260    2.61820   74.59610  131.92700
 7931.50000  -41.10220   66.32310   60.48520   54.24590   64.87990    0.16320    7.97590    0.00090    4.40030    0.05730    2.61210   75.09230  132.16440
 7932.00000  -41.00310   92.14520   86.31420   72.28260   64.83650    0.16460    7.97930    0.00000    4.39190    0.06080    2.60400   74.76810  131.80150
 7932.50000  -41.09600  117.05640  110.77600   99.53160   64.82500    0.16750    7.98270   -0.00090    4.40360    0.06850    2.58950   73.70340  131.01820
