~Version ---------------------------------------------------
VERS.   2.0 : CWLS log ASCII Standard -VERSION 2.0
WRAP.    NO : One line per depth step
DLM . SPACE : Column Data Section Delimiter
~Well ------------------------------------------------------
STRT .F                   55.0 : START DEPTH
STOP .F                 9359.0 : STOP DEPTH
STEP .F                    0.5 : STEP
NULL .                -9999.25 : NULL VALUE
COMP .                         : COMPANY
WELL .                         : WELL
FLD  .                         : FIELD
LOC  .                         : LOCATION
PROV .                         : PROVINCE
CNTY .                         : COUNTY
STAT .                         : STATE
CTRY .                         : COUNTRY
SRVC .                         : SERVICE COMPANY
DATE .                         : DATE
UWI  .                         : UNIQUE WELL ID
API  .                         : API NUMBER
SLAT .WGS84 2.1460273341691973 : SURFACE LATITUDE
SLON .WGS84  5.948631642481004 : SURFACE LONGITUDE
DATUM.F                    nan : DEPTH DATUM ELEV
~Curve Information -----------------------------------------
DEPT   .F     : 1 MEASURED DEPTH
SPR    .MV    : SPONTANEOUS POTENTIAL FROM RESISTIVITY LOG
AHT10  .OHMM  : ARRAY INDUCTION TWO FOOT RESISTIVITY A10
AHT30  .OHMM  : ARRAY INDUCTION TWO FOOT RESISTIVITY A30
AHT90  .OHMM  : ARRAY INDUCTION TWO FOOT RESISTIVITY A90
GR_EDTC.GAPI  : GAMMA RAY
TNPH_LS.DEC   : THERMAL NEUTRON POROSITY [LIMESTONE]
HCALD  .M     : HRCC CALIPER CALIBRATED FROM DENSITY LOG
HDRA   .G/C3  : HRDD SPINE AND RIBS DENSITY CORRECTION
PEFZ   .B/E   : HRDD STANDARD RESOLUTION FORMATION PHOTOELECTRIC FACTOR
DPHZ_LS.DEC   : HGRD STANDARD RESOLUTION DENSITY POROSITY
RHOZ   .G/C3  : HRDD STANDARD RESOLUTION FORMATION DENSITY
DTCO   .US/F  : DELTA-T COMPRESSIONAL
DTSM   .US/F  : DELTA-T SHEAR
~Params ----------------------------------------------------
~Other -----------------------------------------------------
~ASCII -----------------------------------------------------
# ...
 2187.00000   -9999.25   -9999.25   -9999.25   -9999.25   75.94030    0.20970   -9999.25   -9999.25   -9999.25   -9999.25   -9999.25   -9999.25   -9999.25
 2187.50000   -9999.25   -9999.25   -9999.25   -9999.25   79.64240    0.21880   -9999.25   -9999.25   -9999.25   -9999.25   -9999.25   -9999.25   -9999.25
 2188.00000 -148.83030   -9999.25   -9999.25   -9999.25   79.36430    0.22440    9.42670    0.02730    3.99360    0.19420    2.39680   -9999.25   -9999.25
 2188.50000 -143.33500   -9999.25   -9999.25   -9999.25   76.51970    0.22490    9.48520    0.06400    3.99980    0.18110    2.41510   -9999.25   -9999.25
 2189.00000 -135.32050   -9999.25   -9999.25   -9999.25   72.58980    0.22590    9.50840    0.13990    4.00600    0.16950    2.41510   -9999.25   -9999.25
 2189.50000 -127.57380   -9999.25   -9999.25   -9999.25   71.91220    0.22820    9.54540    0.21020    4.00660    0.17820    2.39490   -9999.25   -9999.25
 2190.00000 -121.54450    9.05540    8.14620    7.68030   74.13350    0.23380    9.80450    0.19480    3.86080    0.20020    2.37450   -9999.25   -9999.25
 2190.50000 -117.73120    9.05220    8.14990    7.55850   77.05280    0.23710    9.96930    0.16170    3.54690    0.20750    2.35840   -9999.25   -9999.25
 2191.00000 -116.46950    9.04910    8.15130    7.33750   77.85930    0.23980   10.15160    0.12860    3.24100    0.20910    2.35650   -9999.25   -9999.25
 2191.50000 -115.22980    9.04590    8.10700    7.02340   78.94210    0.23840   10.32440    0.09550    2.96130    0.20100    2.36690   -9999.25   -9999.25
 2192.00000 -112.27470    9.04280    7.86550    6.64200   82.28450    0.22940   10.49170    0.07500    2.95530    0.18860    2.39790   -9999.25   -9999.25
 2192.50000 -108.77510    9.03960    7.63110    6.26170   82.80690    0.21710   10.58990    0.05710    2.94930    0.15190    2.45340   -9999.25   -9999.25
 2193.00000 -103.15230    8.87080    7.40370    5.90800   78.53190    0.19660   10.68340    0.03670    3.02520    0.10330    2.52790   -9999.25   -9999.25
 2193.50000  -97.06860    8.66570    7.36270    5.66430   72.41440    0.17610   10.77690    0.01260    3.14470    0.05680    2.60300   -9999.25   -9999.25
 2194.00000  -90.25300    8.33160    7.35350    5.55830   73.79660    0.16240   10.81860    0.00500    3.26160    0.03980    2.65700   -9999.25   -9999.25
 2194.50000  -83.81040    8.40680    7.65100    5.64570   76.23960    0.16420   10.82520   -0.00320    3.40470    0.02720    2.66370   -9999.25   -9999.25
 2195.00000  -79.91070    8.46510    8.04640    5.92390   75.35840    0.16960   10.79920   -0.00310    3.54440    0.02540    2.66570   -9999.25   -9999.25
 2195.50000  -76.02680    8.46510    8.11810    6.00630   74.18450    0.17670   10.77860   -0.00300    3.65020    0.04160    2.64450   -9999.25   -9999.25
 2196.00000  -72.79040    8.64310    7.97090    6.06400   72.12510    0.17930   10.73470    0.01440    3.75640    0.06760    2.59890   -9999.25   -9999.25
 2196.50000  -69.60940    8.32950    7.75510    6.04790   69.77020    0.18160   10.55550    0.06360    3.87290    0.08130    2.57350   -9999.25   -9999.25
 2197.00000  -65.91530    8.01850    7.54510    6.10500   69.35510    0.18390   10.33600    0.12190    4.00640    0.07350    2.58410   -9999.25   -9999.25
 2197.50000  -62.22120    7.19640    7.48670    6.46020   70.63530    0.18480   10.21080    0.13780    4.08610    0.03820    2.64310   -9999.25   -9999.25
 2198.00000  -62.00570    7.02890    8.23750    9.22060   69.60240    0.17040   10.10550    0.12140    4.11590    0.00220    2.71360   -9999.25   -9999.25
 2198.50000  -61.79940   10.83090   12.14340   13.99860   59.95350    0.12840    9.96150    0.08200    4.14580   -0.04890    2.80710   -9999.25   -9999.25
 2199.00000  -62.02150   16.05490   17.92300   21.25250   47.11090    0.08780    9.81750    0.04900    4.40540   -0.07750    2.86260   -9999.25   -9999.25
 2199.50000  -62.85930   18.47890   21.23390   25.28170   39.07090    0.05840    9.67340    0.01500    4.51550   -0.10600    2.89500   -9999.25   -9999.25
 2200.00000  -63.69320   12.52960   15.01480   18.05960   43.64480    0.06440    9.63730    0.01230    4.46490   -0.07050    2.88440   -9999.25   -9999.25
 2200.50000  -64.52720    9.11360   10.61910   11.99330   53.22010    0.08200    9.64430    0.01110    4.31430   -0.03220    2.74730   -9999.25   -9999.25
 2201.00000  -65.39100    8.98250    9.30470   10.01590   58.72410    0.10180    9.65470    0.01100    4.14760   -0.02010    2.74650   -9999.25   -9999.25
 2201.50000  -66.35760   11.75670   12.35080   15.00120   59.28090    0.09950    9.68860    0.00710    4.19190   -0.02940    2.76930   -9999.25   -9999.25
 2202.00000  -67.35400   14.40900   16.66050   20.07900   61.25350    0.09200    9.67380    0.00180    4.26760   -0.09910    2.81180   -9999.25   -9999.25
 2202.50000  -68.35050   12.67100   14.87160   17.15360   63.36900    0.08430    9.65620    0.00010    4.37330   -0.07010    2.81600   -9999.25   -9999.25
 2203.00000  -68.81480   13.79080   16.57230   18.40000   58.54200    0.07390    9.63140   -0.00160    4.48850   -0.04690    2.82060   -9999.25   -9999.25
 2203.50000  -69.07030   20.72630   25.86980   27.50720   45.66440    0.05500    9.60770   -0.00300    4.60260   -0.07630    2.85110   -9999.25   -9999.25
 2204.00000  -69.32630   34.36680   40.38350   53.33220   32.37110    0.03140    9.59500   -0.00420    4.92380   -0.10570    2.90660   -9999.25   -9999.25
 2204.50000  -69.60970   52.27720   59.84540  113.97960   22.22630    0.00780    9.56580   -0.00580    5.16950   -0.12670    2.94390   -9999.25   -9999.25
 2205.00000  -69.89580   60.99540   67.21010  109.03340   16.44370   -0.00210    9.55460   -0.00520    5.25590   -0.14350    2.95620   -9999.25   -9999.25
 2205.50000  -70.24460   39.00330   48.23620   61.86510   19.77590    0.00250    9.54350   -0.00310    5.13580   -0.14210    2.95760   -9999.25   -9999.25
 2206.00000  -70.49760   19.34370   23.95520   30.07500   29.64250    0.02450    9.53880   -0.00170    4.86840   -0.12080    2.89240   -9999.25   -9999.25
 2206.50000  -71.02270   14.48620   16.76130   20.52970   41.35200    0.04650    9.53740   -0.00100    4.62660   -0.07180    2.82870   -9999.25   -9999.25
 2207.00000  -71.90630   20.38950   22.56650   24.91960   48.55810    0.06160    9.53410   -0.00030    4.56200   -0.06620    2.82870   -9999.25   -9999.25
 2207.50000  -73.03000   29.46140   31.94720   34.97970   50.06470    0.06200    9.53970   -0.00190    4.67400   -0.07430    2.83930   -9999.25   -9999.25
 2208.00000  -73.80970   24.55000   27.13550   32.35450   54.80460    0.05890    9.56900   -0.00240    4.70120   -0.07850    2.84540   -9999.25   -9999.25
 2208.50000  -74.58940   12.76700   14.65210   18.55320   63.47020    0.07830    9.59060   -0.00080    4.64200   -0.05970    2.79100   -9999.25   -9999.25
 2209.00000  -75.25720    8.58420    9.44310   10.18020   77.24230    0.10820    9.60720    0.00080    4.37630   -0.01330    2.70190   -9999.25   -9999.25
 2209.50000  -75.57020    8.28580    8.65580    9.63780   76.78790    0.12910    9.61870    0.00120    4.17540    0.02340    2.66290   -9999.25   -9999.25
 2210.00000  -75.84120   10.77880   14.63900   19.26420   64.40960    0.10630    9.61990   -0.00020    4.09530    0.01790    2.66400   -9999.25   -9999.25
 2210.50000  -76.11220   22.69870   27.30680   34.55230   51.90480    0.07330    9.62100   -0.00220    4.26250   -0.03460    2.83750   -9999.25   -9999.25
 2211.00000  -76.38330   40.15110   43.42720   49.78990   34.19620    0.04030    9.62220   -0.00450    4.54420   -0.09370    2.88960   -9999.25   -9999.25
 2211.50000  -76.85070   30.94900   34.81870   42.88030   37.31860    0.02400    9.62330   -0.00620    4.57530   -0.12290    2.91950   -9999.25   -9999.25
 2212.00000  -77.57540   18.31070   21.29440   24.93410   50.99730    0.03250    9.62540   -0.00500    4.37720   -0.10000    2.86390   -9999.25   -9999.25
 2212.50000  -78.32430   12.22050   13.73830   14.43570   66.52830    0.05190    9.62810    0.00020    4.15110   -0.05410    2.77900   -9999.25   -9999.25
