~Version ---------------------------------------------------
VERS.   2.0 : CWLS log ASCII Standard -VERSION 2.0
WRAP.    NO : One line per depth step
DLM . SPACE : Column Data Section Delimiter
~Well ------------------------------------------------------
STRT .F                   55.0 : START DEPTH
STOP .F                 9359.0 : STOP DEPTH
STEP .F                    0.5 : STEP
NULL .                -9999.25 : NULL VALUE
COMP .                         : COMPANY
WELL .                         : WELL
FLD  .                         : FIELD
LOC  .                         : LOCATION
PROV .                         : PROVINCE
CNTY .                         : COUNTY
STAT .                         : STATE
CTRY .                         : COUNTRY
SRVC .                         : SERVICE COMPANY
DATE .                         : DATE
UWI  .                         : UNIQUE WELL ID
API  .                         : API NUMBER
SLAT .WGS84 2.1460273341691973 : SURFACE LATITUDE
SLON .WGS84  5.948631642481004 : SURFACE LONGITUDE
DATUM.F                    nan : DEPTH DATUM ELEV
~Curve Information -----------------------------------------
DEPT   .F     : 1 MEASURED DEPTH
SPR    .MV    : SPONTANEOUS POTENTIAL FROM RESISTIVITY LOG
AHT10  .OHMM  : ARRAY INDUCTION TWO FOOT RESISTIVITY A10
AHT30  .OHMM  : ARRAY INDUCTION TWO FOOT RESISTIVITY A30
AHT90  .OHMM  : ARRAY INDUCTION TWO FOOT RESISTIVITY A90
GR_EDTC.GAPI  : GAMMA RAY
TNPH_LS.DEC   : THERMAL NEUTRON POROSITY [LIMESTONE]
HCALD  .M     : HRCC CALIPER CALIBRATED FROM DENSITY LOG
HDRA   .G/C3  : HRDD SPINE AND RIBS DENSITY CORRECTION
PEFZ   .B/E   : HRDD STANDARD RESOLUTION FORMATION PHOTOELECTRIC FACTOR
DPHZ_LS.DEC   : HGRD STANDARD RESOLUTION DENSITY POROSITY
RHOZ   .G/C3  : HRDD STANDARD RESOLUTION FORMATION DENSITY
DTCO   .US/F  : DELTA-T COMPRESSIONAL
DTSM   .US/F  : DELTA-T SHEAR
~Params ----------------------------------------------------
~Other -----------------------------------------------------
~ASCII -----------------------------------------------------
# ...
 6009.00000 -103.02970   38.59670   41.73170   43.89640   46.89180    0.09650    8.15130   -0.00290    4.19900    0.04010    2.64830   62.76670  110.20530
 6009.50000 -103.44370   38.59020   41.07030   43.18700   47.25890    0.09540    8.15090   -0.00480    4.30300    0.04440    2.63760   62.18700  109.51260
 6010.00000 -103.50420   40.33100   42.76750   44.63120   46.98100    0.09450    8.13650   -0.00530    4.35520    0.04100    2.63780   61.47340  108.99670
 6010.50000 -103.54430   41.58680   45.03580   47.21690   45.90210    0.09330    8.12330   -0.00460    4.31060    0.03050    2.65730   60.73230  108.81400
 6011.00000 -103.58440   42.78280   47.24530   49.39070   43.83140    0.09140    8.12900   -0.00220    4.20480    0.02050    2.67830   60.19450  108.45300
 6011.50000 -103.62450   43.76230   48.04420   50.42900   42.98460    0.09040    8.12890    0.00020    4.08450    0.01520    2.68410   59.74760  108.11420
 6012.00000 -103.66450   46.34590   48.85670   50.77530   43.33050    0.09030    8.13000    0.00020    3.97370    0.01530    2.68410   59.78090  107.96220
 6012.50000 -103.71660   46.65770   49.73050   51.01850   44.13040    0.09000    8.13140    0.00020    3.98110    0.01920    2.68080   60.27320  107.99190
 6013.00000 -103.86250   47.57420   51.03020   51.84820   44.80680    0.08810    8.12020    0.00020    3.98650    0.02680    2.67080   60.85280  107.92940
 6013.50000 -103.75190   49.30180   53.91750   55.41010   44.46910    0.08590    8.10650    0.00020    3.98910    0.03400    2.65250   61.03360  107.27020
 6014.00000 -103.52060   53.29770   57.61840   59.21690   42.57200    0.08370    8.10380    0.00020    3.96930    0.03480    2.65200   61.01770  107.16560
 6014.50000 -103.31410   59.29360   64.09780   66.53740   38.21150    0.08020    8.10310    0.00020    3.96690    0.02890    2.65850   61.00780  107.30090
 6015.00000 -103.09870   65.60050   70.11040   75.24320   35.58350    0.07530    8.09810   -0.00050    3.99970    0.02470    2.66960   61.11000  107.45270
 6015.50000 -102.74820   66.19300   68.18190   74.41280   35.29650    0.07180    8.08820   -0.00140    4.02380    0.02260    2.67200   61.53960  107.66950
 6016.00000 -102.20890   61.75070   63.99450   68.91800   36.31200    0.07210    8.09170   -0.00220    4.06370    0.02290    2.67040   62.00060  108.36640
 6016.50000 -101.68090   58.90090   61.81620   64.87340   36.90580    0.07660    8.08460   -0.00270    4.08710    0.02420    2.66870   62.27540  109.42570
 6017.00000 -101.53870   57.18220   60.43020   63.03760   37.13860    0.07810    8.07820   -0.00250    4.11130    0.02500    2.66830   62.57700  109.88240
 6017.50000 -101.33560   53.76200   56.60290   59.45620   38.59420    0.07980    8.09000   -0.00100    4.08790    0.02140    2.67430   62.81530  110.33920
 6018.00000 -101.28050   49.16750   51.33260   54.39170   41.32380    0.08220    8.10040    0.00020    4.01800    0.01620    2.68250   62.71390  110.79590
 6018.50000 -101.19260   45.42420   47.79070   50.25180   43.57600    0.08630    8.10270   -0.00030    3.97590    0.01720    2.68250   62.61180  111.25260
 6019.00000 -101.10470   42.72250   45.43440   47.47090   44.65190    0.09050    8.10390   -0.00070    3.97480    0.02320    2.67270   62.73520  111.47230
 6019.50000 -101.01680   41.19530   44.48240   46.06900   45.39480    0.09410    8.10830   -0.00110    3.97360    0.02900    2.66300   62.86380  111.63420
 6020.00000 -101.02100   43.24620   45.37040   46.65630   45.21370    0.09500    8.11320   -0.00150    4.03160    0.03140    2.65810   62.92150  112.06200
 6020.50000 -101.24230   44.38380   46.38660   47.25210   44.26670    0.09550    8.12000   -0.00190    4.07050    0.03160    2.65580   63.00700  112.47040
 6021.00000 -101.46350   43.71840   46.08440   47.28210   42.91960    0.09600    8.11980   -0.00370    4.08640    0.03110    2.65640   63.30180  112.79640
 6021.50000 -101.68480   42.43770   44.59020   45.72360   41.85060    0.09800    8.12050   -0.00500    4.03950    0.03150    2.65640   63.46340  112.99240
 6022.00000 -101.55320   41.53370   43.14450   44.21650   42.48990    0.10180    8.12460   -0.00330    3.95180    0.03130    2.65600   63.52280  113.05860
 6022.50000 -100.95510   41.69720   42.63080   43.60340   43.76850    0.10380    8.12520   -0.00110    3.95000    0.03190    2.65550   63.53170  113.06970
 6023.00000 -100.35700   43.02380   44.27210   45.76130   44.53220    0.10360    8.12590   -0.00200    4.03620    0.03580    2.64720   63.30280  113.13640
 6023.50000  -99.75890   45.13820   46.79420   48.50620   44.47200    0.10140    8.12580   -0.00280    4.09740    0.03980    2.64300   63.12990  112.89090
 6024.00000  -99.16090   45.10990   47.45740   48.53250   44.26260    0.09950    8.12640   -0.00330    4.08120    0.03960    2.64440   63.01540  112.45230
 6024.50000  -98.56280   42.59110   44.74390   46.02020   44.70230    0.09960    8.12730   -0.00310    4.05380    0.03770    2.64470   62.68700  112.10910
 6025.00000  -98.00620   40.97690   43.33930   44.55620   46.23540    0.09960    8.12690   -0.00250    4.05500    0.03750    2.64470   62.01630  112.06410
 6025.50000  -97.79820   42.19840   43.79750   45.01180   47.92750    0.09940    8.12660   -0.00350    4.04400    0.04030    2.64220   61.61580  112.06710
 6026.00000  -97.49300   42.34670   44.46820   45.57040   48.01490    0.09930    8.11610   -0.00420    4.03980    0.03820    2.65020   61.40640  112.06490
 6026.50000  -97.13620   42.43040   45.14920   46.04050   47.57900    0.10050    8.10550   -0.00490    4.04000    0.03010    2.65940   61.53310  112.06260
 6027.00000  -97.52080   42.27170   45.46440   46.31080   46.09970    0.10160    8.10490   -0.00480    4.04760    0.02670    2.66530   62.21500  112.03270
 6027.50000  -97.75100   42.36840   45.62420   46.63490   44.40620    0.10180    8.10300   -0.00650    4.06820    0.02720    2.66180   62.47000  111.83440
 6028.00000  -97.80010   43.61710   46.32460   47.40450   43.86590    0.10120    8.10330   -0.00610    4.08540    0.03410    2.65450   62.29380  111.72870
 6028.50000  -97.84910   44.51830   48.07950   49.11350   44.74140    0.10020    8.09710   -0.00500    4.06980    0.03850    2.64670   61.90890  111.69070
 6029.00000  -97.89820   46.20810   49.70300   51.19330   45.60260    0.09910    8.08210   -0.00540    4.04010    0.04230    2.64120   61.75240  111.75120
 6029.50000  -97.94730   47.25250   50.80430   52.71660   45.61290    0.09800    8.06750   -0.00470    4.00760    0.04140    2.64270   61.85550  111.23320
 6030.00000  -97.99630   51.76320   53.38860   54.99280   44.52440    0.09610    8.06500   -0.00390    4.02020    0.03910    2.64460   61.91300  110.71520
 6030.50000  -98.01660   55.43660   56.79020   60.15060   43.40100    0.09270    8.06700   -0.00350    4.06340    0.03440    2.64730   61.92840  110.29850
 6031.00000  -97.97850   55.65010   59.78510   63.18170   43.47750    0.08750    8.06270   -0.00380    4.13150    0.03560    2.64980   61.95370  110.44410
 6031.50000  -97.94030   50.02950   53.45140   57.11270   43.59610    0.08720    8.07040   -0.00440    4.17120    0.03640    2.64960   61.90770  110.48800
 6032.00000  -97.90220   46.65140   48.60320   51.21930   43.12570    0.08870    8.07090   -0.00470    4.21110    0.03560    2.65000   61.86390  110.60790
 6032.50000  -97.87420   47.63100   50.03700   51.61470   42.17580    0.08940    8.07730   -0.00380    4.17450    0.02800    2.66050   61.91310  111.00490
 6033.00000  -97.79120   50.27790   52.18120   52.98570   42.46120    0.08710    8.07960   -0.00350    4.14500    0.02470    2.66800   62.11590  111.42170
 6033.50000  -97.55980   52.83990   54.40860   54.85970   43.17540    0.08370    8.08220   -0.00360    4.11400    0.02770    2.66350   62.38180  111.46770
 6034.00000  -97.33770   52.44950   54.89380   56.10730   44.09360    0.08330    8.09080   -0.00350    4.10880    0.03240    2.65470   62.54810  111.28700
 6034.50000  -97.38020   49.44120   53.01310   55.21940   44.82870    0.08470    8.09090   -0.00250    4.06810    0.03630    2.65100   62.63290  110.83840
