~Version ---------------------------------------------------
VERS.   2.0 : CWLS log ASCII Standard -VERSION 2.0
WRAP.    NO : One line per depth step
DLM . SPACE : Column Data Section Delimiter
~Well ------------------------------------------------------
STRT .F                   55.0 : START DEPTH
STOP .F                 9359.0 : STOP DEPTH
STEP .F                    0.5 : STEP
NULL .                -9999.25 : NULL VALUE
COMP .                         : COMPANY
WELL .                         : WELL
FLD  .                         : FIELD
LOC  .                         : LOCATION
PROV .                         : PROVINCE
CNTY .                         : COUNTY
STAT .                         : STATE
CTRY .                         : COUNTRY
SRVC .                         : SERVICE COMPANY
DATE .                         : DATE
UWI  .                         : UNIQUE WELL ID
API  .                         : API NUMBER
SLAT .WGS84 2.1460273341691973 : SURFACE LATITUDE
SLON .WGS84  5.948631642481004 : SURFACE LONGITUDE
DATUM.F                    nan : DEPTH DATUM ELEV
~Curve Information -----------------------------------------
DEPT   .F     : 1 MEASURED DEPTH
SPR    .MV    : SPONTANEOUS POTENTIAL FROM RESISTIVITY LOG
AHT10  .OHMM  : ARRAY INDUCTION TWO FOOT RESISTIVITY A10
AHT30  .OHMM  : ARRAY INDUCTION TWO FOOT RESISTIVITY A30
AHT90  .OHMM  : ARRAY INDUCTION TWO FOOT RESISTIVITY A90
GR_EDTC.GAPI  : GAMMA RAY
TNPH_LS.DEC   : THERMAL NEUTRON POROSITY [LIMESTONE]
HCALD  .M     : HRCC CALIPER CALIBRATED FROM DENSITY LOG
HDRA   .G/C3  : HRDD SPINE AND RIBS DENSITY CORRECTION
PEFZ   .B/E   : HRDD STANDARD RESOLUTION FORMATION PHOTOELECTRIC FACTOR
DPHZ_LS.DEC   : HGRD STANDARD RESOLUTION DENSITY POROSITY
RHOZ   .G/C3  : HRDD STANDARD RESOLUTION FORMATION DENSITY
DTCO   .US/F  : DELTA-T COMPRESSIONAL
DTSM   .US/F  : DELTA-T SHEAR
~Params ----------------------------------------------------
~Other -----------------------------------------------------
~ASCII -----------------------------------------------------
# ...
 5047.00000 -133.72240  102.55090  141.42950  160.82780   58.89520    0.02490    8.28550   -0.00260    4.94700    0.01740    2.67830   -9999.25   -9999.25
 5047.50000 -134.52740  115.60890  173.16250  185.51750   60.88230    0.02260    8.27980   -0.00500    4.95660    0.01880    2.67880   -9999.25   -9999.25
 5048.00000 -135.97860  130.91670  192.48860  205.72970   63.13540    0.02030    8.27450   -0.00540    4.94660    0.01490    2.68310   -9999.25   -9999.25
 5048.50000 -138.41570  145.33610  201.44260  214.21970   61.91890    0.01870    8.28120   -0.00570    4.94400    0.01250    2.68940   -9999.25   -9999.25
 5049.00000 -142.20730  152.12800  187.59590  190.36370   56.61830    0.01870    8.29080   -0.00470    4.94140    0.00850    2.69350   -9999.25   -9999.25
 5049.50000 -146.36420  155.57300  180.26590  203.49460   50.53860    0.02010    8.29590   -0.00380    4.93870    0.00930    2.69350   -9999.25   -9999.25
 5050.00000 -150.52110  144.66360  149.61590  187.51510   47.15470    0.02360    8.31330   -0.00250    4.93610    0.01350    2.68740   -9999.25   -9999.25
 5050.50000 -152.86220   89.90630  104.15200  120.12010   44.54160    0.02970    8.32650   -0.00130    4.94400    0.02580    2.66890   -9999.25   -9999.25
 5051.00000 -153.15900   59.93580   70.22260   76.94760   40.56320    0.03590    8.33290   -0.00170    4.95210    0.03710    2.64000   -9999.25   -9999.25
 5051.50000 -152.79070   40.98560   46.27620   51.98130   33.55210    0.04200    8.35540   -0.00300    4.96010    0.04960    2.62720   -9999.25   -9999.25
 5052.00000 -151.75080   33.68720   35.02270   38.18900   27.55010    0.04650    8.37890   -0.00220    4.96820    0.04840    2.62780   -9999.25   -9999.25
 5052.50000 -149.19660   30.12590   31.09690   32.29160   25.75260    0.04760    8.39300   -0.00120    4.97370    0.04360    2.63520   -9999.25   -9999.25
 5053.00000 -145.37120   32.17390   33.59070   35.57140   29.55980    0.04630    8.39430   -0.00130    4.96740    0.03900    2.64530   -9999.25   -9999.25
 5053.50000 -140.55330   39.87530   44.04280   48.85210   39.32990    0.04470    8.39290   -0.00240    4.85620    0.02830    2.66040   -9999.25   -9999.25
 5054.00000 -135.74870   45.33930   48.25240   51.65680   52.39100    0.04480    8.39340   -0.00350    4.74480    0.02420    2.66920   -9999.25   -9999.25
 5054.50000 -132.26430   38.79070   42.15130   44.26830   63.91300    0.04870    8.39610   -0.00420    4.63330    0.01870    2.67870   -9999.25   -9999.25
 5055.00000 -131.14040   30.74180   32.61560   34.40260   70.13430    0.05350    8.39880   -0.00360    4.47080    0.01490    2.68450   -9999.25   -9999.25
 5055.50000 -131.47720   29.23190   30.31460   31.24080   66.90910    0.05360    8.41370    0.00520    4.29230    0.01270    2.68660   -9999.25   -9999.25
 5056.00000 -132.97170   33.70580   35.68780   37.83150   60.56700    0.05560    8.44360    0.00950    4.32630    0.01540    2.68540   -9999.25   -9999.25
 5056.50000 -135.26820   39.46450   42.25890   45.40850   53.18180    0.05120    8.46970    0.00790    4.43030    0.01910    2.67910   -9999.25   -9999.25
 5057.00000 -138.63860   42.98840   46.89020   49.86120   48.23520    0.04530    8.46860    0.00630    4.59420    0.02150    2.67210   -9999.25   -9999.25
 5057.50000 -141.10600   40.35870   44.36250   46.73560   44.44440    0.04040    8.46340    0.00440    4.71440    0.02470    2.66440   -9999.25   -9999.25
 5058.00000 -143.10950   39.07110   42.20120   43.34170   41.63120    0.04110    8.44550    0.00250    4.75560    0.03020    2.65920   -9999.25   -9999.25
 5058.50000 -144.92330   39.95490   42.49720   43.96540   39.24980    0.04390    8.42950    0.00150    4.76330    0.03140    2.65720   -9999.25   -9999.25
 5059.00000 -145.40450   40.41090   44.83270   46.77270   36.03780    0.04680    8.41750    0.00130    4.71740    0.03190    2.65740   -9999.25   -9999.25
 5059.50000 -143.78790   44.40820   50.22360   52.69590   32.25940    0.04680    8.40620    0.00140    4.71210    0.02860    2.65970   -9999.25   -9999.25
 5060.00000 -138.81250   49.33060   56.64980   60.34560   29.29530    0.04250    8.40230    0.00290    4.75620    0.02530    2.66650   -9999.25   -9999.25
 5060.50000 -132.65230   53.56510   64.60810   68.96120   31.16180    0.04030    8.39620    0.00480    4.76530    0.02340    2.67360   -9999.25   -9999.25
 5061.00000 -127.57480   49.75960   65.31040   74.07780   41.32860    0.04120    8.40020    0.01420    4.74810    0.01920    2.67910   -9999.25   -9999.25
 5061.50000 -123.41170   43.66710   49.66180   54.73450   54.77310    0.04730    8.40430    0.02480    4.69370    0.01660    2.68300   -9999.25   -9999.25
 5062.00000 -121.91560   46.12200   54.97950   63.75010   65.05830    0.05310    8.36270    0.02700    4.67520    0.00770    2.69770   -9999.25   -9999.25
 5062.50000 -121.66470   80.25060   94.88530  110.29930   67.11890    0.04520    8.30730    0.02020    4.69440    0.00050    2.71390   -9999.25   -9999.25
 5063.00000 -122.58650  154.68390  162.28450  211.50430   62.07370    0.03250    8.28740    0.00840    4.77280   -0.00230    2.71880   -9999.25   -9999.25
 5063.50000 -123.73090  177.12110  258.57450  405.57000   55.11490    0.02050    8.26740    0.00470    4.86300   -0.00260    2.71030   -9999.25   -9999.25
 5064.00000 -124.36290  184.43940  346.59750  419.23660   50.46280    0.01340    8.26280   -0.00280    4.91670    0.00430    2.69630   -9999.25   -9999.25
 5064.50000 -124.74570  174.71050  273.00800  304.04800   48.33910    0.00960    8.25760   -0.00340    4.94570    0.00840    2.68830   -9999.25   -9999.25
 5065.00000 -124.08260  170.47940  228.00790  250.99050   47.15890    0.00930    8.24920   -0.00350    4.95540    0.01260    2.68840   -9999.25   -9999.25
 5065.50000 -123.45850  134.26980  159.04570  232.40550   45.07900    0.01300    8.24820   -0.00070    4.88450    0.00750    2.69820   -9999.25   -9999.25
 5066.00000 -122.84610   90.37560  100.71470  126.01760   41.89520    0.01720    8.25320    0.00040    4.78350    0.00260    2.70590   -9999.25   -9999.25
 5066.50000 -122.16500   60.12110   72.53410   82.11030   41.15370    0.02510    8.25230    0.00140    4.68780   -0.00070    2.71150   -9999.25   -9999.25
 5067.00000 -121.13570   53.70370   55.37540   62.99330   44.43320    0.03190    8.26080    0.00160    4.59840   -0.00360    2.71600   -9999.25   -9999.25
 5067.50000 -120.25500   50.33270   53.16730   59.41640   50.22180    0.03710    8.27090    0.00250    4.50410   -0.00840    2.73040   -9999.25   -9999.25
 5068.00000 -120.25150   51.85840   56.41420   62.87490   55.43380    0.03770    8.27450    0.00360    4.43820   -0.01540    2.73620   -9999.25   -9999.25
 5068.50000 -120.27760   64.37940   72.98310   79.43540   53.55080    0.03360    8.26420    0.00350    4.59360   -0.01360    2.72370   -9999.25   -9999.25
 5069.00000 -120.28260   93.21580  106.67670  119.53820   44.94630    0.02570    8.25280   -0.00160    4.71080   -0.00020    2.71280   -9999.25   -9999.25
 5069.50000 -120.12510  144.96140  171.12350  191.37950   36.49140    0.01720    8.24990   -0.00060    4.83160    0.00080    2.71280   -9999.25   -9999.25
 5070.00000 -119.29820  212.52020  230.83530  245.67360   32.99220    0.00960    8.24320    0.00090    4.83550   -0.00240    2.72690   -9999.25   -9999.25
 5070.50000 -118.06900  194.33610  219.51890  241.89180   36.58350    0.00760    8.23640    0.00240    4.82740   -0.01460    2.74100   -9999.25   -9999.25
 5071.00000 -116.83980  138.24460  188.36830  204.12290   41.43380    0.00850    8.23190    0.00380    4.84170   -0.01820    2.74240   -9999.25   -9999.25
 5071.50000 -115.82770  112.56470  156.74180  174.96260   44.49770    0.00960    8.23270    0.00360    4.83260   -0.02060    2.74250   -9999.25   -9999.25
 5072.00000 -115.50200   97.63920  116.24930  137.58070   45.78200    0.01210    8.23300    0.00070    4.81990   -0.01670    2.73610   -9999.25   -9999.25
 5072.50000 -114.86390   71.38370   84.68210   98.04650   46.79080    0.01480    8.23180   -0.00210    4.80550   -0.00770    2.72310   -9999.25   -9999.25
