~Version ---------------------------------------------------
VERS.   2.0 : CWLS log ASCII Standard -VERSION 2.0
WRAP.    NO : One line per depth step
DLM . SPACE : Column Data Section Delimiter
~Well ------------------------------------------------------
STRT .F                   55.0 : START DEPTH
STOP .F                 9359.0 : STOP DEPTH
STEP .F                    0.5 : STEP
NULL .                -9999.25 : NULL VALUE
COMP .                         : COMPANY
WELL .                         : WELL
FLD  .                         : FIELD
LOC  .                         : LOCATION
PROV .                         : PROVINCE
CNTY .                         : COUNTY
STAT .                         : STATE
CTRY .                         : COUNTRY
SRVC .                         : SERVICE COMPANY
DATE .                         : DATE
UWI  .                         : UNIQUE WELL ID
API  .                         : API NUMBER
SLAT .WGS84 2.1460273341691973 : SURFACE LATITUDE
SLON .WGS84  5.948631642481004 : SURFACE LONGITUDE
DATUM.F                    nan : DEPTH DATUM ELEV
~Curve Information -----------------------------------------
DEPT   .F     : 1 MEASURED DEPTH
SPR    .MV    : SPONTANEOUS POTENTIAL FROM RESISTIVITY LOG
AHT10  .OHMM  : ARRAY INDUCTION TWO FOOT RESISTIVITY A10
AHT30  .OHMM  : ARRAY INDUCTION TWO FOOT RESISTIVITY A30
AHT90  .OHMM  : ARRAY INDUCTION TWO FOOT RESISTIVITY A90
GR_EDTC.GAPI  : GAMMA RAY
TNPH_LS.DEC   : THERMAL NEUTRON POROSITY [LIMESTONE]
HCALD  .M     : HRCC CALIPER CALIBRATED FROM DENSITY LOG
HDRA   .G/C3  : HRDD SPINE AND RIBS DENSITY CORRECTION
PEFZ   .B/E   : HRDD STANDARD RESOLUTION FORMATION PHOTOELECTRIC FACTOR
DPHZ_LS.DEC   : HGRD STANDARD RESOLUTION DENSITY POROSITY
RHOZ   .G/C3  : HRDD STANDARD RESOLUTION FORMATION DENSITY
DTCO   .US/F  : DELTA-T COMPRESSIONAL
DTSM   .US/F  : DELTA-T SHEAR
~Params ----------------------------------------------------
~Other -----------------------------------------------------
~ASCII -----------------------------------------------------
# ...
 8869.00000   -9.89170   13.25940   12.34600   11.66530  125.92490    0.23430    7.86040   -0.00210    3.24200    0.07490    2.58810   89.10140  151.11850
 8869.50000   -9.87340   13.31270   12.99220   12.40240  133.26440    0.23350    7.85910   -0.00420    3.21430    0.09930    2.55250   88.87120  151.42640
 8870.00000  -10.06740   12.01190   11.49260   10.75730  137.39400    0.23100    7.86010   -0.00580    3.18660    0.11770    2.51700   88.25180  150.94890
 8870.50000  -10.29870   10.71200   10.20600    9.78140  137.81110    0.22190    7.86120   -0.00610    3.14670    0.11300    2.52650   87.27670  150.16470
 8871.00000  -10.87510   10.05790    9.71830    9.48990  134.78080    0.21230    7.86160   -0.00250    3.15120    0.09140    2.55620   86.45310  148.55990
 8871.50000  -11.37550   10.31100    9.84160    9.74870  131.94220    0.20770    7.86200   -0.00130    3.19390    0.07090    2.58590   85.84280  147.94780
 8872.00000  -11.52280   10.71770   10.28610   10.10750  129.59670    0.21530    7.86240   -0.00170    3.25190    0.05990    2.60610   85.32990  147.59560
 8872.50000  -11.13850   11.14050   10.75080   10.47950  127.22730    0.22820    7.86050   -0.00130    3.28000    0.06350    2.60610   85.06680  146.98420
 8873.00000  -10.38080   11.73620   11.34920   11.15660  124.85870    0.23870    7.85830   -0.00230    3.32070    0.06990    2.59460   84.99210  146.10660
 8873.50000   -9.62740   12.50840   12.23730   11.89280  122.65600    0.24020    7.84520   -0.00350    3.36160    0.07740    2.58020   84.91730  144.96460
 8874.00000   -8.94610   14.46540   13.77990   13.26100  120.81200    0.23250    7.85770   -0.00460    3.43150    0.08030    2.57330   84.96990  143.95610
 8874.50000   -8.26080   16.98950   15.78100   15.11730  119.65360    0.22410    7.84980   -0.00500    3.51540    0.08000    2.57250   85.19050  143.50260
 8875.00000   -7.59620   16.23420   15.73710   15.28330  120.14040    0.21670    7.84200   -0.00490    3.53140    0.07980    2.57340   85.69270  144.20150
 8875.50000   -7.14500   14.20140   13.70240   12.93960  121.95840    0.22240    7.83410   -0.00410    3.43620    0.07980    2.57390   86.30530  145.36810
 8876.00000   -7.03730   12.35330   12.14460   11.79890  125.60760    0.22850    7.83170   -0.00370    3.34120    0.07990    2.57340   86.80060  145.99260
 8876.50000   -7.03620   12.81710   12.50220   12.20660  127.72020    0.23470    7.83360   -0.00330    3.27210    0.08080    2.57160   87.39810  146.59690
 8877.00000   -7.03510   14.02360   13.76960   13.24300  128.76190    0.24170    7.83830   -0.00300    3.24450    0.08210    2.56860   88.02700  147.49870
 8877.50000   -7.03400   15.97930   15.16550   14.45850  130.66130    0.24360    7.82840   -0.00300    3.24790    0.08770    2.55950   88.88240  148.64750
 8878.00000   -7.02210   19.38240   17.61390   16.11610  134.92700    0.24590    7.82210   -0.00250    3.17390    0.08910    2.55830   89.98160  149.39770
 8878.50000   -7.07680   19.45260   18.83270   17.92280  139.05940    0.24850    7.82200   -0.00200    3.17840    0.08920    2.55760   91.04880  149.70980
 8879.00000   -7.18810   18.26530   17.31260   16.97830  142.88670    0.25240    7.82060   -0.00180    3.18530    0.08870    2.55540   91.46980  149.02240
 8879.50000   -7.29940   16.64830   15.89510   15.27030  145.68220    0.25810    7.81890   -0.00400    3.19530    0.09350    2.54690   91.50950  148.18750
 8880.00000   -7.41070   16.47170   16.15830   14.85630  147.26780    0.26560    7.81860   -0.00680    3.21160    0.10300    2.53570   90.74600  146.42270
 8880.50000   -7.52190   20.80820   19.46990   18.24770  150.01120    0.27030    7.81450   -0.00800    3.22370    0.11670    2.50690   90.32560  144.09570
 8881.00000   -7.81300   33.76340   28.78320   25.48740  154.73740    0.26930    7.80310   -0.00770    3.22280    0.13500    2.47970   89.27660  142.43090
 8881.50000   -8.11850   52.54280   45.14610   41.10320  159.96530    0.26720    7.79940   -0.00640    3.23080    0.14830    2.45630   88.16290  139.91180
 8882.00000   -8.22130   68.91310   66.46690   65.35290  161.76670    0.26540    7.79580   -0.00450    3.24580    0.15650    2.43320   86.80560  137.91570
 8882.50000   -8.21730   90.12450   96.68250  136.41500  154.10370    0.25950    7.79250   -0.00360    3.27040    0.16520    2.43010   85.64160  136.60400
 8883.00000   -8.21330   98.24460  114.38800  207.30050  145.36480    0.24220    7.79570   -0.00470    3.30540    0.16040    2.43690   84.78590  135.94000
 8883.50000   -8.20930   98.29000  124.89330  211.29130  140.94200    0.23200    7.78410   -0.00680    3.48070    0.15060    2.45120   84.30770  136.01620
 8884.00000   -8.34450   96.30580  146.55690  185.77790  142.43480    0.22510    7.79680   -0.00860    3.78770    0.13690    2.47750   84.26180  137.07340
 8884.50000   -8.76210   88.84540  143.00120  158.98670  149.88970    0.22400    7.80780   -0.00810    4.32620    0.12710    2.49390   85.16530  138.64610
 8885.00000   -8.60270   73.75010   92.67030   98.63090  157.37850    0.22660    7.81880   -0.00490    4.50370    0.11680    2.51140   86.65780  141.59400
 8885.50000   -8.44330   45.46610   54.74510   68.16930  161.73140    0.23230    7.81390   -0.00260    4.43370    0.11030    2.52240   88.02060  146.70860
 8886.00000   -8.21140   26.25260   32.54380   34.98160  161.61940    0.24170    7.82910   -0.00170    4.17060    0.10980    2.51990   89.75570  151.70520
 8886.50000   -7.54740   14.80130   19.51260   21.98100  158.60790    0.25010    7.85160   -0.00140    3.77660    0.11480    2.51580   91.52130  156.69430
 8887.00000   -6.88330   10.83240   12.60820   14.54660  153.97320    0.25450    7.85120    0.00540    3.44240    0.11140    2.51990   92.49770  161.79440
 8887.50000   -6.21930   12.22650   14.36930   15.79310  145.28260    0.25700    7.86690    0.02830    3.26820    0.10510    2.53160   92.10980  167.54030
 8888.00000   -7.68190    9.36750   10.90250   13.70410  133.50690    0.26670    7.89580    0.08070    3.32280    0.09950    2.53790   90.06090  170.01500
 8888.50000   -8.27760    5.62030    6.61230    8.30830  120.78920    0.28570    7.93310    0.12150    3.38930    0.10290    2.54170   88.39560  171.75830
 8889.00000   -9.06360    4.18660    4.38160    4.64800  118.83310    0.30380    8.23240    0.14310    3.44450    0.07550    2.57720   86.80330  170.89190
 8889.50000   -8.39840    3.72120    3.92060    4.24730  122.43860    0.30520    8.05660    0.10650    3.49970    0.06150    2.61170   86.27740  167.37140
 8890.00000   -6.50320    4.09730    4.41420    4.65520  125.70040    0.29570    7.90760    0.05860    3.56610    0.05430    2.61520   85.72890  162.19800
 8890.50000   -4.75700    5.01940    5.47660    5.70130  127.14780    0.26790    7.88950    0.00940    3.63610    0.06810    2.60410   84.63690  159.15390
 8891.00000   -3.62390    6.30440    6.81660    7.62360  127.67250    0.24730    7.87140   -0.00030    3.70570    0.06220    2.60040   84.69370  158.18070
 8891.50000   -2.63840    7.07410    7.47550    8.15210  129.27480    0.24380    7.84470    0.00270    3.69180    0.05480    2.61600   85.93500  158.33570
 8892.00000   -2.36010    6.48520    7.08670    7.64960  130.39620    0.25190    7.83430    0.00390    3.67440    0.05730    2.61310   87.15500  158.77560
 8892.50000   -2.41760    6.96930    7.19390    7.16240  130.76440    0.26140    7.82910    0.00460    3.66130    0.06390    2.60640   88.15160  159.19960
 8893.00000   -2.28190    7.81260    7.48640    7.13450  130.77820    0.26640    7.83710    0.00420    3.64760    0.06370    2.60170   88.57460  159.25240
 8893.50000   -2.10170    8.87540    7.77100    7.39460  130.83530    0.26510    7.84160    0.00160    3.63910    0.06300    2.60170   87.97170  159.01260
 8894.00000   -2.25700    8.07570    7.51550    6.81010  131.53410    0.25950    7.85330    0.00400    3.64140    0.06310    2.60250   86.53160  158.35640
 8894.50000   -3.02170    7.12950    6.35780    5.93300  132.18650    0.25490    7.86000    0.01900    3.66070    0.06300    2.60470   85.69470  157.78470
