~Version ---------------------------------------------------
VERS.   2.0 : CWLS log ASCII Standard -VERSION 2.0
WRAP.    NO : One line per depth step
DLM . SPACE : Column Data Section Delimiter
~Well ------------------------------------------------------
STRT .F                   55.0 : START DEPTH
STOP .F                 9359.0 : STOP DEPTH
STEP .F                    0.5 : STEP
NULL .                -9999.25 : NULL VALUE
COMP .                         : COMPANY
WELL .                         : WELL
FLD  .                         : FIELD
LOC  .                         : LOCATION
PROV .                         : PROVINCE
CNTY .                         : COUNTY
STAT .                         : STATE
CTRY .                         : COUNTRY
SRVC .                         : SERVICE COMPANY
DATE .                         : DATE
UWI  .                         : UNIQUE WELL ID
API  .                         : API NUMBER
SLAT .WGS84 2.1460273341691973 : SURFACE LATITUDE
SLON .WGS84  5.948631642481004 : SURFACE LONGITUDE
DATUM.F                    nan : DEPTH DATUM ELEV
~Curve Information -----------------------------------------
DEPT   .F     : 1 MEASURED DEPTH
SPR    .MV    : SPONTANEOUS POTENTIAL FROM RESISTIVITY LOG
AHT10  .OHMM  : ARRAY INDUCTION TWO FOOT RESISTIVITY A10
AHT30  .OHMM  : ARRAY INDUCTION TWO FOOT RESISTIVITY A30
AHT90  .OHMM  : ARRAY INDUCTION TWO FOOT RESISTIVITY A90
GR_EDTC.GAPI  : GAMMA RAY
TNPH_LS.DEC   : THERMAL NEUTRON POROSITY [LIMESTONE]
HCALD  .M     : HRCC CALIPER CALIBRATED FROM DENSITY LOG
HDRA   .G/C3  : HRDD SPINE AND RIBS DENSITY CORRECTION
PEFZ   .B/E   : HRDD STANDARD RESOLUTION FORMATION PHOTOELECTRIC FACTOR
DPHZ_LS.DEC   : HGRD STANDARD RESOLUTION DENSITY POROSITY
RHOZ   .G/C3  : HRDD STANDARD RESOLUTION FORMATION DENSITY
DTCO   .US/F  : DELTA-T COMPRESSIONAL
DTSM   .US/F  : DELTA-T SHEAR
~Params ----------------------------------------------------
~Other -----------------------------------------------------
~ASCII -----------------------------------------------------
# ...
 4579.00000 -117.58280    2.61560    2.70870    2.84250   53.32350    0.21830    8.65470   -0.00540    3.16990    0.04750    2.63220   -9999.25   -9999.25
 4579.50000 -120.03780    2.37230    2.38560    2.47010   53.66190    0.22750    8.66780   -0.00340    3.09140    0.04910    2.62610   -9999.25   -9999.25
 4580.00000 -121.56000    2.33660    2.33000    2.30150   52.60450    0.23400    8.68510   -0.00090    3.01430    0.04960    2.62560   -9999.25   -9999.25
 4580.50000 -124.06090    2.35690    2.31270    2.28340   50.09830    0.22990    8.69300    0.00100    3.01020    0.05030    2.62550   -9999.25   -9999.25
 4581.00000 -123.11420    2.48670    2.41320    2.37690   47.57440    0.21570    8.69320    0.00190    3.01710    0.04940    2.63000   -9999.25   -9999.25
 4581.50000 -121.32190    2.65350    2.52560    2.48740   46.64930    0.20460    8.69770    0.00150    3.03530    0.04560    2.63180   -9999.25   -9999.25
 4582.00000 -119.52960    2.83140    2.62930    2.53470   47.80380    0.20150    8.70210    0.00160    3.06640    0.04570    2.62330   -9999.25   -9999.25
 4582.50000 -121.27500    2.76050    2.60630    2.52220   51.99070    0.20680    8.70750   -0.00250    3.13960    0.05540    2.61330   -9999.25   -9999.25
 4583.00000 -125.83850    2.66570    2.54600    2.41910   56.49950    0.22340    8.72790   -0.00560    3.21270    0.06060    2.60650   -9999.25   -9999.25
 4583.50000 -131.23740    2.66980    2.59180    2.45680   58.51340    0.23800    8.76060   -0.00910    3.33060    0.06030    2.60920   -9999.25   -9999.25
 4584.00000 -133.40890    2.73890    2.64670    2.54900   54.14890    0.23200    8.78190   -0.00710    3.51410    0.05620    2.61870   -9999.25   -9999.25
 4584.50000 -133.69710    2.76620    2.66250    2.59840   46.92230    0.22220    8.81120   -0.00420    3.65170    0.05310    2.62820   -9999.25   -9999.25
 4585.00000 -131.95020    2.67220    2.51900    2.37800   44.71610    0.21750    8.83720    0.00620    3.55160    0.04470    2.63120   -9999.25   -9999.25
 4585.50000 -129.49210    2.56220    2.46760    2.38140   48.07210    0.22460    8.84760    0.01020    3.37930    0.04970    2.61480   -9999.25   -9999.25
 4586.00000 -128.74110    2.71820    2.63420    2.55430   52.99410    0.23810    8.86080    0.00710    3.37900    0.06370    2.59380   -9999.25   -9999.25
 4586.50000 -129.10830    3.21830    2.90850    2.77230   55.10810    0.24540    8.87440   -0.00090    3.44860    0.06960    2.60010   -9999.25   -9999.25
 4587.00000 -130.42860    4.28370    3.75240    3.61790   53.02990    0.23480    8.87330   -0.00710    3.59120    0.05180    2.63910   -9999.25   -9999.25
 4587.50000 -132.75220    4.33960    3.83660    3.62080   46.92620    0.21610    8.86590   -0.00550    3.58190    0.03070    2.65620   -9999.25   -9999.25
 4588.00000 -137.15200    3.55690    3.23410    2.90290   38.16350    0.21940    8.85840   -0.00320    3.49150    0.03550    2.64630   -9999.25   -9999.25
 4588.50000 -138.68950    3.03580    2.93090    2.82100   31.88470    0.22430    8.85920   -0.00080    3.39170    0.06290    2.60470   -9999.25   -9999.25
 4589.00000 -136.49510    3.48500    3.35500    3.19920   30.84280    0.21600    8.85520    0.00160    3.29230    0.08490    2.56780   -9999.25   -9999.25
 4589.50000 -133.44840    4.36400    3.90250    3.71150   34.35880    0.20340    8.82080    0.00340    3.24840    0.08310    2.57090   -9999.25   -9999.25
 4590.00000 -133.21650    4.69840    4.20230    3.91390   38.04490    0.20470    8.82650    0.00470    3.22710    0.07650    2.57880   -9999.25   -9999.25
 4590.50000 -133.59520    4.18790    3.72130    3.43980   39.92390    0.20950    8.88550    0.00540    3.19470    0.07640    2.56560   -9999.25   -9999.25
 4591.00000 -130.93010    3.50760    3.02010    2.79000   42.40130    0.21370    8.92760    0.00420    3.18440    0.09000    2.55570   -9999.25   -9999.25
 4591.50000 -127.70600    2.96380    2.59180    2.33330   46.21050    0.22130    8.94140    0.00410    3.16040    0.09070    2.55650   -9999.25   -9999.25
 4592.00000 -125.27070    2.52410    2.22420    2.07160   49.33020    0.23430    8.95520    0.00270    3.09410    0.08620    2.56290   -9999.25   -9999.25
 4592.50000 -123.20620    2.61420    2.12760    2.03940   50.76410    0.24000    8.96900    0.00070    3.02140    0.07540    2.57660   -9999.25   -9999.25
 4593.00000 -121.74660    2.82630    2.02070    1.86270   53.33510    0.23640    8.98280   -0.00290    2.94870    0.07130    2.59270   -9999.25   -9999.25
 4593.50000 -124.31400    2.32350    1.78920    1.60620   57.72120    0.23170    9.01240   -0.00420    2.92240    0.07070    2.58840   -9999.25   -9999.25
 4594.00000 -126.80570    1.86590    1.58450    1.40640   61.18760    0.23670    9.07770   -0.00350    2.93470    0.08820    2.56710   -9999.25   -9999.25
 4594.50000 -133.81150    2.10080    1.58590    1.44860   57.95200    0.25370    9.05220   -0.00100    3.01490    0.09840    2.54730   -9999.25   -9999.25
 4595.00000 -140.32240    2.59240    1.84210    1.57050   49.66700    0.26490    8.98460    0.00120    3.09510    0.10220    2.54000   -9999.25   -9999.25
 4595.50000 -143.84670    3.11670    2.07450    1.69340   39.44010    0.25200    8.95790    0.00180    3.16050    0.09820    2.53930   -9999.25   -9999.25
 4596.00000 -144.96700    2.92970    1.94760    1.66700   32.94060    0.22220    8.93520    0.00060    3.22180    0.10050    2.53860   -9999.25   -9999.25
 4596.50000 -144.26080    2.24650    1.65750    1.44040   30.12370    0.22300    8.96130   -0.00050    3.24800    0.10490    2.53200   -9999.25   -9999.25
 4597.00000 -141.94040    1.81930    1.41050    1.27410   31.82420    0.23110    8.98750    0.00030    3.19910    0.10300    2.53450   -9999.25   -9999.25
 4597.50000 -138.35480    1.66420    1.36420    1.23660   35.11990    0.23940    8.98730    0.00250    3.11250    0.09870    2.54060   -9999.25   -9999.25
 4598.00000 -134.49820    1.77730    1.49560    1.41630   39.85230    0.24090    8.98030    0.00170    3.03200    0.09100    2.55190   -9999.25   -9999.25
 4598.50000 -131.01400    1.91460    1.64260    1.58460   45.09250    0.24040    8.97340   -0.00420    3.01360    0.09130    2.55250   -9999.25   -9999.25
 4599.00000 -130.98350    2.06080    1.73680    1.66220   47.65550    0.24560    8.96640   -0.00190    2.99520    0.09150    2.55310   -9999.25   -9999.25
 4599.50000 -131.29420    2.20580    1.91310    1.80850   47.63000    0.26210    8.95950    0.00060    2.98120    0.09160    2.55420   -9999.25   -9999.25
 4600.00000 -128.50300    2.36090    2.10510    1.98990   47.78390    0.26760    8.95250    0.00300    2.98080    0.08840    2.55810   -9999.25   -9999.25
 4600.50000 -125.42640    2.41580    2.11910    1.94340   48.28080    0.25990    8.94680    0.00520    2.99510    0.08410    2.56190   -9999.25   -9999.25
 4601.00000 -122.29050    2.39880    2.04190    1.95360   48.60720    0.25090    8.94580    0.00660    3.02470    0.08540    2.56540   -9999.25   -9999.25
 4601.50000 -124.03440    2.36510    2.06600    1.98520   47.91010    0.25350    8.97780    0.00420    3.06630    0.08470    2.56660   -9999.25   -9999.25
 4602.00000 -128.46680    2.23860    2.10250    1.90570   46.49970    0.26360    9.00520    0.00030    3.15700    0.08310    2.56810   -9999.25   -9999.25
 4602.50000 -131.80110    2.29480    2.13230    1.76740   45.37840    0.26970    9.02000   -0.00290    3.26040    0.08210    2.56820   -9999.25   -9999.25
 4603.00000 -134.36630    2.30740    2.03680    1.61120   43.51800    0.27340    9.03480   -0.00420    3.29030    0.08650    2.56550   -9999.25   -9999.25
 4603.50000 -135.27180    2.28850    1.92310    1.61410   40.14280    0.27400    9.05220   -0.00620    3.33850    0.09600    2.54700   -9999.25   -9999.25
 4604.00000 -134.52970    1.95340    1.72980    1.63630   38.79620    0.26360    9.06450   -0.00910    3.40100    0.10090    2.53810   -9999.25   -9999.25
 4604.50000 -133.97140    1.63200    1.50130    1.42240   39.47870    0.25330    9.09520   -0.01150    3.44620    0.10470    2.52930   -9999.25   -9999.25
