~Version ---------------------------------------------------
VERS.   2.0 : CWLS log ASCII Standard -VERSION 2.0
WRAP.    NO : One line per depth step
DLM . SPACE : Column Data Section Delimiter
~Well ------------------------------------------------------
STRT .F                   55.0 : START DEPTH
STOP .F                 9359.0 : STOP DEPTH
STEP .F                    0.5 : STEP
NULL .                -9999.25 : NULL VALUE
COMP .                         : COMPANY
WELL .                         : WELL
FLD  .                         : FIELD
LOC  .                         : LOCATION
PROV .                         : PROVINCE
CNTY .                         : COUNTY
STAT .                         : STATE
CTRY .                         : COUNTRY
SRVC .                         : SERVICE COMPANY
DATE .                         : DATE
UWI  .                         : UNIQUE WELL ID
API  .                         : API NUMBER
SLAT .WGS84 2.1460273341691973 : SURFACE LATITUDE
SLON .WGS84  5.948631642481004 : SURFACE LONGITUDE
DATUM.F                    nan : DEPTH DATUM ELEV
~Curve Information -----------------------------------------
DEPT   .F     : 1 MEASURED DEPTH
SPR    .MV    : SPONTANEOUS POTENTIAL FROM RESISTIVITY LOG
AHT10  .OHMM  : ARRAY INDUCTION TWO FOOT RESISTIVITY A10
AHT30  .OHMM  : ARRAY INDUCTION TWO FOOT RESISTIVITY A30
AHT90  .OHMM  : ARRAY INDUCTION TWO FOOT RESISTIVITY A90
GR_EDTC.GAPI  : GAMMA RAY
TNPH_LS.DEC   : THERMAL NEUTRON POROSITY [LIMESTONE]
HCALD  .M     : HRCC CALIPER CALIBRATED FROM DENSITY LOG
HDRA   .G/C3  : HRDD SPINE AND RIBS DENSITY CORRECTION
PEFZ   .B/E   : HRDD STANDARD RESOLUTION FORMATION PHOTOELECTRIC FACTOR
DPHZ_LS.DEC   : HGRD STANDARD RESOLUTION DENSITY POROSITY
RHOZ   .G/C3  : HRDD STANDARD RESOLUTION FORMATION DENSITY
DTCO   .US/F  : DELTA-T COMPRESSIONAL
DTSM   .US/F  : DELTA-T SHEAR
~Params ----------------------------------------------------
~Other -----------------------------------------------------
~ASCII -----------------------------------------------------
# ...
 2655.00000 -131.48660   14.94450   11.47040    7.69530   30.38550    0.20960    9.55930    0.02540    2.82390    0.10700    2.52250   -9999.25   -9999.25
 2655.50000 -129.27540   14.30430    9.79390    6.93310   32.47550    0.19730    9.56380    0.02500    2.83160    0.08510    2.55380   -9999.25   -9999.25
 2656.00000 -126.37900   15.24930    9.63310    6.26980   36.12060    0.18770    9.57290    0.01810    2.83950    0.08490    2.56690   -9999.25   -9999.25
 2656.50000 -123.22710   11.10610    9.22380    6.13530   39.40840    0.18220    9.60810    0.01360    2.85140    0.09140    2.56050   -9999.25   -9999.25
 2657.00000 -120.98790   13.48390   11.70000    8.91290   39.60970    0.17930    9.63540    0.01570    2.87620    0.10150    2.54030   -9999.25   -9999.25
 2657.50000 -118.94910   25.86500   16.72580   14.76120   37.33630    0.17250    9.63130    0.01960    2.91900    0.09320    2.53980   -9999.25   -9999.25
 2658.00000 -115.10310   36.90520   27.41950   13.71220   36.42110    0.16210    9.64690    0.02850    2.94610    0.07340    2.57490   -9999.25   -9999.25
 2658.50000 -111.07070   30.80010   26.24530   10.75750   40.36560    0.15030    9.72030    0.02630    2.95500    0.05490    2.61100   -9999.25   -9999.25
 2659.00000 -107.26350   21.49510   15.39970   10.99330   48.33470    0.14310    9.79360    0.01940    2.94550    0.04410    2.62860   -9999.25   -9999.25
 2659.50000 -103.88070   14.02130   11.14410    9.13890   58.22080    0.14340    9.88090    0.00320    2.94960    0.04220    2.63780   -9999.25   -9999.25
 2660.00000 -101.37740    9.60410    8.51520    7.84740   67.87310    0.15500    9.97680    0.00010    2.96860    0.04410    2.63220   -9999.25   -9999.25
 2660.50000 -102.30240    7.51890    6.97270    5.81950   75.96520    0.18370   10.04750    0.00800    2.97900    0.05350    2.62080   -9999.25   -9999.25
 2661.00000 -108.44760    9.04260    7.54440    6.75870   71.90090    0.20200   10.04640    0.01710    2.96060    0.05640    2.61410   -9999.25   -9999.25
 2661.50000 -114.25140   11.94950    9.75360    8.53060   62.49740    0.19480    9.98580    0.03860    2.94220    0.05420    2.61420   -9999.25   -9999.25
 2662.00000 -119.25350   15.79080   12.60980   10.40850   51.33900    0.18350    9.92520    0.05730    2.97860    0.04800    2.62510   -9999.25   -9999.25
 2662.50000 -124.31900   21.50400   16.30230   11.44920   41.82020    0.16440    9.86670    0.06740    2.99330    0.04240    2.63590   -9999.25   -9999.25
 2663.00000 -128.71590   30.23870   21.03730   14.17300   34.19390    0.15220    9.80120    0.06540    2.97340    0.04360    2.63850   -9999.25   -9999.25
 2663.50000 -131.03850   41.32520   27.09990   17.51600   29.25990    0.14850    9.76020    0.05030    2.93810    0.05680    2.62320   -9999.25   -9999.25
 2664.00000 -132.45880   56.47640   34.90980   21.64750   27.70600    0.15000    9.76250    0.04420    2.92130    0.06500    2.60560   -9999.25   -9999.25
 2664.50000 -133.31390   67.99650   38.22000   25.74350   27.61800    0.15890    9.75320    0.04410    2.90850    0.07290    2.59170   -9999.25   -9999.25
 2665.00000 -133.49460   67.07510   33.82790   23.89720   28.57610    0.16280    9.70720    0.04240    2.88580    0.07950    2.57580   -9999.25   -9999.25
 2665.50000 -133.44490   46.21450   25.01320   18.86680   30.93950    0.15970    9.62960    0.02690    2.86540    0.10030    2.55200   -9999.25   -9999.25
 2666.00000 -132.95570   23.66640   17.73530   13.72800   33.42670    0.15530    9.62600    0.01280    2.86750    0.10620    2.52920   -9999.25   -9999.25
 2666.50000 -131.73980   14.32770   12.57490   10.45250   34.53860    0.15210    9.70910    0.00710    2.86770    0.10160    2.53010   -9999.25   -9999.25
 2667.00000 -130.52390   10.41360    9.39400    8.15040   36.14310    0.15610    9.80180    0.00800    2.86790    0.09420    2.54450   -9999.25   -9999.25
 2667.50000 -129.94700    9.42290    9.08380    7.17430   40.39580    0.16540    9.85160    0.00970    2.88050    0.09040    2.55460   -9999.25   -9999.25
 2668.00000 -129.78020   11.06260    9.72800    7.86280   46.31620    0.17040    9.90150    0.01540    2.90130    0.08450    2.56220   -9999.25   -9999.25
 2668.50000 -129.76350   15.84190   12.01880    8.98380   48.63940    0.16430    9.92480    0.02280    2.92210    0.05820    2.59570   -9999.25   -9999.25
 2669.00000 -129.63510   22.88080   14.87040   10.33280   47.98550    0.15020    9.92480    0.03760    2.94190    0.03310    2.63510   -9999.25   -9999.25
 2669.50000 -129.26950   30.40430   18.39870   11.97950   46.73730    0.14290    9.92480    0.05600    2.95330    0.02160    2.66820   -9999.25   -9999.25
 2670.00000 -128.55670   30.52160   20.72440   13.18240   46.15120    0.14520    9.94040    0.06790    2.96580    0.02340    2.67290   -9999.25   -9999.25
 2670.50000 -127.84710   27.04940   19.78880   13.08570   45.86570    0.14880    9.97390    0.06680    2.99840    0.03700    2.66040   -9999.25   -9999.25
 2671.00000 -127.49770   22.51500   18.47680   12.77300   46.91620    0.15290   10.00740    0.06550    3.05410    0.04110    2.64780   -9999.25   -9999.25
 2671.50000 -127.84170   19.06560   17.30190   12.26850   48.42890    0.15520   10.06030    0.07100    3.13090    0.04310    2.63770   -9999.25   -9999.25
 2672.00000 -128.49540   19.50460   17.17710   11.66130   51.29340    0.15630   10.14930    0.07540    3.18700    0.04610    2.63300   -9999.25   -9999.25
 2672.50000 -129.47900   22.75180   19.39740   12.47500   53.91690    0.15640   10.14000    0.07540    3.21130    0.05560    2.62100   -9999.25   -9999.25
 2673.00000 -130.12030   27.31190   21.90470   13.34920   54.78890    0.15790   10.10540    0.06930    3.18740    0.05930    2.61190   -9999.25   -9999.25
 2673.50000 -129.96630   30.28900   22.51690   13.26960   53.03530    0.15910   10.06770    0.06240    3.08310    0.05690    2.61200   -9999.25   -9999.25
 2674.00000 -128.81810   30.37290   22.50120   13.30240   47.82920    0.15790   10.03010    0.06120    2.99500    0.04770    2.62670   -9999.25   -9999.25
 2674.50000 -127.34910   31.66830   23.42440   13.49070   42.73670    0.15450   10.00150    0.06100    2.96010    0.03710    2.64130   -9999.25   -9999.25
 2675.00000 -125.30230   34.82650   24.79660   13.81830   40.13020    0.15140   10.02350    0.06850    2.97950    0.03000    2.65510   -9999.25   -9999.25
 2675.50000 -123.70550   37.38170   26.23370   13.97920   40.97670    0.15680   10.10470    0.07610    3.03530    0.02980    2.65480   -9999.25   -9999.25
 2676.00000 -121.71770   34.80020   25.18000   13.70040   41.44920    0.16880   10.06890    0.07820    3.10540    0.03380    2.64640   -9999.25   -9999.25
 2676.50000 -119.38520   31.86860   24.53530   13.15810   40.93620    0.17760   10.00950    0.07600    3.11940    0.04620    2.63180   -9999.25   -9999.25
 2677.00000 -116.70720   28.42390   23.68710   12.58440   40.55030    0.17810    9.98360    0.05870    3.06570    0.05350    2.62090   -9999.25   -9999.25
 2677.50000 -113.80450   25.23000   19.78060   11.61930   41.96320    0.17660   10.01200    0.03140    2.99560    0.05350    2.61990   -9999.25   -9999.25
 2678.00000 -110.47040   16.27710   13.47560    9.80260   44.17850    0.17500   10.03840    0.01220    2.91660    0.04830    2.62200   -9999.25   -9999.25
 2678.50000 -106.75280   11.29110   10.16140    7.63310   46.50680    0.17400   10.07390    0.00380    2.88030    0.04090    2.63240   -9999.25   -9999.25
 2679.00000 -106.19840    9.34020    8.04750    6.34820   49.52880    0.17460   10.14010    0.00050    2.87690    0.03610    2.64700   -9999.25   -9999.25
 2679.50000 -108.04790   11.32250    8.35080    6.57810   52.16430    0.17580   10.19840    0.00010    2.87140    0.03320    2.65170   -9999.25   -9999.25
 2680.00000 -112.42180   15.77770   11.42390    8.78340   53.88920    0.17470   10.19620    0.00140    2.86120    0.03730    2.64840   -9999.25   -9999.25
 2680.50000 -115.67110   21.63660   15.62810   10.40960   54.80360    0.16810   10.18570    0.00310    2.84670    0.04130    2.64260   -9999.25   -9999.25
