~Version ---------------------------------------------------
VERS.   2.0 : CWLS log ASCII Standard -VERSION 2.0
WRAP.    NO : One line per depth step
DLM . SPACE : Column Data Section Delimiter
~Well ------------------------------------------------------
STRT .F                   55.0 : START DEPTH
STOP .F                 9359.0 : STOP DEPTH
STEP .F                    0.5 : STEP
NULL .                -9999.25 : NULL VALUE
COMP .                         : COMPANY
WELL .                         : WELL
FLD  .                         : FIELD
LOC  .                         : LOCATION
PROV .                         : PROVINCE
CNTY .                         : COUNTY
STAT .                         : STATE
CTRY .                         : COUNTRY
SRVC .                         : SERVICE COMPANY
DATE .                         : DATE
UWI  .                         : UNIQUE WELL ID
API  .                         : API NUMBER
SLAT .WGS84 2.1460273341691973 : SURFACE LATITUDE
SLON .WGS84  5.948631642481004 : SURFACE LONGITUDE
DATUM.F                    nan : DEPTH DATUM ELEV
~Curve Information -----------------------------------------
DEPT   .F     : 1 MEASURED DEPTH
SPR    .MV    : SPONTANEOUS POTENTIAL FROM RESISTIVITY LOG
AHT10  .OHMM  : ARRAY INDUCTION TWO FOOT RESISTIVITY A10
AHT30  .OHMM  : ARRAY INDUCTION TWO FOOT RESISTIVITY A30
AHT90  .OHMM  : ARRAY INDUCTION TWO FOOT RESISTIVITY A90
GR_EDTC.GAPI  : GAMMA RAY
TNPH_LS.DEC   : THERMAL NEUTRON POROSITY [LIMESTONE]
HCALD  .M     : HRCC CALIPER CALIBRATED FROM DENSITY LOG
HDRA   .G/C3  : HRDD SPINE AND RIBS DENSITY CORRECTION
PEFZ   .B/E   : HRDD STANDARD RESOLUTION FORMATION PHOTOELECTRIC FACTOR
DPHZ_LS.DEC   : HGRD STANDARD RESOLUTION DENSITY POROSITY
RHOZ   .G/C3  : HRDD STANDARD RESOLUTION FORMATION DENSITY
DTCO   .US/F  : DELTA-T COMPRESSIONAL
DTSM   .US/F  : DELTA-T SHEAR
~Params ----------------------------------------------------
~Other -----------------------------------------------------
~ASCII -----------------------------------------------------
# ...
 7439.00000  -39.60220   24.45310   26.01830   27.43360   65.77160    0.11540    8.15940   -0.00080    3.82300    0.01890    2.67760   69.85310  121.80070
 7439.50000  -39.77180   22.86160   23.80710   24.55930   65.95160    0.11560    8.17030   -0.00130    3.82930    0.02230    2.67150   70.43400  122.45170
 7440.00000  -40.31160   21.96330   22.50310   23.19380   66.01580    0.12010    8.19070   -0.00190    3.84300    0.02850    2.66250   70.72520  123.10280
 7440.50000  -41.16970   21.78970   22.15110   22.70980   66.76480    0.12530    8.21580   -0.00210    3.82110    0.03130    2.65990   70.69720  123.52200
 7441.00000  -41.61920   18.90550   20.37670   21.13290   70.28240    0.13180    8.24000   -0.00130    3.74420    0.02770    2.66850   70.47640  123.93460
 7441.50000  -41.90790   17.25020   18.16410   18.99020   74.31680    0.13780    8.27460    0.00120    3.66340    0.01900    2.68320   70.43660  124.49610
 7442.00000  -42.05190   18.24220   18.65170   19.35490   75.96570    0.13850    8.32080    0.00300    3.61580    0.01380    2.68440   70.55760  125.27770
 7442.50000  -41.99370   19.00040   19.57570   20.09540   72.97980    0.13600    8.36020    0.00320    3.61960    0.01580    2.67990   70.76250  125.90900
 7443.00000  -41.93550   17.90880   18.58160   18.95640   69.05060    0.13220    8.40080    0.00240    3.64490    0.02080    2.67480   71.00550  126.32670
 7443.50000  -41.93390   16.60080   17.11400   17.50990   66.91660    0.12930    8.41360    0.00180    3.68190    0.02520    2.66790   71.54780  127.37530
 7444.00000  -41.99920   17.10260   17.79320   18.41690   67.91740    0.12960    8.41240    0.00140    3.69860    0.02890    2.66170   72.07090  128.84660
 7444.50000  -41.70830   16.45330   16.79620   17.50990   70.04510    0.13120    8.41260    0.00000    3.70670    0.03050    2.65660   72.68020  130.24040
 7445.00000  -41.66260   14.63680   15.01900   15.65460   75.02310    0.13520    8.42340   -0.00160    3.70360    0.03420    2.65100   73.21010  131.74390
 7445.50000  -41.64980   13.79030   14.25990   14.45010   81.51120    0.13950    8.43820   -0.00250    3.68580    0.03820    2.64430   73.70810  132.57720
 7446.00000  -41.75410   13.40030   13.82850   14.17240   85.61220    0.14250    8.44830   -0.00290    3.65970    0.04020    2.64140   73.97790  133.30830
 7446.50000  -41.99810   13.21920   13.67010   14.03140   85.96130    0.14500    8.46210   -0.00230    3.61180    0.04050    2.64050   74.14940  133.66250
 7447.00000  -42.31350   13.18970   13.62640   13.89180   81.21290    0.14980    8.50230   -0.00030    3.57480    0.04130    2.63770   74.16730  133.63290
 7447.50000  -42.67470   13.18040   13.56950   13.75350   78.08320    0.15240    8.55360    0.00290    3.56210    0.04610    2.63270   73.99440  133.46820
 7448.00000  -42.92080   13.18040   13.51140   13.74630   77.13760    0.15140    8.58580    0.00970    3.57640    0.04210    2.63750   73.66170  133.21190
 7448.50000  -43.24330   13.18040   13.45870   13.74630   77.32480    0.14920    8.58040    0.01110    3.56890    0.03600    2.64850   73.41780  132.74340
 7449.00000  -43.56590   12.88260   13.17280   13.47220   77.07570    0.14800    8.55780    0.01100    3.55710    0.03290    2.64750   72.97240  132.04620
 7449.50000  -43.94220   12.57490   12.97340   13.39080   77.03370    0.14710    8.54490    0.00720    3.54140    0.03930    2.64690   72.65470  131.47790
 7450.00000  -44.31440   13.56270   14.00150   14.59350   77.22060    0.14630    8.52460    0.00290    3.58600    0.03740    2.65000   72.50080  131.04660
 7450.50000  -44.70740   14.69640   15.02100   15.90410   77.21330    0.14590    8.47620    0.00160    3.65990    0.03210    2.65640   72.34650  130.78920
 7451.00000  -45.12300   15.75890   16.18180   17.16700   76.55590    0.14460    8.42770    0.00110    3.71440    0.02720    2.66200   72.23790  130.63720
 7451.50000  -45.06650   16.06770   16.54750   17.08010   75.83940    0.14460    8.40010    0.00060    3.75260    0.02760    2.66270   72.31760  130.50010
 7452.00000  -45.10070   15.42230   15.85470   16.30930   76.00170    0.14720    8.39590    0.00010    3.68060    0.02840    2.66230   72.32470  130.36300
 7452.50000  -45.17870   14.80280   15.22900   16.03000   76.69800    0.15020    8.39400    0.00130    3.60590    0.02620    2.67100   72.26030  130.12550
 7453.00000  -45.22740   14.94800   15.37380   15.99850   76.53820    0.14840    8.40900    0.00150    3.60000    0.02120    2.67620   72.01340  129.87340
 7453.50000  -45.22750   15.07540   15.87990   16.44380   76.33410    0.14440    8.40880    0.00100    3.63030    0.01990    2.67620   71.72880  129.56830
 7454.00000  -45.22770   14.91970   15.87770   16.32800   77.46140    0.14400    8.38150   -0.00120    3.69380    0.02560    2.66680   71.56630  128.72850
 7454.50000  -45.22780   14.80480   15.51030   15.71400   78.74130    0.14420    8.35140   -0.00570    3.77510    0.03380    2.65320   71.44970  127.63220
 7455.00000  -45.15240   14.56350   15.15140   15.69840   77.87780    0.14530    8.33350   -0.00800    3.79920    0.04080    2.64670   71.14710  127.03200
 7455.50000  -44.53020   14.96620   15.27590   16.01510   75.86980    0.14220    8.31140   -0.00770    3.77760    0.03960    2.64610   70.61050  125.81170
 7456.00000  -44.04310   15.59710   16.39900   17.06840   74.65260    0.13900    8.28160   -0.00610    3.70400    0.03650    2.64760   69.72210  123.71290
 7456.50000  -43.63190   16.30090   17.60460   18.37600   73.55270    0.13600    8.24950   -0.00480    3.62470    0.03310    2.64870   68.08140  121.12990
 7457.00000  -43.90300   17.89430   19.05150   19.78380   72.21420    0.13240    8.22930   -0.00510    3.65720    0.03720    2.64580   65.59910  118.29180
 7457.50000  -44.01530   19.64240   20.89640   22.13370   69.04780    0.12650    8.15660   -0.00530    3.76520    0.04240    2.64150   63.15320  114.68290
 7458.00000  -44.05340   23.15620   24.83820   27.25870   64.50080    0.11890    8.09340   -0.00520    3.87330    0.03650    2.64120   61.71410  111.29980
 7458.50000  -44.30980   33.06230   36.10340   42.61790   55.48410    0.10260    7.97580   -0.00490    3.99550    0.01700    2.69020   61.22970  110.13430
 7459.00000  -44.36740   49.78180   53.77510   64.59550   47.56420    0.08550    7.91250   -0.00430    4.04810   -0.00820    2.72240   62.08540  110.15420
 7459.50000  -43.99200   51.64680   56.40940   62.40300   44.04020    0.06940    7.91220   -0.00390    4.05920   -0.00670    2.72280   63.69540  110.94590
 7460.00000  -43.53020   40.55970   45.17130   48.69570   45.93140    0.07100    7.89640   -0.00290    3.99040    0.00200    2.70240   65.27010  112.30480
 7460.50000  -43.09880   35.13550   37.65360   39.22060   49.01530    0.08110    7.87710   -0.00160    3.87740    0.01660    2.68580   66.21260  113.75800
 7461.00000  -43.20250   31.38000   33.13220   34.35580   51.12480    0.09190    7.84830   -0.00140    3.83400    0.02410    2.67530   66.24250  114.79980
 7461.50000  -43.13480   29.25280   30.59370   31.32780   52.54910    0.09830    7.81120   -0.00210    3.85760    0.02770    2.66530   65.75300  114.94980
 7462.00000  -42.84820   27.59140   28.64220   30.25790   53.38960    0.10030    7.78500   -0.00280    3.89960    0.02960    2.66230   65.11500  114.92450
 7462.50000  -42.72380   27.16090   29.22410   30.52320   53.47260    0.10050    7.77500   -0.00310    3.89080    0.02870    2.66300   64.46340  114.52430
 7463.00000  -42.45290   29.52010   30.82000   32.14750   52.26730    0.09870    7.76600   -0.00190    3.88200    0.02560    2.66520   64.05910  113.68810
 7463.50000  -42.40350   31.05030   32.50300   33.89550   50.85780    0.09500    7.76520   -0.00060    3.87170    0.02160    2.67130   63.88530  112.95350
 7464.00000  -42.38970   32.49150   34.27790   35.66600   50.98310    0.09280    7.74720    0.00100    3.84540    0.01900    2.67660   63.94860  112.85740
 7464.50000  -42.49600   34.52800   36.09720   37.43850   51.96970    0.09080    7.74040    0.00260    3.84580    0.01760    2.68060   64.24170  113.20820
