~Version ---------------------------------------------------
VERS.   2.0 : CWLS log ASCII Standard -VERSION 2.0
WRAP.    NO : One line per depth step
DLM . SPACE : Column Data Section Delimiter
~Well ------------------------------------------------------
STRT .F                   55.0 : START DEPTH
STOP .F                 9359.0 : STOP DEPTH
STEP .F                    0.5 : STEP
NULL .                -9999.25 : NULL VALUE
COMP .                         : COMPANY
WELL .                         : WELL
FLD  .                         : FIELD
LOC  .                         : LOCATION
PROV .                         : PROVINCE
CNTY .                         : COUNTY
STAT .                         : STATE
CTRY .                         : COUNTRY
SRVC .                         : SERVICE COMPANY
DATE .                         : DATE
UWI  .                         : UNIQUE WELL ID
API  .                         : API NUMBER
SLAT .WGS84 2.1460273341691973 : SURFACE LATITUDE
SLON .WGS84  5.948631642481004 : SURFACE LONGITUDE
DATUM.F                    nan : DEPTH DATUM ELEV
~Curve Information -----------------------------------------
DEPT   .F     : 1 MEASURED DEPTH
SPR    .MV    : SPONTANEOUS POTENTIAL FROM RESISTIVITY LOG
AHT10  .OHMM  : ARRAY INDUCTION TWO FOOT RESISTIVITY A10
AHT30  .OHMM  : ARRAY INDUCTION TWO FOOT RESISTIVITY A30
AHT90  .OHMM  : ARRAY INDUCTION TWO FOOT RESISTIVITY A90
GR_EDTC.GAPI  : GAMMA RAY
TNPH_LS.DEC   : THERMAL NEUTRON POROSITY [LIMESTONE]
HCALD  .M     : HRCC CALIPER CALIBRATED FROM DENSITY LOG
HDRA   .G/C3  : HRDD SPINE AND RIBS DENSITY CORRECTION
PEFZ   .B/E   : HRDD STANDARD RESOLUTION FORMATION PHOTOELECTRIC FACTOR
DPHZ_LS.DEC   : HGRD STANDARD RESOLUTION DENSITY POROSITY
RHOZ   .G/C3  : HRDD STANDARD RESOLUTION FORMATION DENSITY
DTCO   .US/F  : DELTA-T COMPRESSIONAL
DTSM   .US/F  : DELTA-T SHEAR
~Params ----------------------------------------------------
~Other -----------------------------------------------------
~ASCII -----------------------------------------------------
# ...
 8375.00000  -20.95880    6.57010    7.04940    7.23190  114.00480    0.19330    8.15860    0.01260    2.75520    0.06980    2.60680   78.04270  145.02470
 8375.50000  -20.39540    7.37230    7.53750    7.97120  124.72660    0.19980    8.16200    0.01600    2.83570    0.05070    2.62620   76.29140  144.51140
 8376.00000  -20.18040    7.88270    8.11990    8.66340  130.18670    0.19610    8.15270    0.01430    2.83230    0.04690    2.63270   75.13680  143.33080
 8376.50000  -20.17920    8.41290    8.79250    9.39860  127.39210    0.18690    8.14300    0.01160    2.81470    0.04120    2.63850   74.68020  142.28990
 8377.00000  -19.64550    8.97870    9.52080   10.16530  119.48060    0.17300    8.13760    0.00840    2.82260    0.04190    2.64140   75.41850  142.56910
 8377.50000  -19.07760    9.37640    9.74150    9.98520  109.79890    0.16260    8.10710    0.01370    2.90720    0.03240    2.66720   77.05690  143.94860
 8378.00000  -19.12610    8.77470    9.29390    8.91450  112.63770    0.15790    8.10520    0.01950    2.96940    0.02760    2.66250   78.09790  145.88660
 8378.50000  -19.20810    8.06200    8.29920    7.41890  115.91680    0.16690    8.11970    0.02540    3.01030    0.02630    2.65480   78.51580  147.54940
 8379.00000  -19.29010    7.65580    7.15390    6.77640  124.04910    0.18310    8.13420    0.02470    3.05120    0.03390    2.64860   78.38600  149.42640
 8379.50000  -19.33760    8.04230    7.28370    6.79050  127.15280    0.19540    8.14870    0.02030    3.14040    0.03710    2.64860   77.94800  149.57630
 8380.00000  -19.32270    7.96380    7.58090    6.94180  126.77100    0.19600    8.15830    0.02550    3.21910    0.02820    2.67970   77.46530  148.44940
 8380.50000  -19.31130    8.58290    8.16120    7.32580  125.97170    0.19430    8.16650    0.03150    3.24040    0.01620    2.67850   77.00090  147.16630
 8381.00000  -19.37060    9.38620    8.76060    7.70130  125.53470    0.19280    8.16940    0.03450    3.15940    0.01960    2.67020   76.76900  146.62270
 8381.50000  -19.79340    8.86530    8.45160    7.44300  125.37220    0.19960    8.19810    0.03820    3.04340    0.02810    2.66310   77.06990  146.77420
 8382.00000  -20.01950    8.36470    8.05450    7.15720  124.21380    0.20470    8.20380    0.04380    2.92780    0.02890    2.66230   78.03950  146.92580
 8382.50000  -19.52830    7.93600    7.67610    7.12830  120.10260    0.20790    8.19170    0.04950    2.88260    0.02830    2.65790   79.00970  147.23630
 8383.00000  -19.03710    7.80520    7.57810    7.12830  116.12860    0.20830    8.18730    0.04150    2.90840    0.03350    2.65570   79.44590  149.41260
 8383.50000  -18.54580    7.72700    7.47810    7.12440  119.49910    0.21520    8.19850    0.03260    2.99890    0.03150    2.66310   80.31950  151.66760
 8384.00000  -18.87760    7.50420    7.16190    7.02510  126.61910    0.22910    8.20880    0.03270    3.06380    0.02370    2.67530   81.12420  153.50120
 8384.50000  -19.43410    7.02500    6.76820    6.49860  132.88450    0.23910    8.21890    0.03330    3.12440    0.02160    2.67390   81.29540  154.82590
 8385.00000  -19.46090    6.96020    6.75280    6.51360  135.58850    0.23480    8.22060    0.02610    3.18440    0.02970    2.65100   81.10050  155.68500
 8385.50000  -19.63180    7.12850    6.94600    6.74200  134.57060    0.22550    8.21970    0.01490    3.16190    0.04050    2.63980   81.03320  156.29230
 8386.00000  -19.43850    7.24800    7.03530    6.83600  132.36270    0.21650    8.21890    0.01910    3.12240    0.04120    2.64470   81.31060  156.89960
 8386.50000  -18.81100    6.92730    6.80250    6.61680  127.88320    0.20960    8.22560    0.02900    3.09650    0.03280    2.65590   81.49210  157.47810
 8387.00000  -17.83500    6.60550    6.53170    6.40390  125.04850    0.21060    8.24440    0.03960    3.10300    0.02750    2.66600   81.29070  158.28850
 8387.50000  -17.60780    6.43740    6.32370    6.19280  125.28820    0.21770    8.30820    0.04340    3.12220    0.02390    2.67110   81.12930  158.47540
 8388.00000  -17.55850    6.34510    6.29190    6.09470  128.31810    0.22290    8.33280    0.04480    3.14360    0.02300    2.67480   81.06220  157.68960
 8388.50000  -17.75290    6.35250    6.26020    6.06200  131.02060    0.22670    8.35190    0.04210    3.14670    0.01930    2.67470   81.27360  157.21270
 8389.00000  -18.58650    6.36190    6.25150    6.04460  130.79020    0.22510    8.37090    0.03570    3.13440    0.02300    2.67070   82.22060  157.19600
 8389.50000  -19.12940    6.38300    6.23280    6.04300  127.60820    0.21980    8.36700    0.03220    3.10100    0.02900    2.66210   83.24420  157.85580
 8390.00000  -19.51520    6.65810    6.21080    6.04180  125.28140    0.21120    8.29520    0.02950    3.06750    0.03040    2.65500   84.47800  160.65230
 8390.50000  -20.40390    6.57450    6.11420    5.88300  124.15270    0.20100    8.19830    0.02390    3.02820    0.03260    2.64870   86.35500  163.87080
 8391.00000  -21.30240    6.01860    5.75860    5.53160  126.90010    0.19300    8.14580    0.01460    2.97670    0.04920    2.61820   86.84680  164.19410
 8391.50000  -22.31550    5.46030    5.33210    5.08970  130.14380    0.20230    8.09700    0.00690    2.92390    0.07260    2.58300   86.64520  160.45170
 8392.00000  -21.17580    6.24480    5.82910    5.45410  131.13990    0.22290    8.04630    0.00530    2.93560    0.08920    2.55620   85.04860  154.24250
 8392.50000  -19.28080    8.34480    7.35060    6.78730  129.35880    0.24020    7.98640    0.00520    2.95760    0.09080    2.55690   80.45110  147.46180
 8393.00000  -17.91560    8.04650    7.21640    6.69770  122.24210    0.23580    7.95590    0.00340    2.97070    0.08170    2.57870   74.47360  141.25350
 8393.50000  -17.98820    9.02710    8.17300    7.94630  109.82000    0.20220    7.93230    0.00180    2.94830    0.07200    2.60060   68.86810  126.16930
 8394.00000  -18.06070   13.12240   12.34090   10.62320   96.40900    0.16230    7.89080    0.00020    2.90690    0.06160    2.61390   64.82220  113.34590
 8394.50000  -18.10520   23.39820   21.12960   16.57010   80.40030    0.12250    7.83360   -0.00140    2.74780    0.05480    2.61180   63.04180  107.06780
 8395.00000  -18.08870   44.37150   38.06330   29.52340   71.93840    0.08350    7.81140   -0.00300    2.59310    0.06610    2.60080   63.11890  104.93930
 8395.50000  -17.80990   50.34750   57.53050  117.57010   73.01010    0.06880    7.79170   -0.00360    2.43980    0.07120    2.58950   63.34980  103.62690
 8396.00000  -17.70940   59.45030  102.92880  189.03160   75.31180    0.06520    7.78770   -0.00400    2.28780    0.07580    2.57920   63.29920  103.65500
 8396.50000  -17.63080   66.87690  104.45630  113.45090   76.44480    0.06560    7.79760   -0.00460    2.19860    0.08040    2.57200   63.74820  103.87890
 8397.00000  -17.67870   72.39140   95.77650  116.56040   75.43890    0.06550    7.78750   -0.00630    2.20830    0.08830    2.55390   64.44770  104.10270
 8397.50000  -17.34230   75.48840   93.61210  122.12120   74.50810    0.06490    7.78290   -0.00740    2.23670    0.09680    2.54860   64.56750  104.03660
 8398.00000  -16.73930   78.00270   98.55760  117.36170   74.03830    0.06410    7.78270   -0.00730    2.24660    0.09480    2.54960   64.45040  103.89500
 8398.50000  -16.01540   80.60070  104.09480  108.39280   73.95090    0.06320    7.78700   -0.00660    2.25430    0.09390    2.55060   64.27740  103.75290
 8399.00000  -15.71880   80.86930  105.79410  116.66380   73.39760    0.06280    7.78260   -0.00690    2.25710    0.09320    2.55180   63.94260  103.27600
 8399.50000  -15.42210   80.86930  106.87960  123.54470   72.62310    0.06210    7.77500   -0.00620    2.25890    0.09160    2.55330   63.76040  102.24180
 8400.00000  -15.12540   80.53560  107.55190  123.85340   71.02980    0.06090    7.76730   -0.00530    2.26080    0.08820    2.55690   63.58670  101.30050
 8400.50000  -14.82870   79.45160  106.85600  115.55580   68.87400    0.06050    7.76090   -0.00410    2.26110    0.08420    2.56130   63.36090  100.65250
