~Version ---------------------------------------------------
VERS.   2.0 : CWLS log ASCII Standard -VERSION 2.0
WRAP.    NO : One line per depth step
DLM . SPACE : Column Data Section Delimiter
~Well ------------------------------------------------------
STRT .F                   55.0 : START DEPTH
STOP .F                 9359.0 : STOP DEPTH
STEP .F                    0.5 : STEP
NULL .                -9999.25 : NULL VALUE
COMP .                         : COMPANY
WELL .                         : WELL
FLD  .                         : FIELD
LOC  .                         : LOCATION
PROV .                         : PROVINCE
CNTY .                         : COUNTY
STAT .                         : STATE
CTRY .                         : COUNTRY
SRVC .                         : SERVICE COMPANY
DATE .                         : DATE
UWI  .                         : UNIQUE WELL ID
API  .                         : API NUMBER
SLAT .WGS84 2.1460273341691973 : SURFACE LATITUDE
SLON .WGS84  5.948631642481004 : SURFACE LONGITUDE
DATUM.F                    nan : DEPTH DATUM ELEV
~Curve Information -----------------------------------------
DEPT   .F     : 1 MEASURED DEPTH
SPR    .MV    : SPONTANEOUS POTENTIAL FROM RESISTIVITY LOG
AHT10  .OHMM  : ARRAY INDUCTION TWO FOOT RESISTIVITY A10
AHT30  .OHMM  : ARRAY INDUCTION TWO FOOT RESISTIVITY A30
AHT90  .OHMM  : ARRAY INDUCTION TWO FOOT RESISTIVITY A90
GR_EDTC.GAPI  : GAMMA RAY
TNPH_LS.DEC   : THERMAL NEUTRON POROSITY [LIMESTONE]
HCALD  .M     : HRCC CALIPER CALIBRATED FROM DENSITY LOG
HDRA   .G/C3  : HRDD SPINE AND RIBS DENSITY CORRECTION
PEFZ   .B/E   : HRDD STANDARD RESOLUTION FORMATION PHOTOELECTRIC FACTOR
DPHZ_LS.DEC   : HGRD STANDARD RESOLUTION DENSITY POROSITY
RHOZ   .G/C3  : HRDD STANDARD RESOLUTION FORMATION DENSITY
DTCO   .US/F  : DELTA-T COMPRESSIONAL
DTSM   .US/F  : DELTA-T SHEAR
~Params ----------------------------------------------------
~Other -----------------------------------------------------
~ASCII -----------------------------------------------------
# ...
 3149.00000 -143.38960   42.01400   56.72420   35.35950   34.25100    0.22660    8.44640    0.00830    2.81090    0.15720    2.46360   -9999.25   -9999.25
 3149.50000 -143.67810   43.02890   49.67950   31.80450   42.01750    0.24230    8.46430    0.00330    2.81130    0.17590    2.41800   -9999.25   -9999.25
 3150.00000 -142.79220   39.78030   45.13390   28.83530   41.10490    0.25980    8.48210    0.00160    2.81410    0.16800    2.41320   -9999.25   -9999.25
 3150.50000 -141.03720   38.69290   41.93170   26.88120   38.89550    0.27900    8.50000    0.00160    2.81680    0.16140    2.41470   -9999.25   -9999.25
 3151.00000 -138.45090   39.95180   38.89930   24.21530   35.83510    0.29770    8.50310    0.00110    2.82410    0.16300    2.42420   -9999.25   -9999.25
 3151.50000 -134.32480   41.26350   37.30370   22.51890   36.17420    0.29760    8.50150   -0.00290    2.85760    0.16040    2.43400   -9999.25   -9999.25
 3152.00000 -128.81140   44.45420   42.92000   22.26240   39.84710    0.27740    8.49990   -0.00580    2.85450    0.13640    2.46370   -9999.25   -9999.25
 3152.50000 -121.91930   52.83390   53.56650   23.47250   49.69880    0.23350    8.49760   -0.00060    2.83220    0.11470    2.51510   -9999.25   -9999.25
 3153.00000 -114.45570   39.12760   36.58720   19.03290   69.56320    0.20220    8.49430    0.00480    2.87080    0.08520    2.56990   -9999.25   -9999.25
 3153.50000 -107.27840   24.94310   21.72220   13.99300  100.03150    0.17160    8.51160    0.00590    2.93250    0.06070    2.61630   -9999.25   -9999.25
 3154.00000 -100.33790   16.80570   14.89670   11.06790  144.14470    0.14650    8.55190   -0.00880    2.96990    0.03640    2.65340   -9999.25   -9999.25
 3154.50000  -94.10840   12.50270   11.18500    8.87070  178.63690    0.13580    8.64020   -0.01650    2.97320    0.02530    2.66960   -9999.25   -9999.25
 3155.00000  -91.27090   10.69740    9.66650    7.91650  216.18880    0.13840    8.73830   -0.01770    2.88990    0.02320    2.67180   -9999.25   -9999.25
 3155.50000  -91.28250   11.84340   10.50950    7.63070  248.06070    0.14800    8.83980   -0.00570    2.78820    0.03290    2.64730   -9999.25   -9999.25
 3156.00000  -97.16740   16.37870   13.66350    9.16650  248.01970    0.17640    8.91440    0.00000    2.72170    0.06240    2.60090   -9999.25   -9999.25
 3156.50000 -102.63930   23.66370   18.64400   11.57200  221.78030    0.21060    8.92550   -0.00170    2.70150    0.10460    2.51530   -9999.25   -9999.25
 3157.00000 -108.11130   29.29410   23.82890   13.37230  193.81530    0.22290    8.93230    0.00080    2.72420    0.14870    2.45690   -9999.25   -9999.25
 3157.50000 -112.40410   28.94100   23.22660   12.64980  144.73240    0.20820    8.94060    0.00450    2.71810    0.14760    2.45630   -9999.25   -9999.25
 3158.00000 -113.73730   28.52720   24.21120   13.12450  122.66100    0.19300    8.95210    0.01660    2.69660    0.13620    2.47140   -9999.25   -9999.25
 3158.50000 -113.73650   26.72380   18.39570   12.94700  105.23250    0.18000    8.96950    0.01760    2.66700    0.13160    2.48090   -9999.25   -9999.25
 3159.00000 -110.72400   16.68990   12.95790    8.96660  103.78950    0.17060    9.03180    0.01460    2.65070    0.13460    2.48080   -9999.25   -9999.25
 3159.50000 -106.78470    9.89140    8.50160    6.47470  108.73030    0.16280    9.09510    0.00770    2.65940    0.13610    2.48080   -9999.25   -9999.25
 3160.00000 -102.66990    6.76820    6.22100    5.37020  114.05050    0.15670    9.16700    0.00260    2.68480    0.12920    2.48660   -9999.25   -9999.25
 3160.50000  -98.46210    5.64230    5.59400    4.76440  113.01780    0.16700    9.26690    0.00230    2.72020    0.11350    2.51370   -9999.25   -9999.25
 3161.00000  -97.10600    5.50560    5.30170    4.50140  101.92230    0.19060    9.29910    0.00080    2.73220    0.09360    2.57120   -9999.25   -9999.25
 3161.50000  -96.78590    5.53280    5.31730    4.47460   86.64140    0.20130    9.32520   -0.00090    2.75070    0.07660    2.58740   -9999.25   -9999.25
 3162.00000  -96.63210    5.82750    5.63840    4.69090   75.52690    0.19030    9.33140   -0.00210    2.76540    0.06940    2.59020   -9999.25   -9999.25
 3162.50000  -96.56220    6.20930    5.92360    5.05580   69.77760    0.17550    9.32880   -0.00090    2.76900    0.07050    2.59340   -9999.25   -9999.25
 3163.00000  -97.64120    6.31630    5.87900    5.01890   68.99660    0.16370    9.28070    0.00150    2.76010    0.06910    2.59530   -9999.25   -9999.25
 3163.50000  -98.92840    6.42260    5.82830    4.92770   67.63110    0.16280    9.21650    0.01210    2.74950    0.06480    2.59090   -9999.25   -9999.25
 3164.00000 -100.21570    7.11660    6.81010    5.96850   60.65370    0.16640    9.15900    0.01530    2.73220    0.07400    2.56640   -9999.25   -9999.25
 3164.50000 -100.46110    9.34770    8.61560    7.39180   49.29130    0.17210    9.10950    0.01460    2.77770    0.09570    2.53020   -9999.25   -9999.25
 3165.00000  -99.52540   11.89410   10.33750    8.94130   39.88840    0.17430    9.06220    0.00370    2.81620    0.10630    2.54530   -9999.25   -9999.25
 3165.50000  -98.30500    9.34020    8.52370    7.94550   41.70920    0.17410    9.10650    0.00030    2.84780    0.09270    2.56780   -9999.25   -9999.25
 3166.00000  -98.47280    7.04370    6.79690    6.09310   48.11300    0.19000    9.18840    0.00160    2.88330    0.07540    2.59400   -9999.25   -9999.25
 3166.50000  -99.20200    5.45050    5.12810    4.61930   56.97350    0.21720    9.27030    0.00310    2.91890    0.06530    2.59610   -9999.25   -9999.25
 3167.00000  -99.45380    4.98070    4.81390    4.55820   64.00470    0.23280    9.30870    0.00470    2.95450    0.06840    2.59200   -9999.25   -9999.25
 3167.50000 -100.16500    6.14980    5.81980    5.47550   69.83160    0.23600    9.33750    0.01710    2.99050    0.07090    2.58580   -9999.25   -9999.25
 3168.00000 -102.81810    9.66820    8.94280    7.04940   71.85320    0.23980    9.31480    0.02460    3.01780    0.08210    2.57100   -9999.25   -9999.25
 3168.50000 -106.01410   16.58250   14.50450   10.67170   66.73730    0.25100    9.27180    0.03290    3.01780    0.09800    2.53800   -9999.25   -9999.25
 3169.00000 -113.59340   29.51380   25.55350   16.12580   55.05170    0.25100    9.04830    0.03460    2.99630    0.10990    2.52950   -9999.25   -9999.25
 3169.50000 -118.44870   40.47860   45.01920   22.17730   45.85670    0.23530    8.95920    0.04410    2.94620    0.10710    2.52380   -9999.25   -9999.25
 3170.00000 -120.77770   42.81320   56.89080   27.02400   39.77050    0.22560    8.94130    0.04530    2.89610    0.10970    2.51690   -9999.25   -9999.25
 3170.50000 -120.79600   43.11000   48.48800   25.25390   37.53580    0.21840    8.95500    0.04090    2.86860    0.11750    2.51120   -9999.25   -9999.25
 3171.00000 -119.77400   38.87750   45.07150   22.49430   37.80360    0.21570    8.97030    0.04220    2.87270    0.11680    2.51380   -9999.25   -9999.25
 3171.50000 -118.91470   34.72840   40.08210   19.79730   40.65400    0.20710    8.99150    0.04800    2.92370    0.10150    2.52600   -9999.25   -9999.25
 3172.00000 -115.57990   31.22830   33.30000   19.64800   45.91030    0.19000    9.01450    0.05780    3.05490    0.08110    2.57330   -9999.25   -9999.25
 3172.50000 -111.20490   25.97400   27.66550   17.30040   51.36420    0.18140    9.01200    0.06190    3.10430    0.06580    2.59620   -9999.25   -9999.25
 3173.00000 -107.31830   23.29410   24.37040   16.25410   56.53720    0.19180    9.00410    0.05850    3.14850    0.07150    2.56550   -9999.25   -9999.25
 3173.50000 -103.56170   25.90820   25.76190   17.46620   57.88950    0.20210    8.98280    0.04360    3.07790    0.10050    2.53480   -9999.25   -9999.25
 3174.00000  -98.49520   32.22010   26.02000   17.84720   54.86400    0.19300    8.95920    0.03390    2.98480    0.10300    2.52810   -9999.25   -9999.25
 3174.50000  -93.42070   21.06210   17.89590   15.93140   59.16830    0.17460    8.97860    0.03100    2.91010    0.07840    2.57240   -9999.25   -9999.25
