~Version ---------------------------------------------------
VERS.   2.0 : CWLS log ASCII Standard -VERSION 2.0
WRAP.    NO : One line per depth step
DLM . SPACE : Column Data Section Delimiter
~Well ------------------------------------------------------
STRT .F                   55.0 : START DEPTH
STOP .F                 9359.0 : STOP DEPTH
STEP .F                    0.5 : STEP
NULL .                -9999.25 : NULL VALUE
COMP .                         : COMPANY
WELL .                         : WELL
FLD  .                         : FIELD
LOC  .                         : LOCATION
PROV .                         : PROVINCE
CNTY .                         : COUNTY
STAT .                         : STATE
CTRY .                         : COUNTRY
SRVC .                         : SERVICE COMPANY
DATE .                         : DATE
UWI  .                         : UNIQUE WELL ID
API  .                         : API NUMBER
SLAT .WGS84 2.1460273341691973 : SURFACE LATITUDE
SLON .WGS84  5.948631642481004 : SURFACE LONGITUDE
DATUM.F                    nan : DEPTH DATUM ELEV
~Curve Information -----------------------------------------
DEPT   .F     : 1 MEASURED DEPTH
SPR    .MV    : SPONTANEOUS POTENTIAL FROM RESISTIVITY LOG
AHT10  .OHMM  : ARRAY INDUCTION TWO FOOT RESISTIVITY A10
AHT30  .OHMM  : ARRAY INDUCTION TWO FOOT RESISTIVITY A30
AHT90  .OHMM  : ARRAY INDUCTION TWO FOOT RESISTIVITY A90
GR_EDTC.GAPI  : GAMMA RAY
TNPH_LS.DEC   : THERMAL NEUTRON POROSITY [LIMESTONE]
HCALD  .M     : HRCC CALIPER CALIBRATED FROM DENSITY LOG
HDRA   .G/C3  : HRDD SPINE AND RIBS DENSITY CORRECTION
PEFZ   .B/E   : HRDD STANDARD RESOLUTION FORMATION PHOTOELECTRIC FACTOR
DPHZ_LS.DEC   : HGRD STANDARD RESOLUTION DENSITY POROSITY
RHOZ   .G/C3  : HRDD STANDARD RESOLUTION FORMATION DENSITY
DTCO   .US/F  : DELTA-T COMPRESSIONAL
DTSM   .US/F  : DELTA-T SHEAR
~Params ----------------------------------------------------
~Other -----------------------------------------------------
~ASCII -----------------------------------------------------
# ...
 6945.00000  -46.65940   32.13720   34.83960   37.65740   55.12510    0.12380    7.79500   -0.00230    4.03650    0.03970    2.64360   64.38170  115.16300
 6945.50000  -46.74760   42.17520   44.09850   49.71690   51.61380    0.11280    7.80220   -0.00060    4.08040    0.03280    2.65430   63.76160  114.26610
 6946.00000  -46.72440   46.78740   49.97720   53.21250   48.27720    0.10200    7.83710    0.00010    4.07880    0.03030    2.65830   63.69740  113.54380
 6946.50000  -46.70120   44.77600   48.43320   50.68190   46.05890    0.09460    7.87730    0.00010    4.07680    0.03050    2.65390   63.71890  112.77370
 6947.00000  -46.67800   44.84880   46.93680   48.18360   46.39620    0.09400    7.91680   -0.00020    4.07790    0.03430    2.64950   63.71310  111.81260
 6947.50000  -46.49130   43.01250   45.60950   46.60450   47.82920    0.09570    7.93050   -0.00120    4.10350    0.03880    2.64510   63.40370  110.66780
 6948.00000  -46.03110   43.01590   46.04440   48.69260   47.57500    0.09660    7.87780   -0.00220    4.13090    0.04070    2.64320   62.85600  109.73090
 6948.50000  -45.52630   52.57220   54.61840   56.51830   45.63700    0.09710    7.85920   -0.00160    4.12730    0.03880    2.64830   61.84940  109.00020
 6949.00000  -45.22630   61.74130   61.89180   65.04560   42.30350    0.09710    7.85890   -0.00020    4.07180    0.03180    2.65570   61.11420  108.67670
 6949.50000  -44.83910   67.89600   64.23460   64.06090   40.32400    0.09560    7.85520    0.00070    4.05660    0.02680    2.66310   61.28440  108.23770
 6950.00000  -44.18040   68.58860   65.96180   62.56340   38.90190    0.09320    7.83200    0.00050    4.08230    0.02340    2.67040   62.02940  108.50580
 6950.50000  -43.32600   67.46920   64.33930   60.02730   37.59460    0.09020    7.81900    0.00030    4.11330    0.02020    2.67520   62.70140  109.32340
 6951.00000  -42.40110   68.25450   64.23940   60.10760   37.69130    0.08830    7.82500    0.00010    4.13670    0.02130    2.67220   63.36870  110.32720
 6951.50000  -41.36480   65.95730   62.44140   56.01780   39.79950    0.09240    7.84400    0.00010    4.10290    0.02490    2.66720   63.89660  111.29060
 6952.00000  -40.30870   56.01780   48.75430   43.24930   43.98740    0.10470    7.85930    0.00010    4.05670    0.03160    2.65720   64.36070  112.19700
 6952.50000  -39.25250   44.67560   40.49670   38.68180   45.87440    0.11650    7.86430   -0.00020    4.02080    0.03750    2.64630   64.76560  113.21670
 6953.00000  -38.72350   41.27980   38.54260   36.52950   45.55010    0.11680    7.87720   -0.00050    4.03920    0.04140    2.64000   65.05160  114.75500
 6953.50000  -38.65430   42.38450   39.47460   38.25020   44.82780    0.10880    7.88970   -0.00090    4.07550    0.04290    2.63910   65.50980  116.14430
 6954.00000  -38.44090   41.79790   39.66130   38.00080   45.28510    0.10400    7.89610   -0.00070    4.05120    0.04070    2.63770   66.29670  117.11380
 6954.50000  -38.22610   39.58060   37.49830   36.09290   46.85660    0.10770    7.89840   -0.00120    4.03700    0.04580    2.63110   67.09230  117.73660
 6955.00000  -38.23480   37.38360   35.38900   34.21780   48.07380    0.11510    7.90850   -0.00360    4.02030    0.05510    2.61690   67.48780  118.17190
 6955.50000  -38.26260   36.37300   33.39840   32.14460   49.14810    0.12430    7.91610   -0.00470    3.99840    0.06430    2.60270   67.40700  118.03460
 6956.00000  -38.29740   36.16320   32.76110   32.02440   50.00440    0.12910    7.93390   -0.00340    3.92900    0.06490    2.60330   67.08440  117.11780
 6956.50000  -38.19340   35.61790   33.05110   32.25260   51.02370    0.13340    7.96020   -0.00020    3.83870    0.05550    2.61820   66.75680  116.03540
 6957.00000  -38.19180   35.13020   35.18500   35.06650   50.81520    0.13130    7.98170   -0.00030    3.81820    0.04750    2.63320   66.24290  115.26120
 6957.50000  -38.08750   35.08950   38.02940   39.17160   48.73070    0.12720    7.98170   -0.00050    3.85690    0.04100    2.63870   65.68920  114.84550
 6958.00000  -37.70460   37.99360   41.80020   43.12820   46.33800    0.12150    7.97850   -0.00060    3.89550    0.04150    2.63880   65.47610  114.41740
 6958.50000  -37.32170   40.81030   46.23080   47.45210   45.22200    0.11830    7.96810   -0.00050    3.90310    0.04270    2.63840   65.48670  114.23050
 6959.00000  -36.61800   38.82230   45.64380   48.32600   46.05510    0.12210    7.95210    0.00080    3.85530    0.04230    2.63790   65.86060  114.55470
 6959.50000  -36.07740   34.77660   42.11330   44.06950   47.56370    0.13170    7.96130    0.00050    3.84430    0.04440    2.63390   66.44660  115.06390
 6960.00000  -35.94640   32.67210   40.35710   42.53630   50.25310    0.14240    7.97040   -0.00060    3.85060    0.04890    2.62860   67.39360  115.87430
 6960.50000  -35.81530   32.65600   39.09060   42.00800   52.69100    0.14740    8.00360   -0.00110    3.86520    0.04710    2.62860   68.16010  117.21250
 6961.00000  -35.68430   32.43560   36.22350   40.59240   53.14930    0.14550    8.11050    0.00010    3.81630    0.04310    2.63720   68.60490  118.93570
 6961.50000  -35.56060   28.52800   31.62270   34.48790   52.77540    0.14570    8.12790    0.00130    3.76260    0.04000    2.64130   68.66090  120.90930
 6962.00000  -35.66990   25.10070   28.36220   30.08190   53.69160    0.14960    8.12370    0.00140    3.76060    0.04170    2.63960   68.44180  123.03100
 6962.50000  -35.99200   22.70460   25.43780   27.25880   56.33900    0.15180    8.10190    0.00090    3.80560    0.04440    2.63720   68.18200  124.16530
 6963.00000  -36.95420   21.30030   22.92960   24.70260   59.42570    0.15270    8.07640   -0.00040    3.84280    0.04390    2.63480   68.02850  124.38610
 6963.50000  -36.80480   21.02520   22.20300   23.02080   61.40750    0.15310    8.03090   -0.00170    3.87890    0.04500    2.63390   68.14460  123.53930
 6964.00000  -36.65540   20.79570   21.71440   22.30370   62.22270    0.15390    7.98060   -0.00210    3.93630    0.04420    2.63390   68.48380  123.40440
 6964.50000  -37.07160   20.83890   21.45800   21.92390   62.55040    0.15600    7.92860   -0.00040    3.88680    0.04050    2.63520   68.89330  123.72090
 6965.00000  -37.11570   20.60450   21.19050   21.46320   62.34410    0.15830    7.89430    0.00060    3.83090    0.03170    2.65170   69.15640  124.51110
 6965.50000  -37.11990   20.21790   20.75470   21.04240   62.95940    0.15730    7.88160    0.00100    3.78890    0.02520    2.66730   69.44460  125.49430
 6966.00000  -37.11760   20.21790   20.42980   20.86490   64.62340    0.15540    7.86810    0.00100    3.81330    0.02690    2.66480   69.92900  126.49730
 6966.50000  -37.11870   19.94370   20.19640   20.68900   65.82880    0.15310    7.88060   -0.00040    3.88660    0.03470    2.65780   70.42720  127.61050
 6967.00000  -37.04370   19.55370   19.87110   20.22930   66.10590    0.15220    7.92480   -0.00310    3.90930    0.03880    2.64800   70.79180  127.83430
 6967.50000  -36.70890   19.23420   19.47100   19.81880   65.31750    0.15450    7.96240   -0.00530    3.92840    0.04150    2.64180   70.86260  127.70130
 6968.00000  -36.14100   18.16100   18.58310   19.19050   64.96870    0.15680    7.99350   -0.00610    3.92730    0.04170    2.64140   70.83970  127.57730
 6968.50000  -35.67370   17.84340   18.16850   18.64580   65.47680    0.15730    8.01930   -0.00570    3.91560    0.03910    2.64330   70.75080  127.52030
 6969.00000  -35.60860   18.17050   18.54170   18.69300   66.76860    0.15250    8.04520   -0.00330    3.89880    0.03240    2.64960   70.53880  127.51260
 6969.50000  -35.68700   17.91630   18.23430   18.53240   67.94090    0.14880    8.06780   -0.00140    3.88850    0.02960    2.65950   70.34890  127.46020
 6970.00000  -35.70710   17.54600   17.85760   18.16050   66.61630    0.14530    8.07350   -0.00100    3.89260    0.03030    2.65950   70.28230  127.52630
 6970.50000  -35.75150   17.18080   17.48870   17.79610   64.23500    0.14220    8.06750   -0.00050    3.94310    0.03350    2.65510   70.23970  127.70420
