~Version ---------------------------------------------------
VERS.   2.0 : CWLS log ASCII Standard -VERSION 2.0
WRAP.    NO : One line per depth step
DLM . SPACE : Column Data Section Delimiter
~Well ------------------------------------------------------
STRT .F                   55.0 : START DEPTH
STOP .F                 9359.0 : STOP DEPTH
STEP .F                    0.5 : STEP
NULL .                -9999.25 : NULL VALUE
COMP .                         : COMPANY
WELL .                         : WELL
FLD  .                         : FIELD
LOC  .                         : LOCATION
PROV .                         : PROVINCE
CNTY .                         : COUNTY
STAT .                         : STATE
CTRY .                         : COUNTRY
SRVC .                         : SERVICE COMPANY
DATE .                         : DATE
UWI  .                         : UNIQUE WELL ID
API  .                         : API NUMBER
SLAT .WGS84 2.1460273341691973 : SURFACE LATITUDE
SLON .WGS84  5.948631642481004 : SURFACE LONGITUDE
DATUM.F                    nan : DEPTH DATUM ELEV
~Curve Information -----------------------------------------
DEPT   .F     : 1 MEASURED DEPTH
SPR    .MV    : SPONTANEOUS POTENTIAL FROM RESISTIVITY LOG
AHT10  .OHMM  : ARRAY INDUCTION TWO FOOT RESISTIVITY A10
AHT30  .OHMM  : ARRAY INDUCTION TWO FOOT RESISTIVITY A30
AHT90  .OHMM  : ARRAY INDUCTION TWO FOOT RESISTIVITY A90
GR_EDTC.GAPI  : GAMMA RAY
TNPH_LS.DEC   : THERMAL NEUTRON POROSITY [LIMESTONE]
HCALD  .M     : HRCC CALIPER CALIBRATED FROM DENSITY LOG
HDRA   .G/C3  : HRDD SPINE AND RIBS DENSITY CORRECTION
PEFZ   .B/E   : HRDD STANDARD RESOLUTION FORMATION PHOTOELECTRIC FACTOR
DPHZ_LS.DEC   : HGRD STANDARD RESOLUTION DENSITY POROSITY
RHOZ   .G/C3  : HRDD STANDARD RESOLUTION FORMATION DENSITY
DTCO   .US/F  : DELTA-T COMPRESSIONAL
DTSM   .US/F  : DELTA-T SHEAR
~Params ----------------------------------------------------
~Other -----------------------------------------------------
~ASCII -----------------------------------------------------
# ...
 5515.00000 -173.15250  260.55780  560.11040  408.32820   33.92630    0.00900    8.22530   -0.00190    4.62600    0.00670    2.69860   -9999.25   -9999.25
 5515.50000 -174.37100  234.60620  350.86360  357.15380   29.31380    0.01310    8.22950   -0.00190    4.58020    0.01500    2.68340   -9999.25   -9999.25
 5516.00000 -175.31640  185.66770  198.73190  261.24640   28.37750    0.01720    8.23760   -0.00200    4.70120    0.02020    2.67570   -9999.25   -9999.25
 5516.50000 -176.06170  126.62380  158.59920  177.31010   30.10230    0.02150    8.27940   -0.00140    4.86040    0.02310    2.67350   -9999.25   -9999.25
 5517.00000 -176.17910  108.49180  127.02860  138.91120   30.94400    0.02620    8.32130   -0.00320    4.87500    0.02360    2.67270   -9999.25   -9999.25
 5517.50000 -176.18030   98.73230  113.26920  121.91860   31.62710    0.03100    8.36220   -0.00290    4.81810    0.02130    2.67710   -9999.25   -9999.25
 5518.00000 -176.18140   90.82630  102.30320  107.53430   33.27990    0.03460    8.38390   -0.00260    4.76330    0.01830    2.67950   -9999.25   -9999.25
 5518.50000 -176.32170   83.46260   80.02380   89.27370   35.97120    0.03920    8.38670   -0.00210    4.69560    0.01710    2.68030   -9999.25   -9999.25
 5519.00000 -176.65650   75.03000   69.15500   69.87270   38.38290    0.04480    8.41190   -0.00150    4.62550    0.01780    2.67950   -9999.25   -9999.25
 5519.50000 -177.43910   67.15040   64.21160   57.67780   38.85220    0.05060    8.45020   -0.00130    4.58820    0.01930    2.67670   -9999.25   -9999.25
 5520.00000 -178.38100   64.94560   59.81780   53.52660   37.80350    0.05490    8.46540   -0.00140    4.59010    0.02670    2.66320   -9999.25   -9999.25
 5520.50000 -179.35990   63.46510   56.82470   49.67410   36.65440    0.05830    8.48100   -0.00140    4.65860    0.03490    2.65220   -9999.25   -9999.25
 5521.00000 -179.98150   62.41280   57.40620   49.99740   33.70200    0.06020    8.49080   -0.00160    4.73720    0.04750    2.63290   -9999.25   -9999.25
 5521.50000 -180.56050   63.48050   59.55740   51.48660   29.95120    0.05950    8.48930   -0.00170    4.78230    0.05300    2.62050   -9999.25   -9999.25
 5522.00000 -181.30030   63.23470   59.62570   52.26130   31.14510    0.05390    8.48870   -0.00140    4.79390    0.04750    2.62860   -9999.25   -9999.25
 5522.50000 -181.85650   87.61980   80.75800   64.61020   35.61300    0.04720    8.48090   -0.00090    4.78970    0.03280    2.64640   -9999.25   -9999.25
 5523.00000 -182.43270  135.11130  116.45310  110.11980   41.01660    0.04040    8.47300    0.00100    4.76190    0.02360    2.66620   -9999.25   -9999.25
 5523.50000 -183.01410  138.33550  167.92540  192.28320   39.82750    0.03620    8.46550    0.00240    4.65870    0.01740    2.67830   -9999.25   -9999.25
 5524.00000 -183.67150  132.62510  210.16730  195.45590   35.01370    0.03670    8.45880    0.00360    4.58740    0.01300    2.68750   -9999.25   -9999.25
 5524.50000 -184.74270  132.51890  236.03210  194.89760   29.97700    0.03820    8.45210    0.00480    4.52160    0.00690    2.69680   -9999.25   -9999.25
 5525.00000 -186.05730  139.04350  237.06060  208.55440   27.17130    0.03740    8.45780    0.00590    4.52760    0.00540    2.70200   -9999.25   -9999.25
 5525.50000 -186.97720  123.67460  196.16200  213.93100   27.08150    0.03560    8.47450    0.00150    4.62600    0.01510    2.69170   -9999.25   -9999.25
 5526.00000 -187.62330  108.70930  162.31940  184.55230   28.68010    0.03570    8.47880   -0.00240    4.71430    0.02650    2.67020   -9999.25   -9999.25
 5526.50000 -188.08280   96.94230  134.69250  148.62480   31.10320    0.03800    8.46730   -0.00670    4.80140    0.03490    2.65420   -9999.25   -9999.25
 5527.00000 -188.40170   88.25630  115.58010  129.08520   33.47870    0.04030    8.45480   -0.00610    4.76430    0.04040    2.64360   -9999.25   -9999.25
 5527.50000 -188.72550   81.27780  101.70790  108.27760   35.78970    0.04170    8.44240   -0.00500    4.72310    0.04000    2.64550   -9999.25   -9999.25
 5528.00000 -189.13790   78.80460  101.63170  105.65520   39.01120    0.04180    8.42990   -0.00470    4.69400    0.03450    2.65040   -9999.25   -9999.25
 5528.50000 -189.86040   95.64970  117.46610  127.42700   42.26730    0.04000    8.39770   -0.00400    4.73210    0.02680    2.65840   -9999.25   -9999.25
 5529.00000 -190.17750  114.81130  152.09300  164.16000   42.98320    0.03670    8.36110   -0.00340    4.78730    0.02230    2.67000   -9999.25   -9999.25
 5529.50000 -190.35470  146.45080  206.41110  225.78060   42.37990    0.03230    8.32630   -0.00280    4.76670    0.01590    2.68140   -9999.25   -9999.25
 5530.00000 -190.57600  174.39830  289.79120  314.75350   41.39780    0.02670    8.29810   -0.00460    4.76750    0.01390    2.68750   -9999.25   -9999.25
 5530.50000 -190.98030  213.74960  406.85320  453.60610   40.09140    0.02110    8.26980   -0.00490    4.77850    0.01070    2.69420   -9999.25   -9999.25
 5531.00000 -191.61960  260.73950  571.20230  664.75650   38.83570    0.01670    8.23870   -0.00500    4.84910    0.00850    2.69910   -9999.25   -9999.25
 5531.50000 -192.38600  313.86510  816.28020  880.30760   38.77680    0.01300    8.21920   -0.00400    4.95900    0.00810    2.70400   -9999.25   -9999.25
 5532.00000 -193.13110  336.41420 1182.19150 1000.10100   42.85010    0.01050    8.19880   -0.00160    5.04780    0.00180    2.70880   -9999.25   -9999.25
 5532.50000 -193.79510  364.16550 1506.64670 1256.97290   48.52430    0.00840    8.18130    0.00030    5.06740   -0.00120    2.71430   -9999.25   -9999.25
 5533.00000 -194.28860  366.78200 1548.87720 1148.76000   53.77210    0.00780    8.16030    0.00130    4.98040   -0.00300    2.71430   -9999.25   -9999.25
 5533.50000 -194.79130  358.68860 1261.49050  930.38870   52.32720    0.00730    8.13910   -0.00050    4.90780   -0.00160    2.71220   -9999.25   -9999.25
 5534.00000 -195.10840  302.00210 1022.31150  659.49570   46.76230    0.00780    8.11370   -0.00160    4.90370    0.00090    2.70860   -9999.25   -9999.25
 5534.50000 -195.21130  266.62150  771.47470  544.19400   41.75740    0.00840    8.09310   -0.00160    4.96560    0.00270    2.70460   -9999.25   -9999.25
 5535.00000 -194.92710  254.46720  601.98130  415.61480   40.30610    0.00900    8.10600    0.00230    5.01310    0.00530    2.70180   -9999.25   -9999.25
 5535.50000 -194.64290  236.18370  708.46700  448.31100   41.31860    0.00930    8.11070    0.00420    4.94630   -0.00100    2.71370   -9999.25   -9999.25
 5536.00000 -194.49510  259.46280  970.81580  523.88200   41.92670    0.00950    8.11160    0.00350    4.84310   -0.00810    2.72630   -9999.25   -9999.25
 5536.50000 -194.25100  282.48540 1106.34780  595.10630   42.51050    0.00980    8.11090    0.00310    4.76530   -0.01160    2.73300   -9999.25   -9999.25
 5537.00000 -193.82730  335.16640  905.40750  539.45780   43.57440    0.01010    8.11050    0.00330    4.78430   -0.00780    2.72650   -9999.25   -9999.25
 5537.50000 -193.33210  379.07720  926.05120  509.02730   45.96800    0.01080    8.11210    0.00320    4.81450   -0.00140    2.71500   -9999.25   -9999.25
 5538.00000 -192.63150  408.11350 1210.92100  796.65730   47.80270    0.01160    8.11160    0.00160    4.77640    0.00200    2.70790   -9999.25   -9999.25
 5538.50000 -192.21760  443.80870 1447.17900 1006.51500   46.90360    0.01300    8.11190   -0.00030    4.66860    0.00470    2.70300   -9999.25   -9999.25
 5539.00000 -191.75380  490.51270 1626.39580 1197.34460   43.45140    0.01460    8.11420   -0.00240    4.59040    0.00560    2.70020   -9999.25   -9999.25
 5539.50000 -190.99280  523.51490 1764.41060 1642.93370   41.33850    0.01500    8.12540   -0.00220    4.55020    0.00560    2.69590   -9999.25   -9999.25
 5540.00000 -189.91100  608.82430 1906.05800 1846.30240   46.46510    0.01410    8.13690   -0.00190    4.68460    0.01070    2.69120   -9999.25   -9999.25
 5540.50000 -188.74440  721.62480 1972.72630 2017.88260   51.84850    0.01150    8.14400   -0.00050    4.83260    0.01250    2.69120   -9999.25   -9999.25
