~Version ---------------------------------------------------
VERS.   2.0 : CWLS log ASCII Standard -VERSION 2.0
WRAP.    NO : One line per depth step
DLM . SPACE : Column Data Section Delimiter
~Well ------------------------------------------------------
STRT .F                   55.0 : START DEPTH
STOP .F                 9359.0 : STOP DEPTH
STEP .F                    0.5 : STEP
NULL .                -9999.25 : NULL VALUE
COMP .                         : COMPANY
WELL .                         : WELL
FLD  .                         : FIELD
LOC  .                         : LOCATION
PROV .                         : PROVINCE
CNTY .                         : COUNTY
STAT .                         : STATE
CTRY .                         : COUNTRY
SRVC .                         : SERVICE COMPANY
DATE .                         : DATE
UWI  .                         : UNIQUE WELL ID
API  .                         : API NUMBER
SLAT .WGS84 2.1460273341691973 : SURFACE LATITUDE
SLON .WGS84  5.948631642481004 : SURFACE LONGITUDE
DATUM.F                    nan : DEPTH DATUM ELEV
~Curve Information -----------------------------------------
DEPT   .F     : 1 MEASURED DEPTH
SPR    .MV    : SPONTANEOUS POTENTIAL FROM RESISTIVITY LOG
AHT10  .OHMM  : ARRAY INDUCTION TWO FOOT RESISTIVITY A10
AHT30  .OHMM  : ARRAY INDUCTION TWO FOOT RESISTIVITY A30
AHT90  .OHMM  : ARRAY INDUCTION TWO FOOT RESISTIVITY A90
GR_EDTC.GAPI  : GAMMA RAY
TNPH_LS.DEC   : THERMAL NEUTRON POROSITY [LIMESTONE]
HCALD  .M     : HRCC CALIPER CALIBRATED FROM DENSITY LOG
HDRA   .G/C3  : HRDD SPINE AND RIBS DENSITY CORRECTION
PEFZ   .B/E   : HRDD STANDARD RESOLUTION FORMATION PHOTOELECTRIC FACTOR
DPHZ_LS.DEC   : HGRD STANDARD RESOLUTION DENSITY POROSITY
RHOZ   .G/C3  : HRDD STANDARD RESOLUTION FORMATION DENSITY
DTCO   .US/F  : DELTA-T COMPRESSIONAL
DTSM   .US/F  : DELTA-T SHEAR
~Params ----------------------------------------------------
~Other -----------------------------------------------------
~ASCII -----------------------------------------------------
# ...
 6477.00000  -77.55460   60.83910   62.67670   67.08970   45.46120    0.12200    7.98140    0.00020    4.03510    0.03260    2.65220   64.31940  112.64400
 6477.50000  -78.21510   64.53690   66.53190   69.64960   47.67420    0.11750    7.98050   -0.00030    4.06810    0.03290    2.65200   64.28780  112.38160
 6478.00000  -78.70960   66.81720   68.32890   71.16350   49.66850    0.11400    7.97960   -0.00170    4.09490    0.03520    2.65000   64.28560  112.12140
 6478.50000  -79.18350   67.40430   68.78220   71.16350   49.84940    0.11160    7.97920   -0.00320    4.10600    0.03980    2.64340   64.29090  112.03080
 6479.00000  -79.75320   67.95550   69.23850   71.22610   48.62570    0.11150    7.97920   -0.00470    4.09990    0.04360    2.63700   64.36100  112.03630
 6479.50000  -80.73260   68.51110   69.69780   72.19100   48.19220    0.11410    7.97920   -0.00650    4.09380    0.04610    2.63410   64.53360  112.00160
 6480.00000  -81.72800   69.07130   70.83180   73.00920   48.19350    0.11720    7.97660   -0.00740    4.08330    0.04560    2.63310   64.46680  111.58520
 6480.50000  -81.84730   71.08510   72.61790   74.05570   48.36790    0.11750    7.96990   -0.00770    4.08770    0.04530    2.63280   64.27770  111.14110
 6481.00000  -82.19650   76.49210   79.36070   81.29100   48.11310    0.11540    7.96320   -0.00750    4.12030    0.04590    2.63350   64.06110  110.84540
 6481.50000  -82.56290   83.87410   86.72970   89.44310   47.41560    0.11090    7.95870   -0.00680    4.13400    0.04560    2.63440   63.86040  110.50300
 6482.00000  -83.16410   89.69450   94.29140   97.35020   46.62810    0.10680    7.96840   -0.00490    4.10900    0.04310    2.63770   63.70540  110.18760
 6482.50000  -83.81630   91.01110   95.14810   96.60230   45.93130    0.10480    7.96690   -0.00330    4.04500    0.04010    2.64190   63.73320  109.87450
 6483.00000  -84.21000   90.91940   95.74230   96.60230   45.54360    0.10280    7.95910   -0.00250    4.04380    0.03930    2.64280   63.78820  110.15600
 6483.50000  -84.28580   94.70190   98.60380  104.22740   44.82060    0.09990    7.95150   -0.00280    4.08650    0.03990    2.64190   63.84280  110.64970
 6484.00000  -84.36150   99.78590  107.08210  118.20060   42.99620    0.09700    7.94390   -0.00460    4.14270    0.04120    2.63830   63.91120  111.13540
 6484.50000  -84.26860   99.62320  104.44880  113.35840   41.01890    0.09630    7.94150   -0.00620    4.16230    0.04470    2.63410   64.04740  111.50960
 6485.00000  -84.22020   88.58970   93.68250   99.68100   41.24380    0.09860    7.94150   -0.00610    4.16380    0.04490    2.63570   64.15270  112.05120
 6485.50000  -84.20680   82.48520   85.16150   90.56050   42.85700    0.10190    7.94150   -0.00430    4.15370    0.04230    2.64250   64.30970  112.97100
 6486.00000  -84.20110   81.14150   84.26290   89.95920   43.72700    0.10340    7.94590   -0.00390    4.14300    0.03890    2.64590   64.62220  113.79490
 6486.50000  -84.15730   79.38850   83.37370   89.56130   45.82070    0.10500    7.95920   -0.00420    4.16490    0.03720    2.64230   65.00220  114.69680
 6487.00000  -83.81630   74.80780   78.73780   81.64680   47.23890    0.10670    7.95910   -0.00480    4.20940    0.04190    2.63910   65.43550  115.45330
 6487.50000  -83.53090   67.92810   71.56180   73.53570   49.75390    0.11040    7.95900   -0.00520    4.20920    0.04280    2.63910   66.04150  117.23200
 6488.00000  -83.40720   61.90030   64.34020   66.20320   52.44910    0.11610    7.96900   -0.00450    4.17150    0.04120    2.64000   66.71770  118.04270
 6488.50000  -83.54660   56.89850   57.93750   59.18080   55.06360    0.12470    7.98310   -0.00380    4.11360    0.03680    2.64590   67.03270  118.12500
 6489.00000  -83.52970   53.01470   54.33470   56.01710   56.87420    0.13030    7.98570   -0.00290    4.05540    0.03540    2.65170   67.08820  117.87620
 6489.50000  -82.96090   48.62000   51.56880   53.38130   57.30180    0.13150    7.99120   -0.00200    3.98970    0.03360    2.65290   66.95280  117.60370
 6490.00000  -82.28950   46.95570   48.94360   51.09640   57.19300    0.13270    7.98690   -0.00150    3.99630    0.03710    2.64050   66.30560  116.94940
 6490.50000  -81.60990   44.38210   46.50910   48.98460   56.27980    0.13570    7.98250   -0.00250    4.00290    0.04350    2.62120   65.44490  115.91850
 6491.00000  -82.63100   42.63890   44.65740   45.90040   55.86180    0.14280    7.97810   -0.00420    4.04110    0.05240    2.61960   64.01510  114.19830
 6491.50000  -83.52350   45.99710   48.43390   49.31440   54.94150    0.14430    7.97380   -0.00630    4.07420    0.05250    2.62470   62.73600  112.50330
 6492.00000  -84.41600   53.25220   55.97170   57.26540   53.26790    0.13880    7.96940   -0.00660    4.05570    0.04380    2.64580   61.86710  110.87820
 6492.50000  -85.23100   64.27150   64.68270   68.18120   50.68260    0.13130    7.96500   -0.00540    4.02180    0.03100    2.66690   61.28440  109.25320
 6493.00000  -85.59030   74.53100   84.81030   82.00320   47.29570    0.12040    7.96070   -0.00450    4.00740    0.02330    2.66920   61.00830  107.65510
 6493.50000  -85.87600   99.03280  111.48130  115.51140   44.07270    0.11360    7.95460   -0.00460    4.03850    0.02450    2.66260   60.82780  106.99030
 6494.00000  -86.23100  124.92740  146.91750  163.29630   42.59440    0.10660    7.93950   -0.00530    4.11380    0.03360    2.65000   60.72230  106.51830
 6494.50000  -86.30120  142.83890  182.34020  207.08720   42.67390    0.10390    7.93040   -0.00570    4.14310    0.04220    2.63740   60.75330  106.09200
 6495.00000  -86.65310  160.59720  206.82320  223.80960   44.48700    0.10220    7.92860   -0.00360    4.14530    0.04800    2.62920   60.70810  106.26090
 6495.50000  -86.64380  189.99350  236.53940  258.37390   44.05530    0.10180    7.92260   -0.00160    4.14580    0.04870    2.62570   60.60110  106.89210
 6496.00000  -86.66220  263.83160  294.92940  334.30070   41.44620    0.09600    7.90950   -0.00140    4.14720    0.05170    2.62270   60.95550  107.27220
 6496.50000  -86.80380  277.78200  363.47030  407.11170   39.47090    0.08970    7.90070   -0.00340    4.14790    0.05190    2.62220   62.02790  107.42190
 6497.00000  -87.06090  267.00220  347.80100  359.81770   38.93470    0.08490    7.89180   -0.00370    4.13850    0.05130    2.62220   62.18920  107.41980
 6497.50000  -87.34600  223.20290  304.70070  340.41500   39.45750    0.08560    7.88560   -0.00520    4.12730    0.05270    2.62010   61.71870  107.33580
 6498.00000  -87.73070  199.07360  246.86370  291.87420   39.43760    0.08940    7.88940   -0.00660    4.16300    0.05830    2.61220   61.48360  107.04550
 6498.50000  -88.55900  177.13710  215.30800  254.01910   38.77520    0.09310    7.89010   -0.00780    4.20060    0.06250    2.60260   61.48410  106.45220
 6499.00000  -89.50330  184.18260  214.59520  257.78560   37.85510    0.09450    7.89610   -0.00810    4.23240    0.06350    2.60230   61.25030  106.20970
 6499.50000  -90.42540  209.77810  234.87550  281.75820   37.01780    0.09030    7.90870   -0.00690    4.23660    0.05740    2.61600   60.93560  106.04360
 6500.00000  -91.38440  228.39570  262.57140  305.92550   37.60730    0.08390    7.90850   -0.00480    4.24510    0.04910    2.63430   60.83580  105.93370
 6500.50000  -92.27240  210.99130  236.16820  276.50780   38.82430    0.07930    7.90860   -0.00160    4.23890    0.03890    2.64780   60.81290  105.86410
 6501.00000  -93.00260  175.09660  196.51580  213.83370   39.92910    0.08120    7.91140   -0.00250    4.22360    0.03410    2.64900   60.69950  105.95560
 6501.50000  -93.55110  148.33050  163.52110  183.69320   39.72750    0.08480    7.91390   -0.00470    4.19720    0.03390    2.64830   60.37610  105.64620
 6502.00000  -93.66260  137.89990  146.20560  162.68630   39.00020    0.08870    7.92670   -0.00700    4.17790    0.03880    2.64770   59.88420  104.74240
 6502.50000  -93.81010  136.62920  149.23820  156.64680   38.60440    0.09010    7.92470   -0.00620    4.16310    0.03570    2.65120   59.25520  104.50550
