~Version ---------------------------------------------------
VERS.   2.0 : CWLS log ASCII Standard -VERSION 2.0
WRAP.    NO : One line per depth step
DLM . SPACE : Column Data Section Delimiter
~Well ------------------------------------------------------
STRT .F                   55.0 : START DEPTH
STOP .F                 9359.0 : STOP DEPTH
STEP .F                    0.5 : STEP
NULL .                -9999.25 : NULL VALUE
COMP .                         : COMPANY
WELL .                         : WELL
FLD  .                         : FIELD
LOC  .                         : LOCATION
PROV .                         : PROVINCE
CNTY .                         : COUNTY
STAT .                         : STATE
CTRY .                         : COUNTRY
SRVC .                         : SERVICE COMPANY
DATE .                         : DATE
UWI  .                         : UNIQUE WELL ID
API  .                         : API NUMBER
SLAT .WGS84 2.1460273341691973 : SURFACE LATITUDE
SLON .WGS84  5.948631642481004 : SURFACE LONGITUDE
DATUM.F                    nan : DEPTH DATUM ELEV
~Curve Information -----------------------------------------
DEPT   .F     : 1 MEASURED DEPTH
SPR    .MV    : SPONTANEOUS POTENTIAL FROM RESISTIVITY LOG
AHT10  .OHMM  : ARRAY INDUCTION TWO FOOT RESISTIVITY A10
AHT30  .OHMM  : ARRAY INDUCTION TWO FOOT RESISTIVITY A30
AHT90  .OHMM  : ARRAY INDUCTION TWO FOOT RESISTIVITY A90
GR_EDTC.GAPI  : GAMMA RAY
TNPH_LS.DEC   : THERMAL NEUTRON POROSITY [LIMESTONE]
HCALD  .M     : HRCC CALIPER CALIBRATED FROM DENSITY LOG
HDRA   .G/C3  : HRDD SPINE AND RIBS DENSITY CORRECTION
PEFZ   .B/E   : HRDD STANDARD RESOLUTION FORMATION PHOTOELECTRIC FACTOR
DPHZ_LS.DEC   : HGRD STANDARD RESOLUTION DENSITY POROSITY
RHOZ   .G/C3  : HRDD STANDARD RESOLUTION FORMATION DENSITY
DTCO   .US/F  : DELTA-T COMPRESSIONAL
DTSM   .US/F  : DELTA-T SHEAR
~Params ----------------------------------------------------
~Other -----------------------------------------------------
~ASCII -----------------------------------------------------
# ...
 3617.00000 -142.94000   28.50830   25.56780   22.34140   39.03520    0.11870    8.84360   -0.00140    3.13530   -0.00910    2.72580   -9999.25   -9999.25
 3617.50000 -145.08360   53.06890   41.18470   37.78330   38.30870    0.11500    8.85190   -0.00410    3.27680   -0.00500    2.72750   -9999.25   -9999.25
 3618.00000 -148.25260   98.19210   86.64070   68.52480   34.68830    0.11300    8.85370   -0.00330    3.33910    0.00140    2.71040   -9999.25   -9999.25
 3618.50000 -150.69650  120.25840  165.20430  121.12100   29.01100    0.11140    8.85630    0.00450    3.36210   -0.00640    2.70840   -9999.25   -9999.25
 3619.00000 -151.97020  115.83130  202.56270  118.57480   28.24270    0.10810    8.87170    0.01600    3.38440   -0.01660    2.72270   -9999.25   -9999.25
 3619.50000 -153.10050  113.61910  167.81020  101.80480   30.93900    0.10230    8.89390    0.02150    3.40790   -0.02380    2.73910   -9999.25   -9999.25
 3620.00000 -154.16130  106.93410  156.82100   91.91240   34.12810    0.09680    8.91770    0.02690    3.44240   -0.02500    2.75550   -9999.25   -9999.25
 3620.50000 -155.17400  101.18200  145.39450   82.88080   31.84350    0.09360    8.94220    0.03010    3.51010   -0.02980    2.76820   -9999.25   -9999.25
 3621.00000 -156.18670   97.72620  135.38800   76.49740   27.53320    0.09080    8.97310    0.03540    3.52410   -0.03340    2.76820   -9999.25   -9999.25
 3621.50000 -156.75790   93.15420  129.77410   71.90100   25.12950    0.09120    9.00460    0.03160    3.49650   -0.02690    2.75810   -9999.25   -9999.25
 3622.00000 -157.93430   95.71810  130.99260   69.40950   25.82010    0.09060    9.03090    0.02140    3.44700   -0.01870    2.74590   -9999.25   -9999.25
 3622.50000 -159.62080   99.43710  136.04950   69.01170   27.82600    0.08930    9.04060    0.01590    3.43140   -0.02200    2.74400   -9999.25   -9999.25
 3623.00000 -160.43780  101.03780  140.92720   67.81500   29.88600    0.08730    9.05020    0.01320    3.45580   -0.03050    2.76540   -9999.25   -9999.25
 3623.50000 -161.67310  103.88190  145.89500   68.20780   32.96360    0.08750    9.05420    0.01870    3.45070   -0.03350    2.76870   -9999.25   -9999.25
 3624.00000 -163.16930  105.59310  149.99870   65.52020   37.60020    0.08800    9.05330    0.02580    3.40880   -0.02570    2.75960   -9999.25   -9999.25
 3624.50000 -164.55050  106.89220  150.91130   64.01460   40.11840    0.08860    9.05500    0.03150    3.31810   -0.01130    2.74180   -9999.25   -9999.25
 3625.00000 -166.43100  105.88950  146.13680   63.28750   40.26330    0.08840    9.05470    0.02720    3.21960   -0.00370    2.72320   -9999.25   -9999.25
 3625.50000 -168.29030   99.96560  136.34590   58.71750   38.79250    0.08390    9.05910    0.01930    3.15600   -0.00160    2.71150   -9999.25   -9999.25
 3626.00000 -170.14970   93.45110  123.79890   55.85970   36.08000    0.08590    9.08830    0.01710    3.14930   -0.00770    2.71080   -9999.25   -9999.25
 3626.50000 -171.80030   94.57590  113.39930   52.16910   33.55470    0.09980    9.11500    0.02710    3.14900   -0.01260    2.73010   -9999.25   -9999.25
 3627.00000 -172.70710   99.98280  127.26370   52.40800   32.83630    0.11800    9.11410    0.04370    3.15750   -0.00590    2.72780   -9999.25   -9999.25
 3627.50000 -173.61380  105.96160  138.68620   52.96270   33.38720    0.14030    9.08740    0.05660    3.17590    0.01270    2.69840   -9999.25   -9999.25
 3628.00000 -173.85970  106.78500  137.69080   51.59350   33.31440    0.16060    9.03410    0.05620    3.18830    0.02820    2.66360   -9999.25   -9999.25
 3628.50000 -173.92780  105.55520  135.20740   49.67120   31.50140    0.17800    8.96740    0.05130    3.20350    0.02750    2.65930   -9999.25   -9999.25
 3629.00000 -173.45970   99.18750  126.77450   46.85650   28.38960    0.17490    8.90080    0.04640    3.20200    0.01550    2.68090   -9999.25   -9999.25
 3629.50000 -173.05330   92.06740  117.20180   44.03170   29.62140    0.16300    8.83410    0.04120    3.18220    0.00990    2.69110   -9999.25   -9999.25
 3630.00000 -172.71820   86.99980  111.18040   42.41390   32.90280    0.15450    8.81560    0.04250    3.14980    0.02370    2.67030   -9999.25   -9999.25
 3630.50000 -172.58950   82.09950  108.29330   41.27010   36.10310    0.15000    8.80860    0.04520    3.11630    0.04790    2.64750   -9999.25   -9999.25
 3631.00000 -172.22430   78.78930  104.25230   40.40220   36.52710    0.14760    8.79270    0.05170    3.08270    0.05930    2.61260   -9999.25   -9999.25
 3631.50000 -171.93500   75.61260   99.82330   39.29380   36.00970    0.14770    8.77340    0.06170    3.08420    0.06600    2.60680   -9999.25   -9999.25
 3632.00000 -171.81700   71.70400   94.96670   39.07570   35.98550    0.15140    8.75690    0.07040    3.08940    0.06090    2.60450   -9999.25   -9999.25
 3632.50000 -171.82320   67.24440   86.79590   38.37240   36.48050    0.16200    8.72280    0.06000    3.07040    0.06030    2.60220   -9999.25   -9999.25
 3633.00000 -171.82930   60.32540   76.57980   36.25430   37.26570    0.17720    8.71270    0.03880    3.01220    0.06870    2.59890   -9999.25   -9999.25
 3633.50000 -171.45980   61.55090   74.52240   36.71340   38.85520    0.18290    8.73020    0.01140    2.95640    0.08740    2.58070   -9999.25   -9999.25
 3634.00000 -171.11370   66.81740   84.44460   39.15460   42.01630    0.17750    8.80230    0.00340    2.95180    0.08930    2.55860   -9999.25   -9999.25
 3634.50000 -171.38450   75.03340   94.20430   40.18470   47.68110    0.16540    8.87240    0.00210    2.95640    0.07850    2.57660   -9999.25   -9999.25
 3635.00000 -171.71020   83.40950  104.27770   40.62840   53.98880    0.15010    8.94310    0.00150    2.94750    0.05640    2.62050   -9999.25   -9999.25
 3635.50000 -171.76620   79.84880   99.29680   39.60100   54.11500    0.13550    9.05230    0.00030    2.94200    0.04930    2.62400   -9999.25   -9999.25
 3636.00000 -171.86880   73.49260   86.09410   37.49210   49.27390    0.14160    9.08090   -0.00140    2.92730    0.05610    2.61990   -9999.25   -9999.25
 3636.50000 -172.11170   67.51950   72.03630   34.30280   43.22080    0.15250    9.02640   -0.00220    2.88500    0.06530    2.60820   -9999.25   -9999.25
 3637.00000 -171.80740   65.72760   65.03120   31.41730   39.07640    0.16450    8.99830   -0.00130    2.85260    0.07920    2.58840   -9999.25   -9999.25
 3637.50000 -171.20400   69.25860   62.28110   29.65610   38.46020    0.16130    8.96720    0.00150    2.86760    0.10060    2.55660   -9999.25   -9999.25
 3638.00000 -170.13700   69.10410   61.62130   28.74400   38.50290    0.15670    8.86900    0.00500    2.86950    0.12640    2.49550   -9999.25   -9999.25
 3638.50000 -168.87460   68.90700   60.97000   27.43500   38.72790    0.15180    8.76470    0.01890    2.84830    0.11830    2.51040   -9999.25   -9999.25
 3639.00000 -167.31730   71.75620   59.21480   25.92000   39.13290    0.15520    8.71030    0.04070    2.85710    0.08130    2.55460   -9999.25   -9999.25
 3639.50000 -166.38180   67.20190   53.96520   23.77520   41.02060    0.15910    8.74490    0.04530    2.87290    0.04950    2.59880   -9999.25   -9999.25
 3640.00000 -164.85400   62.09070   49.53600   21.95560   42.94150    0.16100    8.75630    0.03670    2.85580    0.04800    2.63260   -9999.25   -9999.25
 3640.50000 -163.54620   58.36150   45.34450   20.39460   45.30820    0.16140    8.76780    0.01790    2.80790    0.07870    2.63000   -9999.25   -9999.25
 3641.00000 -162.10640   55.16600   43.54440   19.30100   46.96250    0.16440    8.77920    0.00970    2.76970    0.10290    2.56360   -9999.25   -9999.25
 3641.50000 -160.66670   53.25000   41.64490   18.59240   47.78280    0.16690    8.80500    0.00720    2.75170    0.11540    2.51540   -9999.25   -9999.25
 3642.00000 -160.41600   50.94610   40.05020   17.99120   47.63110    0.16740    8.87970    0.01010    2.82570    0.10510    2.51580   -9999.25   -9999.25
 3642.50000 -160.16540   49.27440   38.85740   17.64550   46.91230    0.15990    8.97970    0.03230    2.90730    0.06640    2.56230   -9999.25   -9999.25
