~Version ---------------------------------------------------
VERS.   2.0 : CWLS log ASCII Standard -VERSION 2.0
WRAP.    NO : One line per depth step
DLM . SPACE : Column Data Section Delimiter
~Well ------------------------------------------------------
STRT .F                   55.0 : START DEPTH
STOP .F                 9359.0 : STOP DEPTH
STEP .F                    0.5 : STEP
NULL .                -9999.25 : NULL VALUE
COMP .                         : COMPANY
WELL .                         : WELL
FLD  .                         : FIELD
LOC  .                         : LOCATION
PROV .                         : PROVINCE
CNTY .                         : COUNTY
STAT .                         : STATE
CTRY .                         : COUNTRY
SRVC .                         : SERVICE COMPANY
DATE .                         : DATE
UWI  .                         : UNIQUE WELL ID
API  .                         : API NUMBER
SLAT .WGS84 2.1460273341691973 : SURFACE LATITUDE
SLON .WGS84  5.948631642481004 : SURFACE LONGITUDE
DATUM.F                    nan : DEPTH DATUM ELEV
~Curve Information -----------------------------------------
DEPT   .F     : 1 MEASURED DEPTH
SPR    .MV    : SPONTANEOUS POTENTIAL FROM RESISTIVITY LOG
AHT10  .OHMM  : ARRAY INDUCTION TWO FOOT RESISTIVITY A10
AHT30  .OHMM  : ARRAY INDUCTION TWO FOOT RESISTIVITY A30
AHT90  .OHMM  : ARRAY INDUCTION TWO FOOT RESISTIVITY A90
GR_EDTC.GAPI  : GAMMA RAY
TNPH_LS.DEC   : THERMAL NEUTRON POROSITY [LIMESTONE]
HCALD  .M     : HRCC CALIPER CALIBRATED FROM DENSITY LOG
HDRA   .G/C3  : HRDD SPINE AND RIBS DENSITY CORRECTION
PEFZ   .B/E   : HRDD STANDARD RESOLUTION FORMATION PHOTOELECTRIC FACTOR
DPHZ_LS.DEC   : HGRD STANDARD RESOLUTION DENSITY POROSITY
RHOZ   .G/C3  : HRDD STANDARD RESOLUTION FORMATION DENSITY
DTCO   .US/F  : DELTA-T COMPRESSIONAL
DTSM   .US/F  : DELTA-T SHEAR
~Params ----------------------------------------------------
~Other -----------------------------------------------------
~ASCII -----------------------------------------------------
# ...
 4085.00000 -143.64650  149.57900  211.61400  263.56900   26.27310    0.03300    8.34240    0.00260    3.27510   -0.07090    2.83980   -9999.25   -9999.25
 4085.50000 -140.71120  126.04540  151.96950  181.83690   22.66590    0.03920    8.32200    0.00870    3.34030   -0.06120    2.82570   -9999.25   -9999.25
 4086.00000 -138.03320   85.05740  112.19300  127.03870   21.79500    0.04590    8.31440    0.00930    3.33160   -0.05860    2.81550   -9999.25   -9999.25
 4086.50000 -135.25520   71.39550   83.76470   89.42550   23.91610    0.05240    8.31240    0.00160    3.31710   -0.05820    2.81150   -9999.25   -9999.25
 4087.00000 -134.22370   73.16550   84.41930   91.87650   27.44050    0.05900    8.29620   -0.00420    3.28910   -0.06400    2.81470   -9999.25   -9999.25
 4087.50000 -133.63780   91.44480  102.12730  117.10440   27.86970    0.05860    8.29270   -0.00510    3.33890   -0.06580    2.82090   -9999.25   -9999.25
 4088.00000 -133.02750  102.04260  120.26330  118.35530   25.80320    0.05220    8.29200   -0.00640    3.38510   -0.06450    2.82060   -9999.25   -9999.25
 4088.50000 -132.55100   99.05940  135.06420  119.49500   23.99250    0.04470    8.28380   -0.00510    3.47710   -0.06320    2.81880   -9999.25   -9999.25
 4089.00000 -132.16560  110.51930  164.07320  129.86280   24.54710    0.04090    8.28760   -0.00280    3.64440   -0.06400    2.81760   -9999.25   -9999.25
 4089.50000 -131.24850  156.05400  208.90100  152.09740   25.76300    0.03750    8.29940    0.00040    3.87360   -0.07430    2.82310   -9999.25   -9999.25
 4090.00000 -129.67340  217.95990  222.15740  184.75810   26.66220    0.03740    8.29830    0.00240    4.04190   -0.08370    2.85320   -9999.25   -9999.25
 4090.50000 -127.81440  222.13010  198.10950  173.24590   27.49120    0.04080    8.29470    0.00190    3.94020   -0.08750    2.85680   -9999.25   -9999.25
 4091.00000 -126.06900  167.26670  148.53900  126.85730   28.31750    0.05350    8.29110    0.00040    3.73600   -0.07180    2.83680   -9999.25   -9999.25
 4091.50000 -124.37150  117.58870   94.42550   78.63280   31.13200    0.06750    8.28750   -0.00120    3.46990   -0.05310    2.81050   -9999.25   -9999.25
 4092.00000 -122.59650   70.84280   61.59220   48.42110   39.74720    0.08190    8.28390   -0.00330    3.36880   -0.02950    2.77010   -9999.25   -9999.25
 4092.50000 -121.35300   42.68020   38.03410   34.39180   54.16880    0.09870    8.28030   -0.00310    3.32240   -0.02460    2.75520   -9999.25   -9999.25
 4093.00000 -121.13660   47.00540   43.53220   38.26430   66.97550    0.10170    8.27670   -0.00130    3.27150   -0.03630    2.76960   -9999.25   -9999.25
 4093.50000 -120.48850   94.69720   79.60340   69.24480   75.16000    0.08990    8.27300    0.00020    3.18680   -0.05350    2.79830   -9999.25   -9999.25
 4094.00000 -119.55980  150.80930  124.10580  111.93780   73.58720    0.07390    8.27030   -0.00090    3.17780   -0.06170    2.81450   -9999.25   -9999.25
 4094.50000 -118.65100  186.30320  136.86890  111.56450   68.99660    0.06090    8.26850   -0.00150    3.18920   -0.06140    2.81590   -9999.25   -9999.25
 4095.00000 -117.70150  162.50740  107.89420   99.91570   59.75370    0.04980    8.27260   -0.00260    3.20600   -0.06280    2.81830   -9999.25   -9999.25
 4095.50000 -116.73340   98.99220   82.73260   73.34270   49.57180    0.04460    8.28130   -0.00460    3.25320   -0.06580    2.82180   -9999.25   -9999.25
 4096.00000 -115.93800   68.52810   54.58270   48.11590   42.10550    0.04720    8.28500   -0.00500    3.29760   -0.05950    2.81640   -9999.25   -9999.25
 4096.50000 -115.17280   36.47060   31.64870   26.71420   38.73980    0.06270    8.27130   -0.00280    3.31930   -0.04900    2.78940   -9999.25   -9999.25
 4097.00000 -114.07300   21.21920   20.01010   18.33870   42.15640    0.08010    8.27800   -0.00080    3.28990   -0.03500    2.77170   -9999.25   -9999.25
 4097.50000 -112.32440   22.57640   21.37380   20.03470   46.22010    0.08860    8.27440    0.00050    3.25170   -0.03510    2.77540   -9999.25   -9999.25
 4098.00000 -112.56260   35.17740   31.43050   27.92370   46.74980    0.08670    8.27670    0.00090    3.19730   -0.04580    2.79170   -9999.25   -9999.25
 4098.50000 -114.14610   60.90860   50.05460   44.39360   44.74570    0.07350    8.29550   -0.00050    3.15210   -0.06080    2.82740   -9999.25   -9999.25
 4099.00000 -116.05760  103.87620   78.45720   60.65140   40.07300    0.06080    8.31110   -0.00060    3.20800   -0.07120    2.82310   -9999.25   -9999.25
 4099.50000 -117.79920  123.00060  110.63120   69.54280   35.00450    0.05000    8.33110   -0.00150    3.27790   -0.06610    2.81890   -9999.25   -9999.25
 4100.00000 -119.09310  138.07880  102.17600   84.44210   30.16020    0.04170    8.35110   -0.00170    3.30670   -0.06920    2.81900   -9999.25   -9999.25
 4100.50000 -119.73560  157.56100   95.93290   80.07290   30.01390    0.03460    8.37100    0.00370    3.33050   -0.07340    2.83980   -9999.25   -9999.25
 4101.00000 -118.04590  117.10340   72.33520   58.75180   31.03790    0.03210    8.39100    0.00850    3.33910   -0.07530    2.84020   -9999.25   -9999.25
 4101.50000 -116.35620   65.48880   47.02060   43.08760   32.34710    0.03540    8.40900    0.00940    3.35430   -0.06050    2.82300   -9999.25   -9999.25
 4102.00000 -114.66650   36.01510   28.87450   21.92860   35.50590    0.05910    8.41820    0.00650    3.35740   -0.03780    2.78860   -9999.25   -9999.25
 4102.50000 -112.23960   16.66160   13.18620   11.27740   40.65310    0.08260    8.42740    0.00300    3.32850   -0.00190    2.73800   -9999.25   -9999.25
 4103.00000 -108.97720    8.69770    9.39690    9.21290   47.45680    0.11930    8.44880    0.01420    3.34440    0.01890    2.67800   -9999.25   -9999.25
 4103.50000 -105.71480    8.81610    9.89480   10.77280   53.19880    0.13840    8.52380    0.03900    3.28930    0.01080    2.68900   -9999.25   -9999.25
 4104.00000 -105.71810   12.62260   13.39260   16.18750   54.57460    0.13740    8.56810    0.04130    3.23420   -0.02450    2.71670   -9999.25   -9999.25
 4104.50000 -106.90380   24.49340   26.37320   37.12880   51.33580    0.10890    8.39600    0.03440    3.15760   -0.07130    2.81560   -9999.25   -9999.25
 4105.00000 -109.12430   53.77280   72.66330   92.40860   43.65200    0.07290    8.39350    0.01310    3.14510   -0.08680    2.87420   -9999.25   -9999.25
 4105.50000 -111.34480  107.96400  140.07670  195.13130   37.35000    0.04380    8.39730    0.00720    3.16660   -0.09660    2.87690   -9999.25   -9999.25
 4106.00000 -113.50050  134.11520  107.37980  114.33520   33.66840    0.04020    8.40120    0.00220    3.20750   -0.08090    2.87680   -9999.25   -9999.25
 4106.50000 -115.41810  123.49480  108.64080  116.09600   29.90070    0.03780    8.40220   -0.00350    3.22790   -0.07420    2.83700   -9999.25   -9999.25
 4107.00000 -115.86860   96.07680  110.75660  117.06850   26.53890    0.03570    8.40100    0.00300    3.25000   -0.07310    2.83600   -9999.25   -9999.25
 4107.50000 -115.86560   72.01790   85.37160   95.60420   25.42500    0.03680    8.39210    0.00770    3.28660   -0.07190    2.83440   -9999.25   -9999.25
 4108.00000 -115.23990   55.99260   65.56800   78.18890   26.44620    0.03970    8.38640    0.00990    3.34710   -0.05670    2.82360   -9999.25   -9999.25
 4108.50000 -114.25780   33.14440   38.11500   51.13670   29.67560    0.05180    8.37960    0.00130    3.30590   -0.03650    2.79680   -9999.25   -9999.25
 4109.00000 -113.59860   19.53290   20.91120   26.55530   36.61740    0.06520    8.37290    0.01440    3.20920   -0.03310    2.76980   -9999.25   -9999.25
 4109.50000 -113.00480   15.81300   16.83580   18.11050   44.78100    0.07850    8.36620    0.02270    3.10750   -0.02920    2.76030   -9999.25   -9999.25
 4110.00000 -114.81500   23.05580   25.53190   28.53260   44.95440    0.08530    8.35950    0.02150    3.07650   -0.04290    2.76000   -9999.25   -9999.25
 4110.50000 -118.37280   42.09610   49.28480   55.22320   39.24450    0.07690    8.35280   -0.00060    3.21320   -0.03720    2.77760   -9999.25   -9999.25
