~Version ---------------------------------------------------
VERS.   2.0 : CWLS log ASCII Standard -VERSION 2.0
WRAP.    NO : One line per depth step
DLM . SPACE : Column Data Section Delimiter
~Well ------------------------------------------------------
STRT .F                  185.0 : START DEPTH
STOP .F                 2424.0 : STOP DEPTH
STEP .F                    0.5 : STEP
NULL .                -9999.25 : NULL VALUE
COMP .                         : COMPANY
WELL .                         : WELL
FLD  .                         : FIELD
LOC  .                         : LOCATION
PROV .                         : PROVINCE
CNTY .                         : COUNTY
STAT .                         : STATE
CTRY .                         : COUNTRY
SRVC .                         : SERVICE COMPANY
DATE .                         : DATE
UWI  .                         : UNIQUE WELL ID
API  .                         : API NUMBER
SLAT .WGS84 1.4630186641632967 : SURFACE LATITUDE
SLON .WGS84   8.84881103165101 : SURFACE LONGITUDE
DATUM.F                3637.06 : DEPTH DATUM ELEV
~Curve Information -----------------------------------------
DEPT.F     : 1 MEASURED DEPTH
GRS .GAPI  : GAMMA RAY FROM SONIC LOG
DTCO.US/F  : DELTA-T COMPRESSIONAL
DTSM.US/F  : DELTA-T SHEAR
~Params ----------------------------------------------------
~Other -----------------------------------------------------
~ASCII -----------------------------------------------------
# ...
 2232.00000    9.98040   46.47180   92.50710
 2232.50000   10.22200   48.93560   92.62190
 2233.00000   10.47630   50.82000   92.73670
 2233.50000   10.52830   51.33470   92.85140
 2234.00000   10.63490   51.24500   92.96620
 2234.50000   10.57320   50.92160   93.00040
 2235.00000   10.54810   50.98890   93.00140
 2235.50000   10.54030   51.23270   93.00240
 2236.00000   10.61440   51.12410   93.00350
 2236.50000   11.06890   50.90440   92.99610
 2237.00000   11.11350   50.79430   93.10390
 2237.50000   11.25150   50.32030   93.28380
 2238.00000   11.45600   49.33330   93.24850
 2238.50000   11.64300   48.41450   93.21320
 2239.00000   11.72750   47.90160   93.17790
 2239.50000   11.67630   47.49060   93.14260
 2240.00000   11.17880   47.27570   93.10730
 2240.50000   10.61740   47.37690   93.07200
 2241.00000   10.54770   48.06710   93.07710
 2241.50000   10.53870   47.88540   93.19360
 2242.00000   10.53370   47.35070   93.20140
 2242.50000   10.53370   47.08180   93.08100
 2243.00000   10.53370   47.26950   93.05700
 2243.50000   10.53370   47.37510   93.04750
 2244.00000   10.82510   47.76070   93.03790
 2244.50000   10.96890   48.38690   93.02840
 2245.00000   10.42300   48.85490   93.01880
 2245.50000    9.03290   49.10210   93.00930
 2246.00000    9.01510   49.42070   92.91740
 2246.50000    9.94550   49.59720   92.66350
 2247.00000   11.41610   49.60240   92.81060
 2247.50000   12.57610   49.44130   92.88270
 2248.00000   12.28770   49.22860   92.95490
 2248.50000   11.38210   49.10620   92.88780
 2249.00000   10.57020   48.98390   92.61740
 2249.50000   10.54680   48.89340   92.51650
 2250.00000   10.79530   49.29520   92.01560
 2250.50000   11.34670   49.76930   91.79300
 2251.00000   11.71070   49.96380   91.59350
 2251.50000   11.37180   50.14150   91.21860
 2252.00000   10.77930   50.11730   91.25840
 2252.50000   10.07840   49.88790   91.40040
 2253.00000    9.58600   49.70530   91.54230
 2253.50000    9.62180   49.63770   91.59360
 2254.00000   10.15900   49.94960   91.59320
 2254.50000   11.42820   50.22180   91.59280
 2255.00000   12.49570   50.07010   91.59240
 2255.50000   12.65900   49.38250   91.59210
 2256.00000   12.67670   48.72790   91.59170
 2256.50000   12.65220   48.33040   91.59130
 2257.00000   12.63550   48.12720   91.59090
 2257.50000   12.90780   47.63000   91.59050
 2258.00000   13.15570   47.51920   91.59010
 2258.50000   13.05060   47.75070   91.65300
 2259.00000   12.57810   48.01900   91.74370
 2259.50000   12.29580   47.83110   91.83440
 2260.00000   12.77210   47.97090   91.92510
 2260.50000   13.41520   48.53020   91.93700
 2261.00000   13.43650   49.08950   91.93700
 2261.50000   13.45780   49.50100   91.75640
 2262.00000   13.37290   49.40410   91.57090
 2262.50000   12.97310   49.11230   91.42570
 2263.00000   12.35330   48.84780   91.48610
 2263.50000   12.46590   48.64590   91.81580
 2264.00000   13.87830   48.48990   92.14550
 2264.50000   14.88760   48.45590   92.44830
 2265.00000   15.26580   48.94630   92.47560
 2265.50000   15.39850   49.60820   92.60020
 2266.00000   15.34180   49.97350   92.72470
 2266.50000   15.14240   50.14960   92.84400
 2267.00000   15.21540   50.19390   92.97680
 2267.50000   15.38770   50.46980   92.99820
 2268.00000   15.43910   50.92230   93.00190
 2268.50000   15.24620   50.91280   93.26110
 2269.00000   14.45100   50.83500   93.53080
 2269.50000   13.57180   50.83850   93.79330
 2270.00000   13.56090   51.01930   93.80130
 2270.50000   13.53660   51.35040   93.80040
 2271.00000   13.49290   51.67910   93.80040
 2271.50000   12.91180   51.87420   93.77370
 2272.00000   12.08060   51.73410   93.50580
 2272.50000   11.27440   51.53370   93.36390
 2273.00000   10.61570   51.54080   93.30370
 2273.50000   10.79640   51.63570   92.83250
 2274.00000   11.72240   51.75540   92.36990
 2274.50000   13.22840   51.87470   92.20830
 2275.00000   14.73450   51.91800   92.24500
 2275.50000   15.79040   51.96130   92.48930
 2276.00000   14.31730   51.96230   92.58500
 2276.50000   12.49760   51.88260   92.59560
 2277.00000   10.65010   51.82590   92.65630
 2277.50000    8.40070   51.85280   93.18830
 2278.00000    6.84510   51.97350   93.18630
 2278.50000    5.77590   52.01260   93.18440
 2279.00000    5.82370   52.05180   93.00200
 2279.50000    6.07220   52.00180   92.71610
 2280.00000    6.59080   51.60940   92.36290
 2280.50000    7.16250   50.78430   92.20100
 2281.00000    7.40670   49.72650   92.09340
 2281.50000    7.45420   48.83330   91.94230
 2282.00000    7.49460   48.02160   91.79120
 2282.50000    7.27030   47.76790   91.64000
 2283.00000    6.90910   48.21060   91.78470
 2283.50000    6.44800   48.66090   92.05020
 2284.00000    6.59130   48.83900   92.31580
 2284.50000    6.90000   48.93960   92.58130
 2285.00000    6.90000   48.92720   92.78920
 2285.50000    6.90000   48.76540   92.78920
 2286.00000    6.90020   48.65090   92.78920
 2286.50000    6.95340   48.82270   92.77280
 2287.00000    7.22300   48.99990   92.73630
 2287.50000    7.47420   49.18670   92.69990
 2288.00000    7.50000   49.35710   92.66350
 2288.50000    7.49070   49.30050   92.62710
 2289.00000    7.11870   49.03600   92.59680
 2289.50000    6.97950   49.08380   92.54000
 2290.00000    7.20000   49.33320   92.26150
 2290.50000    8.07810   49.58270   91.99900
 2291.00000    9.66250   49.68620   91.86650
 2291.50000   11.09570   49.39400   91.83450
 2292.00000   11.54490   48.98100   91.95300
 2292.50000   11.68860   48.24760   92.07140
 2293.00000   11.66730   47.87580   92.18990
 2293.50000   11.33070   47.68330   92.30840
 2294.00000   10.74590   47.78470   92.42680
 2294.50000   10.07680   48.04810   92.52070
 2295.00000    9.62660   48.35570   92.60470
 2295.50000   10.02690   48.66790   92.50530
 2296.00000   10.58640   49.00220   92.37620
 2296.50000   11.77250   49.33650   92.25760
 2297.00000   12.64360   49.67080   92.21090
 2297.50000   13.31490   49.83340   92.05260
 2298.00000   13.76520   49.54200   92.22270
 2298.50000   13.68180   49.23270   92.19760
 2299.00000   12.84740   49.30260   91.95410
 2299.50000   11.95180   49.49310   91.79880
 2300.00000   11.71680   49.91480   91.75040
 2300.50000   12.31450   50.62680   91.47000
 2301.00000   13.22380   51.30990   91.16080
 2301.50000   13.14490   51.04910   90.85640
 2302.00000   12.84990   49.54770   90.55190
 2302.50000   14.22020   48.45150   90.40560
 2303.00000   15.72330   48.30160   90.68200
 2303.50000   16.37930   48.56590   91.00980
 2304.00000   15.04760   48.98870   91.33760
 2304.50000   13.58520   49.13390   91.66540
 2305.00000   12.08610   49.21510   91.99310
 2305.50000   11.72980   48.98980   92.28350
 2306.00000   12.00670   48.64970   92.26280
 2306.50000   12.33230   48.51970   92.24220
 2307.00000   12.48230   48.41160   92.22150
 2307.50000   12.40330   47.94780   92.15690
 2308.00000   12.05750   47.70180   91.86120
 2308.50000   11.70910   47.73170   91.56540
 2309.00000   11.76490   48.04560   91.26970
 2309.50000   11.99850   48.40520   91.35740
 2310.00000   12.22250   48.88390   91.45900
 2310.50000   12.40270   49.29420   91.56070
 2311.00000   12.81700   49.49490   91.66240
 2311.50000   13.45410   49.47380   91.74450
 2312.00000   13.81210   49.26980   91.64140
 2312.50000   13.64130   48.95790   91.53820
 2313.00000   13.31490   48.79440   91.43510
 2313.50000   12.98270   48.91960   91.61620
 2314.00000   12.65040   49.16740   91.76360
 2314.50000   12.26300   49.41520   91.89240
 2315.00000   11.79370   49.66290   92.32970
 2315.50000   11.72040   49.69010   92.76700
 2316.00000   11.70340   49.31730   93.20440
 2316.50000   11.64190   49.13850   93.63490
 2317.00000   11.30450   49.19640   94.06470
 2317.50000   10.83040   49.16150   94.49440
 2318.00000   10.36390   48.98120   94.84070
 2318.50000    9.94570   48.88690   94.89880
 2319.00000   10.23880   48.75340   94.95700
 2319.50000   10.66900   48.49770   95.03710
 2320.00000   11.06810   48.23880   95.17030
 2320.50000   11.31560   48.05160   95.30340
