~Version ---------------------------------------------------
VERS.   2.0 : CWLS log ASCII Standard -VERSION 2.0
WRAP.    NO : One line per depth step
DLM . SPACE : Column Data Section Delimiter
~Well ------------------------------------------------------
STRT .F                  185.0 : START DEPTH
STOP .F                 2424.0 : STOP DEPTH
STEP .F                    0.5 : STEP
NULL .                -9999.25 : NULL VALUE
COMP .                         : COMPANY
WELL .                         : WELL
FLD  .                         : FIELD
LOC  .                         : LOCATION
PROV .                         : PROVINCE
CNTY .                         : COUNTY
STAT .                         : STATE
CTRY .                         : COUNTRY
SRVC .                         : SERVICE COMPANY
DATE .                         : DATE
UWI  .                         : UNIQUE WELL ID
API  .                         : API NUMBER
SLAT .WGS84 1.4630186641632967 : SURFACE LATITUDE
SLON .WGS84   8.84881103165101 : SURFACE LONGITUDE
DATUM.F                3637.06 : DEPTH DATUM ELEV
~Curve Information -----------------------------------------
DEPT.F     : 1 MEASURED DEPTH
GRS .GAPI  : GAMMA RAY FROM SONIC LOG
DTCO.US/F  : DELTA-T COMPRESSIONAL
DTSM.US/F  : DELTA-T SHEAR
~Params ----------------------------------------------------
~Other -----------------------------------------------------
~ASCII -----------------------------------------------------
# ...
 2143.00000    8.72300   51.31310   93.47080
 2143.50000    8.71580   48.92200   93.04350
 2144.00000    8.25830   47.76100   92.12870
 2144.50000    7.40550   47.44340   92.46220
 2145.00000    6.96160   47.28720   92.52820
 2145.50000    7.17270   47.29680   92.35750
 2146.00000    7.72500   47.57350   92.17880
 2146.50000    8.16730   47.64970   92.00000
 2147.00000    8.25710   47.73840   91.82130
 2147.50000    8.44580   47.83730   91.64260
 2148.00000    8.64760   47.65970   91.59470
 2148.50000    8.79810   46.90880   91.59470
 2149.00000    9.15950   47.43950   91.71990
 2149.50000    9.60990   49.83400   91.85040
 2150.00000    9.25410   49.39090   91.98090
 2150.50000    8.85310   46.12900   92.11140
 2151.00000    8.72840   43.04380   92.24200
 2151.50000    8.50880   44.72730   92.37250
 2152.00000    8.60510   48.23840   92.44980
 2152.50000    8.70130   53.07740   92.30430
 2153.00000    8.72390   52.94980   92.25110
 2153.50000    8.71690   52.45600   92.40360
 2154.00000    8.41350   51.93130   93.20270
 2154.50000    8.15960   51.38600   93.76500
 2155.00000    8.52300   50.46410   93.43540
 2155.50000    9.26700   49.62910   92.78540
 2156.00000   10.01090   49.60590   92.65010
 2156.50000   10.58750   49.47160   92.68570
 2157.00000   10.58200   49.17290   92.58970
 2157.50000   10.56010   49.37640   92.49370
 2158.00000   10.53820   50.07280   92.39780
 2158.50000   10.51620   50.09020   92.30180
 2159.00000   10.23940   49.94210   92.20580
 2159.50000    9.59450   49.85080   92.19810
 2160.00000    8.92000   49.80240   92.27110
 2160.50000    8.73440   49.67490   91.94860
 2161.00000    8.73480   49.44810   91.47570
 2161.50000    8.73490   49.06250   91.37970
 2162.00000    8.73490   48.76930   91.42050
 2162.50000    8.71840   48.48030   91.50080
 2163.00000    8.01740   48.41950   91.59300
 2163.50000    7.23590   48.84340   91.68520
 2164.00000    7.10350   49.59520   91.77730
 2164.50000    7.89400   50.20420   91.86950
 2165.00000    9.60080   50.43350   91.92160
 2165.50000   11.46090   50.43690   91.83350
 2166.00000   13.21650   50.41430   91.74540
 2166.50000   12.49960   50.30140   91.65730
 2167.00000   11.25840   50.27660   91.31850
 2167.50000   10.55990   50.27040   91.41090
 2168.00000   10.19760   50.26410   91.70790
 2168.50000    9.43040   50.18110   91.80300
 2169.00000    8.25110   49.80320   91.84340
 2169.50000    7.29870   49.74750   92.17420
 2170.00000    6.16040   50.03080   92.50490
 2170.50000    5.78540   50.19740   92.82380
 2171.00000    6.11750   50.11290   92.94940
 2171.50000    6.53550   49.98320   92.61430
 2172.00000    7.21070   49.94880   92.09970
 2172.50000    7.44770   49.65280   91.56760
 2173.00000    7.51540   49.62650   90.73540
 2173.50000    7.50840   49.92470   90.70510
 2174.00000    7.17110   50.01730   91.42870
 2174.50000    6.29080   49.97550   91.98750
 2175.00000    5.80090   49.93020   92.34380
 2175.50000    6.11970   49.84940   92.09870
 2176.00000    7.28330   49.90180   91.85360
 2176.50000    8.78590   49.95700   91.76040
 2177.00000   10.23790   49.75730   91.78560
 2177.50000   10.97900   49.45310   91.79030
 2178.00000   11.33320   49.03390   91.78250
 2178.50000   10.46110   48.33580   91.77460
 2179.00000   10.05930   47.52980   91.77130
 2179.50000    9.52490   46.96900   91.78710
 2180.00000    9.12550   46.49670   92.19590
 2180.50000    8.92740   46.06040   92.70540
 2181.00000    9.69940   45.52180   93.06060
 2181.50000   10.79290   44.94200   93.22100
 2182.00000   11.67020   44.48380   93.38150
 2182.50000   11.69200   44.67440   93.72640
 2183.00000   10.46130   44.92220   94.53960
 2183.50000    9.97030   45.03770   94.65660
 2184.00000   10.25510   45.10440   94.33530
 2184.50000   11.51340   45.22080   94.36040
 2185.00000   12.31420   46.44940   94.92040
 2185.50000   12.85950   49.90030   95.34670
 2186.00000   12.30550   52.46350   94.94430
 2186.50000   11.75630   53.70870   94.49450
 2187.00000   11.78850   53.62250   94.49450
 2187.50000   12.25800   53.53900   94.75180
 2188.00000   13.10800   53.61970   95.07560
 2188.50000   13.36360   53.86590   95.11020
 2189.00000   12.99410   53.80480   95.02660
 2189.50000   12.86080   53.14980   94.94300
 2190.00000   12.82290   52.59430   94.85940
 2190.50000   12.76140   52.92320   94.79030
 2191.00000   12.35190   53.28380   94.75130
 2191.50000   11.81330   53.48450   94.50180
 2192.00000   10.92880   53.44630   94.23080
 2192.50000   10.58460   52.58160   94.17180
 2193.00000   10.78300   51.69960   94.01410
 2193.50000   11.05840   52.13080   93.76160
 2194.00000   10.47860   52.66450   93.48860
 2194.50000   10.02090   52.64210   93.43950
 2195.00000    9.95320   52.31150   93.43010
 2195.50000   10.02880   51.85270   93.77060
 2196.00000   10.21320   51.34200   93.99320
 2196.50000   10.48780   50.75770   94.40520
 2197.00000   10.57650   50.14130   94.58390
 2197.50000   11.00580   49.34120   94.59860
 2198.00000   11.13100   48.55170   94.71770
 2198.50000   11.15910   48.46400   94.78060
 2199.00000   11.17940   48.40420   94.31920
 2199.50000   11.62750   48.54350   93.85780
 2200.00000   11.74290   48.94060   93.39640
 2200.50000   11.30310   49.33680   93.40530
 2201.00000   10.82270   49.93960   93.62230
 2201.50000   10.60410   50.82600   93.78490
 2202.00000   10.48540   52.02470   94.09510
 2202.50000   10.10990   52.84470   94.59740
 2203.00000    9.97830   53.72410   95.31770
 2203.50000   10.21990   54.01780   95.27730
 2204.00000   10.77040   53.86010   94.80990
 2204.50000   11.24310   53.64470   94.59240
 2205.00000   11.60210   53.65570   94.57880
 2205.50000   11.73050   53.75700   93.76550
 2206.00000   11.95050   53.61180   92.96040
 2206.50000   12.34190   53.27280   92.27890
 2207.00000   12.32450   52.97690   92.20230
 2207.50000   12.23810   52.94260   92.66100
 2208.00000   11.80560   52.80250   93.14550
 2208.50000   11.93750   52.67700   93.63180
 2209.00000   12.23890   52.99650   93.71840
 2209.50000   12.63600   53.51480   93.50720
 2210.00000   12.44660   53.75270   92.99470
 2210.50000   12.04090   53.96230   92.57760
 2211.00000   11.30280   54.02560   92.63930
 2211.50000   11.16230   54.12120   92.81140
 2212.00000   11.18450   55.12540   92.98350
 2212.50000   11.40470   56.28340   93.15570
 2213.00000   11.65400   56.42250   93.21920
 2213.50000   11.70650   56.05890   93.16120
 2214.00000   11.53420   55.50140   93.10320
 2214.50000   11.21100   54.95360   93.04520
 2215.00000   11.44510   54.56060   92.98720
 2215.50000   11.70690   54.47220   92.93960
 2216.00000   11.74370   54.65710   92.79260
 2216.50000   11.74720   55.13880   92.60110
 2217.00000   11.74720   55.76660   92.40760
 2217.50000   11.74720   56.39440   92.21400
 2218.00000   11.74720   56.57380   92.02050
 2218.50000   11.74720   56.17600   91.82700
 2219.00000   11.74720   55.61190   91.68590
 2219.50000   11.74720   54.60160   91.60060
 2220.00000   12.64140   52.60010   91.51530
 2220.50000   13.74570   50.86170   91.42990
 2221.00000   13.56530   51.02480   91.46450
 2221.50000   13.45540   51.51230   91.58810
 2222.00000   13.45540   51.41090   91.71180
 2222.50000   13.66210   51.32610   91.91790
 2223.00000   13.97390   51.23580   92.14250
 2223.50000   14.55550   51.21560   92.36700
 2224.00000   15.20130   51.21090   92.59150
 2224.50000   15.53450   51.12660   92.81610
 2225.00000   15.84530   51.00740   92.96790
 2225.50000   15.73630   50.70600   93.10800
 2226.00000   14.24490   50.32910   93.35440
 2226.50000   12.46710   50.00990   93.37020
 2227.00000   10.68940   49.73300   93.40620
 2227.50000    9.50410   49.60150   93.13910
 2228.00000   10.09220   49.36680   92.97720
 2228.50000   11.48430   48.99980   92.96190
 2229.00000   11.97950   48.86140   92.88220
 2229.50000   11.72670   48.88420   92.80250
 2230.00000   11.02570   49.15420   92.72280
 2230.50000   10.46690   49.30060   92.64300
 2231.00000   10.18090   48.57360   92.56330
 2231.50000    9.94940   46.73570   92.48360
