~Version ---------------------------------------------------
VERS.   2.0 : CWLS log ASCII Standard -VERSION 2.0
WRAP.    NO : One line per depth step
DLM . SPACE : Column Data Section Delimiter
~Well ------------------------------------------------------
STRT .F                  185.0 : START DEPTH
STOP .F                 2424.0 : STOP DEPTH
STEP .F                    0.5 : STEP
NULL .                -9999.25 : NULL VALUE
COMP .                         : COMPANY
WELL .                         : WELL
FLD  .                         : FIELD
LOC  .                         : LOCATION
PROV .                         : PROVINCE
CNTY .                         : COUNTY
STAT .                         : STATE
CTRY .                         : COUNTRY
SRVC .                         : SERVICE COMPANY
DATE .                         : DATE
UWI  .                         : UNIQUE WELL ID
API  .                         : API NUMBER
SLAT .WGS84 1.4630186641632967 : SURFACE LATITUDE
SLON .WGS84   8.84881103165101 : SURFACE LONGITUDE
DATUM.F                3637.06 : DEPTH DATUM ELEV
~Curve Information -----------------------------------------
DEPT.F     : 1 MEASURED DEPTH
GRS .GAPI  : GAMMA RAY FROM SONIC LOG
DTCO.US/F  : DELTA-T COMPRESSIONAL
DTSM.US/F  : DELTA-T SHEAR
~Params ----------------------------------------------------
~Other -----------------------------------------------------
~ASCII -----------------------------------------------------
# ...
 1876.00000    8.40320   48.38250   94.90060
 1876.50000    8.22410   48.37930   94.92580
 1877.00000    6.99650   48.24040   94.99080
 1877.50000    5.86690   47.94140   94.95790
 1878.00000    5.67220   47.76580   95.02980
 1878.50000    5.78240   47.68520   95.06950
 1879.00000    6.47320   47.66510   94.94980
 1879.50000    6.85070   47.57360   94.89240
 1880.00000    7.02650   47.46860   94.80100
 1880.50000    7.12100   47.36360   94.63210
 1881.00000    7.43990   47.28580   94.48680
 1881.50000    8.73210   47.24910   94.48070
 1882.00000    9.77590   47.24520   94.31380
 1882.50000    9.47070   47.24640   94.09900
 1883.00000    8.95750   47.28180   94.03060
 1883.50000    8.80170   47.38710   94.00730
 1884.00000    8.59210   47.53600   94.09060
 1884.50000    8.60720   47.66710   94.13070
 1885.00000    8.86300   47.68510   94.24960
 1885.50000    9.14000   48.06090   94.36450
 1886.00000    9.29000   49.00790   94.49310
 1886.50000    8.88390   49.81190   94.62170
 1887.00000    8.40450   50.10060   94.75030
 1887.50000    7.73500   50.19600   94.87890
 1888.00000    7.40490   50.18660   95.00750
 1888.50000    7.11430   50.01580   95.13620
 1889.00000    7.42590   49.79690   95.26980
 1889.50000    8.14930   49.59400   95.27850
 1890.00000    8.15430   49.59210   95.16980
 1890.50000    7.43460   49.71930   94.94290
 1891.00000    6.69760   49.56890   94.80950
 1891.50000    6.25070   49.28070   94.67610
 1892.00000    6.75180   49.35040   94.54280
 1892.50000    7.06220   49.47780   94.40940
 1893.00000    7.01210   49.46850   94.27610
 1893.50000    6.65460   49.39440   94.14270
 1894.00000    6.26510   49.27330   94.00940
 1894.50000    6.27780   49.18130   93.87600
 1895.00000    6.62830   49.10620   93.74260
 1895.50000    7.06170   49.04460   93.60930
 1896.00000    7.65020   48.99390   93.53950
 1896.50000    8.63660   49.00200   93.48060
 1897.00000    9.27110   49.02820   93.42170
 1897.50000    9.48250   49.08130   93.48430
 1898.00000    8.79910   49.06460   93.55120
 1898.50000    7.84480   49.03120   93.61820
 1899.00000    6.90710   48.99790   93.68510
 1899.50000    6.51790   48.96450   93.75200
 1900.00000    6.38230   48.95830   93.81900
 1900.50000    6.32430   48.99250   93.88590
 1901.00000    6.49950   49.02660   93.95290
 1901.50000    6.51080   49.06080   94.01980
 1902.00000    6.22200   49.09500   94.08670
 1902.50000    6.06470   49.12920   94.15370
 1903.00000    6.39490   49.16330   94.22060
 1903.50000    6.83880   49.19750   94.27060
 1904.00000    7.40730   49.16260   94.23060
 1904.50000    7.81530   49.13140   94.19060
 1905.00000    7.81530   49.10340   94.15050
 1905.50000    7.81530   49.09710   94.11050
 1906.00000    7.81530   49.06910   94.23460
 1906.50000    7.96810   49.03740   94.37510
 1907.00000    8.52590   49.01980   94.51560
 1907.50000    8.93810   49.00610   94.65610
 1908.00000    8.87630   49.01710   94.79660
 1908.50000    8.49120   49.04410   94.98810
 1909.00000    8.62460   49.05380   94.82350
 1909.50000    8.95730   49.06740   94.65410
 1910.00000    8.83400   49.08090   94.48470
 1910.50000    8.51960   49.09450   94.31530
 1911.00000    8.77440   49.10000   94.14590
 1911.50000    8.99470   49.10000   93.97650
 1912.00000    8.87080   49.10000   93.80700
 1912.50000    8.22790   49.10000   93.72190
 1913.00000    7.75820   49.10020   93.67380
 1913.50000    7.14490   49.11290   93.62570
 1914.00000    7.24090   49.18550   93.59490
 1914.50000    7.61400   49.32730   93.65440
 1915.00000    8.60260   49.41300   93.71380
 1915.50000    9.49110   49.44980   93.77330
 1916.00000    9.61970   49.45790   93.83270
 1916.50000    9.61970   49.40350   93.89220
 1917.00000    9.61970   49.34840   93.97470
 1917.50000    9.61970   49.35460   94.08650
 1918.00000    9.61490   49.33860   93.90340
 1918.50000    9.43030   49.25020   93.69330
 1919.00000    8.83990   49.20500   93.48330
 1919.50000    8.53730   49.25890   93.27320
 1920.00000    8.85750   49.40550   93.06310
 1920.50000    9.02570   49.61870   92.85300
 1921.00000    9.05040   49.84960   92.64290
 1921.50000    9.45100   49.79930   92.43290
 1922.00000    9.17360   49.38170   92.23150
 1922.50000    8.12100   49.05250   92.36690
 1923.00000    6.63360   48.80910   92.62160
 1923.50000    5.09690   48.33820   92.80210
 1924.00000    5.12180   48.31930   92.98260
 1924.50000    6.00490   48.71470   93.58230
 1925.00000    7.51160   48.83080   93.91970
 1925.50000    8.67030   48.21990   94.57560
 1926.00000    8.96710   48.17440   94.89060
 1926.50000    9.00060   48.30830   94.93380
 1927.00000    8.87970   48.43710   95.15320
 1927.50000    8.58450   48.32280   95.32190
 1928.00000    9.01680   48.03060   95.40830
 1928.50000    9.49630   47.72010   95.50870
 1929.00000    9.46930   47.48480   95.60910
 1929.50000    9.18680   47.32030   95.70990
 1930.00000    8.69060   47.18700   96.39410
 1930.50000    8.41550   47.07880   96.43130
 1931.00000    8.41540   47.17870   96.23290
 1931.50000    8.41540   47.35150   96.10150
 1932.00000    8.41540   47.47560   95.95340
 1932.50000    8.40760   47.54690   95.72300
 1933.00000    8.15670   47.63060   95.69560
 1933.50000    8.38680   47.92630   95.69070
 1934.00000    8.89290   48.09840   95.66430
 1934.50000    9.28990   48.14740   95.59100
 1935.00000    9.68970   48.22460   95.51760
 1935.50000   10.06740   48.47520   95.44430
 1936.00000    9.80650   48.47330   95.37090
 1936.50000    8.63270   48.33230   95.29760
 1937.00000    7.15070   48.41610   95.22780
 1937.50000    6.64330   48.58840   95.16140
 1938.00000    6.70370   48.74670   95.09500
 1938.50000    7.65590   48.96930   95.02870
 1939.00000    7.73640   49.20930   94.96230
 1939.50000    7.78770   49.10050   94.79850
 1940.00000    7.51450   48.86380   94.61610
 1940.50000    6.93150   48.75350   94.43360
 1941.00000    6.98450   48.81830   94.28760
 1941.50000    7.19030   48.90530   94.37850
 1942.00000    7.44760   48.99220   94.44250
 1942.50000    7.76450   49.04150   94.50660
 1943.00000    7.85060   48.85420   94.57060
 1943.50000    8.28330   48.69920   94.63460
 1944.00000    8.40780   48.63480   94.69860
 1944.50000    8.39940   48.59300   94.76260
 1945.00000    7.87430   48.49720   94.82660
 1945.50000    7.83570   48.52030   94.89060
 1946.00000    7.81640   48.63300   94.95470
 1946.50000    7.81590   48.74380   95.01870
 1947.00000    7.81590   48.73050   95.08270
 1947.50000    7.81590   48.64900   95.11090
 1948.00000    7.81520   48.56750   95.02520
 1948.50000    7.79660   48.48580   94.93950
 1949.00000    7.74400   48.40630   94.90730
 1949.50000    7.11600   48.38510   94.89450
 1950.00000    6.67080   48.33780   94.88980
 1950.50000    6.68860   48.28050   94.89070
 1951.00000    7.08110   48.24290   94.89150
 1951.50000    7.73680   48.14800   94.88630
 1952.00000    8.67630   48.06930   94.87370
 1952.50000    8.48870   48.04600   94.86110
 1953.00000    7.72500   48.14340   94.84850
 1953.50000    7.13350   48.56140   94.83590
 1954.00000    6.80860   49.26100   94.82320
 1954.50000    6.77550   49.43670   94.81060
 1955.00000    6.75000   48.90540   94.79800
 1955.50000    6.83900   48.80130   94.78540
 1956.00000    7.13690   48.80130   94.59550
 1956.50000    7.55540   48.83680   94.39540
 1957.00000    7.91240   48.94910   94.19540
 1957.50000    8.01200   49.06130   94.10340
 1958.00000    8.32700   49.38620   94.10170
 1958.50000    8.64470   49.42850   94.24310
 1959.00000    8.52570   49.35950   94.45930
 1959.50000    7.28780   49.40300   94.67550
 1960.00000    6.28520   49.46100   94.89170
 1960.50000    5.73900   49.46400   94.95550
 1961.00000    5.94690   49.54260   94.95550
 1961.50000    6.21950   49.62430   94.78660
 1962.00000    6.56830   49.61650   94.52240
 1962.50000    7.12240   49.58040   94.27610
 1963.00000    7.40830   49.56210   94.31940
 1963.50000    7.44310   49.57430   94.36270
 1964.00000    7.44310   49.61710   94.40610
 1964.50000    7.08910   49.68490   94.43600
