~Version ---------------------------------------------------
VERS.   2.0 : CWLS log ASCII Standard -VERSION 2.0
WRAP.    NO : One line per depth step
DLM . SPACE : Column Data Section Delimiter
~Well ------------------------------------------------------
STRT .F                  185.0 : START DEPTH
STOP .F                 2424.0 : STOP DEPTH
STEP .F                    0.5 : STEP
NULL .                -9999.25 : NULL VALUE
COMP .                         : COMPANY
WELL .                         : WELL
FLD  .                         : FIELD
LOC  .                         : LOCATION
PROV .                         : PROVINCE
CNTY .                         : COUNTY
STAT .                         : STATE
CTRY .                         : COUNTRY
SRVC .                         : SERVICE COMPANY
DATE .                         : DATE
UWI  .                         : UNIQUE WELL ID
API  .                         : API NUMBER
SLAT .WGS84 1.4630186641632967 : SURFACE LATITUDE
SLON .WGS84   8.84881103165101 : SURFACE LONGITUDE
DATUM.F                3637.06 : DEPTH DATUM ELEV
~Curve Information -----------------------------------------
DEPT.F     : 1 MEASURED DEPTH
GRS .GAPI  : GAMMA RAY FROM SONIC LOG
DTCO.US/F  : DELTA-T COMPRESSIONAL
DTSM.US/F  : DELTA-T SHEAR
~Params ----------------------------------------------------
~Other -----------------------------------------------------
~ASCII -----------------------------------------------------
# ...
  986.00000   15.39760   53.04880   93.70710
  986.50000   15.32860   52.05490   93.80170
  987.00000   13.64610   51.45450   91.46640
  987.50000   11.87900   51.13060   89.58970
  988.00000   10.46490   50.83930   89.52810
  988.50000    9.72570   50.72370   90.23270
  989.00000    9.34640   50.64800   91.67690
  989.50000    8.83200   50.16940   91.53640
  990.00000    8.55040   49.49960   88.99290
  990.50000    8.38660   48.62860   87.54990
  991.00000    9.00850   46.72280   87.73970
  991.50000   10.26950   44.53560   88.03160
  992.00000   11.52830   44.74770   88.42860
  992.50000   12.81540   46.42930   89.25610
  993.00000   13.80350   49.32930   88.88920
  993.50000   12.93360   51.43020   88.12110
  994.00000   11.49270   52.18150   88.22280
  994.50000    9.69370   55.52630   90.92050
  995.00000    8.27840   59.46060  101.83960
  995.50000    7.58540   62.58950  112.75870
  996.00000    9.29180   66.26000  123.67780
  996.50000   11.32810   68.60330  131.03550
  997.00000   13.36450   68.46270  130.42630
  997.50000   14.54340   65.88580  119.85040
  998.00000   13.58060   60.34080  107.29170
  998.50000   12.15530   54.35380   96.65380
  999.00000   10.72990   52.24380   94.12910
  999.50000    9.82770   51.37430   92.05850
 1000.00000    9.68410   50.60490   91.44980
 1000.50000    9.71650   50.08860   92.28370
 1001.00000    9.65660   51.30050   93.21540
 1001.50000    9.13320   52.65380   93.32330
 1002.00000    8.69970   51.82670   93.43940
 1002.50000    8.80720   50.46290   93.89920
 1003.00000    9.20890   48.89730   93.87730
 1003.50000    9.25390   48.82270   93.37600
 1004.00000    9.03680   48.98340   93.01990
 1004.50000    7.74080   50.90770   93.58320
 1005.00000    7.76490   53.21310   96.54380
 1005.50000    9.37030   56.18060   99.50440
 1006.00000   11.92180   58.71760  102.46510
 1006.50000   14.60010   58.90660  102.79650
 1007.00000   14.57730   57.79070  101.70810
 1007.50000   12.40130   55.30400   98.67070
 1008.00000   10.19050   53.41380   95.63320
 1008.50000    8.51770   52.26830   92.59580
 1009.00000    8.12220   51.13160   90.80960
 1009.50000    8.75030   50.20800   89.94890
 1010.00000   10.29040   49.99740   89.08810
 1010.50000   12.27750   49.81650   88.86220
 1011.00000   14.26460   49.93600   89.82210
 1011.50000   14.48200   50.34580   90.89860
 1012.00000   12.72830   50.65190   91.97500
 1012.50000   10.53260   50.96440   92.84480
 1013.00000    8.21000   51.04480   92.95260
 1013.50000    7.51370   50.52110   92.36510
 1014.00000    6.93150   50.41290   91.29390
 1014.50000    6.31130   50.84530   90.22570
 1015.00000    6.10370   51.25600   90.44070
 1015.50000    6.07880   51.11940   91.10780
 1016.00000    5.84010   50.37460   91.24830
 1016.50000    5.49740   49.80510   90.61860
 1017.00000    4.99380   49.60760   90.16240
 1017.50000    4.66970   49.49380   89.56860
 1018.00000    4.49790   48.77830   89.49530
 1018.50000    4.61400   48.19480   89.42200
 1019.00000    4.66020   47.80030   89.24610
 1019.50000    5.18230   46.37250   88.77400
 1020.00000    6.57800   45.11640   87.45930
 1020.50000    8.34940   44.31330   86.06190
 1021.00000    9.98240   43.86160   84.66460
 1021.50000   11.62010   42.89730   84.26870
 1022.00000   12.49750   44.48360   93.91730
 1022.50000   12.63130   48.98500  107.13790
 1023.00000   12.23030   54.19510  119.79200
 1023.50000   11.71450   57.95980  119.62030
 1024.00000   11.03000   55.74080  115.46650
 1024.50000   10.43970   52.91920  109.26210
 1025.00000    9.45310   48.75670  103.05760
 1025.50000    8.39340   46.11820   96.85320
 1026.00000    8.22820   45.73010   90.64870
 1026.50000    8.98040   45.70640   94.66660
 1027.00000    9.46610   48.78930  103.24220
 1027.50000   10.22280   53.35200  108.65630
 1028.00000   10.69410   55.64150  114.07050
 1028.50000   11.26940   55.64870  119.48470
 1029.00000   11.56220   56.03850  124.85180
 1029.50000   11.78060   57.87620  125.50660
 1030.00000   11.87930   59.39580  124.69150
 1030.50000   11.75180   59.43840  120.21280
 1031.00000   11.40840   59.44060  115.18240
 1031.50000   10.97500   59.64950  110.01720
 1032.00000   10.57680   59.44330  104.68010
 1032.50000   10.14690   56.86590   99.34300
 1033.00000    9.20450   53.62970   94.00590
 1033.50000    8.20160   50.29350   90.91650
 1034.00000    7.55710   48.84610   93.54040
 1034.50000    7.61060   48.06760   96.05390
 1035.00000    8.65540   47.75240   96.96730
 1035.50000    9.64420   46.84200   97.71140
 1036.00000    9.57810   45.90340   99.83580
 1036.50000    8.97800   45.94530  103.50780
 1037.00000    8.75570   46.78000  107.17970
 1037.50000    9.55610   46.61270  109.40910
 1038.00000   10.23420   46.22510  108.61400
 1038.50000   10.32770   46.87760  106.54790
 1039.00000    8.74820   47.20660  101.79300
 1039.50000    6.99250   47.49130   96.26140
 1040.00000    5.78300   50.02520   92.97990
 1040.50000    6.19290   52.70920   93.75310
 1041.00000    7.02550   54.54590   94.42690
 1041.50000    8.11920   54.93320   93.56280
 1042.00000    8.54480   54.20940   92.56050
 1042.50000    8.42620   53.36250   91.96940
 1043.00000    7.79480   53.16790   92.46340
 1043.50000    7.08340   53.90140   94.30870
 1044.00000    7.18930   55.21810   97.36690
 1044.50000    8.10810   56.53490  100.42540
 1045.00000   10.16340   57.85160  103.48380
 1045.50000   12.18630   58.36420  106.02460
 1046.00000   13.87820   58.30370  108.65400
 1046.50000   11.41690   58.22920  110.03580
 1047.00000    8.49740   57.35390  107.46720
 1047.50000    6.26870   55.75580  103.62930
 1048.00000    5.90340   54.18740   99.84760
 1048.50000    6.02470   52.77050   98.06270
 1049.00000    6.53390   51.89550   96.30940
 1049.50000    6.54230   51.40180   95.41220
 1050.00000    6.54860   51.03380   95.21290
 1050.50000    6.84110   50.79990   95.01910
 1051.00000    7.13350   50.65020   94.15140
 1051.50000    7.43450   50.47060   93.06530
 1052.00000    7.88280   50.33870   92.95480
 1052.50000    8.43180   50.10620   92.95480
 1053.00000    8.62570   50.25030   93.38140
 1053.50000    8.63810   50.59830   93.85710
 1054.00000    8.30470   51.30650   94.51150
 1054.50000    8.40230   51.87100   95.59180
 1055.00000    8.89590   52.08800   96.18430
 1055.50000    9.17490   52.03920   95.66150
 1056.00000    8.67760   51.71530   94.23750
 1056.50000    7.44030   51.25990   92.82900
 1057.00000    6.59960   51.16230   91.87550
 1057.50000    6.32350   51.18090   91.87300
 1058.00000    6.36020   51.02310   92.22270
 1058.50000    6.81530   50.45860   93.05590
 1059.00000    7.43090   50.33500   93.55640
 1059.50000    7.07560   51.45840   94.45440
 1060.00000    6.15740   53.52450   98.33240
 1060.50000    5.70810   55.98250  101.67340
 1061.00000    6.01420   58.70120  104.73740
 1061.50000    6.90370   61.01790  107.26150
 1062.00000    7.34890   58.29280  107.78360
 1062.50000    7.48550   52.65110  104.06120
 1063.00000    7.29990   47.64820   98.39400
 1063.50000    7.04500   46.34260   94.88090
 1064.00000    7.21710   46.88280   93.81170
 1064.50000    7.89120   48.57070   94.02570
 1065.00000    8.40370   50.41320   94.58940
 1065.50000    9.80230   51.14560   95.15300
 1066.00000   11.41420   51.31200   95.42800
 1066.50000   12.90680   51.15880   95.48140
 1067.00000   12.42440   51.21300   95.36490
 1067.50000   11.41980   52.63640   95.24830
 1068.00000   10.41520   53.20400   95.17920
 1068.50000    9.57210   51.91620   95.43650
 1069.00000    9.37260   50.77530   96.12920
 1069.50000    9.60330   50.41780  100.24330
 1070.00000   10.34450   50.79570  104.45760
 1070.50000   10.90860   50.92040  109.00240
 1071.00000   11.06530   49.82900  117.18830
 1071.50000   10.63130   48.25700  121.25860
 1072.00000   10.83780   46.51510  124.10970
 1072.50000   11.73280   45.70590  126.36280
 1073.00000   11.81590   49.90530  124.95640
 1073.50000   11.10410   56.82470  119.85770
 1074.00000   10.96740   59.74220  114.76620
 1074.50000   11.55890   58.63630  110.51330
