~Version ---------------------------------------------------
VERS.   2.0 : CWLS log ASCII Standard -VERSION 2.0
WRAP.    NO : One line per depth step
DLM . SPACE : Column Data Section Delimiter
~Well ------------------------------------------------------
STRT .F                  185.0 : START DEPTH
STOP .F                 2424.0 : STOP DEPTH
STEP .F                    0.5 : STEP
NULL .                -9999.25 : NULL VALUE
COMP .                         : COMPANY
WELL .                         : WELL
FLD  .                         : FIELD
LOC  .                         : LOCATION
PROV .                         : PROVINCE
CNTY .                         : COUNTY
STAT .                         : STATE
CTRY .                         : COUNTRY
SRVC .                         : SERVICE COMPANY
DATE .                         : DATE
UWI  .                         : UNIQUE WELL ID
API  .                         : API NUMBER
SLAT .WGS84 1.4630186641632967 : SURFACE LATITUDE
SLON .WGS84   8.84881103165101 : SURFACE LONGITUDE
DATUM.F                3637.06 : DEPTH DATUM ELEV
~Curve Information -----------------------------------------
DEPT.F     : 1 MEASURED DEPTH
GRS .GAPI  : GAMMA RAY FROM SONIC LOG
DTCO.US/F  : DELTA-T COMPRESSIONAL
DTSM.US/F  : DELTA-T SHEAR
~Params ----------------------------------------------------
~Other -----------------------------------------------------
~ASCII -----------------------------------------------------
# ...
 1342.00000    6.76130   50.07290   90.94660
 1342.50000    7.18010   50.06280   90.76400
 1343.00000    8.10410   50.11240   90.74040
 1343.50000    8.92280   50.05400   91.19870
 1344.00000    9.01790   50.01660   91.87750
 1344.50000    8.97200   50.28950   92.58010
 1345.00000    8.08900   50.73470   93.28280
 1345.50000    7.43240   51.01820   93.96570
 1346.00000    7.23500   51.12210   94.23110
 1346.50000    7.40140   51.43970   94.52490
 1347.00000    8.05820   51.51000   94.71730
 1347.50000    8.96560   51.55170   94.87470
 1348.00000   10.20290   51.62420   94.89230
 1348.50000   11.20710   51.63650   94.87690
 1349.00000   11.37690   51.45650   94.73590
 1349.50000   10.96020   51.14840   93.76800
 1350.00000   10.18730   51.00660   93.37380
 1350.50000    9.39820   50.88410   93.09460
 1351.00000    8.25240   51.00390   92.80370
 1351.50000    6.59240   51.24120   92.52380
 1352.00000    6.01080   51.13760   92.32440
 1352.50000    5.73150   50.61880   92.12330
 1353.00000    6.13710   50.10010   92.10600
 1353.50000    6.35620   50.25170   92.07560
 1354.00000    6.20600   50.49160   92.02870
 1354.50000    6.29700   50.58840   92.47830
 1355.00000    6.51500   50.46830   92.33080
 1355.50000    6.59690   50.18310   92.22310
 1356.00000    6.83920   49.89240   92.54680
 1356.50000    7.22420   49.70390   92.58900
 1357.00000    7.42090   49.71100   92.33760
 1357.50000    7.43410   49.83650   92.08630
 1358.00000    7.69380   49.87580   91.99420
 1358.50000    7.84010   49.88170   92.13060
 1359.00000    8.06300   49.89860   92.50420
 1359.50000    8.33620   49.93670   93.28910
 1360.00000    8.89800   49.88360   93.36380
 1360.50000   10.00250   49.82700   93.29330
 1361.00000   11.18080   50.06540   92.64660
 1361.50000   12.35900   50.37290   92.16140
 1362.00000   13.25930   50.62100   91.82880
 1362.50000   13.09580   50.65750   91.77670
 1363.00000   12.71710   50.35840   91.72450
 1363.50000   12.38910   49.95760   91.69160
 1364.00000   12.26590   49.78040   91.38400
 1364.50000   12.00590   49.83480   91.06300
 1365.00000   11.53800   50.24500   90.74190
 1365.50000   12.04250   50.62560   90.42090
 1366.00000   12.99350   50.82800   90.27670
 1366.50000   14.33350   51.05780   90.21500
 1367.00000   15.56580   51.13640   90.40070
 1367.50000   17.83160   51.05270   90.59880
 1368.00000   18.79380   50.76830   90.82490
 1368.50000   19.09810   50.37110   91.31230
 1369.00000   17.00910   50.07200   91.86900
 1369.50000   13.93880   50.17090   92.42570
 1370.00000   11.83800   50.47790   93.57210
 1370.50000   11.49590   50.90430   94.36360
 1371.00000   12.07800   51.24770   94.69220
 1371.50000   12.74380   51.26500   95.01090
 1372.00000   13.72560   51.01170   95.18970
 1372.50000   14.05420   50.87550   95.02390
 1373.00000   14.07640   50.85740   94.71660
 1373.50000   13.85260   50.88430   95.08210
 1374.00000   13.69190   50.77060   95.13000
 1374.50000   13.51920   50.62780   94.96620
 1375.00000   13.98650   50.41960   94.80240
 1375.50000   14.58900   50.14850   94.50660
 1376.00000   16.15050   49.90770   94.79790
 1376.50000   17.80020   49.66680   95.19710
 1377.00000   17.02970   49.42590   95.30180
 1377.50000   14.12990   49.74460   95.17580
 1378.00000   11.81950   50.25340   94.64420
 1378.50000   12.56380   50.26170   93.83270
 1379.00000   13.34590   49.99280   93.35330
 1379.50000   13.40060   49.87980   93.29290
 1380.00000   11.95490   49.94080   93.53010
 1380.50000   10.80030   50.04200   93.97940
 1381.00000   10.78810   50.08580   94.42880
 1381.50000   11.16650   49.99230   94.48710
 1382.00000   11.10280   49.61340   94.69210
 1382.50000    9.70420   49.18260   94.44720
 1383.00000    8.43580   48.90490   94.09840
 1383.50000    7.19550   48.73790   93.87670
 1384.00000    6.81770   48.63230   93.63160
 1384.50000    6.65760   48.76190   93.51320
 1385.00000    7.10480   48.68010   93.68910
 1385.50000    8.42970   48.63170   93.21190
 1386.00000    9.71150   48.99560   92.57170
 1386.50000   11.19880   49.73180   92.03510
 1387.00000   12.35890   50.46250   91.90860
 1387.50000   13.06440   50.65080   92.27130
 1388.00000   14.01180   50.54380   92.63410
 1388.50000   15.50610   50.42210   92.99680
 1389.00000   16.35540   50.07120   93.21710
 1389.50000   16.18580   49.65600   93.48700
 1390.00000   14.56120   49.50120   93.77500
 1390.50000   12.97360   49.46730   94.20840
 1391.00000   12.69080   49.68310   94.81690
 1391.50000   12.73220   50.02760   95.42550
 1392.00000   12.96870   50.27840   95.90890
 1392.50000   14.18790   50.47350   96.06820
 1393.00000   15.84570   50.68610   96.22750
 1393.50000   17.11740   51.07820   96.89840
 1394.00000   17.39380   51.77950   97.86930
 1394.50000   17.42110   52.17320   98.91020
 1395.00000   17.40390   52.66600  100.31160
 1395.50000   17.05570   53.04790  101.00800
 1396.00000   16.61830   53.15550  101.33610
 1396.50000   16.53620   53.08570  101.27190
 1397.00000   17.87490   52.97920  101.22570
 1397.50000   19.44140   52.80680  100.83390
 1398.00000   18.93870   52.47030  100.36950
 1398.50000   16.66410   52.12550   99.86880
 1399.00000   14.38950   51.78500   99.36600
 1399.50000   11.47390   51.32800   98.86330
 1400.00000    8.77970   51.08260   98.36050
 1400.50000    8.30310   50.95620   98.01590
 1401.00000    7.83110   50.79160   98.67340
 1401.50000    8.03240   50.64830   99.68380
 1402.00000    8.49900   50.79050  100.69420
 1402.50000    8.80550   51.20440  101.70470
 1403.00000    9.27310   51.38420  102.29230
 1403.50000   10.19930   51.37240  102.78290
 1404.00000   11.15590   51.30920  103.11130
 1404.50000   12.19140   51.26410  102.94350
 1405.00000   13.12780   51.31350  102.34080
 1405.50000   13.03670   51.72070  102.10030
 1406.00000   12.40560   52.22350  102.07660
 1406.50000   11.45760   52.44130  102.05820
 1407.00000   10.50970   52.43620  101.83040
 1407.50000    9.67580   52.16140  101.23780
 1408.00000    9.55380   51.85140  100.95860
 1408.50000    9.87910   51.89560  100.83040
 1409.00000   10.81310   51.93530  100.40850
 1409.50000   12.20630   51.80280   99.98670
 1410.00000   13.22130   51.76190   99.88180
 1410.50000   13.60110   51.93140  100.35590
 1411.00000   12.41920   52.05300  101.00930
 1411.50000   10.42720   52.21780  101.57990
 1412.00000    8.91190   52.53900  101.84590
 1412.50000    8.45510   53.18630  102.19490
 1413.00000    8.91070   53.44610  102.43140
 1413.50000    9.60760   53.21940  102.28170
 1414.00000   10.30460   52.90120  101.73090
 1414.50000   10.66320   52.65220  100.77530
 1415.00000   10.20960   52.36470  100.22860
 1415.50000    9.46390   52.44090   99.87160
 1416.00000    8.83910   52.96800  100.00700
 1416.50000    8.45820   53.39110  100.14240
 1417.00000    8.64840   53.41970  100.66500
 1417.50000    9.04110   53.35190  100.96100
 1418.00000    9.96030   53.16390  101.22250
 1418.50000   10.60960   52.93340  101.13820
 1419.00000   11.28400   52.75840  100.89190
 1419.50000   11.46420   52.49230  100.64550
 1420.00000   11.51110   52.22620  100.39920
 1420.50000   11.38690   52.13760  100.15280
 1421.00000   10.76520   52.48530  100.10220
 1421.50000    9.97320   52.83290  100.17880
 1422.00000    9.18120   53.18590  100.31120
 1422.50000    8.39220   53.32860  100.53250
 1423.00000    7.98170   53.55780  101.04460
 1423.50000    7.83350   54.01900  101.60880
 1424.00000    8.38720   54.37800  102.17300
 1424.50000    9.36560   54.43400  102.57580
 1425.00000    9.93440   54.45670  102.90460
 1425.50000   11.56110   54.56490  103.27380
 1426.00000   12.87110   54.72410  103.74770
 1426.50000   13.94330   54.83660  104.05540
 1427.00000   15.21720   54.97560  104.10690
 1427.50000   17.59520   55.03990  104.00040
 1428.00000   21.58650   54.97390  103.71310
 1428.50000   24.96080   54.76180  103.41840
 1429.00000   26.42190   54.04080  103.03780
 1429.50000   24.52980   53.11320  102.87300
 1430.00000   19.60490   52.63090  102.64590
 1430.50000   15.57560   52.59810  102.31440
