~Version ---------------------------------------------------
VERS.   2.0 : CWLS log ASCII Standard -VERSION 2.0
WRAP.    NO : One line per depth step
DLM . SPACE : Column Data Section Delimiter
~Well ------------------------------------------------------
STRT .F                  185.0 : START DEPTH
STOP .F                 2424.0 : STOP DEPTH
STEP .F                    0.5 : STEP
NULL .                -9999.25 : NULL VALUE
COMP .                         : COMPANY
WELL .                         : WELL
FLD  .                         : FIELD
LOC  .                         : LOCATION
PROV .                         : PROVINCE
CNTY .                         : COUNTY
STAT .                         : STATE
CTRY .                         : COUNTRY
SRVC .                         : SERVICE COMPANY
DATE .                         : DATE
UWI  .                         : UNIQUE WELL ID
API  .                         : API NUMBER
SLAT .WGS84 1.4630186641632967 : SURFACE LATITUDE
SLON .WGS84   8.84881103165101 : SURFACE LONGITUDE
DATUM.F                3637.06 : DEPTH DATUM ELEV
~Curve Information -----------------------------------------
DEPT.F     : 1 MEASURED DEPTH
GRS .GAPI  : GAMMA RAY FROM SONIC LOG
DTCO.US/F  : DELTA-T COMPRESSIONAL
DTSM.US/F  : DELTA-T SHEAR
~Params ----------------------------------------------------
~Other -----------------------------------------------------
~ASCII -----------------------------------------------------
# ...
 1253.00000    9.30030   48.72860   91.04020
 1253.50000    9.41890   48.85060   91.16880
 1254.00000    9.57220   49.47130   91.29750
 1254.50000    9.91000   50.27510   91.42610
 1255.00000   10.16600   50.49010   91.62880
 1255.50000   10.42720   50.59900   92.09800
 1256.00000   10.76520   50.57620   92.30760
 1256.50000   10.87320   50.55610   92.63750
 1257.00000   10.67350   50.86830   93.09710
 1257.50000   10.53380   51.02980   93.02350
 1258.00000   10.79710   51.07390   92.94770
 1258.50000   10.98500   51.30000   92.92970
 1259.00000   11.08780   51.52090   92.82890
 1259.50000   11.05770   51.65830   92.95030
 1260.00000   10.59120   52.00410   93.73480
 1260.50000    9.81190   52.61330   94.40150
 1261.00000    8.86810   52.66000   93.87760
 1261.50000    8.11690   52.39320   93.35370
 1262.00000    8.11070   52.11760   93.26370
 1262.50000    8.37550   51.81460   93.29780
 1263.00000    8.65880   51.44680   94.38080
 1263.50000    8.24730   51.43890   95.49860
 1264.00000    8.40710   51.89990   95.78910
 1264.50000    8.94760   52.08740   95.83760
 1265.00000   10.04780   51.55660   95.68340
 1265.50000   10.78390   51.14990   95.63400
 1266.00000   10.57020   51.07650   95.64870
 1266.50000    9.71620   51.06260   95.65900
 1267.00000    8.86740   51.01510   95.66940
 1267.50000    8.20650   50.57390   95.36770
 1268.00000    8.28070   50.03500   95.83110
 1268.50000    8.54440   50.35550   96.28630
 1269.00000    9.25320   50.77960   96.47170
 1269.50000    9.70820   51.14890   96.48620
 1270.00000   10.26280   51.44890   96.48240
 1270.50000   10.51640   51.79300   96.64450
 1271.00000   10.62340   52.15080   96.90010
 1271.50000   11.35120   52.20200   97.21130
 1272.00000   12.03230   52.11080   97.27830
 1272.50000   12.06820   51.81400   97.03220
 1273.00000   11.51520   51.61260   96.58440
 1273.50000   11.11230   51.56770   96.13660
 1274.00000   11.09940   52.01740   96.43390
 1274.50000   11.04910   52.23750   96.47400
 1275.00000   10.42540   52.58130   96.46720
 1275.50000   10.06920   52.80130   96.43900
 1276.00000    9.69710   53.01260   95.93330
 1276.50000    9.35930   53.26430   95.50410
 1277.00000    9.17430   53.23680   94.88610
 1277.50000    8.87910   52.93820   94.04810
 1278.00000    8.37050   52.59930   92.91850
 1278.50000    8.08060   52.02760   92.09560
 1279.00000    7.81300   51.18010   91.30130
 1279.50000    7.80150   50.36270   90.64220
 1280.00000    7.30990   49.87750   90.14640
 1280.50000    6.89480   49.89160   90.06450
 1281.00000    6.50860   50.27390   90.89330
 1281.50000    6.05200   51.13700   91.86850
 1282.00000    6.04540   51.71530   92.84370
 1282.50000    6.50580   51.96990   93.45720
 1283.00000    7.18740   51.85560   93.34840
 1283.50000    7.91720   51.57670   93.03350
 1284.00000    8.35410   51.30970   92.66110
 1284.50000    8.50460   51.15360   92.17090
 1285.00000    8.64680   51.23870   91.69130
 1285.50000    8.64080   51.89940   91.59300
 1286.00000    8.90460   52.83850   91.63300
 1286.50000    9.20110   54.04660   91.70780
 1287.00000    9.13090   54.57780   91.98550
 1287.50000    8.18700   54.84950   92.35350
 1288.00000    7.57940   55.00680   93.24870
 1288.50000    7.48130   55.14300   94.10450
 1289.00000    7.76700   55.14890   94.03700
 1289.50000    7.97910   54.93970   93.81730
 1290.00000    7.98610   54.40400   93.57670
 1290.50000    7.97970   54.25880   93.30990
 1291.00000    7.97340   54.59980   93.04690
 1291.50000    7.96710   54.54740   92.90540
 1292.00000    8.35240   54.20560   92.65630
 1292.50000    8.85240   53.93720   92.04360
 1293.00000    9.08450   53.71180   91.71420
 1293.50000    9.12610   53.54650   91.52870
 1294.00000    9.12560   53.53400   91.41540
 1294.50000    8.88020   53.53770   91.39090
 1295.00000    8.39910   53.59600   91.29990
 1295.50000    7.23600   53.80600   91.60190
 1296.00000    6.41520   53.97210   91.74700
 1296.50000    5.83130   54.21130   92.26410
 1297.00000    5.48050   54.25780   92.78130
 1297.50000    5.81840   54.38100   92.94820
 1298.00000    6.13170   54.55800   93.81850
 1298.50000    7.10640   54.71460   94.70740
 1299.00000    7.78920   54.73670   94.65140
 1299.50000    7.40870   54.74870   93.93020
 1300.00000    7.53500   54.74690   92.91960
 1300.50000    8.39300   54.72320   91.86280
 1301.00000    9.25710   54.36270   90.90090
 1301.50000    9.55850   53.75560   90.36170
 1302.00000    9.64990   53.17200   90.09420
 1302.50000    9.91010   52.83960   89.82680
 1303.00000   10.19730   52.87630   89.55940
 1303.50000   10.43430   53.06320   89.33700
 1304.00000   10.98660   53.25010   89.12090
 1304.50000   11.58110   53.41010   88.90470
 1305.00000   11.67970   53.47710   88.83410
 1305.50000   10.64230   53.53310   88.83410
 1306.00000   10.02980   53.63460   88.95140
 1306.50000    9.52300   53.75750   89.12560
 1307.00000    9.10450   53.72040   89.29980
 1307.50000    8.64480   53.76250   89.59050
 1308.00000    8.43980   53.71590   89.93620
 1308.50000    8.56220   53.68060   90.28200
 1309.00000    8.89170   53.78120   90.59010
 1309.50000    9.00380   53.83120   90.60770
 1310.00000    9.07360   53.60240   90.71290
 1310.50000    9.40990   53.12760   90.90540
 1311.00000    9.59640   52.67450   90.99510
 1311.50000    9.61100   52.45050   91.00430
 1312.00000    9.88650   52.37110   91.01040
 1312.50000   10.39420   52.35010   91.12490
 1313.00000   10.84840   52.33490   91.53520
 1313.50000   11.54520   52.33440   91.90520
 1314.00000   12.17910   52.33440   92.25180
 1314.50000   12.19800   52.33150   92.59850
 1315.00000   11.94020   52.32800   92.94510
 1315.50000   11.05590   52.25780   93.51750
 1316.00000   10.32110   52.19090   93.76430
 1316.50000    9.34510   52.15540   94.05790
 1317.00000    9.20750   52.11980   94.34060
 1317.50000   10.00150   52.03050   94.47960
 1318.00000   11.01840   51.71370   94.34670
 1318.50000   12.28660   51.39680   94.60810
 1319.00000   12.15880   51.14820   95.58180
 1319.50000   11.64500   51.14820   96.34250
 1320.00000   11.18080   51.48240   96.79080
 1320.50000   11.19200   51.90760   97.23990
 1321.00000   11.70400   52.33280   97.60070
 1321.50000   12.16240   52.72520   97.65750
 1322.00000   12.27240   52.97070   97.69170
 1322.50000   12.05110   53.04880   97.71110
 1323.00000   11.38930   52.83820   97.98450
 1323.50000   10.22630   52.48940   98.33310
 1324.00000    9.82500   52.40470   99.01970
 1324.50000    9.81340   52.59730   99.49000
 1325.00000   10.29780   53.34430   99.74510
 1325.50000   10.41400   53.60920   99.81870
 1326.00000   10.24950   53.31710   99.59980
 1326.50000   10.23060   52.78090   99.11790
 1327.00000   10.24990   52.78920   98.63590
 1327.50000   10.26930   52.61660   98.17060
 1328.00000   10.29740   52.27180   97.64350
 1328.50000   10.40520   52.47090   97.23240
 1329.00000   10.77870   52.81250   96.69730
 1329.50000   11.28850   52.60920   96.01340
 1330.00000   10.99960   51.94200   95.14870
 1330.50000    9.93030   51.33430   94.34850
 1331.00000    8.56640   50.97240   93.64770
 1331.50000    8.67120   50.62340   92.99200
 1332.00000    9.81730   50.59260   92.73800
 1332.50000   12.38830   50.79060   92.37870
 1333.00000   15.01830   50.86990   92.01930
 1333.50000   16.12890   50.88990   92.14280
 1334.00000   15.93410   50.70540   92.47650
 1334.50000   13.47970   50.50700   92.32800
 1335.00000   12.25830   50.67170   92.09970
 1335.50000   12.22360   51.26690   92.31370
 1336.00000   12.27390   51.55840   92.76770
 1336.50000   11.68860   51.88830   93.38360
 1337.00000   10.56540   52.05390   94.11340
 1337.50000    9.57750   52.11860   94.46030
 1338.00000    9.06470   52.31850   94.29390
 1338.50000    9.00340   52.17050   94.23040
 1339.00000    8.92370   51.75060   93.97840
 1339.50000    7.99070   51.20040   93.72650
 1340.00000    7.07930   50.96830   93.33440
 1340.50000    6.61530   50.72590   92.68590
 1341.00000    6.61450   50.42470   92.19900
 1341.50000    6.61360   50.15850   91.49580
