~Version ---------------------------------------------------
VERS.   2.0 : CWLS log ASCII Standard -VERSION 2.0
WRAP.    NO : One line per depth step
DLM . SPACE : Column Data Section Delimiter
~Well ------------------------------------------------------
STRT .F                  185.0 : START DEPTH
STOP .F                 2424.0 : STOP DEPTH
STEP .F                    0.5 : STEP
NULL .                -9999.25 : NULL VALUE
COMP .                         : COMPANY
WELL .                         : WELL
FLD  .                         : FIELD
LOC  .                         : LOCATION
PROV .                         : PROVINCE
CNTY .                         : COUNTY
STAT .                         : STATE
CTRY .                         : COUNTRY
SRVC .                         : SERVICE COMPANY
DATE .                         : DATE
UWI  .                         : UNIQUE WELL ID
API  .                         : API NUMBER
SLAT .WGS84 1.4630186641632967 : SURFACE LATITUDE
SLON .WGS84   8.84881103165101 : SURFACE LONGITUDE
DATUM.F                3637.06 : DEPTH DATUM ELEV
~Curve Information -----------------------------------------
DEPT.F     : 1 MEASURED DEPTH
GRS .GAPI  : GAMMA RAY FROM SONIC LOG
DTCO.US/F  : DELTA-T COMPRESSIONAL
DTSM.US/F  : DELTA-T SHEAR
~Params ----------------------------------------------------
~Other -----------------------------------------------------
~ASCII -----------------------------------------------------
# ...
 1787.00000   10.16060   49.13720   94.75250
 1787.50000   10.06150   49.56490   94.17310
 1788.00000   10.46980   49.81260   93.58210
 1788.50000   10.47060   49.88890   93.21010
 1789.00000    9.40670   49.89940   92.94590
 1789.50000    8.63350   49.94140   93.28930
 1790.00000    9.00070   49.98080   93.70840
 1790.50000   10.26240   50.06990   93.66060
 1791.00000   11.12390   50.16990   93.46700
 1791.50000   10.51760   50.23240   93.33430
 1792.00000    8.90830   50.11870   93.22450
 1792.50000    7.53450   49.88750   93.33270
 1793.00000    7.04360   49.58800   94.07920
 1793.50000    6.95210   49.37310   94.44880
 1794.00000    7.15050   49.19800   94.55860
 1794.50000    7.33260   49.02280   94.76400
 1795.00000    7.66260   48.84770   94.95930
 1795.50000    7.88140   48.69670   95.15450
 1796.00000    7.97810   48.63030   95.34900
 1796.50000    7.82610   48.54290   95.53660
 1797.00000    7.60220   48.77030   95.72410
 1797.50000    7.85570   49.14880   95.87610
 1798.00000    8.18120   49.30650   95.96240
 1798.50000    8.60360   49.10790   96.04870
 1799.00000    8.67670   49.47550   96.13490
 1799.50000    8.64350   49.89750   96.22120
 1800.00000    8.32290   49.88370   96.32900
 1800.50000    7.90770   49.86910   96.51400
 1801.00000    7.62130   50.09120   96.40390
 1801.50000    7.53710   50.40040   96.13290
 1802.00000    7.36650   50.56930   95.77970
 1802.50000    6.98700   50.68010   95.32650
 1803.00000    7.06140   50.66710   94.95650
 1803.50000    7.31050   50.24080   94.59650
 1804.00000    7.13730   49.41180   94.50940
 1804.50000    6.82000   48.90450   94.49010
 1805.00000    6.18700   48.82760   94.47960
 1805.50000    5.84410   48.81280   94.57430
 1806.00000    6.37280   48.81230   94.66900
 1806.50000    6.93650   49.00600   94.76370
 1807.00000    7.46960   49.68740   94.85490
 1807.50000    7.34660   50.40500   94.68970
 1808.00000    7.35370   50.58970   94.23670
 1808.50000    7.54210   50.81440   93.83990
 1809.00000    7.67310   51.05950   93.71400
 1809.50000    7.92840   51.11440   93.71030
 1810.00000    8.31760   51.08840   93.96380
 1810.50000    8.37590   51.06320   93.99140
 1811.00000    8.41550   50.94840   93.85870
 1811.50000    8.24060   50.82680   93.75830
 1812.00000    7.84540   50.56020   93.63950
 1812.50000    7.54160   50.27210   93.52070
 1813.00000    7.56290   49.96860   93.37610
 1813.50000    7.99320   49.63940   93.50550
 1814.00000    8.25870   49.51130   93.76930
 1814.50000    8.07000   49.48340   93.99790
 1815.00000    7.47050   49.61030   94.40230
 1815.50000    7.24740   49.76020   94.75630
 1816.00000    7.45960   49.84990   95.09210
 1816.50000    7.80680   49.87380   95.19350
 1817.00000    8.24980   49.85780   95.02490
 1817.50000    8.59480   49.81370   94.89650
 1818.00000    8.73250   49.76900   94.74570
 1818.50000    8.71950   49.63220   94.49950
 1819.00000    8.53920   49.49800   94.44130
 1819.50000    8.28350   49.37250   94.28100
 1820.00000    7.84130   49.20340   94.12060
 1820.50000    7.60140   49.06500   93.96020
 1821.00000    7.97790   49.09990   93.79980
 1821.50000    8.43010   49.17640   93.79120
 1822.00000    8.68920   49.23740   93.79120
 1822.50000    8.71910   49.24740   93.79120
 1823.00000    8.53100   49.18830   93.79120
 1823.50000    8.06460   49.12920   93.85370
 1824.00000    7.59610   49.07770   94.02700
 1824.50000    7.50180   49.01420   94.19880
 1825.00000    7.44780   48.90030   94.35100
 1825.50000    7.34890   48.79120   94.50320
 1826.00000    7.16980   48.79790   94.65540
 1826.50000    6.82290   48.82600   94.80760
 1827.00000    6.33010   48.85400   94.95980
 1827.50000    6.15830   48.88210   95.11200
 1828.00000    6.25700   48.91880   95.26420
 1828.50000    6.74090   48.98540   95.41640
 1829.00000    7.20890   49.05200   95.56860
 1829.50000    7.28970   49.09340   95.72070
 1830.00000    7.13680   49.12440   95.87290
 1830.50000    6.93980   49.14740   95.98060
 1831.00000    7.05850   49.15210   96.07140
 1831.50000    7.25180   49.15670   96.16220
 1832.00000    7.36600   49.16140   96.25300
 1832.50000    6.98780   49.16600   96.34380
 1833.00000    6.71290   49.17050   96.34580
 1833.50000    6.69750   49.17050   96.31350
 1834.00000    6.82420   49.15050   96.28110
 1834.50000    6.87980   49.11050   96.24880
 1835.00000    6.42990   49.11050   96.21650
 1835.50000    6.13660   49.11050   96.06450
 1836.00000    6.34570   49.08790   95.90820
 1836.50000    6.76310   49.03190   95.75200
 1837.00000    6.72590   48.96420   95.59570
 1837.50000    6.34780   48.89650   95.43940
 1838.00000    5.98210   48.82870   95.28320
 1838.50000    6.18750   48.76790   95.12690
 1839.00000    6.45330   48.72410   94.97510
 1839.50000    6.05110   48.68690   95.04530
 1840.00000    5.95900   48.64510   95.11550
 1840.50000    6.18130   48.62490   95.18570
 1841.00000    6.50930   48.63610   95.25600
 1841.50000    6.81300   48.64950   95.32640
 1842.00000    7.08230   48.69740   95.66650
 1842.50000    7.52260   48.80390   95.68000
 1843.00000    7.64960   48.91050   95.77780
 1843.50000    7.57570   49.05220   95.87550
 1844.00000    6.94560   49.17330   95.97330
 1844.50000    6.02260   49.21970   96.07100
 1845.00000    5.29830   49.32670   96.14680
 1845.50000    5.35440   49.33920   95.79710
 1846.00000    5.61980   49.35650   95.39070
 1846.50000    5.71210   49.31220   94.98430
 1847.00000    5.77810   49.44200   94.57800
 1847.50000    5.78810   49.62220   94.31790
 1848.00000    5.79380   49.88210   94.49820
 1848.50000    5.87690   50.05810   94.67860
 1849.00000    5.98890   50.24610   94.80080
 1849.50000    5.73330   50.32460   94.80610
 1850.00000    5.87480   50.47900   94.75270
 1850.50000    6.05560   50.72270   94.66300
 1851.00000    6.33050   50.77590   95.11190
 1851.50000    6.58460   50.64480   95.73460
 1852.00000    6.38250   50.65860   96.00270
 1852.50000    5.99580   50.77200   95.80430
 1853.00000    5.79860   50.83810   95.29830
 1853.50000    5.74530   50.30910   94.79230
 1854.00000    5.81420   48.99750   94.47090
 1854.50000    6.03690   47.29850   94.53420
 1855.00000    6.23210   46.71550   94.85140
 1855.50000    6.28230   46.69540   95.07630
 1856.00000    6.03210   46.61800   95.30120
 1856.50000    5.57880   46.59420   95.52600
 1857.00000    5.29910   46.64370   95.75090
 1857.50000    5.61260   46.75920   95.99310
 1858.00000    6.03050   46.94080   95.96600
 1858.50000    6.71300   47.12250   95.88230
 1859.00000    6.90050   47.28570   95.63040
 1859.50000    6.91790   47.34470   95.17790
 1860.00000    6.78030   47.47430   94.72530
 1860.50000    6.25750   47.68690   94.27280
 1861.00000    5.60280   47.93670   93.82020
 1861.50000    4.72150   48.20930   93.78590
 1862.00000    4.69460   48.48180   94.22560
 1862.50000    5.38180   48.49760   94.71710
 1863.00000    5.62250   48.41190   95.20860
 1863.50000    5.66820   48.37680   95.85740
 1864.00000    5.70040   48.43970   96.09600
 1864.50000    5.68260   48.50910   96.44080
 1865.00000    5.66470   48.51340   96.14620
 1865.50000    5.64680   48.61080   96.07890
 1866.00000    5.62890   48.63560   95.87960
 1866.50000    5.61490   48.74020   95.71750
 1867.00000    5.63410   48.82800   95.63820
 1867.50000    5.66500   48.91440   95.49190
 1868.00000    5.93760   49.15810   95.45730
 1868.50000    6.46410   49.22380   95.24910
 1869.00000    7.05000   49.07520   95.03390
 1869.50000    7.90190   48.91240   94.90260
 1870.00000    8.12390   48.79240   94.85510
 1870.50000    8.02570   48.74670   94.80770
 1871.00000    7.49670   48.74940   94.84240
 1871.50000    7.04730   48.62930   94.99570
 1872.00000    6.67750   48.60840   95.14910
 1872.50000    6.32290   48.62620   95.30240
 1873.00000    6.28740   48.71200   95.45570
 1873.50000    6.23610   48.80220   95.60910
 1874.00000    6.04510   48.76630   95.54650
 1874.50000    6.15050   48.61610   95.43930
 1875.00000    6.61190   48.49620   95.33220
 1875.50000    7.54300   48.42020   94.90110
