~Version ---------------------------------------------------
VERS.   2.0 : CWLS log ASCII Standard -VERSION 2.0
WRAP.    NO : One line per depth step
DLM . SPACE : Column Data Section Delimiter
~Well ------------------------------------------------------
STRT .F                  185.0 : START DEPTH
STOP .F                 2424.0 : STOP DEPTH
STEP .F                    0.5 : STEP
NULL .                -9999.25 : NULL VALUE
COMP .                         : COMPANY
WELL .                         : WELL
FLD  .                         : FIELD
LOC  .                         : LOCATION
PROV .                         : PROVINCE
CNTY .                         : COUNTY
STAT .                         : STATE
CTRY .                         : COUNTRY
SRVC .                         : SERVICE COMPANY
DATE .                         : DATE
UWI  .                         : UNIQUE WELL ID
API  .                         : API NUMBER
SLAT .WGS84 1.4630186641632967 : SURFACE LATITUDE
SLON .WGS84   8.84881103165101 : SURFACE LONGITUDE
DATUM.F                3637.06 : DEPTH DATUM ELEV
~Curve Information -----------------------------------------
DEPT.F     : 1 MEASURED DEPTH
GRS .GAPI  : GAMMA RAY FROM SONIC LOG
DTCO.US/F  : DELTA-T COMPRESSIONAL
DTSM.US/F  : DELTA-T SHEAR
~Params ----------------------------------------------------
~Other -----------------------------------------------------
~ASCII -----------------------------------------------------
# ...
 1609.00000    7.66250   49.57160   92.10140
 1609.50000    7.50360   49.55130   91.89020
 1610.00000    7.48280   49.59960   91.74540
 1610.50000    7.18760   49.60410   91.89730
 1611.00000    6.90790   49.59020   92.08890
 1611.50000    6.42960   49.70760   92.47030
 1612.00000    5.70210   49.79720   92.49880
 1612.50000    5.48890   49.70040   92.41890
 1613.00000    5.39570   49.59030   92.18460
 1613.50000    5.43530   49.58820   91.93200
 1614.00000    5.62680   49.65300   91.68480
 1614.50000    5.71370   49.65840   91.43750
 1615.00000    5.69980   49.60810   91.23050
 1615.50000    5.83080   49.58550   91.35110
 1616.00000    6.10950   49.58260   91.47170
 1616.50000    6.34710   49.58260   91.59230
 1617.00000    5.95750   49.58260   91.68640
 1617.50000    5.93460   49.58260   91.78170
 1618.00000    6.04170   49.63070   91.93410
 1618.50000    6.23570   49.74390   92.39680
 1619.00000    6.42070   49.83030   92.50510
 1619.50000    6.38310   49.88000   92.53170
 1620.00000    6.04610   49.95800   92.37690
 1620.50000    5.69930   50.06570   92.20360
 1621.00000    5.78310   50.13850   92.03020
 1621.50000    6.05960   50.17970   91.74080
 1622.00000    6.33820   50.15940   91.72610
 1622.50000    6.50690   50.09560   91.72940
 1623.00000    6.45940   50.06610   91.73600
 1623.50000    6.41200   50.06560   91.79280
 1624.00000    6.18500   50.12390   91.86460
 1624.50000    5.80600   50.14660   91.93640
 1625.00000    5.62380   50.07540   92.00820
 1625.50000    5.30020   50.10530   91.81090
 1626.00000    4.97370   50.17340   91.57330
 1626.50000    4.74600   50.16570   91.44450
 1627.00000    4.76460   49.99280   91.31580
 1627.50000    4.95410   49.92710   91.65850
 1628.00000    5.13650   49.96560   91.68790
 1628.50000    5.47440   49.94290   91.66530
 1629.00000    6.07780   49.83050   91.58660
 1629.50000    6.59090   49.84430   91.68080
 1630.00000    6.77220   49.92770   91.79150
 1630.50000    6.73180   50.02970   92.03140
 1631.00000    6.53590   50.06240   92.16780
 1631.50000    6.28940   50.13840   92.66310
 1632.00000    6.07330   50.25430   92.87580
 1632.50000    5.69650   50.51070   92.69360
 1633.00000    5.83900   50.76570   92.40520
 1633.50000    6.24640   50.78110   92.11600
 1634.00000    6.59440   50.55840   91.82680
 1634.50000    6.72830   50.41710   91.55590
 1635.00000    6.94650   50.33100   91.60450
 1635.50000    7.27890   49.98870   91.65970
 1636.00000    7.58490   49.59890   91.70690
 1636.50000    7.60420   49.81050   91.71350
 1637.00000    7.61500   50.30830   91.70510
 1637.50000    7.56820   50.45860   91.69860
 1638.00000    7.16730   50.44840   91.53520
 1638.50000    7.35080   50.29660   91.38900
 1639.00000    7.75170   50.20200   91.57170
 1639.50000    8.11770   50.09080   91.75440
 1640.00000    7.94570   49.94740   91.69110
 1640.50000    7.51930   49.89840   91.66800
 1641.00000    7.19190   50.05910   91.79430
 1641.50000    7.45150   50.16780   91.99080
 1642.00000    7.67640   50.13200   92.31010
 1642.50000    7.75550   50.07970   92.50900
 1643.00000    7.75950   49.92410   92.19730
 1643.50000    7.76350   49.66660   92.13430
 1644.00000    8.04800   49.58910   92.10630
 1644.50000    8.37600   49.62580   91.99910
 1645.00000    8.38320   49.70270   91.95240
 1645.50000    8.33540   49.71250   92.09090
 1646.00000    8.49370   49.80190   92.02900
 1646.50000    8.46450   49.92970   92.00370
 1647.00000    8.24250   49.89400   92.10720
 1647.50000    7.81080   49.91160   92.11950
 1648.00000    7.91670   49.97460   92.13180
 1648.50000    8.15850   49.95780   92.14400
 1649.00000    8.17490   49.85340   92.12630
 1649.50000    7.81830   49.59680   92.10610
 1650.00000    7.66420   49.47570   92.00350
 1650.50000    7.61330   49.48200   91.83440
 1651.00000    7.75920   49.70940   91.66530
 1651.50000    7.43620   49.93570   91.51990
 1652.00000    6.89130   50.08810   91.67260
 1652.50000    6.34650   50.04140   91.71310
 1653.00000    6.10050   49.89850   91.75360
 1653.50000    6.36850   49.75370   91.79410
 1654.00000    6.64050   49.52660   91.83460
 1654.50000    7.13700   49.48210   91.87510
 1655.00000    7.79500   49.52400   91.91560
 1655.50000    8.14920   49.63590   91.95610
 1656.00000    8.68790   49.76820   91.99660
 1656.50000    9.80390   49.79050   92.03710
 1657.00000   10.66590   49.49350   92.05970
 1657.50000   10.36380   49.41580   92.06530
 1658.00000    9.82770   49.35390   92.07080
 1658.50000    9.08650   49.08100   92.07640
 1659.00000    9.03270   48.78510   92.08190
 1659.50000    8.90850   48.64870   92.08750
 1660.00000    8.85190   48.60300   92.09300
 1660.50000    9.03030   48.45770   92.09500
 1661.00000    9.05080   48.40650   92.09500
 1661.50000    9.58560   48.39210   92.25520
 1662.00000   10.36070   48.38860   92.45430
 1662.50000   11.07870   48.41340   92.65340
 1663.00000   10.77550   48.24180   93.11140
 1663.50000    9.32680   47.94350   93.56940
 1664.00000    8.26720   47.58070   94.02740
 1664.50000    7.47010   47.48340   94.40340
 1665.00000    7.81270   47.47380   94.69260
 1665.50000    8.09290   47.42530   94.81810
 1666.00000    8.15500   47.30450   94.57760
 1666.50000    7.57540   47.19480   94.24700
 1667.00000    7.15110   47.19800   93.81210
 1667.50000    7.03400   47.21110   93.44540
 1668.00000    7.42560   47.55250   93.36290
 1668.50000    7.64680   47.72830   93.28030
 1669.00000    7.81380   47.56980   93.32290
 1669.50000    7.81550   47.44560   93.37100
 1670.00000    7.51660   47.46410   93.41920
 1670.50000    7.24840   47.59010   93.46730
 1671.00000    7.32230   47.84890   93.51540
 1671.50000    7.40960   48.09090   93.56350
 1672.00000    7.69990   48.14430   93.69580
 1672.50000    7.80130   48.18140   93.69790
 1673.00000    7.61800   48.57650   93.71120
 1673.50000    7.34910   48.95190   93.54600
 1674.00000    7.21330   49.30910   93.07450
 1674.50000    7.19700   49.48510   92.47280
 1675.00000    7.18070   49.72790   91.88160
 1675.50000    6.76190   49.84220   91.94600
 1676.00000    6.41400   49.85690   92.58410
 1676.50000    6.08500   49.78990   92.88410
 1677.00000    6.46030   49.64780   92.34850
 1677.50000    6.91150   49.58640   92.06010
 1678.00000    6.97780   49.55950   91.98490
 1678.50000    6.78040   49.48700   91.81860
 1679.00000    6.61340   49.33410   91.65240
 1679.50000    6.61340   49.05600   91.48610
 1680.00000    6.71120   48.73180   91.31990
 1680.50000    6.76700   48.49070   91.15370
 1681.00000    6.85370   48.38920   91.13130
 1681.50000    6.64970   48.38490   91.22810
 1682.00000    6.42480   48.46590   91.48220
 1682.50000    6.32350   48.66950   91.73620
 1683.00000    6.55750   49.02910   91.99030
 1683.50000    6.30410   49.34510   92.24440
 1684.00000    6.01230   49.66120   92.49850
 1684.50000    6.01230   49.54920   92.66230
 1685.00000    6.01230   48.94300   92.79240
 1685.50000    6.05050   48.32990   92.92250
 1686.00000    6.34150   48.16440   93.05260
 1686.50000    7.11120   47.97490   93.18270
 1687.00000    7.66990   47.85320   93.31290
 1687.50000    7.80070   47.96820   93.53030
 1688.00000    7.47080   48.09610   93.76160
 1688.50000    6.56720   48.20260   93.99290
 1689.00000    6.23360   48.65260   94.22420
 1689.50000    6.09190   48.99740   94.45540
 1690.00000    5.85660   49.28290   94.55300
 1690.50000    5.12190   49.59380   94.26710
 1691.00000    4.05810   49.47130   93.41140
 1691.50000    3.23870   49.47080   93.02750
 1692.00000    3.00630   49.84790   92.68250
 1692.50000    3.08090   50.06680   92.33760
 1693.00000    3.46170   50.11750   92.04350
 1693.50000    3.91180   50.05640   91.93080
 1694.00000    4.29010   49.98500   92.03450
 1694.50000    5.08630   49.88440   92.13530
 1695.00000    5.38100   49.86130   92.62480
 1695.50000    5.55690   49.85040   92.91760
 1696.00000    5.62900   49.78980   93.01420
 1696.50000    5.85170   49.81430   92.76170
 1697.00000    5.97930   49.93330   92.29370
 1697.50000    5.64200   50.16000   92.11010
