~Version ---------------------------------------------------
VERS.   2.0 : CWLS log ASCII Standard -VERSION 2.0
WRAP.    NO : One line per depth step
DLM . SPACE : Column Data Section Delimiter
~Well ------------------------------------------------------
STRT .F                  185.0 : START DEPTH
STOP .F                 2424.0 : STOP DEPTH
STEP .F                    0.5 : STEP
NULL .                -9999.25 : NULL VALUE
COMP .                         : COMPANY
WELL .                         : WELL
FLD  .                         : FIELD
LOC  .                         : LOCATION
PROV .                         : PROVINCE
CNTY .                         : COUNTY
STAT .                         : STATE
CTRY .                         : COUNTRY
SRVC .                         : SERVICE COMPANY
DATE .                         : DATE
UWI  .                         : UNIQUE WELL ID
API  .                         : API NUMBER
SLAT .WGS84 1.4630186641632967 : SURFACE LATITUDE
SLON .WGS84   8.84881103165101 : SURFACE LONGITUDE
DATUM.F                3637.06 : DEPTH DATUM ELEV
~Curve Information -----------------------------------------
DEPT.F     : 1 MEASURED DEPTH
GRS .GAPI  : GAMMA RAY FROM SONIC LOG
DTCO.US/F  : DELTA-T COMPRESSIONAL
DTSM.US/F  : DELTA-T SHEAR
~Params ----------------------------------------------------
~Other -----------------------------------------------------
~ASCII -----------------------------------------------------
# ...
 1698.00000    5.08350   50.36820   92.09660
 1698.50000    4.82560   50.51120   92.17530
 1699.00000    4.98210   50.39380   92.32100
 1699.50000    5.70520   50.24320   92.46670
 1700.00000    6.53530   50.00290   92.72650
 1700.50000    7.20800   49.76790   92.89140
 1701.00000    6.98160   49.64580   93.18150
 1701.50000    6.39000   49.69070   93.26480
 1702.00000    5.73060   49.50170   93.14720
 1702.50000    5.39120   49.22470   92.94730
 1703.00000    5.45520   49.04600   92.90590
 1703.50000    5.66030   49.04340   93.04350
 1704.00000    5.43290   48.98320   93.33380
 1704.50000    5.33980   48.86140   93.62420
 1705.00000    5.03010   48.74430   93.70290
 1705.50000    4.76380   48.63360   93.59250
 1706.00000    4.96690   48.54290   93.52680
 1706.50000    5.69020   48.36490   93.46170
 1707.00000    6.40200   48.24980   93.39660
 1707.50000    6.50680   48.11750   93.16490
 1708.00000    6.51660   48.10730   92.81610
 1708.50000    6.51040   48.12200   92.46720
 1709.00000    6.50410   48.14240   92.11840
 1709.50000    6.49790   48.22950   91.76950
 1710.00000    6.49160   48.39520   91.42070
 1710.50000    6.14110   48.57820   91.07190
 1711.00000    5.92580   48.74670   90.72300
 1711.50000    5.91170   48.93850   90.56330
 1712.00000    6.66550   49.15100   90.64110
 1712.50000    6.04070   49.29990   90.78170
 1713.00000    6.01320   49.27230   91.10130
 1713.50000    6.29940   49.14570   91.42090
 1714.00000    6.71250   49.35360   91.74050
 1714.50000    6.98200   49.57380   92.06020
 1715.00000    7.36800   49.97080   92.37980
 1715.50000    7.65000   50.30600   92.69800
 1716.00000    7.76150   50.80600   93.06100
 1716.50000    7.60950   51.25980   93.46620
 1717.00000    7.06360   51.51410   93.87130
 1717.50000    6.61140   51.73920   94.03630
 1718.00000    6.35060   51.95770   93.68390
 1718.50000    6.05930   52.09200   93.33140
 1719.00000    6.30430   52.08850   93.48180
 1719.50000    6.27960   51.90150   93.65340
 1720.00000    6.01220   51.57920   93.69400
 1720.50000    5.88850   51.20040   93.39920
 1721.00000    5.49900   50.70000   93.36020
 1721.50000    5.92890   50.37670   93.80320
 1722.00000    6.40440   50.06320   94.15920
 1722.50000    6.52860   49.76570   94.48810
 1723.00000    6.60590   49.70620   94.81700
 1723.50000    6.61330   49.77920   95.03740
 1724.00000    6.74160   49.87650   95.17920
 1724.50000    7.18160   49.95140   95.23010
 1725.00000    6.64730   50.15530   94.87130
 1725.50000    6.62770   50.42760   94.51260
 1726.00000    6.43100   50.63940   94.15380
 1726.50000    6.01210   50.83640   94.04710
 1727.00000    6.01210   51.03220   93.87050
 1727.50000    6.01210   50.99640   93.70030
 1728.00000    6.25750   51.14660   93.77570
 1728.50000    7.07540   51.48820   93.99120
 1729.00000    7.66210   51.52920   94.20680
 1729.50000    7.75450   50.72070   94.42230
 1730.00000    7.14050   49.38500   94.63790
 1730.50000    6.40650   48.21610   94.85340
 1731.00000    6.53660   47.67750   95.06890
 1731.50000    6.92070   47.45530   95.28450
 1732.00000    6.76350   47.51970   95.48410
 1732.50000    5.73650   47.72330   95.60090
 1733.00000    5.04100   47.94860   95.71770
 1733.50000    5.49100   48.16810   95.77350
 1734.00000    6.01620   48.42300   95.64460
 1734.50000    6.35050   48.98450   95.51560
 1735.00000    6.69080   49.37110   95.38670
 1735.50000    7.07040   49.76630   95.25770
 1736.00000    7.18980   49.87040   95.12880
 1736.50000    6.73960   49.82200   94.99990
 1737.00000    6.20340   49.73730   94.87090
 1737.50000    6.41550   49.66120   94.74200
 1738.00000    7.10420   49.66320   94.61300
 1738.50000    7.97860   49.74790   94.64670
 1739.00000    8.00580   49.81660   94.68120
 1739.50000    7.88420   49.78720   94.71570
 1740.00000    7.81800   49.79090   94.75020
 1740.50000    8.00100   49.83490   94.78470
 1741.00000    8.38280   49.83120   94.81920
 1741.50000    8.00910   49.82360   94.85370
 1742.00000    7.52850   49.79560   94.88820
 1742.50000    7.20530   49.77670   94.92260
 1743.00000    6.92670   49.84580   94.95710
 1743.50000    6.35760   49.91960   94.95710
 1744.00000    6.03660   50.01570   94.95710
 1744.50000    6.01210   50.07230   94.95710
 1745.00000    6.01210   50.16220   94.95710
 1745.50000    6.01210   50.18360   94.95710
 1746.00000    6.04690   50.22060   94.95710
 1746.50000    6.26910   50.19320   94.95710
 1747.00000    6.51820   50.08160   95.05750
 1747.50000    6.56530   50.00330   95.29990
 1748.00000    6.60510   49.99850   95.54230
 1748.50000    6.61340   49.99570   95.78470
 1749.00000    6.61340   49.97070   96.02700
 1749.50000    6.61340   49.92890   96.26940
 1750.00000    6.31650   49.83320   96.51180
 1750.50000    6.00390   49.65090   96.58640
 1751.00000    5.99040   49.45890   96.44180
 1751.50000    5.97700   49.06370   96.29720
 1752.00000    5.96350   48.58520   96.15250
 1752.50000    5.83550   48.18950   96.00790
 1753.00000    5.53720   48.35440   95.86330
 1753.50000    5.92600   49.08630   95.71870
 1754.00000    6.42640   49.53100   95.49940
 1754.50000    7.04530   49.82800   95.15650
 1755.00000    7.06570   49.96620   94.81360
 1755.50000    7.05780   50.04690   94.47330
 1756.00000    6.83710   49.96000   94.62580
 1756.50000    6.47150   49.84020   94.68220
 1757.00000    6.65100   49.59000   94.73860
 1757.50000    7.43440   49.18240   94.79500
 1758.00000    8.12430   49.00810   94.85140
 1758.50000    8.62510   48.80500   94.90780
 1759.00000    8.48410   48.52820   94.95250
 1759.50000    8.08290   48.38040   94.90910
 1760.00000    7.69060   48.44710   94.86560
 1760.50000    7.48900   48.53280   94.82220
 1761.00000    7.28800   48.64310   94.58720
 1761.50000    7.00290   48.84870   94.32810
 1762.00000    6.95320   49.00860   94.06900
 1762.50000    7.10040   49.11910   93.80990
 1763.00000    7.39290   49.17300   93.69480
 1763.50000    7.40050   49.16520   93.68730
 1764.00000    6.32990   49.03820   93.65100
 1764.50000    5.80740   48.91130   93.79260
 1765.00000    6.36810   48.86460   93.92300
 1765.50000    7.67270   48.89140   94.36100
 1766.00000    9.21110   48.92280   94.30940
 1766.50000   10.11960   48.92370   94.09030
 1767.00000   10.50860   48.92570   94.00250
 1767.50000   10.53000   49.00040   93.95760
 1768.00000   10.39130   49.24440   93.76830
 1768.50000    9.99270   49.48840   93.53460
 1769.00000    9.71800   49.56710   93.27980
 1769.50000    9.36120   49.58660   93.02500
 1770.00000    9.48000   49.71510   92.77010
 1770.50000    9.78790   49.85920   92.56020
 1771.00000   10.14890   49.93420   92.42820
 1771.50000   10.38270   49.90170   92.30660
 1772.00000   10.48270   49.76210   92.18510
 1772.50000   10.13010   49.56540   92.17630
 1773.00000    9.57400   49.48270   92.64590
 1773.50000    9.03250   49.53390   93.12030
 1774.00000    8.59250   49.63240   93.35090
 1774.50000    7.77490   49.67570   93.47500
 1775.00000    6.65520   49.69080   93.03640
 1775.50000    6.43700   49.62750   92.40460
 1776.00000    7.01680   49.57150   92.08820
 1776.50000    8.10040   49.48260   92.08240
 1777.00000    8.76770   49.40650   92.39420
 1777.50000    9.39610   49.34410   92.99080
 1778.00000    9.50740   49.26980   93.62330
 1778.50000    9.30260   49.05210   94.25590
 1779.00000    9.00570   48.79420   94.88840
 1779.50000    8.35760   48.82020   95.02200
 1780.00000    7.79560   48.91150   95.09820
 1780.50000    7.72590   48.94380   95.17440
 1781.00000    8.15460   48.90100   95.25070
 1781.50000    8.37350   48.76340   95.27130
 1782.00000    8.50500   48.61870   95.23750
 1782.50000    8.44970   48.61320   95.20380
 1783.00000    8.15100   48.71520   95.17010
 1783.50000    7.91920   48.85170   95.13640
 1784.00000    7.47040   48.84500   95.07250
 1784.50000    7.78410   48.75890   94.97390
 1785.00000    8.25120   48.69610   94.87520
 1785.50000    9.49850   48.58260   94.74950
 1786.00000   10.27460   48.48690   94.66930
 1786.50000   10.28160   48.71110   94.74470
