~Version ---------------------------------------------------
VERS.   2.0 : CWLS log ASCII Standard -VERSION 2.0
WRAP.    NO : One line per depth step
DLM . SPACE : Column Data Section Delimiter
~Well ------------------------------------------------------
STRT .F                  185.0 : START DEPTH
STOP .F                 2424.0 : STOP DEPTH
STEP .F                    0.5 : STEP
NULL .                -9999.25 : NULL VALUE
COMP .                         : COMPANY
WELL .                         : WELL
FLD  .                         : FIELD
LOC  .                         : LOCATION
PROV .                         : PROVINCE
CNTY .                         : COUNTY
STAT .                         : STATE
CTRY .                         : COUNTRY
SRVC .                         : SERVICE COMPANY
DATE .                         : DATE
UWI  .                         : UNIQUE WELL ID
API  .                         : API NUMBER
SLAT .WGS84 1.4630186641632967 : SURFACE LATITUDE
SLON .WGS84   8.84881103165101 : SURFACE LONGITUDE
DATUM.F                3637.06 : DEPTH DATUM ELEV
~Curve Information -----------------------------------------
DEPT.F     : 1 MEASURED DEPTH
GRS .GAPI  : GAMMA RAY FROM SONIC LOG
DTCO.US/F  : DELTA-T COMPRESSIONAL
DTSM.US/F  : DELTA-T SHEAR
~Params ----------------------------------------------------
~Other -----------------------------------------------------
~ASCII -----------------------------------------------------
# ...
 2321.00000   11.67780   48.16370   95.47060
 2321.50000   12.29300   48.54760   95.68140
 2322.00000   12.73310   48.93630   95.89210
 2322.50000   12.55400   48.85270   96.10290
 2323.00000   12.29940   48.20280   96.31370
 2323.50000   11.87810   47.66690   96.52450
 2324.00000   11.82310   47.58820   96.73530
 2324.50000   12.13500   48.14800   96.94600
 2325.00000   12.07710   48.62950   97.15680
 2325.50000   11.45710   49.31260   97.02440
 2326.00000   10.95950   50.21510   96.75260
 2326.50000   10.50010   50.08860   96.48070
 2327.00000   10.50010   49.30770   96.33860
 2327.50000   10.62000   48.89390   96.49150
 2328.00000   10.77000   48.81160   96.64440
 2328.50000   11.26750   48.77780   96.79730
 2329.00000   11.49030   48.57790   96.95020
 2329.50000   11.68460   48.28950   97.10310
 2330.00000   11.79680   48.49360   97.25600
 2330.50000   11.74190   48.70190   97.39230
 2331.00000   11.68700   48.79570   97.26130
 2331.50000   11.49660   48.79400   97.05160
 2332.00000   10.93850   48.66680   96.96640
 2332.50000   10.14080   48.53960   96.73070
 2333.00000    9.93180   48.35340   96.49500
 2333.50000   10.12750   48.22160   96.25940
 2334.00000   10.78700   48.15550   96.02370
 2334.50000   11.76480   48.15690   95.78450
 2335.00000   12.25320   48.18940   95.34190
 2335.50000   12.28430   48.29800   94.87520
 2336.00000   12.29990   48.53110   94.40860
 2336.50000   12.33010   48.92110   93.98250
 2337.00000   12.51070   49.08660   93.67810
 2337.50000   12.91300   49.11930   93.37370
 2338.00000   12.94200   49.12070   93.06920
 2338.50000   12.72000   49.12360   92.76480
 2339.00000   12.09600   49.34820   92.57730
 2339.50000   11.71490   49.53420   92.49410
 2340.00000   11.99430   49.78420   92.44900
 2340.50000   12.34820   49.95580   92.44530
 2341.00000   12.55910   50.10900   92.55240
 2341.50000   12.90150   50.29210   92.73770
 2342.00000   12.52840   50.52510   92.92290
 2342.50000   12.36280   50.75800   93.10820
 2343.00000   12.63160   50.68760   93.29340
 2343.50000   13.14750   50.52590   93.42260
 2344.00000   13.82680   50.53900   93.49950
 2344.50000   14.37510   50.57400   93.57640
 2345.00000   14.27490   50.59710   93.65330
 2345.50000   14.00900   50.51220   93.73030
 2346.00000   13.77650   50.43120   93.80720
 2346.50000   13.65990   50.42770   93.96300
 2347.00000   13.65990   50.29750   94.17020
 2347.50000   13.65990   50.18730   94.35740
 2348.00000   13.22140   49.91510   94.54470
 2348.50000   12.56570   49.56160   94.73190
 2349.00000   12.51020   49.27560   94.91920
 2349.50000   12.86020   49.34790   94.94670
 2350.00000   12.87100   49.47930   94.84660
 2350.50000   12.75010   49.59520   94.74660
 2351.00000   12.39910   49.66120   94.64650
 2351.50000   12.32290   49.72800   94.54650
 2352.00000   12.17810   49.72220   94.44640
 2352.50000   11.78810   49.50190   94.34640
 2353.00000   11.51280   49.16810   94.24630
 2353.50000   11.46930   48.99290   94.14380
 2354.00000   11.82070   49.02820   94.01620
 2354.50000   12.36170   49.08800   93.88870
 2355.00000   13.41950   48.91640   93.77460
 2355.50000   14.47730   48.88520   93.99320
 2356.00000   14.06370   49.03750   94.21180
 2356.50000   12.73780   49.38930   94.43040
 2357.00000   11.62240   49.58600   94.64890
 2357.50000   10.99950   49.71320   94.86750
 2358.00000   10.90190   49.47100   95.08610
 2358.50000   11.53220   49.04540   95.30470
 2359.00000   11.99030   49.53280   95.51320
 2359.50000   11.78770   50.01820   95.48930
 2360.00000   11.97870   50.13960   95.46530
 2360.50000   12.89400   50.12660   95.41680
 2361.00000   14.05750   50.07500   95.40980
 2361.50000   14.80660   49.98230   95.43580
 2362.00000   15.06810   49.98330   95.46470
 2362.50000   15.06280   50.09330   95.49360
 2363.00000   15.05490   49.81110   95.43650
 2363.50000   15.04690   49.42280   95.16540
 2364.00000   15.19240   49.50860   94.89420
 2364.50000   15.08930   49.78290   94.49850
 2365.00000   14.67020   49.95530   94.30750
 2365.50000   13.60030   49.97420   94.29540
 2366.00000   11.50710   50.03010   94.31790
 2366.50000    9.89680   50.04710   94.34040
 2367.00000    8.80910   50.01540   94.18370
 2367.50000    9.30070   49.96820   93.91850
 2368.00000   10.61190   49.90990   93.62100
 2368.50000   13.69290   49.83850   93.34550
 2369.00000   16.78190   49.76440   93.07010
 2369.50000   20.74670   49.69550   92.79460
 2370.00000   23.05200   49.60430   92.51910
 2370.50000   23.16980   49.49660   92.45000
 2371.00000   21.93950   49.43690   92.45000
 2371.50000   20.35950   49.38380   92.45000
 2372.00000   18.50090   49.20870   92.45000
 2372.50000   15.94050   48.91670   92.45000
 2373.00000   14.67870   48.97580   92.66400
 2373.50000   13.82700   49.27080   92.91480
 2374.00000   12.83780   49.56580   93.16570
 2374.50000   12.33460   49.81790   93.41650
 2375.00000   12.46840   50.00700   93.66740
 2375.50000   13.21940   50.13110   93.89610
 2376.00000   14.19750   50.20020   93.85180
 2376.50000   14.65710   50.15340   93.82670
 2377.00000   14.19190   50.05260   93.80280
 2377.50000   13.60230   49.99600   93.80360
 2378.00000   13.81230   49.89260   93.80440
 2378.50000   14.32160   49.40460   93.79910
 2379.00000   14.63080   48.94260   93.78320
 2379.50000   14.31440   48.77460   93.31440
 2380.00000   13.58070   48.18380   92.84560
 2380.50000   13.43560   47.46400   92.37690
 2381.00000   13.60290   48.00780   91.90810
 2381.50000   13.77020   48.81860   91.43930
 2382.00000   13.79950   48.41620   90.97050
 2382.50000   13.79310   47.88110   90.76820
 2383.00000   13.77920   47.98390   90.74200
 2383.50000   13.75620   48.12990   91.07560
 2384.00000   13.76900   48.33280   91.60240
 2384.50000   13.78170   48.51330   92.12930
 2385.00000   13.77670   48.56310   92.65610
 2385.50000   13.52800   48.48890   93.18290
 2386.00000   12.18780   48.50330   93.52520
 2386.50000   11.08320   48.63580   93.64670
 2387.00000   10.60950   49.25490   93.74450
 2387.50000   10.51580   49.80450   93.73840
 2388.00000   11.26040   49.80300   93.54140
 2388.50000   13.40330   49.70480   93.34440
 2389.00000   15.54620   49.67530   93.12000
 2389.50000   16.25770   49.66480   92.93290
 2390.00000   15.31100   49.59730   92.89730
 2390.50000   14.28860   49.49140   93.02980
 2391.00000   14.11380   49.56400   93.40780
 2391.50000   14.66080   49.58980   93.57830
 2392.00000   15.68090   49.53040   93.79780
 2392.50000   16.80670   49.50680   93.76210
 2393.00000   16.88410   49.53890   93.61110
 2393.50000   16.49460   49.50210   93.46010
 2394.00000   15.65400   49.42180   93.06470
 2394.50000   -9999.25   49.41100   92.71740
 2395.00000   -9999.25   49.70690   92.53520
 2395.50000   -9999.25   49.87780   92.39600
 2396.00000   -9999.25   49.94910   92.39620
 2396.50000   -9999.25   49.79500   92.52600
 2397.00000   -9999.25   49.48080   92.58850
 2397.50000   -9999.25   49.15790   92.64350
 2398.00000   -9999.25   48.79200   92.69840
 2398.50000   -9999.25   48.61110   92.75340
 2399.00000   -9999.25   48.50290   92.71330
 2399.50000   -9999.25   48.40640   92.52660
 2400.00000   -9999.25   48.44000   92.33980
 2400.50000   -9999.25   48.74110   92.12290
 2401.00000   -9999.25   49.37650   91.69270
 2401.50000   -9999.25   50.03440   91.47460
 2402.00000   -9999.25   50.29370   91.75250
 2402.50000   -9999.25   50.53310   91.36390
 2403.00000   -9999.25   50.78340   90.91320
 2403.50000   -9999.25   50.91550   90.57620
 2404.00000   -9999.25   50.80990   90.65410
 2404.50000   -9999.25   50.69380   90.97900
 2405.00000   -9999.25   50.68710   91.30400
 2405.50000   -9999.25   50.81570   91.61820
 2406.00000   -9999.25   50.85280   91.87580
 2406.50000   -9999.25   50.31850   91.81590
 2407.00000   -9999.25   49.46940   91.81110
 2407.50000   -9999.25   49.94650   91.78940
 2408.00000   -9999.25   50.80590   91.76520
 2408.50000   -9999.25   50.29570   91.80430
 2409.00000   -9999.25   48.85360   92.08050
 2409.50000   -9999.25   48.39820   92.51890
