~Version ---------------------------------------------------
VERS.   2.0 : CWLS log ASCII Standard -VERSION 2.0
WRAP.    NO : One line per depth step
DLM . SPACE : Column Data Section Delimiter
~Well ------------------------------------------------------
STRT .F                  185.0 : START DEPTH
STOP .F                 2424.0 : STOP DEPTH
STEP .F                    0.5 : STEP
NULL .                -9999.25 : NULL VALUE
COMP .                         : COMPANY
WELL .                         : WELL
FLD  .                         : FIELD
LOC  .                         : LOCATION
PROV .                         : PROVINCE
CNTY .                         : COUNTY
STAT .                         : STATE
CTRY .                         : COUNTRY
SRVC .                         : SERVICE COMPANY
DATE .                         : DATE
UWI  .                         : UNIQUE WELL ID
API  .                         : API NUMBER
SLAT .WGS84 1.4630186641632967 : SURFACE LATITUDE
SLON .WGS84   8.84881103165101 : SURFACE LONGITUDE
DATUM.F                3637.06 : DEPTH DATUM ELEV
~Curve Information -----------------------------------------
DEPT.F     : 1 MEASURED DEPTH
GRS .GAPI  : GAMMA RAY FROM SONIC LOG
DTCO.US/F  : DELTA-T COMPRESSIONAL
DTSM.US/F  : DELTA-T SHEAR
~Params ----------------------------------------------------
~Other -----------------------------------------------------
~ASCII -----------------------------------------------------
# ...
 2054.00000    6.12770   49.77680   93.32890
 2054.50000    6.53500   49.61700   93.68600
 2055.00000    7.29290   49.05620   93.93840
 2055.50000    8.13680   48.65970   94.18330
 2056.00000    8.64080   48.57980   94.42830
 2056.50000    7.80410   48.58340   94.67320
 2057.00000    6.89540   48.58980   94.91810
 2057.50000    6.44190   48.79470   95.16300
 2058.00000    6.30270   49.09100   95.40790
 2058.50000    6.38560   49.32370   95.65280
 2059.00000    6.56220   49.22120   95.89780
 2059.50000    6.65210   48.88790   96.04940
 2060.00000    7.05620   48.56770   96.09920
 2060.50000    7.34980   48.43710   96.17400
 2061.00000    7.47220   48.29410   96.19680
 2061.50000    7.30470   48.23570   96.04410
 2062.00000    6.87660   48.22070   95.52710
 2062.50000    6.34680   48.22130   95.24660
 2063.00000    6.35590   48.25480   94.80170
 2063.50000    6.41170   48.28440   94.61910
 2064.00000    6.66380   48.36720   94.60060
 2064.50000    6.98340   48.41050   94.58810
 2065.00000    7.35650   48.17690   94.59310
 2065.50000    7.78760   48.04390   94.59820
 2066.00000    8.03250   48.15900   94.64540
 2066.50000    8.05260   48.36070   94.77210
 2067.00000    8.04860   48.40610   94.89880
 2067.50000    8.04460   48.40210   95.02550
 2068.00000    8.04060   48.41670   95.15220
 2068.50000    8.01930   48.37320   95.27880
 2069.00000    7.80320   48.15340   95.40550
 2069.50000    7.53960   48.39060   95.53220
 2070.00000    7.42430   48.67680   95.65890
 2070.50000    7.41140   48.93950   95.78560
 2071.00000    7.03960   48.78680   95.82450
 2071.50000    5.82090   48.57380   95.74830
 2072.00000    5.64120   48.45840   95.57540
 2072.50000    6.08390   49.00320   95.00550
 2073.00000    6.66500   49.77880   94.43550
 2073.50000    6.83080   50.07810   93.86560
 2074.00000    6.85790   50.02650   93.25490
 2074.50000    7.12340   49.92760   92.63710
 2075.00000    7.79250   49.92350   92.78660
 2075.50000    8.42590   49.96480   92.99410
 2076.00000    8.65710   49.85900   92.98850
 2076.50000    7.95810   49.47220   93.28260
 2077.00000    6.96850   49.39570   93.59470
 2077.50000    6.29660   49.53260   94.08860
 2078.00000    5.93810   49.12060   94.65170
 2078.50000    5.70490   48.35840   94.94930
 2079.00000    5.89570   47.34580   94.63860
 2079.50000    6.14630   46.60200   94.54410
 2080.00000    6.58840   47.23440   94.48020
 2080.50000    6.59860   47.79910   94.41640
 2081.00000    6.23720   47.94410   94.52040
 2081.50000    5.87480   48.57920   94.55860
 2082.00000    5.72930   49.04390   94.71770
 2082.50000    5.87680   49.12220   94.99180
 2083.00000    6.00000   49.25710   95.26590
 2083.50000    5.76710   49.16240   95.53990
 2084.00000    5.90670   48.51310   95.81400
 2084.50000    6.54640   48.12310   96.08800
 2085.00000    7.30420   48.54880   96.10260
 2085.50000    7.79710   48.97500   96.01220
 2086.00000    8.05490   48.96940   95.97950
 2086.50000    8.08560   48.75940   95.94680
 2087.00000    7.70610   48.89270   95.91410
 2087.50000    7.31470   48.56780   95.88140
 2088.00000    6.96190   48.22230   95.84870
 2088.50000    6.79340   48.05050   95.85960
 2089.00000    6.33610   48.13480   95.89360
 2089.50000    6.31280   48.23740   95.80770
 2090.00000    6.37540   48.27870   95.80020
 2090.50000    6.61690   48.32300   95.79850
 2091.00000    6.98960   48.39520   95.79680
 2091.50000    7.21660   48.30990   95.51660
 2092.00000    7.43020   48.11100   94.90410
 2092.50000    6.89890   47.94550   94.45610
 2093.00000    6.98500   47.75110   94.56830
 2093.50000    7.26850   47.66510   94.57100
 2094.00000    7.65310   47.64310   94.55450
 2094.50000    8.04450   47.71780   94.65230
 2095.00000    7.49770   47.87970   94.75010
 2095.50000    6.82380   47.95910   94.84790
 2096.00000    6.31830   48.03690   94.94570
 2096.50000    7.08210   48.22120   94.82860
 2097.00000    7.99620   48.38130   94.47210
 2097.50000    8.65950   48.68710   94.11560
 2098.00000    8.48370   48.70380   93.75910
 2098.50000    7.42180   48.60040   93.35930
 2099.00000    6.93470   48.53210   93.54620
 2099.50000    7.38300   48.55980   93.88120
 2100.00000    8.16420   49.06410   94.11300
 2100.50000    8.68990   49.88940   94.23890
 2101.00000    8.42080   49.59630   94.36490
 2101.50000    7.75210   49.02550   94.49610
 2102.00000    7.69090   49.73480   94.64280
 2102.50000    8.09230   50.41790   94.60590
 2103.00000    8.07290   49.99470   94.29890
 2103.50000    7.86140   50.08620   93.62660
 2104.00000    7.49990   50.91860   93.74340
 2104.50000    7.39340   51.02490   93.86010
 2105.00000    6.93160   50.05000   93.81630
 2105.50000    6.91220   49.97830   93.48470
 2106.00000    7.14440   51.08890   92.94770
 2106.50000    7.48490   51.79440   92.94440
 2107.00000    7.41330   51.77700   92.99290
 2107.50000    6.91760   51.63680   92.99780
 2108.00000    7.14540   51.37600   93.00280
 2108.50000    8.05330   50.79090   93.02890
 2109.00000    8.61250   50.61530   93.31710
 2109.50000    8.29310   50.21100   93.75110
 2110.00000    7.77950   49.85320   93.72680
 2110.50000    7.69290   50.16340   93.62690
 2111.00000    7.97720   50.56010   93.78580
 2111.50000    7.77240   50.67660   94.07980
 2112.00000    6.76640   50.62790   94.52450
 2112.50000    6.31270   50.51330   94.61260
 2113.00000    6.61840   50.33840   94.69010
 2113.50000    7.51050   49.74520   94.70100
 2114.00000    8.27330   49.38330   94.94150
 2114.50000    8.67120   49.09860   95.05340
 2115.00000    8.93050   48.95330   95.02480
 2115.50000    8.75600   49.12370   94.99620
 2116.00000    9.08900   49.34590   94.96770
 2116.50000    9.56380   49.00440   94.93910
 2117.00000    9.81040   49.08970   94.91050
 2117.50000    9.85740   49.42530   94.88190
 2118.00000    9.89710   49.23210   94.85330
 2118.50000    9.85880   48.82140   94.72520
 2119.00000    9.24220   48.42780   94.49240
 2119.50000    8.77970   48.41770   94.25960
 2120.00000    8.62260   48.35100   94.02680
 2120.50000    8.69180   48.21560   93.79400
 2121.00000    8.48890   48.22490   93.56120
 2121.50000    8.19210   48.33260   93.32830
 2122.00000    8.48590   48.61580   93.09550
 2122.50000    9.44950   48.89570   92.86270
 2123.00000   10.37210   49.12810   92.62990
 2123.50000   10.95870   49.45330   92.39710
 2124.00000   11.10410   49.44980   92.16430
 2124.50000   11.05780   48.95510   91.93150
 2125.00000   10.80570   48.40520   91.93000
 2125.50000   11.09230   48.13650   91.97700
 2126.00000   11.91320   48.09320   92.05320
 2126.50000   12.31650   47.97420   92.20310
 2127.00000   12.22980   47.23780   92.47360
 2127.50000   11.09800   46.29360   92.74410
 2128.00000    8.95100   46.64780   93.01460
 2128.50000    6.71610   48.94910   93.28520
 2129.00000    5.78460   50.41730   93.55570
 2129.50000    5.98540   50.41960   93.82620
 2130.00000    6.86330   48.89890   94.09670
 2130.50000    8.15980   47.70990   94.15270
 2131.00000    9.59300   47.99490   94.09060
 2131.50000   10.18040   48.63810   94.03730
 2132.00000   10.78730   48.48150   93.98400
 2132.50000   11.29380   48.16960   94.29380
 2133.00000   11.62290   48.22000   94.60960
 2133.50000   11.58160   48.76660   94.75850
 2134.00000   10.34750   49.22110   94.48910
 2134.50000    9.14440   49.58010   94.21980
 2135.00000    8.57270   50.85960   94.28050
 2135.50000    8.14510   52.07610   94.44890
 2136.00000    8.13940   52.46550   94.61730
 2136.50000    8.38630   52.51020   94.66480
 2137.00000    8.78630   52.44120   94.37850
 2137.50000    9.16400   52.53430   93.97240
 2138.00000    9.02560   52.85920   93.56620
 2138.50000    8.46080   53.11030   93.16010
 2139.00000    8.18870   53.29560   92.75400
 2139.50000    8.42800   53.59920   92.34790
 2140.00000    8.64800   53.98760   92.02240
 2140.50000    8.65430   54.29960   91.81120
 2141.00000    8.52360   54.25870   91.59990
 2141.50000    8.21650   53.91370   91.45080
 2142.00000    8.52790   53.25310   91.59370
 2142.50000    8.66280   52.67900   92.56170
