~Version ---------------------------------------------------
VERS.   2.0 : CWLS log ASCII Standard -VERSION 2.0
WRAP.    NO : One line per depth step
DLM . SPACE : Column Data Section Delimiter
~Well ------------------------------------------------------
STRT .F                  185.0 : START DEPTH
STOP .F                 2424.0 : STOP DEPTH
STEP .F                    0.5 : STEP
NULL .                -9999.25 : NULL VALUE
COMP .                         : COMPANY
WELL .                         : WELL
FLD  .                         : FIELD
LOC  .                         : LOCATION
PROV .                         : PROVINCE
CNTY .                         : COUNTY
STAT .                         : STATE
CTRY .                         : COUNTRY
SRVC .                         : SERVICE COMPANY
DATE .                         : DATE
UWI  .                         : UNIQUE WELL ID
API  .                         : API NUMBER
SLAT .WGS84 1.4630186641632967 : SURFACE LATITUDE
SLON .WGS84   8.84881103165101 : SURFACE LONGITUDE
DATUM.F                3637.06 : DEPTH DATUM ELEV
~Curve Information -----------------------------------------
DEPT.F     : 1 MEASURED DEPTH
GRS .GAPI  : GAMMA RAY FROM SONIC LOG
DTCO.US/F  : DELTA-T COMPRESSIONAL
DTSM.US/F  : DELTA-T SHEAR
~Params ----------------------------------------------------
~Other -----------------------------------------------------
~ASCII -----------------------------------------------------
# ...
  897.00000  108.19750   78.92020  134.61200
  897.50000  113.46510   76.83270  131.37390
  898.00000  117.69700   75.91980  134.33200
  898.50000  119.31980   77.76010  145.46460
  899.00000  119.97100   81.66120  163.46030
  899.50000  125.64470   85.59330  181.98000
  900.00000  143.10610   89.33070  195.52940
  900.50000  151.93830   93.06810  193.25700
  901.00000  166.53050   94.21170  183.16860
  901.50000  179.97010   90.62000  174.84340
  902.00000  186.01850   84.74800  166.51820
  902.50000  173.38290   80.54090  159.69160
  903.00000  145.27530   79.00230  153.26890
  903.50000  134.00810   76.92780  146.95570
  904.00000  124.32370   74.63440  140.64250
  904.50000  125.68980   79.10660  137.58460
  905.00000  131.06010   88.31540  146.44360
  905.50000  136.43040   96.78390  159.41230
  906.00000  129.25230  107.95200  171.20610
  906.50000  108.41320  112.15880  176.85200
  907.00000   81.18030  112.40280  170.12750
  907.50000   59.04790  111.05390  162.33350
  908.00000   40.76770  109.48410  159.34390
  908.50000   30.60320  109.56240  163.65700
  909.00000   30.51990  109.64180  168.03060
  909.50000   34.81580  109.62110  166.40950
  910.00000   38.70020  109.01430  158.36400
  910.50000   39.10630  107.89710  153.79710
  911.00000   36.93400  106.64000  157.66670
  911.50000   31.77510  106.48550  164.05880
  912.00000   26.22220  106.48850  171.57280
  912.50000   20.40040  106.02090  172.25670
  913.00000   14.65730  105.30500  173.75830
  913.50000   11.85110  105.40920  179.13500
  914.00000    9.23130  106.19570  183.47350
  914.50000    6.74340  107.43210  185.14630
  915.00000    4.39650  107.82510  184.95010
  915.50000    3.13860  107.76160  186.29360
  916.00000    2.31590  107.96770  188.62020
  916.50000    2.13110  108.39010  189.49690
  917.00000    2.29940  107.97320  187.74390
  917.50000    2.55150  104.95960  186.25300
  918.00000    3.06170  100.29180  184.99180
  918.50000    3.32710   99.17290  184.22530
  919.00000    3.61610   99.78310  182.29210
  919.50000    4.02710  104.51790  182.50320
  920.00000    4.59260  117.76290  189.31720
  920.50000    5.13860  121.03040  195.38680
  921.00000    6.02870  119.00530  200.49870
  921.50000    7.36800  115.78520  193.35360
  922.00000    9.90060  112.65360  184.60820
  922.50000   12.99080  109.52210  173.05800
  923.00000   16.77760  106.17840  162.74100
  923.50000   21.34390  102.84850  155.04380
  924.00000   26.13650  100.22940  163.26140
  924.50000   30.16700  100.07950  172.60470
  925.00000   30.54150  103.96360  179.36500
  925.50000   27.49970  109.57690  180.31550
  926.00000   23.59830  114.31810  181.16300
  926.50000   19.69680  117.39710  180.61540
  927.00000   16.16440  116.80710  176.46360
  927.50000   12.86490  113.91370  173.18240
  928.00000    9.56530  111.63660  171.84940
  928.50000    7.38230  109.40390  170.84530
  929.00000    6.30070  107.49480  170.85890
  929.50000    5.72030  105.63430  172.63120
  930.00000    6.40550  103.94810  175.03310
  930.50000    8.04050  102.87590  178.99170
  931.00000   10.43460  102.80440  183.64930
  931.50000   12.85740  104.50790  186.97500
  932.00000   15.94780  106.66340  188.40440
  932.50000   21.52110  106.63340  184.07190
  933.00000   27.27280  101.29580  179.21210
  933.50000   34.38620   85.37920  174.35220
  934.00000   42.26000   69.66870  173.16550
  934.50000   48.14060   66.38220  175.66750
  935.00000   50.92750   62.81520  178.16940
  935.50000   50.98170   58.51670  176.09520
  936.00000   49.80500   61.00830  159.10140
  936.50000   45.80450   64.24920  142.10760
  937.00000   40.08850   65.89870  140.89100
  937.50000   32.49970   66.18440  143.23180
  938.00000   25.90650   65.67120  152.41460
  938.50000   20.19620   65.24090  166.62900
  939.00000   17.25460   64.15980  179.21710
  939.50000   15.34080   62.25340  187.01330
  940.00000   13.89910   60.58960  191.61050
  940.50000   11.81980   59.99060  193.86630
  941.00000   10.85920   59.42870  196.12210
  941.50000   10.54590   58.81130  197.98550
  942.00000   10.52060   58.85490  197.76030
  942.50000   10.28810   59.06760  196.98120
  943.00000    9.69090   59.56610  195.63970
  943.50000    9.15730   60.25160  193.86220
  944.00000    8.44160   61.05630  192.67390
  944.50000    8.40190   61.72700  190.91640
  945.00000    9.10780   61.16500  171.13640
  945.50000    9.78830   59.37060  130.14390
  946.00000    9.91040   57.46260  103.19930
  946.50000    9.53150   54.86310   97.69010
  947.00000    8.69480   52.25230   92.18090
  947.50000    8.12630   49.99950   88.19820
  948.00000    8.24310   48.30650   86.99230
  948.50000    9.20600   46.83990   86.97790
  949.00000   10.47700   45.15500   88.06270
  949.50000   11.76980   43.21020   89.28490
  950.00000   12.81090   41.52410   90.50720
  950.50000   13.49490   42.16130   92.56000
  951.00000   14.08800   45.98480   99.48720
  951.50000   14.75630   51.03430  108.71180
  952.00000   16.83460   56.18950  117.93630
  952.50000   19.28590   60.97680  122.17420
  953.00000   20.37460   64.10650  126.35730
  953.50000   19.44050   66.46360  130.49960
  954.00000   16.32720   66.51700  133.69350
  954.50000   14.52700   65.25580  128.05670
  955.00000   13.15760   61.16900  118.59890
  955.50000   12.38080   55.98240  109.14100
  956.00000   11.60400   54.95150  103.87010
  956.50000   10.92160   54.20050  102.10750
  957.00000   10.55330   53.34620  100.56720
  957.50000   10.10720   52.50490   98.85990
  958.00000    9.49900   51.31560   97.08290
  958.50000    8.70610   50.59620   95.55130
  959.00000    7.99600   49.87690   95.36310
  959.50000    7.51460   49.55410   95.48960
  960.00000    7.49650   49.83600   97.40670
  960.50000    7.50830   51.03550  100.03490
  961.00000    7.81800   52.34380  102.66300
  961.50000    8.68970   54.43450  105.29120
  962.00000    9.64160   56.52520  107.74680
  962.50000   10.12820   56.34420  108.74080
  963.00000    9.84050   54.23900  107.88510
  963.50000    9.24600   52.01400  102.70360
  964.00000    8.70290   49.64640   97.74490
  964.50000    8.15980   48.78320   93.33010
  965.00000    7.61660   47.88930   88.91530
  965.50000    6.94650   45.83400   87.80280
  966.00000    7.00870   43.70960   91.25820
  966.50000    7.27470   42.14090   95.11460
  967.00000    7.25820   41.67520   97.89440
  967.50000    7.79850   45.99600  112.23280
  968.00000    8.18390   61.87490  144.87800
  968.50000    9.50650   77.32660  168.37200
  969.00000    9.92770   79.14260  173.25620
  969.50000   10.30840   71.45510  151.34650
  970.00000   10.35400   63.08440  129.43670
  970.50000    9.83940   59.30090  107.52700
  971.00000    9.19050   59.07230  104.45890
  971.50000    8.72870   56.18120  104.60780
  972.00000    8.81700   53.97690  109.82940
  972.50000    9.95450   54.92100  115.87890
  973.00000   10.71350   56.59330  119.49030
  973.50000   11.06110   58.53060  119.96910
  974.00000   11.02070   58.67810  124.24060
  974.50000   10.57410   58.40570  128.60100
  975.00000   10.16240   61.39920  132.96150
  975.50000    9.91980   65.70270  137.32190
  976.00000   10.39020   68.63720  141.68230
  976.50000   12.10150   66.42120  142.06640
  977.00000   13.21360   63.54080  137.49290
  977.50000   13.99540   61.19480  131.43720
  978.00000   14.34030   61.49570  125.38160
  978.50000   14.06610   61.56230  119.32590
  979.00000   13.62330   58.98030  113.40120
  979.50000   13.18040   56.23840  107.62080
  980.00000   12.73760   54.86790  101.47970
  980.50000   12.44900   53.65340   96.50140
  981.00000   12.85050   52.18530   94.36610
  981.50000   13.56290   51.36990   91.64570
  982.00000   14.27540   50.44960   90.40270
  982.50000   14.59140   50.56970   91.61670
  983.00000   13.92580   53.30490   93.99010
  983.50000   12.87560   54.94480   95.00450
  984.00000   12.35040   54.12830   93.54700
  984.50000   12.68030   53.39090   91.76700
  985.00000   13.86250   53.51600   91.90720
  985.50000   15.04470   53.75010   93.32630
