~Version ---------------------------------------------------
VERS.   2.0 : CWLS log ASCII Standard -VERSION 2.0
WRAP.    NO : One line per depth step
DLM . SPACE : Column Data Section Delimiter
~Well ------------------------------------------------------
STRT .F                  185.0 : START DEPTH
STOP .F                 2424.0 : STOP DEPTH
STEP .F                    0.5 : STEP
NULL .                -9999.25 : NULL VALUE
COMP .                         : COMPANY
WELL .                         : WELL
FLD  .                         : FIELD
LOC  .                         : LOCATION
PROV .                         : PROVINCE
CNTY .                         : COUNTY
STAT .                         : STATE
CTRY .                         : COUNTRY
SRVC .                         : SERVICE COMPANY
DATE .                         : DATE
UWI  .                         : UNIQUE WELL ID
API  .                         : API NUMBER
SLAT .WGS84 1.4630186641632967 : SURFACE LATITUDE
SLON .WGS84   8.84881103165101 : SURFACE LONGITUDE
DATUM.F                3637.06 : DEPTH DATUM ELEV
~Curve Information -----------------------------------------
DEPT.F     : 1 MEASURED DEPTH
GRS .GAPI  : GAMMA RAY FROM SONIC LOG
DTCO.US/F  : DELTA-T COMPRESSIONAL
DTSM.US/F  : DELTA-T SHEAR
~Params ----------------------------------------------------
~Other -----------------------------------------------------
~ASCII -----------------------------------------------------
# ...
 1431.00000   14.51350   52.95860  102.09720
 1431.50000   14.73380   53.39000  102.08520
 1432.00000   16.37190   53.82360  102.07310
 1432.50000   17.25500   54.00090  101.94030
 1433.00000   17.01930   53.73920  101.60090
 1433.50000   16.69970   53.16480  101.13980
 1434.00000   15.79860   52.59040  100.67590
 1434.50000   13.47160   52.03230  100.21200
 1435.00000   10.58430   51.40210   99.74810
 1435.50000    7.69690   51.08800   99.28420
 1436.00000    6.64330   50.85480   99.20660
 1436.50000    6.89950   50.67010   99.20660
 1437.00000    7.33340   50.74860   99.39080
 1437.50000    7.69170   50.95960   99.58390
 1438.00000    8.07150   51.13130   99.53590
 1438.50000    8.63640   51.08940   99.22900
 1439.00000    9.90330   51.02810   98.84410
 1439.50000   10.72900   51.20980   98.29320
 1440.00000   11.34650   51.44910   98.00980
 1440.50000   11.49050   51.52640   97.84880
 1441.00000   11.83050   51.52810   97.68670
 1441.50000   12.21540   51.52680   97.41890
 1442.00000   12.47000   51.27450   97.11070
 1442.50000   12.82220   51.01990   96.57270
 1443.00000   13.50450   51.11350   95.87520
 1443.50000   13.74260   51.08890   94.63410
 1444.00000   13.02980   50.89980   94.02270
 1444.50000   12.17950   50.74620   93.94720
 1445.00000   10.81450   51.02150   95.03990
 1445.50000   10.37820   51.44280   96.08960
 1446.00000   10.00890   51.84060   97.60210
 1446.50000   10.06850   52.09430   98.53340
 1447.00000   10.44890   51.51390   99.49050
 1447.50000   11.63490   50.85960  100.07830
 1448.00000   11.25630   50.20530  100.96620
 1448.50000   10.32230   49.59290  101.41730
 1449.00000   10.07270   49.47060  101.26250
 1449.50000   10.16210   49.69480  101.05750
 1450.00000   11.09280   50.11980  100.78970
 1450.50000   12.32750   50.58120  100.64530
 1451.00000   12.39660   50.66550  100.58800
 1451.50000   11.39730   50.72550   99.74760
 1452.00000    9.96110   51.04930   98.90720
 1452.50000    8.29020   51.11620   98.06680
 1453.00000    6.84330   51.29580   97.22640
 1453.50000    5.52530   52.46500   96.80610
 1454.00000    4.93350   53.85360   96.41890
 1454.50000    4.46990   54.05530   96.03160
 1455.00000    4.82610   53.89710   95.75110
 1455.50000    5.21660   53.43010   95.48910
 1456.00000    5.67290   53.06920   95.22700
 1456.50000    6.16600   52.77280   95.14170
 1457.00000    6.52570   52.47640   95.68720
 1457.50000    6.57080   52.18000   96.43540
 1458.00000    6.30410   52.41810   97.40750
 1458.50000    6.07580   52.92920   98.43230
 1459.00000    6.71620   52.80440   99.20830
 1459.50000    7.54220   52.29130   99.40350
 1460.00000    8.15600   51.77900   99.47740
 1460.50000    8.49140   51.58680   99.47380
 1461.00000    8.77700   51.41540   99.46520
 1461.50000    8.93020   51.47580   99.02550
 1462.00000    8.78140   51.78600   98.02180
 1462.50000    7.27930   51.32690   96.79810
 1463.00000    6.38150   50.68700   95.50240
 1463.50000    6.03810   50.54400   94.64200
 1464.00000    6.01340   50.58510   93.78160
 1464.50000    5.99450   50.90900   93.36410
 1465.00000    5.85450   51.28240   93.33150
 1465.50000    5.77620   51.00210   93.30780
 1466.00000    6.05870   50.44090   93.43930
 1466.50000    6.37780   50.16200   93.84560
 1467.00000    6.68130   50.13400   94.31620
 1467.50000    6.99690   50.12470   94.73170
 1468.00000    6.98000   50.05890   94.77020
 1468.50000    6.48950   49.92170   94.42150
 1469.00000    6.15600   49.81540   94.13680
 1469.50000    5.77380   49.80820   93.63040
 1470.00000    6.16740   49.83150   93.05340
 1470.50000    6.45180   49.78820   92.58010
 1471.00000    6.52490   49.69380   92.23180
 1471.50000    6.56830   49.64280   92.12550
 1472.00000    6.63180   49.61250   92.12680
 1472.50000    6.94610   49.56160   92.10300
 1473.00000    7.73450   49.67160   92.10040
 1473.50000    7.73540   49.81000   92.09780
 1474.00000    7.24420   49.89290   92.06880
 1474.50000    5.57620   50.10040   92.11360
 1475.00000    4.74990   50.46230   92.71220
 1475.50000    4.59770   50.65400   93.15210
 1476.00000    4.81120   50.72460   93.24990
 1476.50000    5.72070   50.82100   93.29320
 1477.00000    5.87780   50.87870   93.29980
 1477.50000    5.88360   50.89190   93.30640
 1478.00000    5.88810   50.95970   93.41860
 1478.50000    5.88200   51.11490   93.82010
 1479.00000    5.87400   50.99690   94.38750
 1479.50000    5.86600   50.90310   94.82950
 1480.00000    5.52220   51.00460   94.69450
 1480.50000    5.24820   51.09460   94.45730
 1481.00000    4.93350   51.23290   94.14260
 1481.50000    4.72810   51.27320   94.09380
 1482.00000    5.10690   50.85400   94.09380
 1482.50000    5.55660   51.02340   94.08240
 1483.00000    5.81500   51.83340   94.00090
 1483.50000    5.83780   52.20540   93.71300
 1484.00000    5.81540   51.92650   93.61920
 1484.50000    5.92410   51.60430   93.36190
 1485.00000    6.31100   51.50450   93.09410
 1485.50000    6.96690   51.61570   92.93370
 1486.00000    8.40080   51.76470   92.89980
 1486.50000    9.79930   51.81340   92.98840
 1487.00000   10.65750   51.55250   93.36970
 1487.50000   10.66810   51.41530   93.96080
 1488.00000    9.85030   51.35410   94.46940
 1488.50000    8.16810   51.31160   94.77240
 1489.00000    7.59360   51.23540   94.86340
 1489.50000    7.50490   50.88330   94.83500
 1490.00000    8.10260   50.41810   94.85040
 1490.50000    8.40830   50.16180   94.79520
 1491.00000    8.08790   50.17120   94.93450
 1491.50000    7.63100   50.26610   95.27600
 1492.00000    7.01730   50.36100   95.30970
 1492.50000    6.75780   50.40140   95.53710
 1493.00000    6.59880   50.31010   96.52250
 1493.50000    6.57030   50.07220   97.36600
 1494.00000    6.56330   49.62650   97.60160
 1494.50000    6.52160   49.26790   96.89820
 1495.00000    6.47150   49.41440   96.01900
 1495.50000    6.30750   49.53520   95.46890
 1496.00000    5.74040   49.39940   95.43690
 1496.50000    5.36720   49.25180   95.40490
 1497.00000    5.49680   49.12990   95.25920
 1497.50000    5.97030   49.07460   94.87520
 1498.00000    6.70290   49.26430   94.49110
 1498.50000    7.44110   49.51260   94.05080
 1499.00000    7.13810   49.71540   93.94730
 1499.50000    7.09930   49.86370   93.68470
 1500.00000    7.35510   50.02990   93.37830
 1500.50000    7.78900   50.19610   93.08110
 1501.00000    7.99550   50.20600   92.91350
 1501.50000    7.48180   50.01940   92.63700
 1502.00000    6.81510   49.71250   92.33830
 1502.50000    5.95420   49.43850   92.15310
 1503.00000    5.57300   49.35230   92.54850
 1503.50000    5.65550   49.41240   93.04570
 1504.00000    5.76690   49.54360   93.42870
 1504.50000    5.33730   49.72360   93.49110
 1505.00000    4.92420   49.85760   93.23270
 1505.50000    4.70740   50.04710   93.08310
 1506.00000    4.72740   50.33220   92.93350
 1506.50000    4.87310   50.61390   93.08410
 1507.00000    5.45190   50.84630   93.51400
 1507.50000    6.78440   50.89320   94.48820
 1508.00000    8.46190   50.87440   95.20920
 1508.50000    9.81540   50.81840   95.68030
 1509.00000    9.66990   50.69990   96.25660
 1509.50000    9.03970   50.58620   96.63740
 1510.00000    8.53110   50.61340   96.88600
 1510.50000    8.53060   50.75720   96.84370
 1511.00000    9.27970   50.80940   96.53230
 1511.50000   10.99960   50.79730   95.91790
 1512.00000   12.80100   50.75950   95.49890
 1512.50000   13.53570   50.71670   95.04990
 1513.00000   11.63960   50.66410   94.57950
 1513.50000    8.89770   50.58170   93.94440
 1514.00000    7.50890   50.50960   93.85510
 1514.50000    6.55300   50.42210   94.09750
 1515.00000    6.21490   50.32820   94.31830
 1515.50000    6.01360   50.32760   94.91970
 1516.00000    5.93770   50.49430   95.39130
 1516.50000    6.14260   50.56950   95.68990
 1517.00000    6.89320   50.49740   95.68990
 1517.50000    7.55870   50.38120   95.56890
 1518.00000    7.72450   50.27560   95.39470
 1518.50000    7.56410   50.06060   95.28090
 1519.00000    6.94870   49.94520   95.02140
 1519.50000    6.06500   49.91990   94.90420
