~Version ---------------------------------------------------
VERS.   2.0 : CWLS log ASCII Standard -VERSION 2.0
WRAP.    NO : One line per depth step
DLM . SPACE : Column Data Section Delimiter
~Well ------------------------------------------------------
STRT .F                  185.0 : START DEPTH
STOP .F                 2424.0 : STOP DEPTH
STEP .F                    0.5 : STEP
NULL .                -9999.25 : NULL VALUE
COMP .                         : COMPANY
WELL .                         : WELL
FLD  .                         : FIELD
LOC  .                         : LOCATION
PROV .                         : PROVINCE
CNTY .                         : COUNTY
STAT .                         : STATE
CTRY .                         : COUNTRY
SRVC .                         : SERVICE COMPANY
DATE .                         : DATE
UWI  .                         : UNIQUE WELL ID
API  .                         : API NUMBER
SLAT .WGS84 1.4630186641632967 : SURFACE LATITUDE
SLON .WGS84   8.84881103165101 : SURFACE LONGITUDE
DATUM.F                3637.06 : DEPTH DATUM ELEV
~Curve Information -----------------------------------------
DEPT.F     : 1 MEASURED DEPTH
GRS .GAPI  : GAMMA RAY FROM SONIC LOG
DTCO.US/F  : DELTA-T COMPRESSIONAL
DTSM.US/F  : DELTA-T SHEAR
~Params ----------------------------------------------------
~Other -----------------------------------------------------
~ASCII -----------------------------------------------------
# ...
  808.00000   17.28440   -9999.25   -9999.25
  808.50000   18.77460   -9999.25   -9999.25
  809.00000   19.97170   -9999.25   -9999.25
  809.50000   19.79610   -9999.25   -9999.25
  810.00000   18.96820   -9999.25   -9999.25
  810.50000   16.75850   -9999.25   -9999.25
  811.00000   15.42380   -9999.25   -9999.25
  811.50000   14.84980   -9999.25   -9999.25
  812.00000   15.42110   -9999.25   -9999.25
  812.50000   16.71930   -9999.25   -9999.25
  813.00000   18.02910   -9999.25   -9999.25
  813.50000   18.72660   -9999.25   -9999.25
  814.00000   18.67450   -9999.25   -9999.25
  814.50000   18.26690   -9999.25   -9999.25
  815.00000   17.58390   -9999.25   -9999.25
  815.50000   16.95290   -9999.25   -9999.25
  816.00000   16.49540   -9999.25   -9999.25
  816.50000   17.08310   -9999.25   -9999.25
  817.00000   18.47740   -9999.25   -9999.25
  817.50000   19.79100   -9999.25   -9999.25
  818.00000   20.72810   -9999.25   -9999.25
  818.50000   20.72040   -9999.25   -9999.25
  819.00000   20.12010   -9999.25   -9999.25
  819.50000   19.09760   -9999.25   -9999.25
  820.00000   18.12120   -9999.25   -9999.25
  820.50000   17.88570   -9999.25   -9999.25
  821.00000   18.14840   -9999.25   -9999.25
  821.50000   18.25910   -9999.25   -9999.25
  822.00000   17.93830   -9999.25   -9999.25
  822.50000   17.63000   -9999.25   -9999.25
  823.00000   18.01180   -9999.25   -9999.25
  823.50000   18.87610   -9999.25   -9999.25
  824.00000   18.02720   -9999.25   -9999.25
  824.50000   16.66270   -9999.25   -9999.25
  825.00000   15.55660   -9999.25   -9999.25
  825.50000   15.24530   -9999.25   -9999.25
  826.00000   15.06750   -9999.25   -9999.25
  826.50000   15.06750   -9999.25   -9999.25
  827.00000   15.50270   -9999.25   -9999.25
  827.50000   16.00190   -9999.25   -9999.25
  828.00000   16.54120   -9999.25   -9999.25
  828.50000   17.05890   -9999.25   -9999.25
  829.00000   17.36710   -9999.25   -9999.25
  829.50000   16.96160   -9999.25   -9999.25
  830.00000   16.84830   -9999.25   -9999.25
  830.50000   16.92390   -9999.25   -9999.25
  831.00000   17.12070   -9999.25   -9999.25
  831.50000   16.74350   -9999.25   -9999.25
  832.00000   16.53340   -9999.25   -9999.25
  832.50000   16.61160   -9999.25   -9999.25
  833.00000   17.56900   -9999.25   -9999.25
  833.50000   18.16090   -9999.25   -9999.25
  834.00000   17.64610   -9999.25   -9999.25
  834.50000   17.14900   -9999.25   -9999.25
  835.00000   17.29810   -9999.25   -9999.25
  835.50000   17.55740   -9999.25   -9999.25
  836.00000   17.73580   -9999.25   -9999.25
  836.50000   17.79400   -9999.25   -9999.25
  837.00000   17.89260   -9999.25   -9999.25
  837.50000   17.93080   -9999.25   -9999.25
  838.00000   17.42550   -9999.25   -9999.25
  838.50000   17.09990   -9999.25   -9999.25
  839.00000   16.38810   -9999.25   -9999.25
  839.50000   16.39240   -9999.25   -9999.25
  840.00000   16.36650   -9999.25   -9999.25
  840.50000   16.36280   -9999.25   -9999.25
  841.00000   16.43160   -9999.25   -9999.25
  841.50000   17.99330   -9999.25   -9999.25
  842.00000   19.80810   -9999.25   -9999.25
  842.50000   21.48110   -9999.25   -9999.25
  843.00000   21.84850   -9999.25   -9999.25
  843.50000   21.86030   -9999.25   -9999.25
  844.00000   21.34810   -9999.25   -9999.25
  844.50000   21.28580   -9999.25   -9999.25
  845.00000   21.26720   -9999.25   -9999.25
  845.50000   20.83790   -9999.25   -9999.25
  846.00000   19.27270   -9999.25   -9999.25
  846.50000   17.52740   -9999.25   -9999.25
  847.00000   16.50090   -9999.25   -9999.25
  847.50000   17.43840   -9999.25   -9999.25
  848.00000   19.37020   -9999.25   -9999.25
  848.50000   21.29130   -9999.25   -9999.25
  849.00000   22.79310   -9999.25   -9999.25
  849.50000   24.29500   -9999.25   -9999.25
  850.00000   25.22090   52.43060   96.93190
  850.50000   25.46350   52.82510   96.53260
  851.00000   24.23820   52.71590   94.22100
  851.50000   22.01650   52.37720   92.02780
  852.00000   20.46760   51.84620   92.02170
  852.50000   20.26210   50.99240   93.07950
  853.00000   20.09200   50.30860   93.64670
  853.50000   19.94520   50.34110   93.05790
  854.00000   19.06380   50.72600   92.49680
  854.50000   18.41750   50.73520   90.57550
  855.00000   18.33220   50.44320   88.37990
  855.50000   18.38300   50.41400   86.18060
  856.00000   19.31480   50.55330   87.16070
  856.50000   20.52060   51.23620   88.27920
  857.00000   22.27430   52.35070   89.37150
  857.50000   24.88130   53.46940   90.30020
  858.00000   27.97450   53.97740   91.47020
  858.50000   30.60450   54.22600   92.73360
  859.00000   30.10100   55.06930   93.27880
  859.50000   28.85860   56.53450   93.66380
  860.00000   28.76610   57.99980   94.52840
  860.50000   29.10730   57.68160   96.92940
  861.00000   28.74160   56.33520   99.33040
  861.50000   27.93310   55.15750  102.06450
  862.00000   27.44440   56.02100  104.92030
  862.50000   28.81610   57.90530  107.77600
  863.00000   31.95320   58.56990  110.63170
  863.50000   33.75120   59.14310  109.11020
  864.00000   34.41610   59.64410  105.12080
  864.50000   37.10800   58.71070  101.13140
  865.00000   42.26590   56.30250   97.40220
  865.50000   47.27150   52.52020  100.93350
  866.00000   47.44200   48.73790  110.37420
  866.50000   44.74180   45.39870  119.81490
  867.00000   42.67240   47.97610  127.98310
  867.50000   43.49730   53.98560  131.67770
  868.00000   51.80680   59.61590  138.86140
  868.50000   60.54790   61.44720  137.37510
  869.00000   62.77580   62.13720  130.12810
  869.50000   58.66380   61.28890  122.88120
  870.00000   53.23700   59.70960  115.63420
  870.50000   48.53570   59.90750  111.18910
  871.00000   49.39140   60.29710  108.84040
  871.50000   54.22750   60.54590  108.70930
  872.00000   59.56800   61.29520  110.86090
  872.50000   64.00980   62.13500  114.59510
  873.00000   60.96700   62.18160  118.32920
  873.50000   57.36200   59.90870  122.11870
  874.00000   59.71730   56.76930  125.90880
  874.50000   74.18330   55.74430  129.69890
  875.00000   88.05370   55.17010  132.92740
  875.50000  101.92410   53.93430  136.13720
  876.00000  100.07860   52.10810  136.97230
  876.50000   88.30500   51.58710  130.61190
  877.00000   78.79590   51.41510  121.23370
  877.50000   77.31910   51.86910  114.54660
  878.00000   83.08970   52.85250  109.91960
  878.50000   88.86030   54.36000  111.65320
  879.00000   91.24400   56.85100  114.00810
  879.50000   85.20490   58.59230  116.36300
  880.00000   74.77660   60.33360  118.71780
  880.50000   62.51540   62.07500  120.88900
  881.00000   50.49400   64.50290  121.19090
  881.50000   45.43990   67.25080  120.46700
  882.00000   45.52340   68.50600  119.79120
  882.50000   50.78370   70.08430  119.75250
  883.00000   55.32340   71.82690  121.29850
  883.50000   60.06780   72.24980  123.45600
  884.00000   64.40580   71.46910  125.61350
  884.50000   62.95580   69.53520  126.68030
  885.00000   60.42490   66.38100  122.42030
  885.50000   59.24240   63.22680  117.21040
  886.00000   63.84640   60.75410  112.00040
  886.50000   68.67380   58.62860  109.56430
  887.00000   71.71970   57.42010  111.83560
  887.50000   66.22500   57.71370  112.09120
  888.00000   58.69160   60.06460  110.88050
  888.50000   51.29390   61.42950  110.49690
  889.00000   44.30490   60.92260  112.36310
  889.50000   43.18330   60.58530  114.22920
  890.00000   47.50510   63.24510  116.26000
  890.50000   56.31520   66.11100  121.31570
  891.00000   63.61970   68.43060  126.37140
  891.50000   68.42610   69.54390  130.01950
  892.00000   71.51300   70.51820  133.03330
  892.50000   74.13870   72.33220  136.23990
  893.00000   76.64760   76.20590  139.69750
  893.50000   81.74740   80.65770  144.15940
  894.00000   90.99920   84.88590  148.78740
  894.50000   99.98530   85.45200  149.47120
  895.00000  103.94810   85.63340  148.45530
  895.50000  103.16040   84.30060  146.49960
  896.00000  102.25930   82.73160  142.83470
  896.50000  103.96060   81.00760  138.72330
