~Version ---------------------------------------------------
VERS.   2.0 : CWLS log ASCII Standard -VERSION 2.0
WRAP.    NO : One line per depth step
DLM . SPACE : Column Data Section Delimiter
~Well ------------------------------------------------------
STRT .F                  185.0 : START DEPTH
STOP .F                 2424.0 : STOP DEPTH
STEP .F                    0.5 : STEP
NULL .                -9999.25 : NULL VALUE
COMP .                         : COMPANY
WELL .                         : WELL
FLD  .                         : FIELD
LOC  .                         : LOCATION
PROV .                         : PROVINCE
CNTY .                         : COUNTY
STAT .                         : STATE
CTRY .                         : COUNTRY
SRVC .                         : SERVICE COMPANY
DATE .                         : DATE
UWI  .                         : UNIQUE WELL ID
API  .                         : API NUMBER
SLAT .WGS84 1.4630186641632967 : SURFACE LATITUDE
SLON .WGS84   8.84881103165101 : SURFACE LONGITUDE
DATUM.F                3637.06 : DEPTH DATUM ELEV
~Curve Information -----------------------------------------
DEPT.F     : 1 MEASURED DEPTH
GRS .GAPI  : GAMMA RAY FROM SONIC LOG
DTCO.US/F  : DELTA-T COMPRESSIONAL
DTSM.US/F  : DELTA-T SHEAR
~Params ----------------------------------------------------
~Other -----------------------------------------------------
~ASCII -----------------------------------------------------
# ...
 1520.00000    5.28180   49.82030   94.88920
 1520.50000    4.79970   49.68030   94.89280
 1521.00000    4.81630   49.52320   94.90590
 1521.50000    5.03930   49.45620   95.07530
 1522.00000    5.52880   49.37530   95.21880
 1522.50000    5.72610   49.01900   95.25700
 1523.00000    5.86820   48.88970   95.29530
 1523.50000    5.86570   49.62280   94.83990
 1524.00000    6.02560   50.17630   94.45110
 1524.50000    6.70470   50.49370   94.09290
 1525.00000    7.28110   50.53970   94.01350
 1525.50000    7.58500   50.21700   93.71520
 1526.00000    7.03980   49.37310   93.38550
 1526.50000    6.24310   49.01530   93.33330
 1527.00000    5.73490   48.82870   93.60750
 1527.50000    5.34750   48.90620   93.92470
 1528.00000    5.01170   49.01980   93.74820
 1528.50000    4.66300   49.07800   93.68230
 1529.00000    4.94020   49.10820   93.61160
 1529.50000    5.38590   49.64690   93.55270
 1530.00000    6.00870   50.86170   93.19240
 1530.50000    6.77160   50.44860   92.97620
 1531.00000    7.30870   49.32360   92.76130
 1531.50000    7.37480   48.70780   92.54640
 1532.00000    6.93940   48.56450   92.33140
 1532.50000    7.18240   48.62320   92.38430
 1533.00000    7.70850   48.59910   92.48520
 1533.50000    8.09720   48.38590   92.58620
 1534.00000    7.86000   48.26460   92.87010
 1534.50000    7.49280   48.32000   92.82790
 1535.00000    7.28300   48.34060   92.64950
 1535.50000    7.00470   48.34170   92.76450
 1536.00000    6.92380   48.91120   92.98860
 1536.50000    6.65390   49.22420   93.21290
 1537.00000    6.46960   49.52010   93.43700
 1537.50000    6.38200   49.75270   93.66130
 1538.00000    6.59380   49.87260   93.60190
 1538.50000    6.82020   49.88750   93.27040
 1539.00000    6.43420   49.93460   92.94500
 1539.50000    5.92530   50.00710   93.17450
 1540.00000    5.72410   50.09850   93.70990
 1540.50000    5.72470   50.17260   94.24410
 1541.00000    5.72400   50.23620   94.75170
 1541.50000    5.72340   50.26920   94.65770
 1542.00000    5.57720   50.39270   94.40290
 1542.50000    5.43520   50.44770   94.14800
 1543.00000    5.62050   50.36820   94.13350
 1543.50000    5.71500   50.30000   94.41840
 1544.00000    5.72300   50.26830   94.81920
 1544.50000    5.72300   50.16490   95.21990
 1545.00000    5.72300   50.04950   95.62070
 1545.50000    5.72300   49.95080   95.65670
 1546.00000    5.86840   49.96860   95.28480
 1546.50000    6.17910   50.03520   94.30430
 1547.00000    6.67450   50.11610   93.32370
 1547.50000    6.77500   50.16990   92.91890
 1548.00000    6.09410   50.21760   92.65150
 1548.50000    5.51110   50.34910   92.38400
 1549.00000    5.12520   50.45560   91.70770
 1549.50000    5.54110   50.44100   91.29930
 1550.00000    6.47120   50.28110   91.06190
 1550.50000    7.11240   49.97300   91.04450
 1551.00000    7.39870   49.73750   91.19560
 1551.50000    7.40030   49.59130   91.45170
 1552.00000    6.48590   49.62500   91.69940
 1552.50000    5.39820   49.71890   91.71370
 1553.00000    5.21760   49.81080   91.82990
 1553.50000    5.52720   49.93550   91.55630
 1554.00000    6.42100   49.95550   91.28170
 1554.50000    7.15200   50.07150   91.00720
 1555.00000    7.22410   50.23010   90.73260
 1555.50000    6.86380   50.53090   90.55800
 1556.00000    6.24070   50.68900   90.65930
 1556.50000    6.09380   50.89800   90.80280
 1557.00000    6.76300   50.92590   90.97610
 1557.50000    7.41260   50.87010   91.14930
 1558.00000    7.57590   50.55990   91.13190
 1558.50000    7.35820   50.31450   90.85430
 1559.00000    5.96920   50.30450   90.57670
 1559.50000    5.15770   50.38170   90.53040
 1560.00000    5.14370   50.44090   90.72070
 1560.50000    5.28400   50.42040   90.97520
 1561.00000    5.60580   50.33100   91.14400
 1561.50000    5.77220   50.18820   91.58830
 1562.00000    6.05700   50.18000   92.00290
 1562.50000    6.47510   50.18200   92.08390
 1563.00000    6.61080   50.27960   91.77110
 1563.50000    6.25910   50.41950   91.36990
 1564.00000    5.61600   50.44950   91.36370
 1564.50000    5.16490   50.36180   91.41740
 1565.00000    4.93890   50.30970   91.69490
 1565.50000    4.59630   50.23790   91.71730
 1566.00000    4.45360   50.05460   91.81850
 1566.50000    4.24400   49.91230   91.90790
 1567.00000    4.67220   49.82780   92.09810
 1567.50000    5.11530   49.82400   92.49920
 1568.00000    5.36840   49.94810   92.18550
 1568.50000    5.57250   50.04070   91.87780
 1569.00000    5.25340   50.06070   91.60880
 1569.50000    5.12730   50.03130   91.33970
 1570.00000    5.12090   49.86820   91.21370
 1570.50000    5.16220   49.60180   91.21270
 1571.00000    5.35220   49.34320   91.39220
 1571.50000    5.66740   49.12290   91.57180
 1572.00000    6.15420   49.14310   91.68140
 1572.50000    6.11410   49.31120   91.71190
 1573.00000    5.57610   49.47920   92.00590
 1573.50000    4.87150   49.62200   92.08310
 1574.00000    4.66100   49.71370   92.05480
 1574.50000    5.01210   49.79260   91.80470
 1575.00000    5.73460   49.82850   91.53370
 1575.50000    5.86020   49.83740   91.26500
 1576.00000    6.01570   49.85270   90.99630
 1576.50000    6.37370   49.82270   90.72770
 1577.00000    6.78150   49.71840   90.45900
 1577.50000    6.50370   49.99970   90.19030
 1578.00000    6.20630   50.12040   90.25100
 1578.50000    5.98780   50.00340   90.31610
 1579.00000    6.22230   49.92450   90.40910
 1579.50000    6.51490   49.99870   90.58160
 1580.00000    6.90660   50.11270   90.93350
 1580.50000    7.22320   50.15420   91.28540
 1581.00000    7.53470   50.26550   91.63730
 1581.50000    8.43020   50.48380   91.98920
 1582.00000    9.18440   50.63820   92.34110
 1582.50000    9.32290   50.84830   92.77340
 1583.00000    8.71180   51.14270   92.92910
 1583.50000    7.98830   51.40230   92.90250
 1584.00000    7.18160   51.59250   92.52490
 1584.50000    6.48140   51.04370   92.05060
 1585.00000    6.05130   50.49450   91.75970
 1585.50000    5.64490   50.40460   91.71170
 1586.00000    5.32150   50.45830   91.93500
 1586.50000    5.32790   50.40880   92.16890
 1587.00000    6.51080   50.08360   92.00310
 1587.50000    8.02590   49.52720   91.73580
 1588.00000    9.42060   49.27170   91.49130
 1588.50000   10.38180   49.23170   91.47580
 1589.00000   10.54760   49.52200   91.49400
 1589.50000   10.03370   49.84550   91.51220
 1590.00000    9.22420   50.22380   91.53040
 1590.50000    8.31170   50.30560   91.54860
 1591.00000    8.23020   50.41350   91.56960
 1591.50000    8.41460   50.31730   91.60340
 1592.00000    8.43410   50.14940   91.63710
 1592.50000    8.55450   50.07860   91.67090
 1593.00000    8.92630   50.10810   91.70460
 1593.50000    9.25430   50.17060   91.73830
 1594.00000    8.94180   50.30310   91.92040
 1594.50000    8.21200   50.30160   91.84090
 1595.00000    7.51390   50.18690   92.03170
 1595.50000    7.43840   50.06510   92.45180
 1596.00000    6.77580   50.09470   92.73440
 1596.50000    6.37740   50.05080   93.01700
 1597.00000    6.05830   49.93720   93.29950
 1597.50000    5.74550   49.72340   93.43550
 1598.00000    5.75580   49.73850   93.43660
 1598.50000    5.96010   49.80270   93.33310
 1599.00000    6.23270   50.05490   93.09170
 1599.50000    6.20510   50.29170   92.85030
 1600.00000    5.59350   50.37860   92.60880
 1600.50000    5.28850   50.39340   92.36740
 1601.00000    5.58920   50.34590   92.13230
 1601.50000    5.76620   50.31060   92.04410
 1602.00000    5.83840   50.24650   92.11000
 1602.50000    5.83490   50.08720   92.11000
 1603.00000    6.20570   50.13370   92.06330
 1603.50000    6.67250   50.33690   91.72320
 1604.00000    7.25760   50.28550   91.94960
 1604.50000    7.63060   50.21340   92.22180
 1605.00000    7.77790   50.39050   92.43260
 1605.50000    8.20300   50.36630   92.15980
 1606.00000    8.72160   50.17960   91.74580
 1606.50000    8.71270   49.78580   91.76920
 1607.00000    8.16620   49.70710   92.08870
 1607.50000    7.71390   49.73300   92.10030
 1608.00000    7.69960   49.69970   92.11200
 1608.50000    7.69940   49.62020   92.10720
