~Version ---------------------------------------------------
VERS.   2.0 : CWLS log ASCII Standard -VERSION 2.0
WRAP.    NO : One line per depth step
DLM . SPACE : Column Data Section Delimiter
~Well ------------------------------------------------------
STRT .F                  185.0 : START DEPTH
STOP .F                 2424.0 : STOP DEPTH
STEP .F                    0.5 : STEP
NULL .                -9999.25 : NULL VALUE
COMP .                         : COMPANY
WELL .                         : WELL
FLD  .                         : FIELD
LOC  .                         : LOCATION
PROV .                         : PROVINCE
CNTY .                         : COUNTY
STAT .                         : STATE
CTRY .                         : COUNTRY
SRVC .                         : SERVICE COMPANY
DATE .                         : DATE
UWI  .                         : UNIQUE WELL ID
API  .                         : API NUMBER
SLAT .WGS84 1.4630186641632967 : SURFACE LATITUDE
SLON .WGS84   8.84881103165101 : SURFACE LONGITUDE
DATUM.F                3637.06 : DEPTH DATUM ELEV
~Curve Information -----------------------------------------
DEPT.F     : 1 MEASURED DEPTH
GRS .GAPI  : GAMMA RAY FROM SONIC LOG
DTCO.US/F  : DELTA-T COMPRESSIONAL
DTSM.US/F  : DELTA-T SHEAR
~Params ----------------------------------------------------
~Other -----------------------------------------------------
~ASCII -----------------------------------------------------
# ...
 1075.00000   12.25370   57.98270  111.23250
 1075.50000   12.72140   57.91450  110.69520
 1076.00000   11.61710   57.53060  106.54660
 1076.50000    9.82420   56.34410  103.10530
 1077.00000    8.12810   55.08490  100.64270
 1077.50000    8.50110   53.63650   96.98510
 1078.00000    9.72770   51.66600   94.23030
 1078.50000   10.92770   50.51050   93.13900
 1079.00000   11.02050   50.57980   92.93820
 1079.50000    9.44750   50.82160   92.12020
 1080.00000    7.81220   50.19370   89.88540
 1080.50000    6.10590   49.33930   89.10420
 1081.00000    5.89120   48.89830   89.11800
 1081.50000    6.17630   48.59640   89.61800
 1082.00000    6.29030   48.17460   89.52020
 1082.50000    6.03930   47.60240   88.78220
 1083.00000    5.74730   46.96360   88.04720
 1083.50000    5.92390   46.17370   88.41560
 1084.00000    6.44070   45.38370   89.77090
 1084.50000    7.18290   45.30510   91.28310
 1085.00000    8.14270   47.83740   96.11630
 1085.50000    9.59120   49.08800  103.26790
 1086.00000   10.80020   48.66210  110.74040
 1086.50000   11.44540   47.57550  112.02700
 1087.00000   11.12020   47.50200  110.59700
 1087.50000   10.32370   48.82170  107.48630
 1088.00000    9.83080   49.41840  102.00520
 1088.50000   10.43730   49.50930   97.14400
 1089.00000   11.75330   49.72920   94.23070
 1089.50000   13.07480   49.61870   93.39160
 1090.00000   13.14290   49.03100   92.07480
 1090.50000   11.09980   48.09530   89.97010
 1091.00000    9.05670   47.10610   89.31290
 1091.50000    7.01360   46.04600   88.88890
 1092.00000    5.88860   44.98590   88.75190
 1092.50000    5.05300   45.01620   88.80360
 1093.00000    4.62710   48.96170   89.42350
 1093.50000    4.79400   51.30100   93.12920
 1094.00000    5.60280   53.45180   97.68250
 1094.50000    6.53670   55.27910  102.82970
 1095.00000    7.26570   55.97510  105.08140
 1095.50000    7.92130   55.85930  105.12330
 1096.00000    7.79460   54.84770  102.56790
 1096.50000    6.98390   53.12360   97.74690
 1097.00000    6.07760   51.47980   94.06180
 1097.50000    5.67520   50.38800   91.79620
 1098.00000    5.81220   49.02680   90.33390
 1098.50000    7.00080   47.78740   88.76830
 1099.00000    8.50620   47.07040   87.84720
 1099.50000    9.15640   47.32960   91.21890
 1100.00000    8.99090   48.23720   94.92730
 1100.50000    8.13840   49.75480   97.35560
 1101.00000    7.45790   51.98970   97.30250
 1101.50000    7.58860   53.57960   96.98780
 1102.00000    8.01900   53.47830   96.93420
 1102.50000    8.11820   52.37820   96.71930
 1103.00000    7.70730   51.05080   96.32650
 1103.50000    7.92900   49.62560   95.31320
 1104.00000    8.50710   48.48610   94.18630
 1104.50000    9.93250   47.95570   93.88760
 1105.00000   10.34470   47.60660   94.18420
 1105.50000    9.46610   48.16840   95.34390
 1106.00000    7.40140   51.36700  100.46980
 1106.50000    6.05380   56.21730  105.89600
 1107.00000    6.89970   60.13170  108.50390
 1107.50000    7.98500   61.69570  108.25220
 1108.00000    8.76720   60.37050  105.91590
 1108.50000    8.69320   57.84760  102.33620
 1109.00000    8.01290   55.32470   98.75650
 1109.50000    7.04420   52.80470   95.17680
 1110.00000    6.07550   51.39570   92.11710
 1110.50000    5.24640   50.59030   91.69170
 1111.00000    5.19030   50.33390   91.69640
 1111.50000    5.44320   50.40190   92.09380
 1112.00000    5.85660   50.34100   92.49120
 1112.50000    6.29970   50.08760   93.06370
 1113.00000    6.29970   49.77520   93.12010
 1113.50000    6.29970   49.48260   93.37010
 1114.00000    6.57080   49.29990   94.46340
 1114.50000    7.11280   50.23210   95.98700
 1115.00000    7.91790   52.37300   97.48440
 1115.50000    8.85710   53.40100   98.99950
 1116.00000    8.91890   53.66400  100.04370
 1116.50000    8.41370   53.89110  100.68480
 1117.00000    8.12310   54.01560  101.24630
 1117.50000    8.24330   54.07220  101.33500
 1118.00000    8.95550   54.34070  101.42380
 1118.50000    9.28810   55.80460  101.48890
 1119.00000    9.26670   57.21530  101.21350
 1119.50000    8.88450   57.58360   99.92710
 1120.00000    8.96390   56.39500   98.33280
 1120.50000    9.51310   53.86250   96.73220
 1121.00000   10.08800   52.09900   95.13160
 1121.50000   10.35160   51.79370   96.01630
 1122.00000   10.48240   52.44170   98.57330
 1122.50000   10.48430   53.49270  101.13020
 1123.00000   10.07850   55.06960  103.68710
 1123.50000    9.92350   58.77720  105.49150
 1124.00000   10.15170   62.08300  105.46700
 1124.50000   10.48040   60.81060  103.85370
 1125.00000   10.01280   58.72040  101.32670
 1125.50000    9.18130   56.60100   98.79980
 1126.00000    7.95300   54.62370   96.27280
 1126.50000    7.00770   53.05290   94.49360
 1127.00000    6.47800   51.76570   94.51430
 1127.50000    6.29770   51.00560   95.14330
 1128.00000    5.97600   50.91730   95.37110
 1128.50000    5.81150   50.81720   94.05680
 1129.00000    5.70020   50.83080   92.57980
 1129.50000    5.70020   50.93530   91.41770
 1130.00000    5.93740   50.95900   90.25560
 1130.50000    6.53150   50.06300   89.09350
 1131.00000    7.97840   49.46330   88.27830
 1131.50000    9.67010   48.98740   87.94170
 1132.00000   12.26130   48.88040   88.01360
 1132.50000   13.71880   49.07540   88.28990
 1133.00000   14.34240   49.44790   88.77000
 1133.50000   14.38980   49.75300   89.40760
 1134.00000   14.63190   49.85640   90.04510
 1134.50000   15.79260   49.87300   91.17250
 1135.00000   16.95330   50.18740   92.75530
 1135.50000   17.87220   50.35720   94.19220
 1136.00000   17.11020   50.51900   95.02440
 1136.50000   15.19910   50.91850   95.79590
 1137.00000   13.28800   51.51150   96.55050
 1137.50000   11.24430   52.24580   96.68700
 1138.00000   10.30290   52.64010   97.06920
 1138.50000    9.90800   52.73250   97.60980
 1139.00000    9.92540   52.60900   98.24250
 1139.50000   10.06450   52.78710   99.66640
 1140.00000   10.46830   53.47090  101.50970
 1140.50000   10.95590   53.84830  102.66590
 1141.00000   11.53580   54.20590  102.82560
 1141.50000   12.22280   54.75490  103.26530
 1142.00000   12.30050   55.34120  103.70500
 1142.50000   12.31700   56.25830  104.19720
 1143.00000   12.41180   57.61430  104.90240
 1143.50000   12.63700   58.84470  105.60770
 1144.00000   13.30310   59.74960  106.31290
 1144.50000   13.96920   59.92960  106.46380
 1145.00000   14.44360   59.84160  106.36300
 1145.50000   14.59230   59.56960  106.20910
 1146.00000   13.94240   58.37580  105.61810
 1146.50000   12.48140   57.00530  103.19890
 1147.00000   10.81380   55.26230   99.37320
 1147.50000    9.57720   53.56680   97.91700
 1148.00000    9.05530   52.62840   97.56340
 1148.50000    9.01260   52.02860   96.56000
 1149.00000    9.49290   51.82780   94.47380
 1149.50000    9.81780   51.70920   93.86320
 1150.00000    9.89880   51.88190   93.87980
 1150.50000    9.96980   51.95110   93.93190
 1151.00000   10.35200   51.94850   94.01110
 1151.50000   10.80700   51.91650   94.74610
 1152.00000   10.84760   51.81520   94.79320
 1152.50000   10.66930   51.78990   94.64620
 1153.00000   10.51620   51.72710   94.62950
 1153.50000   10.49990   51.61900   94.57510
 1154.00000   10.49990   51.56370   94.17670
 1154.50000   10.51760   51.52960   93.76830
 1155.00000   10.53900   51.54640   93.00150
 1155.50000   11.12270   51.41720   92.62480
 1156.00000   11.84300   51.08560   92.41630
 1156.50000   12.15870   50.72560   91.67110
 1157.00000   11.65720   50.51030   90.93420
 1157.50000   11.11770   50.28250   90.19720
 1158.00000   10.75920   50.20080   89.59050
 1158.50000   10.07950   50.21420   89.22180
 1159.00000   10.23140   50.32190   89.03910
 1159.50000   11.86880   50.44650   89.03910
 1160.00000   13.58550   50.57230   89.16200
 1160.50000   13.39560   50.57820   89.64740
 1161.00000   11.99230   50.44080   90.31170
 1161.50000   11.84670   50.05580   90.97590
 1162.00000   12.28770   49.84850   91.50540
 1162.50000   12.26460   49.84910   91.37380
 1163.00000   10.45600   49.88740   90.85770
 1163.50000    8.96600   49.85160   90.41260
