~Version ---------------------------------------------------
VERS.   2.0 : CWLS log ASCII Standard -VERSION 2.0
WRAP.    NO : One line per depth step
DLM . SPACE : Column Data Section Delimiter
~Well ------------------------------------------------------
STRT .F                 174.0 : START DEPTH
STOP .F                4477.0 : STOP DEPTH
STEP .F                   0.5 : STEP
NULL .               -9999.25 : NULL VALUE
COMP .                        : COMPANY
WELL .                        : WELL
FLD  .                        : FIELD
LOC  .                        : LOCATION
PROV .                        : PROVINCE
CNTY .                        : COUNTY
STAT .                        : STATE
CTRY .                        : COUNTRY
SRVC .                        : SERVICE COMPANY
DATE .                        : DATE
UWI  .                        : UNIQUE WELL ID
API  .                        : API NUMBER
SLAT .WGS84 2.700226482833699 : SURFACE LATITUDE
SLON .WGS84 7.804906492775004 : SURFACE LONGITUDE
DATUM.F               3504.06 : DEPTH DATUM ELEV
~Curve Information -----------------------------------------
DEPT .F     : 1 MEASURED DEPTH
DTCO .US/F  : DELTA-T COMPRESSIONAL
DTSM .US/F  : DELTA-T SHEAR
HSGR .GAPI  : HNGS STANDARD GAMMA RAY
RLA3 .OHMM  : APPARENT RESISTIVITY FROM COMPUTED FOCUSING MODE 3
RLA5 .OHMM  : APPARENT RESISTIVITY FROM COMPUTED FOCUSING MODE 5
RXOZ .OHMM  : INVADED FORMATION RESISTIVITY FILTERED AT 18 INCHES
TNPH .DEC   : THERMAL NEUTRON POROSITY RATIO METHOD IN SELECTED LITHOLOGY
PEFZ .B/E   : HRDD STANDARD RESOLUTION FORMATION PHOTOELECTRIC FACTOR
DPHZ .DEC   : HRGD STANDARD RESOLUTION DENSITY POROSITY
HCALD.IN    : HRCC CALIPER CALIBRATED FROM DENSITY LOG
HDRA .G/C3  : HRDD SPINE AND RIBS DENSITY CORRECTION
HSGRD.GAPI  : HNGS STANDARD GAMMA RAY FROM DENSITY LOG
RHOZ .G/C3  : HRDD STANDARD RESOLUTION FORMATION DENSITY
~Params ----------------------------------------------------
~Other -----------------------------------------------------
~ASCII -----------------------------------------------------
# ...
 3554.00000   56.83620   56.44240   49.17440  307.23920  461.05830   87.75160    0.06270    2.92480    0.01790    8.74810   -0.00490   49.13120    2.67950
 3554.50000   59.91500   57.80860   52.18230  112.13990  108.63550   60.31560    0.06670    2.90730    0.01700    8.74150   -0.00490   51.17830    2.68100
 3555.00000   63.21240   59.07220   58.55220   87.39590  114.26270   57.12150    0.07240    2.82680    0.01860    8.72560   -0.00600   57.37280    2.68130
 3555.50000   64.70300   60.26430   64.92190   79.90390  147.40000   55.41180    0.07820    2.75370    0.02340    8.71910   -0.00390   63.02220    2.67760
 3556.00000   65.04650   61.27600   70.39430   42.60840   74.69900   20.88560    0.08450    2.71850    0.04060    8.70920   -0.00120   69.41500    2.66820
 3556.50000   65.45540   62.05800   76.60420   16.47970   32.12080    8.16560    0.09430    2.67850    0.06070    8.69400    0.00040   74.87880    2.63660
 3557.00000   66.09490   62.39930   78.27550   12.11330   22.63510    6.70450    0.09770    2.63850    0.07330    8.68630    0.00210   77.54630    2.58510
 3557.50000   66.70850   62.45210   79.64560   23.17350   46.66700    8.22450    0.09800    2.64560    0.07720    8.67870    0.00040   78.60020    2.58640
 3558.00000   68.46400   62.45410   84.89330   43.42800   72.48850   11.74180    0.09060    2.69880    0.06240    8.67000   -0.00130   82.36710    2.60810
 3558.50000   68.93220   62.94000   92.75620   12.99620   35.66840   10.38260    0.08800    2.73630    0.05820    8.64250   -0.00310   89.20100    2.61850
 3559.00000   70.24160   63.68980   99.37350    8.34190   23.15290    6.76210    0.09500    2.73300    0.07250    8.60310   -0.00470   98.75010    2.61680
 3559.50000   71.38500   64.14420   99.63400    7.14710   18.50430    4.90940    0.11190    2.69990    0.08860    8.58210   -0.00610  100.57700    2.58830
 3560.00000   72.20540   64.54430   89.70380    6.50980   16.22010    4.29310    0.12180    2.60610    0.10040    8.54580   -0.00420   95.98370    2.55720
 3560.50000   72.97660   64.94530   82.19370    5.37760   14.26440    3.53450    0.12370    2.56710    0.10960    8.49680   -0.00140   85.00800    2.54140
 3561.00000   73.56960   65.53150   77.66080    4.58260   12.16420    2.72050    0.12940    2.57490    0.12050    8.45150   -0.00100   79.28290    2.52480
 3561.50000   74.36780   66.01830   77.80750    4.00140   10.39260    2.09560    0.13690    2.59970    0.13730    8.43600   -0.00140   77.80550    2.50470
 3562.00000   75.01150   67.10380   79.32450    3.78350    9.69450    1.65100    0.14320    2.61110    0.15410    8.41280   -0.00230   79.53800    2.47470
 3562.50000   75.32910   67.36110   85.37820    3.87590   10.21370    1.66710    0.14500    2.58360    0.16230    8.39580   -0.00380   82.63560    2.45130
 3563.00000   75.48420   67.42540   91.27080    4.04610   11.44010    1.64070    0.14340    2.54280    0.16410    8.37840   -0.00420   89.09120    2.44830
 3563.50000   75.49730   67.35950   96.52520    3.19770    8.88360    1.50880    0.13950    2.49310    0.16330    8.36150   -0.00440   95.61950    2.44670
 3564.00000   75.41760   67.41420  101.99950    3.43080    9.00420    1.39110    0.13840    2.47560    0.16490    8.32300   -0.00490  100.92140    2.44190
 3564.50000   75.30850   67.76470  102.27110    3.96190   10.98770    1.32180    0.14390    2.49650    0.16890    8.30970   -0.00560  101.89800    2.43580
 3565.00000   75.19950   68.03080   98.76190    4.58460   14.24810    1.74270    0.15150    2.51290    0.16770    8.30030   -0.00650   98.90450    2.44200
 3565.50000   75.14460   68.09910   89.83910    4.48400   15.44090    1.92080    0.15450    2.48250    0.16440    8.28660   -0.00880   90.38640    2.44600
 3566.00000   75.18810   68.08050   83.72860    3.98160   13.87720    1.89650    0.15610    2.46540    0.16570    8.27960   -0.00690   83.74040    2.44360
 3566.50000   75.26690   67.96340   79.23650    3.54670   11.69980    1.63110    0.15690    2.49340    0.16920    8.23990   -0.00750   78.82120    2.43470
 3567.00000   75.36960   67.80410   76.77020    3.16080   10.73950    1.40500    0.15680    2.52140    0.17710    8.22700   -0.00790   76.19620    2.42610
 3567.50000   75.73690   67.61860   75.81880    3.12000   10.37600    1.38960    0.15520    2.54430    0.17760    8.21400   -0.00750   75.39320    2.42380
 3568.00000   76.16470   67.34290   75.59070    3.42370   10.72760    1.44060    0.15360    2.55450    0.17440    8.21100   -0.00770   75.18830    2.42620
 3568.50000   75.87090   66.86420   75.17720    3.47470   11.09530    1.63340    0.15400    2.52730    0.17020    8.21480   -0.00670   74.70470    2.43640
 3569.00000   75.25490   66.62060   73.59730    3.16600   10.11830    1.63780    0.15340    2.51680    0.16620    8.21430   -0.00490   73.01630    2.44380
 3569.50000   75.15730   66.59770   71.97320    2.89500    9.66550    1.60550    0.15090    2.53590    0.16690    8.21380   -0.00370   71.09230    2.44570
 3570.00000   75.32420   66.64930   70.32330    4.12400   11.97180    1.60180    0.14990    2.57040    0.16670    8.21150   -0.00500   69.51350    2.44420
 3570.50000   75.40100   66.70020   68.75800    4.88040   15.22720    1.78020    0.14860    2.57720    0.16680    8.20750   -0.00680   68.17620    2.44200
 3571.00000   74.91290   66.41060   67.48210    3.66140   12.36990    1.85340    0.14470    2.55590    0.16790    8.20360   -0.00790   66.91160    2.44150
 3571.50000   74.06930   65.90590   65.91000    3.45350    9.31970    1.69800    0.13840    2.51010    0.16760    8.19280   -0.00430   65.39670    2.44200
 3572.00000   73.87570   65.37050   65.01820    4.23030   10.03150    1.57020    0.13310    2.48310    0.16210    8.18030   -0.00160   64.97360    2.44500
 3572.50000   74.03150   64.89340   65.73840    5.11900   12.34910    1.82080    0.12690    2.44630    0.14870    8.17270   -0.00320   65.32930    2.46390
 3573.00000   73.98880   64.69950   66.87020    5.88870   12.84780    2.28330    0.12080    2.40830    0.13900    8.16530   -0.00390   66.49860    2.48410
 3573.50000   73.38110   64.52860   68.24670    6.09610   15.40510    2.95630    0.12240    2.38730    0.14020    8.17240   -0.00280   67.68330    2.48710
 3574.00000   72.25750   64.49420   68.95550    3.80370   10.58210    2.60230    0.12950    2.38820    0.15140    8.17390   -0.00250   68.16670    2.46390
 3574.50000   70.67130   64.28050   68.22990    3.34410    6.90850    2.22510    0.13450    2.40870    0.15740    8.17330   -0.00240   67.53140    2.45650
 3575.00000   69.02440   63.89690   65.84250    4.19630    8.49130    2.01850    0.13670    2.47340    0.15520    8.16860   -0.00220   65.75400    2.46050
 3575.50000   68.31670   63.40130   64.02800    5.33830   12.23640    2.06020    0.13700    2.54660    0.13010    8.15820   -0.00210   64.20610    2.48510
 3576.00000   68.31670   63.24860   65.51680    7.50560   13.64330    2.33260    0.13040    2.60970    0.10680    8.22190   -0.00200   65.78080    2.50970
 3576.50000   70.41130   63.45970   70.53170   12.71540   16.75600    3.58750    0.11850    2.65830    0.09390    8.32800   -0.00180   70.50350    2.54300
 3577.00000   70.89330   63.34250   76.23310   18.79880   48.90460    6.86410    0.10790    2.66000    0.09260    8.42900   -0.00170   74.41260    2.56320
 3577.50000   70.32400   62.45380   74.82380   11.77280   33.27140    7.44670    0.10570    2.63220    0.09760    8.49370   -0.00150   74.68880    2.56320
 3578.00000   69.61160   61.97990   66.13590    7.43700   19.75060    5.43730    0.10480    2.58050    0.09940    8.55380   -0.00010   69.12900    2.54820
 3578.50000   69.51480   62.19650   59.97010    9.22300   19.44180    6.34740    0.09980    2.50100    0.08830    8.56850    0.00220   61.05660    2.54750
 3579.00000   69.52700   62.79910   55.31150   21.84970   45.07530    9.34810    0.09440    2.48250    0.07740    8.54910    0.00310   55.99330    2.57750
 3579.50000   69.88570   63.62490   56.46290   21.47290   66.88010   12.85190    0.08900    2.46390    0.07160    8.49810    0.00170   56.06460    2.59370
