~Version ---------------------------------------------------
VERS.   2.0 : CWLS log ASCII Standard -VERSION 2.0
WRAP.    NO : One line per depth step
DLM . SPACE : Column Data Section Delimiter
~Well ------------------------------------------------------
STRT .F                 174.0 : START DEPTH
STOP .F                4477.0 : STOP DEPTH
STEP .F                   0.5 : STEP
NULL .               -9999.25 : NULL VALUE
COMP .                        : COMPANY
WELL .                        : WELL
FLD  .                        : FIELD
LOC  .                        : LOCATION
PROV .                        : PROVINCE
CNTY .                        : COUNTY
STAT .                        : STATE
CTRY .                        : COUNTRY
SRVC .                        : SERVICE COMPANY
DATE .                        : DATE
UWI  .                        : UNIQUE WELL ID
API  .                        : API NUMBER
SLAT .WGS84 2.700226482833699 : SURFACE LATITUDE
SLON .WGS84 7.804906492775004 : SURFACE LONGITUDE
DATUM.F               3504.06 : DEPTH DATUM ELEV
~Curve Information -----------------------------------------
DEPT .F     : 1 MEASURED DEPTH
DTCO .US/F  : DELTA-T COMPRESSIONAL
DTSM .US/F  : DELTA-T SHEAR
HSGR .GAPI  : HNGS STANDARD GAMMA RAY
RLA3 .OHMM  : APPARENT RESISTIVITY FROM COMPUTED FOCUSING MODE 3
RLA5 .OHMM  : APPARENT RESISTIVITY FROM COMPUTED FOCUSING MODE 5
RXOZ .OHMM  : INVADED FORMATION RESISTIVITY FILTERED AT 18 INCHES
TNPH .DEC   : THERMAL NEUTRON POROSITY RATIO METHOD IN SELECTED LITHOLOGY
PEFZ .B/E   : HRDD STANDARD RESOLUTION FORMATION PHOTOELECTRIC FACTOR
DPHZ .DEC   : HRGD STANDARD RESOLUTION DENSITY POROSITY
HCALD.IN    : HRCC CALIPER CALIBRATED FROM DENSITY LOG
HDRA .G/C3  : HRDD SPINE AND RIBS DENSITY CORRECTION
HSGRD.GAPI  : HNGS STANDARD GAMMA RAY FROM DENSITY LOG
RHOZ .G/C3  : HRDD STANDARD RESOLUTION FORMATION DENSITY
~Params ----------------------------------------------------
~Other -----------------------------------------------------
~ASCII -----------------------------------------------------
# ...
 4464.00000   -9999.25   -9999.25   -9999.25   -9999.25   -9999.25    1.87470   -9999.25    3.05850    0.05220    7.70280   -0.00190   20.60680    2.64420
 4464.50000   -9999.25   -9999.25   -9999.25   -9999.25   -9999.25    1.56480   -9999.25    3.03350    0.06370    7.66970   -0.00160   20.59400    2.63790
 4465.00000   -9999.25   -9999.25   -9999.25   -9999.25   -9999.25    1.99960   -9999.25    3.00840    0.05870    7.65790   -0.00210   20.55070    2.61020
 4465.50000   -9999.25   -9999.25   -9999.25   -9999.25   -9999.25    4.63120   -9999.25    3.04120    0.05580    7.64820   -0.00260   20.50740    2.60990
 4466.00000   -9999.25   -9999.25   -9999.25   -9999.25   -9999.25    6.49210   -9999.25    3.07930    0.05640    7.64030   -0.00290   20.46410    2.61320
 4466.50000   -9999.25   -9999.25   -9999.25   -9999.25   -9999.25    7.42280   -9999.25    3.08190    0.05690    7.64360   -0.00230   20.42080    2.62400
 4467.00000   -9999.25   -9999.25   -9999.25   -9999.25   -9999.25    5.67240   -9999.25    3.08880    0.04840    7.64930   -0.00160   20.37750    2.63440
 4467.50000   -9999.25   -9999.25   -9999.25   -9999.25   -9999.25    2.27210   -9999.25    3.09890    0.05140    7.65950   -0.00100   20.33420    2.63440
 4468.00000   -9999.25   -9999.25   -9999.25   -9999.25   -9999.25    1.74990   -9999.25    3.10900    0.06680    7.66000    0.00000   20.29090    2.61990
 4468.50000   -9999.25   -9999.25   -9999.25   -9999.25   -9999.25    1.91030   -9999.25    3.11920    0.06620    7.66560    0.00220   20.24760    2.60200
 4469.00000   -9999.25   -9999.25   -9999.25   -9999.25   -9999.25    4.79820   -9999.25    3.11680    0.04890    7.68610    0.02520   20.20430    2.62280
 4469.50000   -9999.25   -9999.25   -9999.25   -9999.25   -9999.25   11.07380   -9999.25    3.06690    0.03610    7.70660    0.06790   20.16110    2.64880
 4470.00000   -9999.25   -9999.25   -9999.25   -9999.25   -9999.25    4.61100   -9999.25    3.10100    0.05660    7.69780    0.11890   20.11780    2.64880
 4470.50000   -9999.25   -9999.25   -9999.25   -9999.25   -9999.25    0.75750   -9999.25    3.10520    0.10400    7.67060    0.13300   20.07450    2.48210
 4471.00000   -9999.25   -9999.25   -9999.25   -9999.25   -9999.25    0.67310   -9999.25    3.07640    0.13570    7.65260    0.08450   20.03120    2.48210
 4471.50000   -9999.25   -9999.25   -9999.25   -9999.25   -9999.25    1.38000   -9999.25    3.06250    0.13370    7.65110    0.02470   20.02640    2.50520
 4472.00000   -9999.25   -9999.25   -9999.25   -9999.25   -9999.25    2.15440   -9999.25    3.08360    0.10490    7.65170    0.00100   20.02640    2.53680
 4472.50000   -9999.25   -9999.25   -9999.25   -9999.25   -9999.25   -9999.25   -9999.25    3.08830    0.08630    7.64080   -0.00260   20.02640    2.56850
 4473.00000   -9999.25   -9999.25   -9999.25   -9999.25   -9999.25   -9999.25   -9999.25    3.07700    0.09240    7.63160    0.00780   20.02060    2.56990
 4473.50000   -9999.25   -9999.25   -9999.25   -9999.25   -9999.25   -9999.25   -9999.25    3.04930    0.10180    7.62240    0.02060   19.97110    2.54950
 4474.00000   -9999.25   -9999.25   -9999.25   -9999.25   -9999.25   -9999.25   -9999.25    3.10200    0.10160    7.61320    0.02410   19.86660    2.54320
 4474.50000   -9999.25   -9999.25   -9999.25   -9999.25   -9999.25   -9999.25   -9999.25    3.15470    0.07970    7.60850    0.01350   19.76210    2.54410
 4475.00000   -9999.25   -9999.25   -9999.25   -9999.25   -9999.25   -9999.25   -9999.25    3.16570    0.08800    7.55280    0.00500   19.65760    2.58150
 4475.50000   -9999.25   -9999.25   -9999.25   -9999.25   -9999.25   -9999.25   -9999.25    3.14370    0.10490    7.45890    0.01580   19.55310    2.56040
 4476.00000   -9999.25   -9999.25   -9999.25   -9999.25   -9999.25   -9999.25   -9999.25    3.13880    0.12190    7.02940    0.04400   19.53890    2.53880
 4476.50000   -9999.25   -9999.25   -9999.25   -9999.25   -9999.25   -9999.25   -9999.25    3.14120    0.11850    6.72440    0.08360   19.60140    2.51850
 4477.00000   -9999.25   -9999.25   -9999.25   -9999.25   -9999.25   -9999.25   -9999.25    3.14370    0.10660    6.63260    0.11900   19.66380    2.51780
