~Version ---------------------------------------------------
VERS.   2.0 : CWLS log ASCII Standard -VERSION 2.0
WRAP.    NO : One line per depth step
DLM . SPACE : Column Data Section Delimiter
~Well ------------------------------------------------------
STRT .F                 174.0 : START DEPTH
STOP .F                4477.0 : STOP DEPTH
STEP .F                   0.5 : STEP
NULL .               -9999.25 : NULL VALUE
COMP .                        : COMPANY
WELL .                        : WELL
FLD  .                        : FIELD
LOC  .                        : LOCATION
PROV .                        : PROVINCE
CNTY .                        : COUNTY
STAT .                        : STATE
CTRY .                        : COUNTRY
SRVC .                        : SERVICE COMPANY
DATE .                        : DATE
UWI  .                        : UNIQUE WELL ID
API  .                        : API NUMBER
SLAT .WGS84 2.700226482833699 : SURFACE LATITUDE
SLON .WGS84 7.804906492775004 : SURFACE LONGITUDE
DATUM.F               3504.06 : DEPTH DATUM ELEV
~Curve Information -----------------------------------------
DEPT .F     : 1 MEASURED DEPTH
DTCO .US/F  : DELTA-T COMPRESSIONAL
DTSM .US/F  : DELTA-T SHEAR
HSGR .GAPI  : HNGS STANDARD GAMMA RAY
RLA3 .OHMM  : APPARENT RESISTIVITY FROM COMPUTED FOCUSING MODE 3
RLA5 .OHMM  : APPARENT RESISTIVITY FROM COMPUTED FOCUSING MODE 5
RXOZ .OHMM  : INVADED FORMATION RESISTIVITY FILTERED AT 18 INCHES
TNPH .DEC   : THERMAL NEUTRON POROSITY RATIO METHOD IN SELECTED LITHOLOGY
PEFZ .B/E   : HRDD STANDARD RESOLUTION FORMATION PHOTOELECTRIC FACTOR
DPHZ .DEC   : HRGD STANDARD RESOLUTION DENSITY POROSITY
HCALD.IN    : HRCC CALIPER CALIBRATED FROM DENSITY LOG
HDRA .G/C3  : HRDD SPINE AND RIBS DENSITY CORRECTION
HSGRD.GAPI  : HNGS STANDARD GAMMA RAY FROM DENSITY LOG
RHOZ .G/C3  : HRDD STANDARD RESOLUTION FORMATION DENSITY
~Params ----------------------------------------------------
~Other -----------------------------------------------------
~ASCII -----------------------------------------------------
# ...
 3398.00000   62.93890   61.65330   51.94220   44.75790   64.18200   37.59780    0.04670    4.59220   -0.04380   10.44330   -0.00350   50.34280    2.79050
 3398.50000   63.39180   62.36510   52.89720   25.63430   35.60150   18.72220    0.06280    4.50950   -0.01780   10.46150   -0.00230   52.27110    2.74320
 3399.00000   63.39860   62.54830   48.36790   21.71490   27.07270   12.84750    0.07720    4.42680   -0.00130   10.45790   -0.00240   49.25890    2.71400
 3399.50000   62.15070   62.23570   38.44670   25.39330   31.45560   11.52480    0.07910    4.37950   -0.00530   10.44870   -0.00220   41.27490    2.71320
 3400.00000   60.29890   60.27550   28.82480   37.20260   64.89800   19.71120    0.07450    4.48410   -0.06150   10.43950   -0.00170   30.14670    2.72260
 3400.50000   55.68030   58.22620   17.71690  385.61820  451.04550   91.40710    0.03310    4.61450   -0.10570   10.43030   -0.00130   18.86800    2.82050
 3401.00000   53.63160   56.90790   13.85070  495.07410  626.79790 1121.51330    0.01340    4.73210   -0.12940   10.42110   -0.00080   14.51420    2.93390
 3401.50000   52.27250   56.69360   14.03860  635.59840  766.31320 1891.95290    0.00150    4.76990   -0.14070   10.41180   -0.00040   13.37610    2.93470
 3402.00000   51.53630   56.47930   14.94560  767.39810  859.22160  236.16480   -0.00570    4.78920   -0.12640   10.39620    0.00220   13.84470    2.89930
 3402.50000   51.35730   56.34410   13.62390  820.24490 1082.14280  312.68120   -0.00760    4.81760   -0.11730   10.37760    0.00620   13.52170    2.89930
 3403.00000   51.17770   56.43310   11.89190  796.12270 1735.77560 1935.16240   -0.00920    4.95150   -0.13280   10.37650    0.00790   11.95670    2.90520
 3403.50000   50.98130   56.51980   10.17020  707.95150 2389.40840 1932.35230   -0.01180    5.09430   -0.15220   10.37600    0.00860   10.61170    2.96370
 3404.00000   50.84500   56.57620   10.54070  625.21870 2401.30540  716.47380   -0.01270    5.10270   -0.16030   10.37550    0.00520   11.02670    2.96530
 3404.50000   50.83820   56.62830   12.15440  549.08520 1474.72950  306.76760   -0.01130    5.07420   -0.14040   10.37510    0.00140   11.63600    2.95440
 3405.00000   51.07740   56.66820   11.78900  491.69490  634.22130  424.85790   -0.01120    5.08280   -0.13210   10.37180   -0.00210   11.56870    2.92150
 3405.50000   51.50790   56.69980   10.23420  492.02000  608.74180  624.56410   -0.01310    5.13310   -0.13310   10.36040   -0.00010    9.93660    2.92690
 3406.00000   51.86320   56.71340    8.67940  566.96370  760.21530  918.14270   -0.01460    5.22200   -0.14620   10.35120    0.00230    8.69130    2.94620
 3406.50000   52.13620   56.82170    8.65680  724.07240 2303.81200 1349.71960   -0.01660    5.24350   -0.16030   10.34550    0.00180    8.20820    2.97050
 3407.00000   52.10360   56.87300    9.65920  917.73750 3068.20830 1937.29250   -0.01720    5.25400   -0.16690   10.35360   -0.00510    8.70580    2.98220
 3407.50000   51.85800   56.85390   11.12290  786.32830 3057.11130 1974.52270   -0.01550    5.21110   -0.16940   10.33620   -0.00540    9.82390    2.98400
 3408.00000   51.73710   57.02640   11.66220  471.66440 1732.03980  742.94990   -0.01360    5.18310   -0.15970   10.31610   -0.00470   10.77190    2.97800
 3408.50000   52.04060   57.31060   10.93760  380.48020  406.96820  280.83130   -0.01160    5.19070   -0.15500   10.30580   -0.00480   10.78860    2.95740
 3409.00000   52.73340   57.73010   10.12880  459.73370  609.54870  535.22240   -0.01090    5.21870   -0.15620   10.30580   -0.00760    9.89860    2.95950
 3409.50000   53.51540   57.87230   10.39380  590.35420  826.14550 1655.02250   -0.00940    5.20170   -0.16210   10.30580   -0.01410    9.41220    2.97150
 3410.00000   54.56750   57.83970   13.51350  347.08480  625.47650  823.23260   -0.00680    5.03950   -0.16360   10.29310   -0.01550   10.90010    2.97430
 3410.50000   55.62420   57.99670   25.38700  183.06680  209.79550  101.08030    0.00110    4.79220   -0.13430   10.25640   -0.01540   17.97710    2.93200
 3411.00000   56.66240   58.11490   36.77970   99.35850  121.69760   86.85280    0.02130    4.41070   -0.09440   10.21050   -0.00790   28.33560    2.87890
 3411.50000   57.05300   58.20210   43.21170   86.09040  106.76510   83.63020    0.04060    3.86950   -0.05440   10.16460   -0.00400   38.40880    2.82570
 3412.00000   56.73510   58.15120   49.41070   74.59400   91.26740   64.45090    0.05900    3.46930   -0.01540   10.24930   -0.00700   46.45300    2.75970
 3412.50000   56.49890   58.22100   49.13310   64.63290   78.01930   48.30360    0.07490    3.34310    0.01010   10.21010   -0.00680   49.12950    2.69310
 3413.00000   57.16800   58.32100   47.36100   63.28990   72.67670   48.15610    0.07410    3.43930   -0.00110   10.19700   -0.00350   47.40470    2.69390
 3413.50000   59.25530   59.11620   45.71940   61.19050   94.22450   52.33780    0.06900    3.71460   -0.02860   10.21130   -0.00000   45.46800    2.76120
 3414.00000   62.05760   60.21710   46.07310   54.22230  106.67380   47.45160    0.06560    3.93010   -0.05130   10.23450    0.00090   45.36530    2.79270
 3414.50000   64.20920   60.92170   51.90580   48.60080   66.63130   29.35410    0.06840    3.94550   -0.04680   10.25780    0.00190   50.71550    2.79380
 3415.00000   64.80720   61.34380   59.02040   27.05090   36.34500   15.99420    0.08690    3.94500   -0.02030   10.28100    0.00200   57.75680    2.75920
 3415.50000   64.65180   61.59260   64.25330   16.80660   19.82490   11.04650    0.10040    3.90130    0.00680   10.30410    0.00040   63.66000    2.71260
 3416.00000   63.52090   61.47170   61.77240   16.65120   27.08090   13.72750    0.09580    3.84990    0.02320   10.29180   -0.00110   62.63660    2.67140
 3416.50000   61.32210   60.82870   53.79700   36.30690   64.06800   22.57320    0.07930    3.89520    0.01140   10.27950   -0.00270   54.58220    2.67270
 3417.00000   60.11330   60.17940   46.15430   59.20850   64.93950   80.98700    0.05910    4.06250   -0.02010   10.26930   -0.00420   46.26780    2.69990
 3417.50000   58.82900   59.50220   40.46940   61.36150   65.76900   49.61130    0.05100    4.26570   -0.03900   10.24450   -0.00580   40.47720    2.74960
 3418.00000   57.62250   58.82500   36.25040   63.44870   66.60900   63.56100    0.05100    4.29970   -0.05940   10.21970   -0.00510   36.62840    2.79260
 3418.50000   56.97580   58.44210   36.84070   65.54940   69.02150  134.52420    0.05200    4.07080   -0.06750   10.19530   -0.00330   36.38820    2.81870
 3419.00000   56.85770   58.35590   40.20400   70.28790   72.38750   94.47530    0.05240    3.76210   -0.05860   10.17610   -0.00170   38.68390    2.81940
 3419.50000   57.26880   58.09980   43.44440   75.56720   79.63870   49.37430    0.05120    3.49970   -0.03870   10.15990   -0.00220   42.58750    2.80770
 3420.00000   57.52940   57.83010   45.38680   93.03750   89.53520   36.79390    0.04780    3.39960   -0.01060   10.14380   -0.00100   45.03590    2.75750
 3420.50000   57.60360   57.56030   44.54280  125.31410  100.66140   53.21790    0.04000    3.31740    0.00840   10.12760    0.00030   44.17170    2.70720
 3421.00000   57.81240   57.29060   43.00280  117.93390  109.43540   67.58320    0.03050    3.23520    0.01740   10.11140    0.00160   42.77010    2.67110
 3421.50000   58.16120   57.12900   41.82760  110.99290  116.39550   64.70120    0.02210    3.18510    0.01460   10.09530    0.00300   41.50080    2.67870
 3422.00000   58.88910   57.22570   41.69980  106.94330  123.79830   63.60290    0.02070    3.18090    0.00710   10.07900    0.00480   41.57490    2.69420
 3422.50000   59.52710   57.90120   42.89180   96.27530  127.01510   70.14420    0.02490    3.21140   -0.00020   10.05720    0.00600   42.22040    2.70960
 3423.00000   59.95110   58.69340   45.07800   84.44330  128.32070   71.08340    0.03580    3.20180   -0.00330   10.03530    0.00480   44.33140    2.71600
 3423.50000   60.23030   59.22600   49.42460   66.83710   97.49500   45.63680    0.05110    3.23990    0.01400   10.01350    0.00360   48.09890    2.71420
