~Version ---------------------------------------------------
VERS.   2.0 : CWLS log ASCII Standard -VERSION 2.0
WRAP.    NO : One line per depth step
DLM . SPACE : Column Data Section Delimiter
~Well ------------------------------------------------------
STRT .F                 174.0 : START DEPTH
STOP .F                4477.0 : STOP DEPTH
STEP .F                   0.5 : STEP
NULL .               -9999.25 : NULL VALUE
COMP .                        : COMPANY
WELL .                        : WELL
FLD  .                        : FIELD
LOC  .                        : LOCATION
PROV .                        : PROVINCE
CNTY .                        : COUNTY
STAT .                        : STATE
CTRY .                        : COUNTRY
SRVC .                        : SERVICE COMPANY
DATE .                        : DATE
UWI  .                        : UNIQUE WELL ID
API  .                        : API NUMBER
SLAT .WGS84 2.700226482833699 : SURFACE LATITUDE
SLON .WGS84 7.804906492775004 : SURFACE LONGITUDE
DATUM.F               3504.06 : DEPTH DATUM ELEV
~Curve Information -----------------------------------------
DEPT .F     : 1 MEASURED DEPTH
DTCO .US/F  : DELTA-T COMPRESSIONAL
DTSM .US/F  : DELTA-T SHEAR
HSGR .GAPI  : HNGS STANDARD GAMMA RAY
RLA3 .OHMM  : APPARENT RESISTIVITY FROM COMPUTED FOCUSING MODE 3
RLA5 .OHMM  : APPARENT RESISTIVITY FROM COMPUTED FOCUSING MODE 5
RXOZ .OHMM  : INVADED FORMATION RESISTIVITY FILTERED AT 18 INCHES
TNPH .DEC   : THERMAL NEUTRON POROSITY RATIO METHOD IN SELECTED LITHOLOGY
PEFZ .B/E   : HRDD STANDARD RESOLUTION FORMATION PHOTOELECTRIC FACTOR
DPHZ .DEC   : HRGD STANDARD RESOLUTION DENSITY POROSITY
HCALD.IN    : HRCC CALIPER CALIBRATED FROM DENSITY LOG
HDRA .G/C3  : HRDD SPINE AND RIBS DENSITY CORRECTION
HSGRD.GAPI  : HNGS STANDARD GAMMA RAY FROM DENSITY LOG
RHOZ .G/C3  : HRDD STANDARD RESOLUTION FORMATION DENSITY
~Params ----------------------------------------------------
~Other -----------------------------------------------------
~ASCII -----------------------------------------------------
# ...
 2878.00000   52.44600   57.08040   10.33270  460.25520  318.23730 1966.35890   -0.00170    5.10110   -0.16990    9.82350   -0.00830    9.93300    2.98280
 2878.50000   52.16990   56.76880    8.83230  651.34610  423.17330  687.20590   -0.00640    4.95420   -0.16770    9.79230   -0.01190    9.20710    2.98280
 2879.00000   52.07450   56.70900   11.58060  652.07160  430.33460  789.54050   -0.00270    4.74870   -0.15680    9.78550   -0.00940   10.50440    2.97430
 2879.50000   52.97760   56.89640   15.72800  506.68370  343.54950  895.55530    0.01740    4.53620   -0.13580    9.77350   -0.00730   14.13740    2.93680
 2880.00000   55.13700   57.66860   20.39900  212.59040  130.78770  574.58540    0.03750    4.25820   -0.06970    9.73380   -0.00530   19.04580    2.89790
 2880.50000   56.76260   58.65610   24.84230  111.39320   60.89060  108.29780    0.07380    4.04030   -0.03260    9.69160   -0.00370   23.60980    2.82540
 2881.00000   58.16650   59.64360   27.16440   58.36780   33.48210   63.06830    0.08640    4.00880   -0.01270    9.71080   -0.00420   26.71470    2.73200
 2881.50000   59.07120   60.37900   26.65230   41.73480   29.51560   47.81760    0.08250    4.16540   -0.01450    9.74490   -0.00460   25.57920    2.73030
 2882.00000   59.93130   60.97500   23.20240   37.12410   30.61510   36.69720    0.05790    4.53360   -0.03840    9.81550   -0.00230   23.24370    2.73300
 2882.50000   60.81770   61.57100   20.03080   35.31920   32.05020   31.02780    0.03730    4.82960   -0.05650    9.90020    0.00050   20.31480    2.75990
 2883.00000   61.77100   62.97040   17.29280   35.61930   33.55250   21.64860    0.03240    4.88310   -0.06030    9.93540    0.00280   17.64210    2.78850
 2883.50000   62.08310   64.55470   15.05310   38.87390   35.56360   22.08410    0.02790    4.93650   -0.06930    9.97090    0.00250   15.49770    2.80800
 2884.00000   61.44450   64.39310   12.64800   47.37870   39.75690   29.69790    0.02470    5.03950   -0.07740    9.99480    0.00200   13.33140    2.82230
 2884.50000   60.40440   63.49940   11.27500   57.74420   44.97460   47.42480    0.02140    5.12450   -0.08760    9.98340    0.00140   11.05630    2.83210
 2885.00000   59.10790   62.72210   10.47340   70.37740   50.87700   73.59890    0.01200    5.13110   -0.10130    9.93590    0.00150   10.06070    2.85260
 2885.50000   57.63220   61.89810   10.04810   85.77440   57.55400  114.04600    0.00480    5.07120   -0.11510    9.86270    0.00250    9.92310    2.87050
 2886.00000   56.77830   61.27710    9.93940  104.54000   71.67920  160.54860   -0.00060    5.08050   -0.12710    9.82410    0.00350   10.27580    2.89920
 2886.50000   56.37410   60.63230    9.83080  127.41120   95.49640  223.27920   -0.00050    5.08990   -0.13410    9.78520    0.00460   10.38510    2.91720
 2887.00000   56.27580   60.44510    9.78720  155.28600  127.22740  271.64810    0.00140    5.15490   -0.13850    9.77710    0.00720   10.38480    2.92840
 2887.50000   56.29590   60.17950    9.84990  189.25930  169.50170   72.58750    0.00420    5.25160   -0.13720    9.76980    0.00980   10.36660    2.93310
 2888.00000   56.45380   60.08680    9.91260  220.34390  211.50750   55.62680    0.00730    5.24350   -0.13020    9.76980    0.00880   10.34690    2.93030
 2888.50000   56.59380   60.27770   10.55510  223.17430  210.93960  151.22390    0.00940    5.18290   -0.12880    9.75620    0.00630    9.97560    2.92240
 2889.00000   56.74830   60.70330   11.24800  208.46900  163.84050  308.80130    0.01080    5.12190   -0.12250    9.70560    0.00370   10.33260    2.91540
 2889.50000   56.82850   61.00120   12.61760  139.50380   86.99990  127.74800    0.01320    5.07020   -0.11850    9.68840    0.00260   11.57880    2.90950
 2890.00000   57.73240   61.86890   14.66370   75.05790   58.62480   18.22140    0.02230    5.10150   -0.10300    9.70340    0.00360   13.64270    2.90100
 2890.50000   60.48870   63.09740   15.94430   28.29970   39.50420   14.97680    0.03100    5.15780   -0.10770    9.74250    0.00600   15.33230    2.89040
 2891.00000   62.51070   63.16360   17.22270   22.41910   29.91770   68.63480    0.03990    5.20650   -0.10580    9.75430    0.00730   16.47200    2.87470
 2891.50000   62.41210   62.89240   18.56500   18.70040   29.35530   36.61380    0.04760    5.24030   -0.09160    9.74870    0.00670   17.85480    2.85910
 2892.00000   61.65270   62.15020   19.54320   16.16700   31.04780   20.32870    0.05430    5.22670   -0.07730    9.75070    0.00410   19.22880    2.84350
 2892.50000   59.17080   61.40790   17.11970   21.56430   77.50860   31.09440    0.05000    5.22860   -0.08280    9.75290    0.00360   17.84250    2.83690
 2893.00000   56.37690   60.09700   12.28710  116.07500  294.92290   57.58220    0.02810    5.23870   -0.09820    9.74020    0.00450   13.04430    2.84070
 2893.50000   53.45640   58.72210    8.42700  273.11200 1753.58290  287.53100    0.00720    5.17790   -0.15350    9.67900    0.00340    8.37540    2.86810
 2894.00000   50.72440   57.34720    7.13870  642.60390 2978.52270 1046.80320   -0.00870    5.11390   -0.16660    9.61350    0.00230    7.29650    2.97110
 2894.50000   49.30720   55.96920    8.73430  834.12120 4157.94580  958.07350   -0.01040    4.97520   -0.14800    9.56230    0.00120    7.72520    2.97830
 2895.00000   48.82090   55.70060   11.66790  585.55810 1786.72140  764.08350   -0.00400    4.75620   -0.11670    9.52770    0.00020   10.63740    2.96450
 2895.50000   48.66390   55.56940   14.56720  486.43880  981.12910  568.35740    0.00630    4.58050   -0.09720    9.49350   -0.00310   13.69970    2.89690
 2896.00000   48.91590   55.63270   16.03470  443.71730  657.46370  350.88910    0.01280    4.54210   -0.07860    9.47890   -0.00590   15.43940    2.83860
 2896.50000   49.72480   55.95840   17.36590  447.03180  520.28560  318.66300    0.00920    4.67910   -0.08790    9.51530   -0.00580   16.64470    2.83500
 2897.00000   51.65960   56.85610   18.72750  431.84160  478.48750  547.03840    0.00350    4.93240   -0.12010    9.56060   -0.00320   17.99980    2.83970
 2897.50000   53.77800   57.58440   21.05390  290.27580  385.00540  968.56290    0.00300    5.15810   -0.13830    9.60580    0.00040   20.08720    2.88150
 2898.00000   55.18040   58.22830   23.00910  195.11790  264.17530  354.33940    0.00430    5.23400   -0.14280    9.65460    0.00220   22.05360    2.93660
 2898.50000   55.22320   58.69720   22.52880  131.15450  181.26660   84.71040    0.01060    5.24860   -0.13400    9.70950    0.00180   22.39290    2.93920
 2899.00000   55.14990   58.81980   19.68020  107.81660  154.28440   83.84120    0.01610    5.26310   -0.12800    9.72770   -0.00010   20.09800    2.94020
 2899.50000   55.43260   58.84070   16.92910  156.09480  222.64030   93.22250    0.01850    5.14190   -0.12730    9.72100   -0.00110   16.87750    2.93640
 2900.00000   56.28530   59.14220   14.76430  174.90950  257.66990  103.99420    0.01930    5.00710   -0.12970    9.72400    0.00120   14.54250    2.92240
 2900.50000   57.47570   59.61610   14.03840  118.96080  205.24370  102.15800    0.02020    4.86510   -0.12800    9.73470    0.00540   14.10070    2.91670
 2901.00000   58.36490   60.31760   14.97510   73.21590  110.67470   60.35100    0.02220    4.69770   -0.11700    9.74540    0.00700   14.37380    2.90970
 2901.50000   59.18690   60.44910   15.52870   44.42030   59.86670   15.21800    0.02640    4.64100   -0.10180    9.76630    0.00560   15.11480    2.89090
 2902.00000   59.83020   60.72280   15.04290   37.18230   46.34320   14.04000    0.02890    4.71160   -0.10170    9.80260    0.00550   15.14060    2.87260
 2902.50000   59.27550   60.92790   14.86510   36.92360   44.84290   77.45830    0.02910    4.91350   -0.11180    9.84610    0.00530   14.76780    2.87260
 2903.00000   57.58390   60.83140   16.52500   40.91940   45.43360   46.25580    0.02770    5.03480   -0.11750    9.81810    0.00570   15.34230    2.88260
 2903.50000   55.67910   60.16640   17.28090   44.92540   49.43380   19.04910    0.02600    5.11490   -0.11520    9.78890    0.00630   16.41770    2.89450
