~Version ---------------------------------------------------
VERS.   2.0 : CWLS log ASCII Standard -VERSION 2.0
WRAP.    NO : One line per depth step
DLM . SPACE : Column Data Section Delimiter
~Well ------------------------------------------------------
STRT .F                 174.0 : START DEPTH
STOP .F                4477.0 : STOP DEPTH
STEP .F                   0.5 : STEP
NULL .               -9999.25 : NULL VALUE
COMP .                        : COMPANY
WELL .                        : WELL
FLD  .                        : FIELD
LOC  .                        : LOCATION
PROV .                        : PROVINCE
CNTY .                        : COUNTY
STAT .                        : STATE
CTRY .                        : COUNTRY
SRVC .                        : SERVICE COMPANY
DATE .                        : DATE
UWI  .                        : UNIQUE WELL ID
API  .                        : API NUMBER
SLAT .WGS84 2.700226482833699 : SURFACE LATITUDE
SLON .WGS84 7.804906492775004 : SURFACE LONGITUDE
DATUM.F               3504.06 : DEPTH DATUM ELEV
~Curve Information -----------------------------------------
DEPT .F     : 1 MEASURED DEPTH
DTCO .US/F  : DELTA-T COMPRESSIONAL
DTSM .US/F  : DELTA-T SHEAR
HSGR .GAPI  : HNGS STANDARD GAMMA RAY
RLA3 .OHMM  : APPARENT RESISTIVITY FROM COMPUTED FOCUSING MODE 3
RLA5 .OHMM  : APPARENT RESISTIVITY FROM COMPUTED FOCUSING MODE 5
RXOZ .OHMM  : INVADED FORMATION RESISTIVITY FILTERED AT 18 INCHES
TNPH .DEC   : THERMAL NEUTRON POROSITY RATIO METHOD IN SELECTED LITHOLOGY
PEFZ .B/E   : HRDD STANDARD RESOLUTION FORMATION PHOTOELECTRIC FACTOR
DPHZ .DEC   : HRGD STANDARD RESOLUTION DENSITY POROSITY
HCALD.IN    : HRCC CALIPER CALIBRATED FROM DENSITY LOG
HDRA .G/C3  : HRDD SPINE AND RIBS DENSITY CORRECTION
HSGRD.GAPI  : HNGS STANDARD GAMMA RAY FROM DENSITY LOG
RHOZ .G/C3  : HRDD STANDARD RESOLUTION FORMATION DENSITY
~Params ----------------------------------------------------
~Other -----------------------------------------------------
~ASCII -----------------------------------------------------
# ...
 4334.00000   56.22080   58.81560   38.66100   81.09970   93.09200    8.56280    0.11430    3.33500    0.06350    7.77620   -0.01090   38.23230    2.59280
 4334.50000   56.70860   58.35450   38.76650   93.03160  175.15550   12.61150    0.10380    3.39190    0.03230    7.77990   -0.00950   38.21740    2.59390
 4335.00000   55.81640   58.18700   38.73880  104.30080  197.04320   47.60800    0.09960    3.32900    0.00960    7.78390   -0.00770   38.17390    2.68780
 4335.50000   54.59050   58.01940   38.63420  116.06340  211.50130   47.96440    0.09990    3.22240   -0.00970    7.78940   -0.00400   38.14460    2.71110
 4336.00000   53.51610   57.97650   37.55570  114.62040  204.96970   43.29260    0.10350    3.12120   -0.00080    7.81250    0.00520   37.51480    2.72330
 4336.50000   52.90770   57.90300   36.42070   35.60080  102.98990    1.20680    0.10960    3.07670    0.03590    7.84210    0.01470   36.06740    2.72410
 4337.00000   53.30050   57.89330   36.49510   27.75350   59.90850    0.64860    0.11600    3.06300    0.05860    7.82420    0.01980   35.99120    2.61800
 4337.50000   53.82320   57.89330   38.12810   48.02370  153.40930    0.65430    0.12350    3.04920    0.04540    7.78800    0.01530   37.37020    2.61540
 4338.00000   53.96090   58.16760   39.82840   89.33540  198.36010    2.12490    0.12300    3.11040    0.01910    7.77610    0.00580   39.45370    2.62090
 4338.50000   54.13580   58.82520   41.24950  118.57270  214.08050   14.78070    0.11410    3.22160   -0.00070    7.75570   -0.00070   40.57560    2.67520
 4339.00000   54.22090   58.88750   42.55940  134.89010  230.76800   13.91890    0.10760    3.33940   -0.01210    7.72730   -0.00510   41.69740    2.71740
 4339.50000   54.71100   58.65120   42.43410  142.77460  248.75620   20.51180    0.10500    3.34720   -0.01610    7.70130   -0.00370   42.05350    2.73030
 4340.00000   55.14260   58.23090   40.82900  142.61380  255.39240   24.52170    0.10430    3.30740   -0.02390    7.68470   -0.00020   39.15880    2.74320
 4340.50000   55.16180   58.09890   36.56570  128.57310  256.47540   33.28120    0.10360    3.26700   -0.02960    7.68390    0.00100   35.80980    2.75600
 4341.00000   54.97700   58.11970   33.50470  131.20950  292.12710   43.32880    0.10320    3.21550   -0.02870    7.69970   -0.00070   32.12250    2.76120
 4341.50000   54.76010   58.08570   31.48150   96.24000  271.21700   18.89310    0.10600    3.21270   -0.01340    7.70340   -0.00390   31.54700    2.75090
 4342.00000   54.54070   58.05280   31.86740   84.42780  167.88130   16.23860    0.11110    3.22840    0.00050    7.69300   -0.00590   33.75470    2.71860
 4342.50000   54.12630   58.01170   38.75190  123.30710  224.22300   18.76840    0.11470    3.26050    0.00170    7.67020   -0.00390   38.08710    2.70760
 4343.00000   53.18020   57.92820   44.44830  168.24200  304.79400   38.79280    0.11350    3.28160   -0.01340    7.66300   -0.00360   44.46130    2.71760
 4343.50000   52.35150   57.79690   50.45140  150.96280  279.82690   47.90570    0.11090    3.30260   -0.00960    7.65970   -0.00510   48.90060    2.73370
 4344.00000   51.82170   57.73810   47.44010  149.83640  233.98940   27.94990    0.10990    3.29350    0.00210    7.66150   -0.00660   45.04430    2.72760
 4344.50000   51.96550   57.69790   40.31390  177.55160  335.35210   20.45860    0.11030    3.27630    0.00230    7.69010   -0.00650   38.06740    2.70540
 4345.00000   52.30560   57.46450   32.39550  220.01290  420.17970   23.44030    0.11110    3.24930   -0.00420    7.75210   -0.00510   31.57190    2.70360
 4345.50000   53.13090   57.26910   29.86490  218.68690  337.42070   62.16050    0.10930    3.28610   -0.00920    7.83620   -0.00320   29.41700    2.71100
 4346.00000   53.54810   57.11850   29.72400  142.32930  218.17130   82.45050    0.10580    3.27170   -0.00850    7.85680   -0.00280   30.14980    2.72380
 4346.50000   53.96190   57.08230   32.45940  196.60800  220.39170   50.34650    0.10300    3.21400   -0.01120    7.83840   -0.00230   32.32050    2.73240
 4347.00000   54.70450   57.23760   35.27960  192.64990  288.73030   43.40270    0.09900    3.15070   -0.01600    7.82000    0.00020   34.98310    2.74040
 4347.50000   55.60650   57.77520   39.45150  140.64400  253.70740   43.72080    0.09400    3.12800   -0.01740    7.78960    0.00360   39.40840    2.74170
 4348.00000   56.31770   58.39660   46.37440  165.72550  219.53680   25.55680    0.09210    3.16120   -0.00440    7.78780    0.01840   46.11500    2.71890
 4348.50000   56.80990   58.65060   59.77600  205.41800  567.18440   17.74870    0.09990    3.23580    0.02360    7.79350    0.02730   58.80190    2.67590
 4349.00000   56.97560   58.49150   67.57700  169.12760  526.15300   14.13710    0.11530    3.23470    0.04460    7.77540    0.02740   66.87300    2.62810
 4349.50000   56.72940   58.07010   60.65450  102.73670  291.65460   14.56480    0.13310    3.21450    0.05620    7.76580    0.01780   63.91520    2.62440
 4350.00000   56.17270   57.69900   47.03790  126.85780  147.47890   14.13290    0.14460    3.19430    0.04710    7.76570    0.00780   51.31610    2.62360
 4350.50000   55.34960   57.75080   35.62760  140.25990  200.34490   13.10440    0.14160    3.18440    0.02510    7.77000    0.00190   37.51660    2.62710
 4351.00000   54.77380   57.85330   29.69760  105.17370  141.68960   12.72700    0.12350    3.20210    0.00940    7.76540   -0.00030   28.85060    2.67540
 4351.50000   54.68370   57.01420   28.24580  139.56160  209.78450   17.63990    0.11040    3.19180    0.00270    7.75860   -0.00180   27.99780    2.70410
 4352.00000   54.57850   57.02850   29.93110  158.39150  197.62950   16.63190    0.10190    3.17210    0.00980    7.76700   -0.00180   29.25080    2.70490
 4352.50000   54.40120   57.27130   33.10070  138.70330  177.70960   11.49360    0.10030    3.15240    0.02170    7.77200   -0.00080   32.35630    2.68310
 4353.00000   54.51660   57.52360   36.24200  196.25210  250.23720   10.05940    0.10600    3.13270    0.02610    7.77610    0.00560   35.31480    2.66770
 4353.50000   54.76430   57.76440   36.77510  182.83860  256.03900    9.56370    0.11110    3.11930    0.01210    7.77290    0.01880   36.19110    2.66950
 4354.00000   54.62710   57.71830   36.40800  208.76410  313.38260   11.32980    0.11390    3.16460   -0.01220    7.75930    0.02800   35.94800    2.69710
 4354.50000   54.19390   57.28330   37.15400  266.85680  507.22810   14.05490    0.11030    3.20790   -0.02140    7.75610    0.02330   36.65300    2.74270
 4355.00000   53.75930   56.75230   38.77060  204.84540  405.40640   24.11330    0.10430    3.20630   -0.02050    7.75960    0.01240   38.17410    2.74570
 4355.50000   53.26440   56.53700   39.41090  138.05350  273.79990   13.67360    0.10010    3.18840   -0.01500    7.76500    0.00090   39.20790    2.73390
 4356.00000   52.68080   56.82100   36.29160  105.73380  195.94200   11.28710    0.09620    3.18750   -0.01700    7.76600   -0.00130   38.04370    2.73370
 4356.50000   52.26610   56.62090   33.49120   80.65410  140.22400   12.78260    0.08980    3.17580   -0.02010    7.78450   -0.00370   33.96760    2.74000
 4357.00000   52.16380   55.74360   33.66660   77.46380  109.60360   15.57960    0.08320    3.16450   -0.01900    7.80290   -0.00270   33.36060    2.74100
 4357.50000   52.15470   55.41260   34.78120   97.85500  115.38410    9.24940    0.08180    3.14610   -0.01070    7.81090   -0.00080   33.70340    2.72480
 4358.00000   52.39670   55.49050   32.81660   70.26590  131.46320    6.10580    0.09090    3.16440    0.00320    7.80700   -0.00330   32.37130    2.69880
 4358.50000   53.07970   56.00930   29.36230   82.19360  136.62040    4.08210    0.10980    3.26590    0.01860    7.77790   -0.00590   29.43500    2.67640
 4359.00000   53.81820   56.85860   26.70210  103.37870  137.20300    4.41780    0.12730    3.28650    0.02100    7.77180   -0.00820   26.48100    2.67510
 4359.50000   54.34790   57.94850   25.94710  119.25300  135.15250    6.15300    0.12540    3.30710    0.01000    7.77990   -0.00660   25.36860    2.67710
