~Version ---------------------------------------------------
VERS.   2.0 : CWLS log ASCII Standard -VERSION 2.0
WRAP.    NO : One line per depth step
DLM . SPACE : Column Data Section Delimiter
~Well ------------------------------------------------------
STRT .F                 174.0 : START DEPTH
STOP .F                4477.0 : STOP DEPTH
STEP .F                   0.5 : STEP
NULL .               -9999.25 : NULL VALUE
COMP .                        : COMPANY
WELL .                        : WELL
FLD  .                        : FIELD
LOC  .                        : LOCATION
PROV .                        : PROVINCE
CNTY .                        : COUNTY
STAT .                        : STATE
CTRY .                        : COUNTRY
SRVC .                        : SERVICE COMPANY
DATE .                        : DATE
UWI  .                        : UNIQUE WELL ID
API  .                        : API NUMBER
SLAT .WGS84 2.700226482833699 : SURFACE LATITUDE
SLON .WGS84 7.804906492775004 : SURFACE LONGITUDE
DATUM.F               3504.06 : DEPTH DATUM ELEV
~Curve Information -----------------------------------------
DEPT .F     : 1 MEASURED DEPTH
DTCO .US/F  : DELTA-T COMPRESSIONAL
DTSM .US/F  : DELTA-T SHEAR
HSGR .GAPI  : HNGS STANDARD GAMMA RAY
RLA3 .OHMM  : APPARENT RESISTIVITY FROM COMPUTED FOCUSING MODE 3
RLA5 .OHMM  : APPARENT RESISTIVITY FROM COMPUTED FOCUSING MODE 5
RXOZ .OHMM  : INVADED FORMATION RESISTIVITY FILTERED AT 18 INCHES
TNPH .DEC   : THERMAL NEUTRON POROSITY RATIO METHOD IN SELECTED LITHOLOGY
PEFZ .B/E   : HRDD STANDARD RESOLUTION FORMATION PHOTOELECTRIC FACTOR
DPHZ .DEC   : HRGD STANDARD RESOLUTION DENSITY POROSITY
HCALD.IN    : HRCC CALIPER CALIBRATED FROM DENSITY LOG
HDRA .G/C3  : HRDD SPINE AND RIBS DENSITY CORRECTION
HSGRD.GAPI  : HNGS STANDARD GAMMA RAY FROM DENSITY LOG
RHOZ .G/C3  : HRDD STANDARD RESOLUTION FORMATION DENSITY
~Params ----------------------------------------------------
~Other -----------------------------------------------------
~ASCII -----------------------------------------------------
# ...
 2748.00000   51.77890   59.60390    8.29060  115.53760   94.92350  161.46720   -0.00840    5.16440   -0.13990   11.07770   -0.00300    7.33400    2.94980
 2748.50000   55.46620   60.84220   10.40040   96.29570   73.11830   74.50540   -0.00350    5.00790   -0.13430   11.09850   -0.00110    8.94960    2.93100
 2749.00000   62.85100   62.09410   13.35110   82.48450   70.82240    6.73390    0.00250    4.80050   -0.13310   11.11400    0.01100   10.56510    2.91410
 2749.50000   64.37210   63.34610   20.97320   79.31030   65.88900    6.62040    0.01450    4.52400   -0.12500   11.15960    0.02320   19.21540    2.89420
 2750.00000   65.89320   67.17250   33.65660   57.22210   29.25670    6.62040    0.04860    4.14960   -0.07100   11.21970    0.03040   30.07160    2.74930
 2750.50000   67.41420   69.11500   44.16860   23.77720   10.57210    6.60050    0.09550    3.77610   -0.01130   11.32350    0.03000   44.60750    2.67780
 2751.00000   68.19110   68.96450   54.01040    8.30940   13.20810    5.21590    0.12900    3.54900    0.01360   11.40880    0.02550   54.49410    2.67860
 2751.50000   68.23180   67.91930   49.54020   11.62060   24.46710    5.53130    0.14240    3.64690    0.01770   11.40800    0.00560   49.45820    2.69530
 2752.00000   67.51420   66.87410   40.74210   22.00080   57.90150    8.44320    0.12310    3.83060   -0.01890   11.42780    0.00510   39.23420    2.73550
 2752.50000   66.35040   66.20520   37.45130   22.65670   33.80840   15.60180    0.09660    3.92250   -0.00940   11.45460    0.00520   37.12070    2.73570
 2753.00000   66.70410   66.10820   38.10770   16.08390   21.58870    6.74210    0.10920    4.01430    0.00320   11.51440    0.00660   37.26000    2.70930
 2753.50000   68.37290   66.21080   35.60370   12.65830   21.45090    7.32450    0.10910    4.15210    0.00640   11.54300    0.01350   35.26480    2.70040
 2754.00000   69.56800   66.27290   29.61390   17.20720   78.62120    6.41000    0.09660    4.40110   -0.02700   11.51810    0.02660   28.45980    2.70180
 2754.50000   69.89450   66.17210   24.56530   26.00920   65.58810    2.82780    0.06990    4.67780   -0.04100   11.48240    0.03130   24.37420    2.77600
 2755.00000   69.49270   65.83570   26.40730   29.93340   33.08520    2.70600    0.06480    4.70710   -0.03320   11.45080    0.02250   26.19940    2.77360
 2755.50000   68.56990   65.29480   30.28040   17.95120   30.89600   10.17080    0.08740    4.66470   -0.02430   11.49280    0.00940   30.51580    2.75150
 2756.00000   65.34860   64.25100   35.76630   19.71350   29.41310   16.74650    0.10720    4.65380   -0.02580   11.53400    0.00580   34.48370    2.75010
 2756.50000   62.19520   62.64500   35.28120   25.51160   32.38000   19.92960    0.10660    4.74900   -0.06890   11.56490    0.00970   34.90350    2.77160
 2757.00000   59.83450   61.12190   32.36410   33.01500   39.55990   24.49400    0.07760    4.84420   -0.08500   11.52110    0.01560   31.66170    2.83840
 2757.50000   57.94840   60.98880   28.16200   44.11040   52.26310   31.02780    0.05090    4.91240   -0.11520   11.45570    0.01730   27.10550    2.89370
 2758.00000   57.20210   60.61910   23.00820   68.72870   75.08680   39.30460    0.03210    4.94870   -0.14260   11.43070    0.01670   21.80190    2.93600
 2758.50000   58.49630   60.27960   16.84110  116.99110  107.87770  120.39870    0.01430    5.02700   -0.16560   11.40560    0.01480   16.22550    2.98110
 2759.00000   58.86030   60.18020   12.19520  199.14410  132.68130  770.86090    0.00410    5.10380   -0.16640   11.32850    0.01040   11.78980    2.98290
 2759.50000   58.64770   60.12240   11.87020  281.28170   84.89330  825.45960    0.00260    5.09740   -0.14530   11.29340    0.01890   11.09030    2.96690
 2760.00000   58.70920   59.39810   14.55000   74.26590   43.19290    4.14170    0.01220    4.96650   -0.11910   11.38720    0.04610   13.78460    2.90100
 2760.50000   59.49850   59.19220   18.38900   13.30080   29.06160    1.54180    0.03290    4.81460   -0.08820   11.50540    0.05570   17.17730    2.85610
 2761.00000   60.87690   59.25610   17.96470   20.83260   72.03430    1.55170    0.05330    4.75020   -0.09060   11.43000    0.04720   17.34870    2.85610
 2761.50000   62.14710   59.97680   14.67090   47.85090  297.79980   30.73010    0.04510    4.79250   -0.09930   11.30060    0.02110   14.55440    2.85630
 2762.00000   61.96520   59.59660   13.21110   95.16070  208.23680   66.90140    0.03510    5.00570   -0.12170   11.24320    0.01190   13.22250    2.89670
 2762.50000   60.04010   58.56950   15.66420   87.21510  102.92030   72.72870    0.03760    5.16320   -0.11690   11.22620    0.00520   15.02720    2.90800
 2763.00000   59.65520   58.18890   17.58590   75.77630  100.56080   28.44140    0.04040    5.21960   -0.10550   11.19540   -0.00150   16.94760    2.88840
 2763.50000   59.83590   58.41480   16.30940   72.76490  104.75310   31.75240    0.04030    5.28650   -0.10590   11.16480   -0.00220   16.24070    2.87930
 2764.00000   59.23530   58.49480   13.05770   96.07250  336.90080   39.72700    0.02980    5.36380   -0.12520   11.11870    0.00290   12.91370    2.88170
 2764.50000   57.38270   58.37780   11.27170  106.97330  284.42240   38.96100    0.00750    5.39260   -0.15250   11.08340    0.01520   11.08130    2.96960
 2765.00000   55.14920   58.28990   11.59190   45.88750  172.99960   37.43230    0.00220    5.42150   -0.17110   11.08570    0.02110   10.98200    2.98760
 2765.50000   53.24480   58.38210   11.72800   58.41170  161.64100   36.39470    0.00350    5.35100   -0.16980   11.08640    0.01860   10.83920    2.98760
 2766.00000   52.09580   58.53840   10.62080  111.22460  178.21170   51.26850    0.00650    5.31840   -0.16610   11.08110    0.01460   10.37280    2.98510
 2766.50000   51.75180   58.38150   10.43630  152.23100  186.31180 1048.54190    0.00950    5.30250   -0.16600   11.02340    0.00560   10.49940    2.97700
 2767.00000   51.93630   58.05270   12.20060  149.02320  186.76880  655.90450    0.01190    5.29750   -0.16260   10.99340    0.00100   11.50650    2.96820
 2767.50000   52.52040   57.78370   12.72040  131.26990  184.01510  210.90660    0.01340    5.27730   -0.15060   10.96340   -0.00250   12.46310    2.95660
 2768.00000   53.11410   57.51590   12.70870  114.86080  176.94100  153.59080    0.01390    5.24930   -0.13650   10.93440   -0.00320   12.41400    2.93320
 2768.50000   53.64820   57.55180   12.14560   89.17140  170.13870  122.44990    0.01300    5.23770   -0.13640   10.92080   -0.00150   11.75020    2.92900
 2769.00000   53.74570   57.79430   11.75000   65.41630  147.60660   99.11560    0.01090    5.20760   -0.14140   10.90840   -0.00020   11.30160    2.93620
 2769.50000   53.74000   57.88790   11.93970   47.98950   63.99640   79.39960    0.00900    5.18280   -0.14360   10.93290    0.00110   11.50320    2.94200
 2770.00000   53.64790   58.03170   13.24860   35.20520   26.74420   55.39260    0.00800    5.18010   -0.13620   10.98860    0.00190   12.58800    2.93300
 2770.50000   53.58620   58.34420   15.08440   23.97550   13.60710   39.98080    0.00790    5.19670   -0.13310   11.10080    0.00070   14.22400    2.92400
 2771.00000   53.56050   59.08000   15.37530   25.54010   16.44040   38.35970    0.00740    5.24450   -0.13590   11.18880   -0.00190   15.07970    2.92410
 2771.50000   53.40350   59.51880   13.58170   40.75790   25.94130   54.85180    0.00510    5.29240   -0.14370   11.11430   -0.00640   13.74160    2.93040
 2772.00000   52.93410   59.35040   10.75360   82.65430   77.25830   95.16520   -0.00260    5.24090   -0.15110   10.94240   -0.01500   10.85730    2.94470
 2772.50000   52.04820   58.69740    8.19890  174.76430  300.54520  165.10690   -0.00990    5.16030   -0.15500   10.70230   -0.02230    8.01610    2.96010
 2773.00000   51.57090   58.12600    6.71300  418.49150  906.57530  195.22720   -0.01120    5.07060   -0.15840   10.58490   -0.01810    6.24010    2.96870
 2773.50000   51.50870   57.46030    6.25680  655.56040 1050.07410  394.59200   -0.00900    4.97040   -0.15310   10.46930   -0.00430    5.67410    2.96710
