~Version ---------------------------------------------------
VERS.   2.0 : CWLS log ASCII Standard -VERSION 2.0
WRAP.    NO : One line per depth step
DLM . SPACE : Column Data Section Delimiter
~Well ------------------------------------------------------
STRT .F                 174.0 : START DEPTH
STOP .F                4477.0 : STOP DEPTH
STEP .F                   0.5 : STEP
NULL .               -9999.25 : NULL VALUE
COMP .                        : COMPANY
WELL .                        : WELL
FLD  .                        : FIELD
LOC  .                        : LOCATION
PROV .                        : PROVINCE
CNTY .                        : COUNTY
STAT .                        : STATE
CTRY .                        : COUNTRY
SRVC .                        : SERVICE COMPANY
DATE .                        : DATE
UWI  .                        : UNIQUE WELL ID
API  .                        : API NUMBER
SLAT .WGS84 2.700226482833699 : SURFACE LATITUDE
SLON .WGS84 7.804906492775004 : SURFACE LONGITUDE
DATUM.F               3504.06 : DEPTH DATUM ELEV
~Curve Information -----------------------------------------
DEPT .F     : 1 MEASURED DEPTH
DTCO .US/F  : DELTA-T COMPRESSIONAL
DTSM .US/F  : DELTA-T SHEAR
HSGR .GAPI  : HNGS STANDARD GAMMA RAY
RLA3 .OHMM  : APPARENT RESISTIVITY FROM COMPUTED FOCUSING MODE 3
RLA5 .OHMM  : APPARENT RESISTIVITY FROM COMPUTED FOCUSING MODE 5
RXOZ .OHMM  : INVADED FORMATION RESISTIVITY FILTERED AT 18 INCHES
TNPH .DEC   : THERMAL NEUTRON POROSITY RATIO METHOD IN SELECTED LITHOLOGY
PEFZ .B/E   : HRDD STANDARD RESOLUTION FORMATION PHOTOELECTRIC FACTOR
DPHZ .DEC   : HRGD STANDARD RESOLUTION DENSITY POROSITY
HCALD.IN    : HRCC CALIPER CALIBRATED FROM DENSITY LOG
HDRA .G/C3  : HRDD SPINE AND RIBS DENSITY CORRECTION
HSGRD.GAPI  : HNGS STANDARD GAMMA RAY FROM DENSITY LOG
RHOZ .G/C3  : HRDD STANDARD RESOLUTION FORMATION DENSITY
~Params ----------------------------------------------------
~Other -----------------------------------------------------
~ASCII -----------------------------------------------------
# ...
 3944.00000   56.23170   57.60450    9.75670   87.95550  150.62050   19.82100    0.15330    3.13970    0.06780    8.74160   -0.00210    9.36070    2.62450
 3944.50000   56.52110   57.95140    8.43160   50.88820   87.13660   21.25090    0.17430    3.15220    0.08400    8.71060   -0.00170    7.86750    2.59180
 3945.00000   56.27890   58.05250    8.13660   44.60200   63.13700   18.84980    0.19380    3.11840    0.08680    8.69540   -0.00160    7.59060    2.57590
 3945.50000   55.75230   58.03870    8.28510   42.83470   61.81960   15.44340    0.19620    3.07500    0.08690    8.68170   -0.00150    7.63950    2.57070
 3946.00000   55.37330   57.84280    9.06640   68.73410   86.54140   17.43150    0.19030    3.08760    0.09010    8.67130   -0.00240    8.25330    2.56870
 3946.50000   55.01720   57.51780    9.73700  100.32500  136.46560   24.76260    0.18080    3.10820    0.09530    8.66600   -0.00410    9.10880    2.55920
 3947.00000   54.63060   57.19280   10.00170  146.43560  208.73850   37.14510    0.17170    3.11050    0.09700    8.66330   -0.00320    9.60200    2.55040
 3947.50000   54.24810   56.72460   10.18090  213.73900  299.86850   34.93890    0.16050    3.09340    0.07330    8.65660   -0.00110   10.00250    2.55120
 3948.00000   53.70280   56.36650   11.28190  246.37330  407.06740   49.56170    0.14350    3.07820    0.03430    8.64460    0.00090   10.70300    2.56940
 3948.50000   53.04650   56.05930   14.68200  186.40440  396.40800   63.79710    0.12860    3.03430    0.00700    8.63220    0.00240   13.73530    2.65800
 3949.00000   52.73180   55.91080   17.53450  119.39440  212.31030   48.58890    0.11650    3.04340   -0.01340    8.62620    0.00320   16.97210    2.69730
 3949.50000   52.49220   55.81060   19.55710   93.94040  151.34050   33.67440    0.11190    3.06520   -0.01980    8.62540    0.00400   18.11770    2.74060
 3950.00000   52.47080   55.92330   18.36860  152.47470  207.82450   36.45040    0.11250    3.08700   -0.01330    8.61920    0.00480   16.82060    2.74380
 3950.50000   52.62110   56.07840   13.75550  117.78590  252.99190   40.50190    0.11520    3.10880   -0.00270    8.60510    0.00560   13.75220    2.73010
 3951.00000   53.12210   56.26200   10.97170  100.87870  208.54880   30.46750    0.12400    3.12640    0.01300    8.59380    0.00640   11.25850    2.70150
 3951.50000   53.69970   56.51640   11.39600  117.90900  172.92590   27.67060    0.13600    3.13590    0.02270    8.59080    0.00780   11.12130    2.67120
 3952.00000   54.14020   56.69610   15.28270  145.45580  217.88100   32.87610    0.13740    3.13930    0.02330    8.58780    0.00810   14.30320    2.67250
 3952.50000   54.32550   56.76720   18.97510  182.02230  287.25700   45.79390    0.13070    3.13830    0.01820    8.58480    0.00200   17.92360    2.67540
 3953.00000   54.32870   56.83740   22.12990  200.17160  364.34810   50.92490    0.12370    3.13740    0.01750    8.57320   -0.00130   21.69030    2.67960
 3953.50000   54.08570   56.85480   24.28040  180.12620  365.85280   67.67580    0.12550    3.13590    0.02310    8.55260   -0.00220   23.35250    2.67750
 3954.00000   53.83980   56.82670   22.92880  122.02400  273.00690   60.31440    0.13430    3.12870    0.03370    8.54300   -0.00380   22.50220    2.66110
 3954.50000   53.63290   56.79910   19.41190   96.39470  203.72340   45.50750    0.13560    3.12880    0.03700    8.53320   -0.00610   18.90230    2.65130
 3955.00000   53.42600   56.76170   15.97040  104.88770  205.12380   38.55080    0.13340    3.14260    0.03420    8.51870   -0.00850   15.97250    2.65240
 3955.50000   53.33190   56.72290   15.64060  140.61070  281.25180   45.86750    0.12920    3.17150    0.03230    8.50420   -0.00820   14.74320    2.65460
 3956.00000   53.77070   56.75740   18.09760  174.39790  311.35550   49.93840    0.13000    3.17320    0.03450    8.48590   -0.00740   16.24160    2.65410
 3956.50000   54.29220   56.92580   20.62490  119.12280  253.67830   42.11160    0.13180    3.17070    0.04110    8.47440   -0.00640   20.16540    2.64210
 3957.00000   54.40240   57.21360   22.76200  116.26900  220.86400   33.38500    0.13360    3.13790    0.04380    8.46730   -0.00510   22.12280    2.63890
 3957.50000   54.33010   57.38880   22.14750  116.26900  212.67380   30.44890    0.13710    3.07570    0.04120    8.45470   -0.00400   21.69760    2.64000
 3958.00000   54.28440   57.44630   19.44000   82.50870  170.00740   29.20220    0.14330    3.05790    0.03840    8.43990   -0.00360   18.75490    2.64340
 3958.50000   54.70870   57.57850   16.71920   40.89480   64.83530   18.58580    0.14980    3.07040    0.04140    8.42470   -0.00340   16.42170    2.64920
 3959.00000   55.04680   57.70670   15.20050   36.44880   55.26310   15.66620    0.15450    3.09860    0.05220    8.39990   -0.00310   14.73940    2.65000
 3959.50000   55.43710   57.69450   15.93780   58.99720   70.74920   12.22030    0.15750    3.12680    0.06460    8.35970   -0.00160   15.27470    2.59440
 3960.00000   56.27020   57.90750   20.79890   70.36440   96.28590    8.88870    0.15410    3.13690    0.07320    8.32910   -0.00200   18.51830    2.59330
 3960.50000   57.08900   58.43640   29.13710   93.03390  131.03990    9.25730    0.14580    3.13330    0.06130    8.30010   -0.00120   24.74170    2.59930
 3961.00000   57.43280   58.97640   41.51420  112.08800  240.55490   12.40450    0.13530    3.12360    0.02470    8.30380    0.00310   38.58370    2.65590
 3961.50000   57.72240   59.08180   50.72800   67.38010  298.95510   32.26710    0.13270    3.12150    0.01130    8.32050    0.00640   49.52230    2.68870
 3962.00000   57.84990   58.91350   52.07110   31.55590   42.65240   14.03560    0.16070    3.14340    0.03430    8.29690   -0.00020   51.22850    2.68470
 3962.50000   57.30040   58.54810   45.14890   22.89500   29.34720    4.96100    0.19380    3.18890    0.09000    8.27650   -0.00440   46.14510    2.57870
 3963.00000   56.40290   58.16650   38.52150   27.34880   32.16370    5.00160    0.19370    3.21550    0.09470    8.26900   -0.00310   39.44800    2.55640
 3963.50000   55.66470   57.73160   35.85000   38.50350   97.13800    7.78710    0.17340    3.20200    0.06740    8.26430   -0.00190   35.89250    2.61010
 3964.00000   55.78320   57.43400   37.39270   70.73010  152.26160   18.38430    0.14100    3.21360    0.03040    8.26320   -0.00100   36.95630    2.65480
 3964.50000   58.18580   57.86390   42.70090  105.00250  157.68480   28.24610    0.10870    3.21360    0.00920    8.26770   -0.00130   41.25390    2.68200
 3965.00000   62.08150   59.13840   53.13420  128.89590  160.87860   54.41000    0.09730    3.15300   -0.01290    8.29230   -0.00130   50.21640    2.73040
 3965.50000   64.46310   60.42250   65.50260  105.81670  147.41850   74.22790    0.09690    3.03400   -0.02030    8.31690   -0.00100   62.51080    2.74270
 3966.00000   65.87420   61.29810   74.90380   58.82790  117.04810   31.51170    0.11130    2.90880    0.00250    8.34140   -0.00350   72.30370    2.74180
 3966.50000   67.75870   61.91020   69.87260   29.52830   30.10380   13.93990    0.13530    2.77310    0.05240    8.36600   -0.00700   71.99020    2.63690
 3967.00000   69.98640   62.62130   61.47320   28.90940   36.73700   10.00910    0.15750    2.63230    0.09480    8.38030   -0.00910   63.77480    2.58020
 3967.50000   71.90310   63.48230   55.13360   44.91530   70.24070   11.82730    0.16650    2.57930    0.10840    8.39790   -0.00840   54.16530    2.53780
 3968.00000   73.90650   64.51540   52.65790   71.62300   98.00010   30.63900    0.16470    2.55600    0.11170    8.41880   -0.00790   53.28290    2.53250
 3968.50000   74.63840   65.41350   58.53400   55.66350   94.20130   14.32490    0.15040    2.53050    0.12770    8.45660   -0.00760   56.98270    2.50070
 3969.00000   74.44490   65.56710   70.70140   27.62870   38.58890    6.74030    0.15230    2.45680    0.14850    8.48200   -0.00760   67.90890    2.45690
 3969.50000   72.76610   64.77880   85.46340   27.16490   32.41240    5.37500    0.17920    2.41790    0.15820    8.47300   -0.00910   83.69510    2.45600
