~Version ---------------------------------------------------
VERS.   2.0 : CWLS log ASCII Standard -VERSION 2.0
WRAP.    NO : One line per depth step
DLM . SPACE : Column Data Section Delimiter
~Well ------------------------------------------------------
STRT .F                 174.0 : START DEPTH
STOP .F                4477.0 : STOP DEPTH
STEP .F                   0.5 : STEP
NULL .               -9999.25 : NULL VALUE
COMP .                        : COMPANY
WELL .                        : WELL
FLD  .                        : FIELD
LOC  .                        : LOCATION
PROV .                        : PROVINCE
CNTY .                        : COUNTY
STAT .                        : STATE
CTRY .                        : COUNTRY
SRVC .                        : SERVICE COMPANY
DATE .                        : DATE
UWI  .                        : UNIQUE WELL ID
API  .                        : API NUMBER
SLAT .WGS84 2.700226482833699 : SURFACE LATITUDE
SLON .WGS84 7.804906492775004 : SURFACE LONGITUDE
DATUM.F               3504.06 : DEPTH DATUM ELEV
~Curve Information -----------------------------------------
DEPT .F     : 1 MEASURED DEPTH
DTCO .US/F  : DELTA-T COMPRESSIONAL
DTSM .US/F  : DELTA-T SHEAR
HSGR .GAPI  : HNGS STANDARD GAMMA RAY
RLA3 .OHMM  : APPARENT RESISTIVITY FROM COMPUTED FOCUSING MODE 3
RLA5 .OHMM  : APPARENT RESISTIVITY FROM COMPUTED FOCUSING MODE 5
RXOZ .OHMM  : INVADED FORMATION RESISTIVITY FILTERED AT 18 INCHES
TNPH .DEC   : THERMAL NEUTRON POROSITY RATIO METHOD IN SELECTED LITHOLOGY
PEFZ .B/E   : HRDD STANDARD RESOLUTION FORMATION PHOTOELECTRIC FACTOR
DPHZ .DEC   : HRGD STANDARD RESOLUTION DENSITY POROSITY
HCALD.IN    : HRCC CALIPER CALIBRATED FROM DENSITY LOG
HDRA .G/C3  : HRDD SPINE AND RIBS DENSITY CORRECTION
HSGRD.GAPI  : HNGS STANDARD GAMMA RAY FROM DENSITY LOG
RHOZ .G/C3  : HRDD STANDARD RESOLUTION FORMATION DENSITY
~Params ----------------------------------------------------
~Other -----------------------------------------------------
~ASCII -----------------------------------------------------
# ...
 3268.00000   71.74640   68.64660   67.96420   13.88340   13.73150    5.03640    0.20020    3.31490    0.10400   11.80820    0.00170   66.36640    2.53880
 3268.50000   67.97570   66.61630   58.12380   16.40830   19.14190    7.01900    0.19380    3.43270    0.08600   11.77320    0.00350   58.38970    2.54150
 3269.00000   65.08650   64.58590   50.34970   22.77320   28.22450   10.47450    0.15350    3.65400    0.02230   11.73120    0.00530   47.64110    2.59500
 3269.50000   62.31270   63.07080   38.79330   31.60720   38.25370   22.49270    0.10430    3.97480   -0.03250   11.65970    0.00720   38.30270    2.65730
 3270.00000   61.13680   61.88990   32.49220   43.86810   51.84660   34.18110    0.06840    4.16150   -0.07920   11.57310    0.00630   32.04990    2.84610
 3270.50000   60.75340   61.71190   32.00030   46.63250   59.96120   41.32740    0.06950    4.17050   -0.09230   11.52330    0.00450   31.61420    2.86090
 3271.00000   61.73690   61.95340   31.69980   42.81740   58.60690   36.59080    0.08560    4.11200   -0.08390   11.46310    0.00260   31.17840    2.85490
 3271.50000   62.40640   62.34890   31.15990   38.43460   52.06100   30.00050    0.10040    4.06260   -0.05600   11.39760    0.00150   30.69080    2.79420
 3272.00000   63.18520   62.74450   29.88040   34.50040   44.46440   28.03970    0.11060    4.15000   -0.04310   11.35690    0.00320   29.33610    2.78220
 3272.50000   63.66250   62.84440   28.63180   30.96890   37.97630   26.91860    0.10500    4.40360   -0.05060   11.34620    0.00710   28.04410    2.78740
 3273.00000   63.60470   62.84360   28.21140   27.79890   32.43490   22.23410    0.09260    4.60860   -0.07600   11.33520    0.01490   27.63610    2.80780
 3273.50000   62.46990   62.35610   27.46810   26.01690   30.10050   18.76840    0.09190    4.69720   -0.08720   11.32340    0.01900   27.22460    2.84580
 3274.00000   60.68450   61.46010   25.51530   30.37820   30.92710   17.71070    0.09070    4.66500   -0.09350   11.29620    0.01570   25.59850    2.85970
 3274.50000   59.05770   60.50690   22.81260   42.50840   47.22650   28.41660    0.08180    4.63230   -0.09970   11.21830    0.01020   21.99510    2.87060
 3275.00000   57.46990   59.74250   20.08590   59.48220   89.47040   44.20250    0.05920    4.63720   -0.12410   11.11470    0.00710   20.18810    2.91140
 3275.50000   56.16950   59.35300   20.34880   83.23390  129.30070   63.87650    0.04330    4.63450   -0.11990   11.00430    0.00400   20.12880    2.90880
 3276.00000   55.56910   59.18270   21.08200  108.81440  122.43320   92.30700    0.03600    4.63170   -0.11100   10.89890    0.00090   20.37080    2.89080
 3276.50000   55.39010   58.94370   19.48220  111.12580  140.37790  102.85630    0.03100    4.65930   -0.10420   10.82760   -0.00110   19.09800    2.88020
 3277.00000   54.97770   58.54430   17.40120  114.54120  229.66650   77.01060    0.02480    4.76590   -0.11320   10.78780   -0.00110   17.05190    2.89330
 3277.50000   54.44010   58.12220   16.99670  122.72160  180.68180   17.67890    0.01760    4.77740   -0.12320   10.76010   -0.00070   16.53470    2.91500
 3278.00000   53.49750   57.36140   18.35670  144.33710  160.57780   17.07310    0.01290    4.77870   -0.12690   10.70860   -0.00030   17.08870    2.91120
 3278.50000   52.38750   56.77510   17.37740  180.41270  231.60310  113.24480    0.00840    4.80390   -0.11700   10.65400    0.00020   16.94680    2.90480
 3279.00000   51.09640   56.29700   15.15020  304.08120  439.85220  265.29550    0.00100    4.82910   -0.11530   10.60820    0.00060   14.94980    2.90130
 3279.50000   50.38620   56.00970   12.95870  512.52140  835.35160  578.19070   -0.00710    4.85810   -0.13620   10.56240    0.00100   12.85800    2.90230
 3280.00000   50.48500   56.15260   12.56700  727.07290 1180.70510 1260.12060   -0.00940    4.85390   -0.14940   10.52600    0.00030   12.15600    2.94390
 3280.50000   51.10190   56.48500   12.96570  422.28030 1143.31530 1803.54260   -0.01120    4.87300   -0.15080   10.49280   -0.00060   12.53650    2.95810
 3281.00000   51.83320   56.83350   13.91860  237.54090  695.64770  312.14900   -0.01300    5.00510   -0.13980   10.48170   -0.00140   13.47410    2.94260
 3281.50000   52.27550   57.18810   13.78950  173.60060  423.26530  235.04340   -0.01470    5.13950   -0.13980   10.46700   -0.00220   13.46370    2.93510
 3282.00000   52.43130   57.52600   12.76950  117.53680  290.18600  176.98410   -0.01650    5.24760   -0.15180   10.44650   -0.00000   12.62310    2.95420
 3282.50000   52.42480   57.67600   11.98390  129.70820  330.90110  170.51430   -0.01940    5.31940   -0.16290   10.42420    0.00330   11.58320    2.97480
 3283.00000   52.26180   57.50710   11.43160  299.73360  649.15280  270.74200   -0.02210    5.43950   -0.16510   10.39980    0.00470   11.02960    2.97850
 3283.50000   52.13390   57.27350   10.92120  692.63310 1273.48990  292.09870   -0.02310    5.49400   -0.16160   10.35050   -0.00240   10.50120    2.97720
 3284.00000   51.99350   57.02290    9.97470  857.73600 3389.91870  297.25100   -0.02340    5.42020   -0.15900   10.31110   -0.00950    9.72920    2.97330
 3284.50000   51.86970   56.81960    9.69060  685.81710 3396.22950 1031.79440   -0.02330    5.30700   -0.15920   10.27930   -0.01610    8.88790    2.96930
 3285.00000   51.97480   56.74440   10.67100  489.54930 1268.71060 1034.79640   -0.02030    5.16870   -0.15660   10.25380   -0.01740    9.75520    2.96530
 3285.50000   52.07990   56.71960   12.65910  364.07000  799.34330  541.94280   -0.01450    4.93330   -0.14620   10.21320   -0.00730   11.28930    2.95580
 3286.00000   52.14720   56.69470   14.21260  271.60620  503.62130  240.38030   -0.00750    4.73010   -0.13190   10.16780   -0.00100   13.27360    2.91460
 3286.50000   52.14020   56.67120   13.11610  202.62560  317.30350  116.13840   -0.00120    4.60210   -0.11750   10.10540    0.00540   13.26370    2.89890
 3287.00000   52.12570   56.63050   10.37720  186.47930  225.25340  136.76130   -0.00190    4.68950   -0.12210   10.09420    0.00960   10.97760    2.89950
 3287.50000   52.07000   56.59900    7.08450  368.80050 3236.16750  289.55810   -0.00740    4.95060   -0.13850   10.08780    0.01190    7.72690    2.91820
 3288.00000   51.96960   56.58170    5.40540  813.40470 3411.51320 1343.51860   -0.01990    5.25460   -0.15930   10.08230    0.01120    5.55440    2.96060
 3288.50000   51.79280   56.56450    5.39780  836.60580 3363.67460 1755.81680   -0.02010    5.38710   -0.17470   10.00930    0.00410    4.76190    2.99030
 3289.00000   51.67560   56.49070    6.25590  432.93710 1872.06580  464.54870   -0.01830    5.35550   -0.16770    9.98160   -0.00390    5.46620    2.99060
 3289.50000   51.36920   56.35930    7.86670  264.83190  380.45700   95.61250   -0.01570    5.26350   -0.15920    9.95390   -0.00660    7.10830    2.98260
 3290.00000   50.81810   56.01020    9.99170  355.35600  427.15210  319.70510   -0.01310    5.12750   -0.15330    9.92610   -0.00340    8.62460    2.96730
 3290.50000   50.72630   55.59950   12.08600  578.19650  556.62150 1912.60600   -0.01110    4.99150   -0.15430    9.90230    0.00030   11.49550    2.95150
 3291.00000   52.79300   54.89900   13.96680  755.39370  634.65010 1570.40110   -0.00740    4.87930   -0.14470    9.88380    0.00130   13.43780    2.93940
 3291.50000   54.91630   54.34900   15.02720  455.58640  302.30740  878.90430   -0.00290    4.80350   -0.12550    9.88270    0.00920   14.50820    2.92730
 3292.00000   56.59010   55.10130   15.10250  210.22940   90.91340  352.13010    0.01690    4.79250   -0.09510    9.89320    0.02010   14.61560    2.88740
 3292.50000   57.98890   56.03980   15.56030   76.84160   33.75990   87.74550    0.04050    4.86420   -0.06470    9.97720    0.06420   15.08820    2.82200
 3293.00000   58.52150   56.98200   17.49260   26.79130   13.82800    0.77460    0.08080    4.91810   -0.00640   10.10680    0.09920   16.59820    2.72440
 3293.50000   59.53910   57.92610   18.66160   22.06680   10.53480    0.72860    0.10970    4.93440    0.02020   10.22730    0.10730   18.31140    2.69220
