~Version ---------------------------------------------------
VERS.   2.0 : CWLS log ASCII Standard -VERSION 2.0
WRAP.    NO : One line per depth step
DLM . SPACE : Column Data Section Delimiter
~Well ------------------------------------------------------
STRT .F                 174.0 : START DEPTH
STOP .F                4477.0 : STOP DEPTH
STEP .F                   0.5 : STEP
NULL .               -9999.25 : NULL VALUE
COMP .                        : COMPANY
WELL .                        : WELL
FLD  .                        : FIELD
LOC  .                        : LOCATION
PROV .                        : PROVINCE
CNTY .                        : COUNTY
STAT .                        : STATE
CTRY .                        : COUNTRY
SRVC .                        : SERVICE COMPANY
DATE .                        : DATE
UWI  .                        : UNIQUE WELL ID
API  .                        : API NUMBER
SLAT .WGS84 2.700226482833699 : SURFACE LATITUDE
SLON .WGS84 7.804906492775004 : SURFACE LONGITUDE
DATUM.F               3504.06 : DEPTH DATUM ELEV
~Curve Information -----------------------------------------
DEPT .F     : 1 MEASURED DEPTH
DTCO .US/F  : DELTA-T COMPRESSIONAL
DTSM .US/F  : DELTA-T SHEAR
HSGR .GAPI  : HNGS STANDARD GAMMA RAY
RLA3 .OHMM  : APPARENT RESISTIVITY FROM COMPUTED FOCUSING MODE 3
RLA5 .OHMM  : APPARENT RESISTIVITY FROM COMPUTED FOCUSING MODE 5
RXOZ .OHMM  : INVADED FORMATION RESISTIVITY FILTERED AT 18 INCHES
TNPH .DEC   : THERMAL NEUTRON POROSITY RATIO METHOD IN SELECTED LITHOLOGY
PEFZ .B/E   : HRDD STANDARD RESOLUTION FORMATION PHOTOELECTRIC FACTOR
DPHZ .DEC   : HRGD STANDARD RESOLUTION DENSITY POROSITY
HCALD.IN    : HRCC CALIPER CALIBRATED FROM DENSITY LOG
HDRA .G/C3  : HRDD SPINE AND RIBS DENSITY CORRECTION
HSGRD.GAPI  : HNGS STANDARD GAMMA RAY FROM DENSITY LOG
RHOZ .G/C3  : HRDD STANDARD RESOLUTION FORMATION DENSITY
~Params ----------------------------------------------------
~Other -----------------------------------------------------
~ASCII -----------------------------------------------------
# ...
 3814.00000   53.21610   56.11190   30.96820  674.36510  737.83140  463.96080    0.06410    3.10150   -0.03600    9.08380   -0.00260   29.99940    2.76900
 3814.50000   54.32020   56.66850   30.90250  699.46950 1060.16500  510.14630    0.06230    3.11680   -0.03160    9.07650   -0.00300   29.79640    2.76930
 3815.00000   58.73260   58.48330   33.25130  381.34740 1032.09130  233.61650    0.06820    3.10850   -0.01440    9.07960   -0.00550   31.80780    2.75260
 3815.50000   63.95370   60.29880   40.35720  220.42690  667.85110  107.75430    0.07740    3.06570    0.00530    9.08330   -0.00720   38.94160    2.72950
 3816.00000   68.05270   62.11430   51.14850  127.95100  225.18600   34.99620    0.09330    2.90070    0.03550    9.08700   -0.00760   48.17540    2.69940
 3816.50000   71.61480   63.85830   64.97950   68.95540  103.08330   17.34110    0.11630    2.77630    0.06650    9.09080   -0.00750   59.87210    2.64740
 3817.00000   73.19870   64.02360   73.69920   41.66390   47.18840   14.65380    0.13940    2.63880    0.12810    9.09450   -0.00670   73.27000    2.55040
 3817.50000   73.19870   64.10510   76.75020   33.79130   22.84820    5.18840    0.15640    2.54030    0.15230    9.09830   -0.00480   76.64170    2.45830
 3818.00000   71.80240   63.68060   74.16240   34.51990   13.80880    3.59820    0.16430    2.51000    0.16350    9.10200   -0.00240   73.84380    2.45470
 3818.50000   69.37670   62.94110   70.18670   56.09950   34.09830    3.94410    0.16510    2.51340    0.15170    9.10760   -0.00200   70.18640    2.46000
 3819.00000   67.95210   62.30620   68.43300   57.73640  119.22320    7.67890    0.16400    2.53500    0.12910    9.11350   -0.00380   68.15850    2.48070
 3819.50000   67.73550   62.07350   67.66700   49.70180  106.08220    9.48760    0.16130    2.57850    0.12970    9.12060   -0.00610   67.80240    2.50150
 3820.00000   67.79410   61.94300   67.79900   41.89920   69.61900   10.81480    0.16280    2.57880    0.13340    9.14870   -0.00580   68.00980    2.50790
 3820.50000   67.81270   61.82610   69.52290   39.10270   46.96680   11.98430    0.16510    2.57280    0.13690    9.17700   -0.00460   68.55960    2.50290
 3821.00000   67.73680   61.70350   72.47760   27.23200   54.14400    8.72550    0.16740    2.57990    0.13540    9.20640   -0.00400   71.40410    2.49190
 3821.50000   67.68390   61.61790   77.21770   44.20500   93.46820    8.61510    0.16950    2.58430    0.12920    9.23600   -0.00450   75.98340    2.49120
 3822.00000   66.79390   61.48110   82.44680   89.34330  161.35330   13.96270    0.16440    2.58590    0.11080    9.24420   -0.00320   81.16230    2.49470
 3822.50000   65.54830   61.22020   86.71900   90.78350  229.54910   31.27600    0.15080    2.59720    0.09730    9.26280   -0.00180   86.16490    2.51710
 3823.00000   63.86700   60.77420   87.72250   73.91770  182.90470   34.75360    0.14110    2.62060    0.08850    9.27820   -0.00370   88.04080    2.55470
 3823.50000   61.71960   59.96670   84.43610   88.55140  145.83900   34.92520    0.13800    2.74260    0.08490    9.29190   -0.00660   84.67140    2.56620
 3824.00000   58.53260   58.64070   72.47560  106.42570  163.27030   62.04520    0.14040    2.92550    0.07210    9.30460   -0.00820   74.35540    2.57350
 3824.50000   53.89870   57.13940   60.66880   98.79680  196.09520   75.88330    0.14180    3.11140    0.05010    9.32440   -0.00790   59.40340    2.58880
 3825.00000   52.04410   56.05460   44.45510  116.34920  228.38200   85.71840    0.13380    3.20610    0.01940    9.34040   -0.00620   45.81900    2.62630
 3825.50000   50.68990   55.34640   34.94150  182.72870  294.85600  116.88980    0.11630    3.23200   -0.01450    9.34880    0.00210   33.58270    2.67940
 3826.00000   49.36980   54.79380   28.89080  417.56490  874.41120  135.76060    0.09200    3.24660   -0.04300    9.35710    0.00560   29.43780    2.73490
 3826.50000   48.44990   54.24360   29.25350  501.20710 1041.40770   55.25050    0.07410    3.25450   -0.05250    9.36540    0.00580   28.59200    2.77990
 3827.00000   48.70700   54.21230   30.07210  462.83960  927.25790   54.54550    0.06860    3.26240   -0.05210    9.37240    0.00090   29.38310    2.79580
 3827.50000   49.93350   54.63770   30.14090  555.88400  997.03660  121.34580    0.06730    3.27510   -0.04900    9.35230   -0.00520   29.58390    2.79640
 3828.00000   51.65600   55.25890   30.36530  757.09800 1469.76540  478.90820    0.07110    3.25570   -0.04800    9.33200   -0.00720   29.75980    2.79020
 3828.50000   53.34590   55.91420   31.73910  582.77000  947.69970  352.78130    0.07770    3.21240   -0.03990    9.28220   -0.00650   31.60110    2.78760
 3829.00000   55.37850   56.65780   37.65750  370.07260  445.45680  160.32750    0.08680    3.12990   -0.01590    9.27270   -0.00430   36.38730    2.77120
 3829.50000   57.39880   57.40150   44.04570  234.77070  342.59100  146.96060    0.10340    3.02210    0.00480    9.27520   -0.00440   43.49240    2.74320
 3830.00000   59.21670   58.03710   50.25330  159.76970  263.47930  140.26180    0.12010    2.90380    0.02680    9.27660   -0.00450   48.21790    2.69390
 3830.50000   60.41030   58.65830   54.56130  149.59300  188.65310  135.07060    0.13780    2.82360    0.04610    9.27680   -0.00460   53.25730    2.63040
 3831.00000   61.13390   59.19980   59.34470  136.48100  146.16280  121.96230    0.14220    2.81720    0.05080    9.27360   -0.00460   57.98880    2.62690
 3831.50000   61.87960   59.48050   61.83720  118.21610  127.32130  107.55810    0.14210    2.81620    0.04620    9.26810   -0.00240   61.30790    2.62690
 3832.00000   62.34990   59.50700   64.34520   98.09240  105.20850   82.81700    0.13700    2.81690    0.04330    9.26200   -0.00250   63.47200    2.63920
 3832.50000   60.85680   59.43350   65.78510   76.02650   86.93610   52.11140    0.12930    2.82060    0.04760    9.25260   -0.00400   64.97050    2.64000
 3833.00000   58.28360   58.09520   64.65450   63.97050   77.03320   46.52430    0.12930    2.82710    0.05110    9.24840   -0.00670   64.55080    2.62590
 3833.50000   55.63820   57.04120   58.12020   71.16640   79.91020   47.54130    0.13400    2.84990    0.04390    9.24850   -0.00790   59.35330    2.62510
 3834.00000   52.99290   55.98720   47.20740  113.35360  162.41900   79.80670    0.12940    2.97680    0.01860    9.24870   -0.00620   49.92610    2.62510
 3834.50000   50.57820   55.58620   35.98430  228.44030  349.50700  151.26980    0.11480    3.12040   -0.01080    9.24890   -0.00450   38.42610    2.67690
 3835.00000   48.90890   55.06880   26.97600  408.66230  708.65880  354.04560    0.09850    3.23080   -0.02890    9.24800   -0.00420   26.71830    2.71790
 3835.50000   49.12660   54.53210   20.40270  557.59990  950.84110  416.54310    0.08630    3.21240   -0.03150    9.22980   -0.00550   20.30440    2.74890
 3836.00000   50.40190   54.71420   17.41600  576.95760  622.35750  377.31520    0.07960    3.19400   -0.03000    9.21150   -0.00590   17.83030    2.75610
 3836.50000   51.37380   55.12960   18.80510  571.54980  714.73380  386.04350    0.07690    3.16330   -0.03150    9.20120   -0.00510   18.02180    2.76330
 3837.00000   51.79720   55.51490   21.84710  535.86850  722.10270  418.27890    0.07530    3.11700   -0.03330    9.18830   -0.00430   20.75050    2.76500
 3837.50000   52.02760   55.84560   27.37950  468.90350  281.77000  440.27540    0.07610    3.09670   -0.02440    9.17510   -0.00610   26.03510    2.76530
 3838.00000   52.05740   55.80930   33.11770  363.27400   99.23480  258.22670    0.07810    3.10940   -0.01450    9.17400   -0.00690   32.05490    2.75210
 3838.50000   52.07730   55.67200   32.27300  349.48990  138.82570  259.52540    0.07990    3.14510   -0.02310    9.09250   -0.00570   31.99590    2.73420
 3839.00000   52.55410   55.95830   28.80440  430.14070  792.75790  321.78280    0.07810    3.18090   -0.04110    9.01090   -0.00400   29.53030    2.73630
 3839.50000   53.78240   56.58600   27.16400  486.23750  876.80990  382.26120    0.07310    3.18460   -0.05370    8.99590   -0.00330   27.06480    2.76380
