~Version ---------------------------------------------------
VERS.   2.0 : CWLS log ASCII Standard -VERSION 2.0
WRAP.    NO : One line per depth step
DLM . SPACE : Column Data Section Delimiter
~Well ------------------------------------------------------
STRT .F                 174.0 : START DEPTH
STOP .F                4477.0 : STOP DEPTH
STEP .F                   0.5 : STEP
NULL .               -9999.25 : NULL VALUE
COMP .                        : COMPANY
WELL .                        : WELL
FLD  .                        : FIELD
LOC  .                        : LOCATION
PROV .                        : PROVINCE
CNTY .                        : COUNTY
STAT .                        : STATE
CTRY .                        : COUNTRY
SRVC .                        : SERVICE COMPANY
DATE .                        : DATE
UWI  .                        : UNIQUE WELL ID
API  .                        : API NUMBER
SLAT .WGS84 2.700226482833699 : SURFACE LATITUDE
SLON .WGS84 7.804906492775004 : SURFACE LONGITUDE
DATUM.F               3504.06 : DEPTH DATUM ELEV
~Curve Information -----------------------------------------
DEPT .F     : 1 MEASURED DEPTH
DTCO .US/F  : DELTA-T COMPRESSIONAL
DTSM .US/F  : DELTA-T SHEAR
HSGR .GAPI  : HNGS STANDARD GAMMA RAY
RLA3 .OHMM  : APPARENT RESISTIVITY FROM COMPUTED FOCUSING MODE 3
RLA5 .OHMM  : APPARENT RESISTIVITY FROM COMPUTED FOCUSING MODE 5
RXOZ .OHMM  : INVADED FORMATION RESISTIVITY FILTERED AT 18 INCHES
TNPH .DEC   : THERMAL NEUTRON POROSITY RATIO METHOD IN SELECTED LITHOLOGY
PEFZ .B/E   : HRDD STANDARD RESOLUTION FORMATION PHOTOELECTRIC FACTOR
DPHZ .DEC   : HRGD STANDARD RESOLUTION DENSITY POROSITY
HCALD.IN    : HRCC CALIPER CALIBRATED FROM DENSITY LOG
HDRA .G/C3  : HRDD SPINE AND RIBS DENSITY CORRECTION
HSGRD.GAPI  : HNGS STANDARD GAMMA RAY FROM DENSITY LOG
RHOZ .G/C3  : HRDD STANDARD RESOLUTION FORMATION DENSITY
~Params ----------------------------------------------------
~Other -----------------------------------------------------
~ASCII -----------------------------------------------------
# ...
 4074.00000   54.96560   58.57640   35.06480   56.58750  109.81010    7.19740    0.15580    3.11210    0.05540    7.95210   -0.00440   33.20570    2.62430
 4074.50000   55.49980   58.93420   43.29460   72.25100  137.51650    7.42950    0.16500    3.09190    0.05610    7.93820   -0.00260   40.30610    2.62040
 4075.00000   55.51860   59.02560   43.66020   80.79460  180.76840    8.23810    0.16480    3.08900    0.05490    7.92960   -0.00080   43.20320    2.61660
 4075.50000   55.52490   58.81680   34.65500  104.06710  237.62400    7.88610    0.16300    3.08990    0.05930    7.93580    0.00070   38.55080    2.61040
 4076.00000   55.49970   58.28380   24.97580  134.54370  292.89340    7.12010    0.16210    3.07340    0.06300    7.94240    0.00070   26.34420    2.60870
 4076.50000   55.49180   58.02420   20.26400   74.28830  202.25080    9.56920    0.16400    3.04430    0.05630    7.94890    0.00060   20.32670    2.61000
 4077.00000   55.39800   57.78000   18.96250   53.84000  106.93480   11.35070    0.17280    3.06250    0.04380    7.95540   -0.00060   18.73800    2.63290
 4077.50000   55.14280   57.53590   19.40320   59.72550   93.35560   18.43820    0.17100    3.08060    0.03780    7.96200   -0.00240   19.02860    2.65060
 4078.00000   54.82390   57.37030   20.63220   82.96760  179.89760   23.93240    0.16370    3.09880    0.03910    7.96850   -0.00410   20.25920    2.65060
 4078.50000   54.56730   57.26960   22.46580   92.96660  204.75170   11.53360    0.15000    3.11700    0.04330    7.97500   -0.00590   21.64380    2.64470
 4079.00000   54.64240   57.28840   23.59650  107.17850  156.67470    9.19810    0.14640    3.11180    0.03590    7.98160   -0.00590   22.91890    2.64180
 4079.50000   55.78330   57.85850   23.18320  141.99670  176.87650   14.73750    0.14200    3.08970    0.01190    7.98810   -0.00370   22.93530    2.64420
 4080.00000   56.97510   58.50480   22.25570  181.31320  373.69040   32.17740    0.13580    3.10880   -0.02180    7.99040   -0.00140   22.02170    2.68550
 4080.50000   58.05670   59.04670   23.52690  329.13970  585.05750   57.28660    0.12750    3.15490   -0.03180    7.98910    0.00080   22.41250    2.75550
 4081.00000   59.01890   59.58860   26.43080  141.12580  234.13730   34.61120    0.13040    3.21270   -0.00670    7.97800    0.00010   25.20410    2.76220
 4081.50000   59.60620   60.06850   28.68290   62.85380  140.93220   19.09180    0.18770    3.27050    0.03830    7.96690   -0.00290   27.63990    2.71860
 4082.00000   59.66640   60.11240   24.64530   45.41860   94.25700   15.25710    0.22260    3.22570    0.09060    7.93810   -0.00550   25.10200    2.57480
 4082.50000   58.89860   59.58770   19.71860   43.85240   67.58760   14.27480    0.23180    3.15390    0.11430    7.89280   -0.00550   18.84490    2.52460
 4083.00000   58.04180   58.94000   14.89790   54.47200   75.96590   11.96050    0.23110    3.06500    0.10340    7.85650   -0.00510   14.46270    2.52370
 4083.50000   57.42890   58.29230   12.70850   67.91910  104.54890   10.94900    0.21580    3.04560    0.08000    7.87210   -0.00480   12.82130    2.54470
 4084.00000   57.07190   58.07350   12.25630   97.87630  143.88660   11.88580    0.19500    3.05510    0.05900    7.89090   -0.00440   12.42950    2.62490
 4084.50000   56.78230   58.06640   13.39170  141.70710  198.02550   17.37850    0.17840    3.14330    0.04850    7.90960   -0.00490   13.47390    2.63130
 4085.00000   56.72840   58.05940   17.81150  128.45050  205.58110   16.47220    0.16080    3.20150    0.04910    7.92840   -0.00660   16.89830    2.63280
 4085.50000   56.69060   58.03810   24.32860  141.37230  210.59120   12.28440    0.15080    3.18550    0.05450    7.94710   -0.00750   22.95390    2.62880
 4086.00000   56.54110   58.03160   29.44970  128.76670  307.07360   10.76720    0.15290    3.12790    0.05680    7.96590   -0.00440   29.27250    2.61650
 4086.50000   56.37690   57.99600   32.10880   64.47390  169.93970   11.37820    0.16030    3.03780    0.06260    7.98460   -0.00020   30.72800    2.60420
 4087.00000   56.08570   57.92330   28.25050   66.04540  117.95340   12.35930    0.16910    3.06570    0.07400    8.00340    0.00570   28.01610    2.59190
 4087.50000   55.83240   57.88440   21.95380   83.50290  165.31760   12.08610    0.16930    3.09360    0.07460    8.01580    0.02090   21.77240    2.58810
 4088.00000   55.62290   57.92400   17.59660  119.92940  292.94810   13.04090    0.15940    3.10640    0.06200    8.02260    0.03180   17.89810    2.62630
 4088.50000   55.60000   58.02610   16.73130  167.08240  349.69600   15.26920    0.15000    3.07700    0.03930    8.02940    0.02980   16.03420    2.64820
 4089.00000   56.36150   58.34620   16.03600  149.23190  340.92850   18.35960    0.15340    3.00750    0.04160    8.03460    0.01340   15.63050    2.64950
 4089.50000   57.34160   58.90000   15.85540  150.10280  301.75140   18.80190    0.15980    2.96400    0.04610    8.00840    0.00460   15.47460    2.64490
 4090.00000   58.42690   59.32960   16.24120  166.99720  263.54830   18.72920    0.16370    2.97960    0.04910    7.98220    0.00340   16.32580    2.63450
 4090.50000   59.18170   59.72620   19.75730  147.37750  234.83920   16.37450    0.16460    3.01140    0.04840    7.96180    0.00180   20.67120    2.63280
 4091.00000   59.50140   59.84190   30.49100   73.18210  209.71160   13.05620    0.16700    3.04330    0.04800    7.94600   -0.00050   28.75460    2.63120
 4091.50000   59.45640   59.84240   38.42780   58.60230  118.25890    9.99180    0.17890    3.07330    0.04830    7.93010   -0.00320   36.14040    2.62780
 4092.00000   58.24570   59.29900   41.24100   51.79660   78.75070   10.00910    0.18950    3.13610    0.05700    7.91420   -0.00600   40.15750    2.61540
 4092.50000   56.38580   58.59640   45.51810   60.75800   77.75980   11.93670    0.19860    3.16060    0.06190    7.90430   -0.00490   44.15360    2.61200
 4093.00000   55.21860   57.72640   51.25910   85.61070  134.44870   13.08650    0.18490    3.17610    0.05410    7.94030   -0.00200   50.73530    2.61200
 4093.50000   54.64140   57.49240   56.74760  146.88910  233.15400   14.88910    0.15840    3.20520    0.02680    7.96980   -0.00170   55.83970    2.61630
 4094.00000   54.38220   57.48850   51.43030  208.11170  296.13750   20.24800    0.13260    3.24410    0.00520    7.97220   -0.00220   53.98350    2.67720
 4094.50000   54.23730   57.51640   41.59050  178.60930  269.34240   35.78900    0.09860    3.23130   -0.00550    7.96830   -0.00190   41.96180    2.71700
 4095.00000   54.18940   57.57720   35.26440  142.06720  198.00420   46.63220    0.09780    3.21260   -0.00190    7.96430    0.00090   34.83470    2.71880
 4095.50000   53.96930   57.66070   32.78660  112.57910  145.56070   20.91780    0.10220    3.20980    0.01380    7.94820    0.00260   33.01590    2.69300
 4096.00000   53.22320   57.54990   34.09040   74.40990  109.43290    9.57450    0.11600    3.20240    0.03520    7.93990    0.00180   33.22880    2.66010
 4096.50000   52.46100   57.07520   34.92150   74.96880  105.18090    6.23180    0.13110    3.17740    0.03460    7.93630    0.00290   33.94640    2.65060
 4097.00000   51.88390   56.72670   33.68140   94.00930  106.95250    6.85150    0.13090    3.16990   -0.00320    7.94830    0.00740   33.12580    2.67010
 4097.50000   51.24720   56.31980   30.73890  143.88510  528.52450   12.53780    0.11120    3.16240   -0.03700    7.95720    0.01260   30.66320    2.73030
 4098.00000   50.54810   55.94660   26.62000  390.59890 1242.83450   75.71540    0.09160    3.17460   -0.04900    7.96600    0.01290   26.53430    2.78770
 4098.50000   50.07690   55.76830   22.68690  450.07810  640.14130   38.39640    0.07560    3.19680   -0.03630    7.97480    0.00980   22.40360    2.78860
 4099.00000   50.16180   55.76650   20.09750  143.52490  279.84840   12.19800    0.07070    3.21220   -0.02330    7.98820    0.00970   19.50480    2.74780
 4099.50000   50.36800   55.74800   20.08570  202.89280  274.32480   12.26910    0.06660    3.23500   -0.02580    8.00200    0.00710   19.22800    2.74840
