~Version ---------------------------------------------------
VERS.   2.0 : CWLS log ASCII Standard -VERSION 2.0
WRAP.    NO : One line per depth step
DLM . SPACE : Column Data Section Delimiter
~Well ------------------------------------------------------
STRT .F                 174.0 : START DEPTH
STOP .F                4477.0 : STOP DEPTH
STEP .F                   0.5 : STEP
NULL .               -9999.25 : NULL VALUE
COMP .                        : COMPANY
WELL .                        : WELL
FLD  .                        : FIELD
LOC  .                        : LOCATION
PROV .                        : PROVINCE
CNTY .                        : COUNTY
STAT .                        : STATE
CTRY .                        : COUNTRY
SRVC .                        : SERVICE COMPANY
DATE .                        : DATE
UWI  .                        : UNIQUE WELL ID
API  .                        : API NUMBER
SLAT .WGS84 2.700226482833699 : SURFACE LATITUDE
SLON .WGS84 7.804906492775004 : SURFACE LONGITUDE
DATUM.F               3504.06 : DEPTH DATUM ELEV
~Curve Information -----------------------------------------
DEPT .F     : 1 MEASURED DEPTH
DTCO .US/F  : DELTA-T COMPRESSIONAL
DTSM .US/F  : DELTA-T SHEAR
HSGR .GAPI  : HNGS STANDARD GAMMA RAY
RLA3 .OHMM  : APPARENT RESISTIVITY FROM COMPUTED FOCUSING MODE 3
RLA5 .OHMM  : APPARENT RESISTIVITY FROM COMPUTED FOCUSING MODE 5
RXOZ .OHMM  : INVADED FORMATION RESISTIVITY FILTERED AT 18 INCHES
TNPH .DEC   : THERMAL NEUTRON POROSITY RATIO METHOD IN SELECTED LITHOLOGY
PEFZ .B/E   : HRDD STANDARD RESOLUTION FORMATION PHOTOELECTRIC FACTOR
DPHZ .DEC   : HRGD STANDARD RESOLUTION DENSITY POROSITY
HCALD.IN    : HRCC CALIPER CALIBRATED FROM DENSITY LOG
HDRA .G/C3  : HRDD SPINE AND RIBS DENSITY CORRECTION
HSGRD.GAPI  : HNGS STANDARD GAMMA RAY FROM DENSITY LOG
RHOZ .G/C3  : HRDD STANDARD RESOLUTION FORMATION DENSITY
~Params ----------------------------------------------------
~Other -----------------------------------------------------
~ASCII -----------------------------------------------------
# ...
 2488.00000   -9999.25   -9999.25   16.35460   31.88750   40.71970   20.31450    0.02520    5.06200   -0.10270   10.16410    0.06430   14.66790    2.56120
 2488.50000   -9999.25   -9999.25   14.15640   43.73080   56.21430   37.21410    0.05270    5.18050   -0.12670    9.86790    0.03030   12.83850    2.82920
 2489.00000   -9999.25   -9999.25   12.18440   61.09240   83.06020   46.47140    0.03580    5.25660   -0.13850    9.81250   -0.00210   11.40500    2.91680
 2489.50000   -9999.25   -9999.25   11.02590   96.30250  142.71250   65.50020    0.01890    5.25300   -0.14720    9.79200    0.00020   11.04570    2.93600
 2490.00000   -9999.25   -9999.25   11.47030  151.80570  426.96180  103.82970    0.00670    5.12350   -0.15740    9.79210    0.00440   11.58340    2.95530
 2490.50000   -9999.25   -9999.25   13.12100  142.43390  276.14520  102.67360    0.00570    4.93600   -0.15690    9.80680    0.00700   12.31120    2.96480
 2491.00000   -9999.25   -9999.25   14.18970   95.09640  150.93820   53.59090    0.01140    4.72820   -0.12520    9.82130    0.00880   13.01060    2.96560
 2491.50000   -9999.25   -9999.25   12.76390   69.93870   89.06640   39.20330    0.01740    4.62180   -0.09800    9.84390    0.00990   12.81220    2.92830
 2492.00000   -9999.25   -9999.25   12.99520   61.55190   77.01800   35.74740    0.02530    4.59270   -0.06570    9.86970    0.01000   12.61910    2.86710
 2492.50000   -9999.25   -9999.25   14.72880   54.93240   61.23320   48.55470    0.03320    4.58950   -0.05810    9.89310    0.00990   13.86730    2.83410
 2493.00000   -9999.25   -9999.25   16.39230   51.83800   52.68520   46.67880    0.04070    4.57680   -0.05910    9.93150    0.00510   15.93700    2.80320
 2493.50000   -9999.25   -9999.25   18.32460   48.76480   46.57770   41.67570    0.04750    4.55630   -0.06450    9.96470    0.00400   17.54940    2.80060
 2494.00000   58.58140   61.12840   18.62310   45.50970   25.48140   38.58140    0.05580    4.49320   -0.08620    9.98830    0.00190   18.26150    2.80270
 2494.50000   58.62500   61.08110   17.46430   43.42480   16.26350   38.40630    0.05920    4.39490   -0.10150   10.01080   -0.00100   17.18310    2.83620
 2495.00000   58.69140   61.05350   16.82350   42.43740   70.47680   38.33390    0.06190    4.21540   -0.10670   10.03520   -0.00670   16.20030    2.87750
 2495.50000   59.07120   61.33960   18.35110   40.76550  109.62520   34.56460    0.07030    4.06070   -0.08330   10.06900   -0.00850   17.46240    2.88120
 2496.00000   60.30700   61.68350   23.06820   32.01920   53.10310   26.59410    0.09130    3.88790   -0.04750   10.11990   -0.00680   21.81710    2.87860
 2496.50000   62.13460   61.92580   27.47530   21.55660   24.67370   16.70230    0.12220    3.72080   -0.02260   10.18640   -0.00290   26.08290    2.79940
 2497.00000   62.72350   61.59880   29.05070   20.84880   23.28030    7.84620    0.15320    3.56120   -0.00260   10.19060    0.00110   28.83860    2.73880
 2497.50000   61.70980   61.02750   26.26350   27.42410   43.00390    6.17350    0.15320    3.62460   -0.00110   10.15170    0.00500   27.73280    2.71430
 2498.00000   60.12120   60.45620   21.70050   44.50270   86.46550    7.97770    0.12940    4.00850   -0.03400   10.09850    0.00900   20.89060    2.71300
 2498.50000   58.58940   59.94810   18.81680   75.12400  290.83020   20.95630    0.08410    4.54100   -0.10580   10.01010    0.01270   18.81490    2.72060
 2499.00000   56.94990   59.59040   17.30630  126.81510  196.86570   80.27660    0.04270    4.78150   -0.13920    9.92720    0.01240   16.77100    2.78670
 2499.50000   54.63910   59.03460   15.32750  149.66970  192.39500  100.36530    0.02210    4.92010   -0.14830    9.85860    0.00840   15.45480    2.90250
 2500.00000   52.44710   58.53770   11.93000  229.61720  331.11890   94.45720    0.00840    4.93360   -0.15140    9.83020    0.00350   12.33250    2.95380
 2500.50000   52.19740   58.40500    8.73080  395.26750 1157.53720  138.01690   -0.00050    4.94630   -0.15570    9.81430   -0.00210    8.93310    2.96190
 2501.00000   53.21460   58.93170    7.67200  645.90940 1880.79650  177.94850   -0.00110    4.90210   -0.15890    9.79830   -0.00650    7.67840    2.96610
 2501.50000   56.44490   62.72420    9.66240  206.92410  899.97770   83.08430    0.00440    4.71130   -0.14420    9.78430   -0.00280    9.16500    2.96600
 2502.00000   62.67440   65.27760   12.00950   76.33990  126.47160   40.48690    0.02250    4.51560   -0.10260    9.82270    0.01750   15.17700    2.96400
 2502.50000   70.95040   67.83110   23.75210   35.04190   48.83260   22.89070    0.05330    4.39620   -0.06630    9.89750    0.03280   21.79980    2.89820
 2503.00000   75.07550   68.92700   33.46500   21.62320   28.86480   10.32380    0.10040    4.29770   -0.01560   10.03400    0.03870   31.28640    2.82440
 2503.50000   75.46530   68.29790   39.10440   16.12290   18.70860    6.43210    0.16060    4.31410    0.03340   10.16820    0.03160   38.07660    2.75060
 2504.00000   72.80160   66.82900   38.53530   17.42650   19.57790    5.13130    0.18520    4.33050    0.06180   10.25430    0.02610   37.14580    2.61990
 2504.50000   69.52330   65.42840   27.71350   23.51630   35.63240    8.43800    0.17400    4.45850    0.02230   10.14550    0.02890   29.00690    2.61990
 2505.00000   65.92890   64.05490   17.59550   50.68680  117.57060   19.83770    0.09290    4.67800   -0.05810    9.98660    0.03250   19.94360    2.69530
 2505.50000   62.69270   62.68140   12.94510   74.84410 1498.88850   58.20210    0.03990    4.64770   -0.11560    9.85200    0.01970   13.54690    2.82460
 2506.00000   60.85820   62.55330   14.31500   70.50900  356.80260   51.10220    0.03710    4.55030   -0.13450    9.83030    0.01400   13.90430    2.92240
 2506.50000   63.82190   65.60860   17.53850   57.41470   80.41810   31.69700    0.04270    4.37120   -0.12060    9.85030    0.01380   16.31170    2.92800
 2507.00000   69.84150   68.74040   21.39780   46.06600   66.98260   19.66060    0.06700    4.31390   -0.08930    9.88690    0.01440   20.05300    2.91890
 2507.50000   75.87070   71.03970   25.70780   36.96050   89.73440   12.30160    0.09880    4.28270   -0.04220    9.92450    0.01540   24.46560    2.81520
 2508.00000   77.83350   71.84260   31.38370   25.31610   47.80070    5.28740    0.14580    4.26140    0.03780    9.99120    0.01760   29.65010    2.71270
 2508.50000   78.35190   70.87970   35.63190   18.76620   21.93850    4.36460    0.20140    4.21350    0.07430   10.14440    0.02200   34.32010    2.61020
 2509.00000   77.18350   69.61100   35.99970   19.52150   21.53410    6.28880    0.19580    4.19230    0.07240   10.18850    0.04850   34.93820    2.58900
 2509.50000   75.49550   68.34230   31.39350   20.40380   22.19770    7.41770    0.15700    4.32110    0.02940   10.16940    0.05410   30.76190    2.58990
 2510.00000   70.19200   65.96680   24.34540   24.43030   31.54110   10.98140    0.09780    4.54100    0.03070   10.14970    0.04020   24.61440    2.62240
 2510.50000   64.80220   62.42370   16.92280   75.99300  263.88800   13.46960    0.05240    4.74750    0.03290   10.13380    0.02540   17.65500    2.66540
 2511.00000   60.42980   59.88140   12.94310  224.52720  468.53500   84.14520    0.02370    4.93530   -0.00790   10.03290    0.01950   12.18790    2.70840
 2511.50000   57.64060   59.18270   10.81830  407.02740 1142.46390  245.73600    0.01460    4.96010   -0.03600    9.86550    0.00840   10.89750    2.75140
 2512.00000   56.44480   58.92520   11.76220  301.50010 1014.98580  181.41640    0.01180    4.83920   -0.03900    9.79450    0.00140   12.12490    2.77030
 2512.50000   56.10180   58.82760   16.17330  116.69040  396.68550   72.46020    0.02510    4.66030   -0.03180    9.80740    0.00080   15.60730    2.77340
 2513.00000   56.25310   58.84900   19.29320   65.99600  100.86390   48.40050    0.04370    4.36520   -0.03090    9.84740    0.00560   19.00910    2.77020
 2513.50000   56.69590   59.07850   22.19270   48.24470   69.53870   25.22600    0.06230    3.94950   -0.03260    9.88750    0.01140   21.80680    2.76420
