~Version ---------------------------------------------------
VERS.   2.0 : CWLS log ASCII Standard -VERSION 2.0
WRAP.    NO : One line per depth step
DLM . SPACE : Column Data Section Delimiter
~Well ------------------------------------------------------
STRT .F                 174.0 : START DEPTH
STOP .F                4477.0 : STOP DEPTH
STEP .F                   0.5 : STEP
NULL .               -9999.25 : NULL VALUE
COMP .                        : COMPANY
WELL .                        : WELL
FLD  .                        : FIELD
LOC  .                        : LOCATION
PROV .                        : PROVINCE
CNTY .                        : COUNTY
STAT .                        : STATE
CTRY .                        : COUNTRY
SRVC .                        : SERVICE COMPANY
DATE .                        : DATE
UWI  .                        : UNIQUE WELL ID
API  .                        : API NUMBER
SLAT .WGS84 2.700226482833699 : SURFACE LATITUDE
SLON .WGS84 7.804906492775004 : SURFACE LONGITUDE
DATUM.F               3504.06 : DEPTH DATUM ELEV
~Curve Information -----------------------------------------
DEPT .F     : 1 MEASURED DEPTH
DTCO .US/F  : DELTA-T COMPRESSIONAL
DTSM .US/F  : DELTA-T SHEAR
HSGR .GAPI  : HNGS STANDARD GAMMA RAY
RLA3 .OHMM  : APPARENT RESISTIVITY FROM COMPUTED FOCUSING MODE 3
RLA5 .OHMM  : APPARENT RESISTIVITY FROM COMPUTED FOCUSING MODE 5
RXOZ .OHMM  : INVADED FORMATION RESISTIVITY FILTERED AT 18 INCHES
TNPH .DEC   : THERMAL NEUTRON POROSITY RATIO METHOD IN SELECTED LITHOLOGY
PEFZ .B/E   : HRDD STANDARD RESOLUTION FORMATION PHOTOELECTRIC FACTOR
DPHZ .DEC   : HRGD STANDARD RESOLUTION DENSITY POROSITY
HCALD.IN    : HRCC CALIPER CALIBRATED FROM DENSITY LOG
HDRA .G/C3  : HRDD SPINE AND RIBS DENSITY CORRECTION
HSGRD.GAPI  : HNGS STANDARD GAMMA RAY FROM DENSITY LOG
RHOZ .G/C3  : HRDD STANDARD RESOLUTION FORMATION DENSITY
~Params ----------------------------------------------------
~Other -----------------------------------------------------
~ASCII -----------------------------------------------------
# ...
 3138.00000   49.42720   56.39260    6.54320 1925.80860 6871.67870 2003.44360   -0.02080    5.20210   -0.17680   10.06790   -0.02730    6.04940    2.99280
 3138.50000   48.65580   56.20110    7.38650 2045.23290 14697.09670 2026.99010   -0.02080    5.00730   -0.17740   10.06710   -0.02720    6.67900    2.99770
 3139.00000   47.61790   54.90370   10.74440 2164.65720 14519.09770 1075.34670   -0.01530    4.56180   -0.17620   10.06500   -0.01800    9.77410    2.99490
 3139.50000   46.44180   54.20730   17.91110 1705.30090 4426.18160 1093.61780   -0.00560    4.14430   -0.16430   10.07670   -0.00590   16.98220    2.97310
 3140.00000   46.33570   54.13290   25.09480 1186.04250 2670.65410 1528.38990    0.00410    3.76630   -0.14040   10.05930   -0.00420   25.87190    2.94410
 3140.50000   46.86770   54.31570   32.39140  944.40380 2358.48950 1835.47070    0.01400    3.77150   -0.11230   10.05080   -0.00350   31.38790    2.88550
 3141.00000   47.80170   54.91860   36.01480  767.25870 2039.91480 1136.87440    0.01620    3.98190   -0.10250   10.04230   -0.00270   34.84180    2.87070
 3141.50000   50.10760   55.79150   33.74340  393.43320 1676.19840  566.96880    0.01720    4.18880   -0.10840   10.05680   -0.00240   33.38970    2.87810
 3142.00000   54.27530   56.76600   32.39890  234.56400  783.31920  351.58960    0.01870    4.33800   -0.12160   10.09580   -0.00340   32.08070    2.91650
 3142.50000   58.06140   57.89320   35.29380  151.72830  366.05990  218.02830    0.02040    4.39160   -0.13110   10.14100   -0.00430   33.79570    2.92030
 3143.00000   59.86710   59.02030   42.26390   98.14580  186.11270  114.77510    0.03290    4.41680   -0.10490   10.17270   -0.00520   40.57290    2.89670
 3143.50000   61.06950   60.14740   50.31080   63.48580   97.96320   40.92640    0.04680    4.35190   -0.07080   10.20530   -0.00460   48.21220    2.83090
 3144.00000   61.84860   61.17740   53.27090   41.06600   51.56440   31.11970    0.06000    4.10680   -0.02450   10.23790   -0.00430   52.66860    2.78270
 3144.50000   62.26790   61.46850   50.65530   44.29380   50.99820   32.23900    0.06400    3.91380   -0.00340   10.27050   -0.00460   50.67770    2.73440
 3145.00000   62.41740   61.45470   46.56060   66.85660   82.12260   42.19310    0.06440    3.75320    0.00950   10.28980   -0.00450   47.00860    2.70890
 3145.50000   62.15670   61.33520   43.91800   89.15440   97.93790   52.55890    0.05550    3.65780    0.01230   10.30950   -0.00400   43.97850    2.68750
 3146.00000   61.07480   61.09300   43.81630   73.27190   96.93140   37.09430    0.05210    3.58750    0.01960   10.31750   -0.00260   43.10240    2.67990
 3146.50000   60.23800   60.85090   43.93960   61.80270   66.27340   34.11190    0.05510    3.55500    0.01950   10.31970   -0.00200   43.05320    2.67760
 3147.00000   59.19510   60.60050   41.63580   64.23860   69.09340   34.82300    0.05520    3.69650    0.00650   10.30110   -0.00300   41.21340    2.68890
 3147.50000   58.08530   60.21300   31.25050   80.93600  122.84660   54.97650    0.04490    4.02910   -0.02890   10.28260   -0.00810   30.88160    2.73940
 3148.00000   57.68550   59.82120   20.03810  126.21910  245.24050   99.45500    0.02730    4.39700   -0.08760   10.26400   -0.01450   24.40950    2.79170
 3148.50000   59.04300   59.93410   15.08730  211.26480  349.24110  168.84410    0.01560    4.67590   -0.12190   10.24550   -0.01630   18.42170    2.90370
 3149.00000   60.39770   60.67030   19.39020  161.24780  334.31630  151.25740    0.01790    4.66040   -0.11130   10.22690   -0.01370   18.47830    2.90530
 3149.50000   61.74180   61.35950   25.24940   85.76530  112.32050   46.97460    0.03230    4.54890   -0.09730   10.23360   -0.00940   25.65920    2.90380
 3150.00000   62.27910   61.59110   35.75490   42.99350   64.97620   24.62260    0.05600    4.18540   -0.03960   10.24110   -0.00500   35.00490    2.81470
 3150.50000   60.71470   61.32170   36.84950   21.55230   37.58800   13.63050    0.07500    4.00710   -0.01140   10.25040   -0.00120   37.11730    2.72990
 3151.00000   58.70620   60.48770   32.40990   19.64420   28.02100   15.21280    0.07150    4.07250   -0.01410   10.25950    0.00260   31.40020    2.72940
 3151.50000   56.61730   59.59010   22.05690   43.51540  109.74600   28.24870    0.04550    4.37580   -0.06850   10.19710    0.00610   23.98640    2.78300
 3152.00000   54.42940   58.69250   15.89960  226.42180  347.84030  143.21050    0.01830    4.59010   -0.13080   10.14400    0.00550   17.72940    2.90690
 3152.50000   52.54970   57.74490   11.90310  306.36130  651.65360  172.13560    0.00050    4.78510   -0.15200   10.09330   -0.00200   11.47230    2.94760
 3153.00000   51.40960   56.69150    8.51460  414.52370 3315.24170  266.16350   -0.00990    4.86040   -0.16090   10.06280   -0.00570    7.88400    2.97800
 3153.50000   50.62570   55.82700    8.36140  560.87380 8217.10550  802.12050   -0.01080    4.83680   -0.16530   10.02110   -0.00490    7.99550    2.97860
 3154.00000   50.15520   55.25310   10.85780  726.54580 2155.23510 1540.67410   -0.00520    4.51280   -0.16330   10.00620   -0.00270   10.75860    2.96720
 3154.50000   49.92780   54.63880   16.92940  844.89110 2419.73120 1731.78760    0.02120    4.20710   -0.11990    9.99140   -0.00050   15.38460    2.91430
 3155.00000   49.73340   54.38410   21.55930  918.28130 2750.97710 1746.43900    0.03880    3.95970   -0.08970    9.97350    0.00160   20.46640    2.85340
 3155.50000   49.77930   54.43870   26.43700  914.70200 2195.47090 1680.40340    0.04930    3.82500   -0.06600    9.95240   -0.00040   25.47150    2.80100
 3156.00000   50.26330   54.88820   30.86860  544.39150 1243.00590 1015.97190    0.04250    3.93030   -0.05460    9.93350   -0.00140   30.47660    2.80090
 3156.50000   51.06940   55.46540   32.60910  169.50400  290.54070  697.06330    0.02900    4.12230   -0.07680    9.91560   -0.00100   31.68720    2.83380
 3157.00000   51.61250   55.83940   29.18480  164.79060  227.64640  487.17420    0.01420    4.47160   -0.10850    9.93240   -0.00050   29.19970    2.89630
 3157.50000   51.95110   55.98120   22.82720  260.39070 2168.14550  464.44270   -0.00080    4.79770   -0.13980    9.95320    0.00110   23.26190    2.93010
 3158.00000   52.14740   56.02540   18.06060  793.44710 2456.51460  451.08160   -0.00630    4.99510   -0.15370    9.97390    0.00310   17.91380    2.96300
 3158.50000   52.21950   56.06960   17.09080  777.80130 2022.55160  402.80260   -0.01170    5.13220   -0.15830    9.97910    0.00510   16.58190    2.96610
 3159.00000   52.24570   56.16920   16.54570  614.74620 2024.33120  408.45690   -0.01380    5.12930   -0.15540    9.96630    0.00600   16.10130    2.96680
 3159.50000   52.42900   56.58420   15.81700  484.33820 2105.58420 1817.53330   -0.01400    5.09140   -0.15560    9.95360    0.00620   15.31510    2.96570
 3160.00000   55.09560   57.59120   15.15410  313.03630 1331.23240 1844.09910   -0.01070    4.99560   -0.14890    9.94920    0.00610   14.51000    2.95680
 3160.50000   58.60350   58.59670   17.77190  190.51790  556.88060  252.87920   -0.00680    4.88720   -0.13290    9.96720    0.00500   16.40220    2.92290
 3161.00000   61.42840   60.74500   25.74290  117.06250  201.98990   74.31240    0.00590    4.77900   -0.11380    9.98520    0.00380   22.39230    2.88570
 3161.50000   62.89330   61.63030   37.42570   51.61620   73.26500   31.75180    0.03410    4.67620   -0.09250    9.98950    0.00250   35.56820    2.85380
 3162.00000   63.49690   61.83560   48.17060   34.54330   39.57060   24.98270    0.06180    4.53120   -0.05840    9.98580    0.00120   47.44060    2.81060
 3162.50000   63.54440   61.81350   49.99510   30.45660   33.98000   21.89350    0.08320    4.36340   -0.03210    9.98210    0.00210   49.09510    2.77450
 3163.00000   62.18310   61.50720   45.14660   33.04840   39.13790   22.47980    0.08830    4.21170   -0.02010    9.97840    0.00520   46.06390    2.74330
 3163.50000   60.06670   61.09420   39.39140   42.64650   62.42960   26.41620    0.08870    4.02830   -0.02640    9.97470    0.00820   40.57350    2.75300
