~Version ---------------------------------------------------
VERS.   2.0 : CWLS log ASCII Standard -VERSION 2.0
WRAP.    NO : One line per depth step
DLM . SPACE : Column Data Section Delimiter
~Well ------------------------------------------------------
STRT .F                 174.0 : START DEPTH
STOP .F                4477.0 : STOP DEPTH
STEP .F                   0.5 : STEP
NULL .               -9999.25 : NULL VALUE
COMP .                        : COMPANY
WELL .                        : WELL
FLD  .                        : FIELD
LOC  .                        : LOCATION
PROV .                        : PROVINCE
CNTY .                        : COUNTY
STAT .                        : STATE
CTRY .                        : COUNTRY
SRVC .                        : SERVICE COMPANY
DATE .                        : DATE
UWI  .                        : UNIQUE WELL ID
API  .                        : API NUMBER
SLAT .WGS84 2.700226482833699 : SURFACE LATITUDE
SLON .WGS84 7.804906492775004 : SURFACE LONGITUDE
DATUM.F               3504.06 : DEPTH DATUM ELEV
~Curve Information -----------------------------------------
DEPT .F     : 1 MEASURED DEPTH
DTCO .US/F  : DELTA-T COMPRESSIONAL
DTSM .US/F  : DELTA-T SHEAR
HSGR .GAPI  : HNGS STANDARD GAMMA RAY
RLA3 .OHMM  : APPARENT RESISTIVITY FROM COMPUTED FOCUSING MODE 3
RLA5 .OHMM  : APPARENT RESISTIVITY FROM COMPUTED FOCUSING MODE 5
RXOZ .OHMM  : INVADED FORMATION RESISTIVITY FILTERED AT 18 INCHES
TNPH .DEC   : THERMAL NEUTRON POROSITY RATIO METHOD IN SELECTED LITHOLOGY
PEFZ .B/E   : HRDD STANDARD RESOLUTION FORMATION PHOTOELECTRIC FACTOR
DPHZ .DEC   : HRGD STANDARD RESOLUTION DENSITY POROSITY
HCALD.IN    : HRCC CALIPER CALIBRATED FROM DENSITY LOG
HDRA .G/C3  : HRDD SPINE AND RIBS DENSITY CORRECTION
HSGRD.GAPI  : HNGS STANDARD GAMMA RAY FROM DENSITY LOG
RHOZ .G/C3  : HRDD STANDARD RESOLUTION FORMATION DENSITY
~Params ----------------------------------------------------
~Other -----------------------------------------------------
~ASCII -----------------------------------------------------
# ...
 4204.00000   59.15060   61.88680   15.91040   25.58530   68.37500    5.74120    0.16990    3.02010    0.05590    7.88860   -0.00100   15.19240    2.62570
 4204.50000   59.16230   61.97440   16.40650   22.11490   56.32860    6.83910    0.18280    3.01610    0.05190    7.87440   -0.00030   15.53530    2.62400
 4205.00000   59.05450   62.27040   16.72480   17.32100   46.40450    5.55570    0.19900    3.02030    0.05170    7.87230    0.00050   15.90740    2.62350
 4205.50000   58.91350   62.54430   16.86010   23.78700   40.85060    4.81140    0.21150    3.02560    0.05570    7.86510    0.00120   15.76260    2.62000
 4206.00000   59.00930   62.66910   15.65790   23.72690   62.17880    6.21210    0.21380    3.04010    0.06550    7.88360    0.00120   14.99310    2.61280
 4206.50000   59.02900   62.68810   13.99280   23.57130   56.85870    6.80930    0.20450    3.05460    0.06850    7.91570   -0.00010   13.74140    2.60260
 4207.00000   58.68740   62.71450   12.72580   24.14830   59.82770    5.03210    0.19490    3.06910    0.07310    7.90720   -0.00150   12.87600    2.59240
 4207.50000   58.21660   62.57920   13.49570   23.41170   64.09840    4.77990    0.19310    3.05190    0.07890    7.89870   -0.00290   12.89170    2.58220
 4208.00000   57.57070   62.06210   14.54020   18.52430   60.27110    4.01040    0.19520    3.05780    0.08560    7.85190   -0.00420   13.43240    2.57200
 4208.50000   56.95850   61.85900   14.52170   16.98830   45.86950    3.71930    0.19800    3.08350    0.08750    7.85840   -0.00540   13.54730    2.56920
 4209.00000   56.66110   61.54160   13.85900   21.68450   68.29840    3.70140    0.19390    3.10440    0.07810    7.90400   -0.00520   13.27520    2.56830
 4209.50000   56.50880   61.13100   13.39360   22.67910   69.81560    4.25740    0.18530    3.08300    0.06410    7.93840   -0.00290   12.90230    2.56920
 4210.00000   56.61640   60.92760   13.44260   22.91640   70.94340    5.78440    0.18230    3.06170    0.05350    7.91210   -0.00100   12.83310    2.62350
 4210.50000   56.92340   61.24690   13.39570   24.41420   70.94320    4.05930    0.18080    3.04350    0.05330    7.88400   -0.00010   12.88060    2.62410
 4211.00000   57.41220   61.48070   13.18920   21.37540   60.97000    3.05800    0.18550    3.02600    0.05460    7.88160   -0.00010   12.67880    2.62310
 4211.50000   57.55920   61.34450   13.00140   23.95280   63.42590    2.87800    0.19030    3.02330    0.05370    7.91180   -0.00010   12.37030    2.62410
 4212.00000   57.79860   61.23010   12.90080   26.84100   80.49200    3.90220    0.19300    3.02880    0.04890    7.91820   -0.00050   12.46290    2.63110
 4212.50000   58.11810   60.98680   13.70500   27.43970   86.93020    6.00220    0.19340    3.03430    0.04850    7.92260   -0.00150   13.07960    2.63180
 4213.00000   58.21530   60.75100   14.71340   24.72910   74.78940    5.65240    0.19150    3.03990    0.05030    7.87750   -0.00250   13.97790    2.63170
 4213.50000   58.30840   60.59180   15.69000   21.20440   56.92120    4.96250    0.18810    3.04540    0.06130    7.86020   -0.00370   15.03680    2.62180
 4214.00000   58.76650   60.59640   16.66520   19.27270   45.19100    5.25500    0.18820    3.05090    0.06110    7.87470   -0.00490   16.05250    2.61060
 4214.50000   59.45590   60.89140   17.75780   31.80850   54.83770    6.66760    0.18780    3.05700    0.05580    7.87560   -0.00470   16.97790    2.60960
 4215.00000   59.88410   61.29260   19.23870   38.56750   83.50560    7.45740    0.18340    3.03280    0.04680    7.87650    0.00050   18.27950    2.62070
 4215.50000   60.06880   61.60280   21.44080   38.06910  103.32170    5.05100    0.17440    3.03400    0.04040    7.87740    0.00790   19.28930    2.64450
 4216.00000   59.83860   61.80560   21.69510   23.80650   50.99230    3.84320    0.18050    3.03520    0.04270    7.87830    0.00950   19.41060    2.64630
 4216.50000   59.39110   61.99500   20.33720   16.61160   37.57050    2.36740    0.19540    3.03640    0.06370    7.87910    0.00890   19.05370    2.60960
 4217.00000   58.95300   62.17620   18.45920   12.28250   28.19650    1.76110    0.21050    3.05360    0.09480    7.88000    0.00140   18.14800    2.55830
 4217.50000   57.96620   62.18870   16.95190   13.39410   28.79190    1.66870    0.22300    3.06390    0.10610    7.88090    0.00060   16.55030    2.54200
 4218.00000   56.50500   62.04700   15.60450   24.86260   53.13520    2.09850    0.22740    3.06460    0.08990    7.88180   -0.00020   15.17300    2.54220
 4218.50000   55.58590   61.96610   14.26960   45.31180   98.06070    5.06700    0.21250    3.07070    0.06910    7.91190   -0.00100   13.61400    2.56690
 4219.00000   55.49740   61.86750   12.90410   37.04900  138.89880    7.82160    0.19580    3.10430    0.06150    7.92320   -0.00210   12.30690    2.60920
 4219.50000   55.48900   61.74230   12.34200   26.68680   72.77580    8.51230    0.18910    3.13790    0.06490    7.90800   -0.00380   11.70850    2.61100
 4220.00000   55.66440   61.74340   12.62030   29.44190   75.82270   10.24050    0.19540    3.14370    0.07030    7.88280   -0.00550   12.19790    2.60390
 4220.50000   55.89380   61.88500   13.50030   33.79830   90.82400    7.29950    0.20360    3.14410    0.07250    7.87730   -0.00570   13.12510    2.59140
 4221.00000   56.06060   61.92300   14.21580   28.76050   86.09510    5.25640    0.20000    3.14900    0.06770    7.87180   -0.00440   13.65890    2.59140
 4221.50000   56.45740   61.72530   14.12130   26.50660   76.48250    4.73230    0.18750    3.16190    0.06060    7.86980   -0.00490   13.54170    2.60390
 4222.00000   57.04730   61.58730   13.67000   30.09580   81.45500    6.23250    0.17560    3.15230    0.05070    7.88990   -0.00420   13.00400    2.61710
 4222.50000   57.37100   61.44610   13.15430   32.78320   93.58600   10.71360    0.17190    3.12500    0.04540    7.91090   -0.00130   12.68140    2.62920
 4223.00000   57.45770   61.15710   13.37500   18.40710   68.82870    8.06500    0.17730    3.07490    0.04070    7.93290    0.00160   12.83400    2.63840
 4223.50000   57.22750   60.95390   13.70240   16.15970   44.01610    5.04640    0.18910    3.05020    0.03770    7.93700    0.00190   13.18680    2.64560
 4224.00000   57.05060   60.81020   14.67630   25.18060   58.26630    4.86670    0.18970    3.06590    0.03760    7.92710   -0.00080   14.07310    2.64700
 4224.50000   57.25130   59.89840   15.84830   35.64080   93.89730    5.27690    0.18850    3.08480    0.03980    7.92230   -0.00340   15.12510    2.64610
 4225.00000   57.29480   59.28360   17.44760   34.39300   93.26360    5.98250    0.18410    3.07500    0.04140    7.92030   -0.00230   16.74860    2.64500
 4225.50000   57.33200   59.31600   18.56950   29.37110   71.47080    4.01590    0.18840    3.02930    0.04190    7.90300   -0.00040   17.88790    2.64340
 4226.00000   57.91470   59.79080   18.95860   25.42010   48.99720    3.34410    0.19610    2.98360    0.04480    7.87910    0.00300   17.68220    2.64070
 4226.50000   58.77610   60.14560   18.05890   24.06210   44.10730    3.05630    0.19540    2.99570    0.04790    7.85520    0.00760   17.07060    2.63720
 4227.00000   58.90910   60.12470   16.76690   25.80170   47.80010    3.56970    0.18780    3.05910    0.04870    7.84450    0.01310   16.27910    2.63360
 4227.50000   58.40210   59.77330   16.36130   39.69940   90.56030    5.79730    0.18200    3.08320    0.04810    7.83400    0.01600   15.73890    2.63250
 4228.00000   58.31370   59.83920   16.09580   37.82740   81.58630    5.45040    0.19010    3.08080    0.05680    7.82180    0.01010   15.35760    2.63120
 4228.50000   58.05250   59.77130   15.59550   23.44350   60.07820    3.07120    0.20600    3.07870    0.07740    7.81780    0.00050   14.96210    2.61620
 4229.00000   57.45640   59.26970   15.34870   21.62250   44.24020    2.42520    0.21840    3.07660    0.09240    7.82840   -0.00630   14.70310    2.58640
 4229.50000   57.01320   59.09530   15.04330   24.32390   40.10430    3.48560    0.21350    3.07450    0.09710    7.84760    0.00280   14.53480    2.55430
