~Version ---------------------------------------------------
VERS.   2.0 : CWLS log ASCII Standard -VERSION 2.0
WRAP.    NO : One line per depth step
DLM . SPACE : Column Data Section Delimiter
~Well ------------------------------------------------------
STRT .F                 174.0 : START DEPTH
STOP .F                4477.0 : STOP DEPTH
STEP .F                   0.5 : STEP
NULL .               -9999.25 : NULL VALUE
COMP .                        : COMPANY
WELL .                        : WELL
FLD  .                        : FIELD
LOC  .                        : LOCATION
PROV .                        : PROVINCE
CNTY .                        : COUNTY
STAT .                        : STATE
CTRY .                        : COUNTRY
SRVC .                        : SERVICE COMPANY
DATE .                        : DATE
UWI  .                        : UNIQUE WELL ID
API  .                        : API NUMBER
SLAT .WGS84 2.700226482833699 : SURFACE LATITUDE
SLON .WGS84 7.804906492775004 : SURFACE LONGITUDE
DATUM.F               3504.06 : DEPTH DATUM ELEV
~Curve Information -----------------------------------------
DEPT .F     : 1 MEASURED DEPTH
DTCO .US/F  : DELTA-T COMPRESSIONAL
DTSM .US/F  : DELTA-T SHEAR
HSGR .GAPI  : HNGS STANDARD GAMMA RAY
RLA3 .OHMM  : APPARENT RESISTIVITY FROM COMPUTED FOCUSING MODE 3
RLA5 .OHMM  : APPARENT RESISTIVITY FROM COMPUTED FOCUSING MODE 5
RXOZ .OHMM  : INVADED FORMATION RESISTIVITY FILTERED AT 18 INCHES
TNPH .DEC   : THERMAL NEUTRON POROSITY RATIO METHOD IN SELECTED LITHOLOGY
PEFZ .B/E   : HRDD STANDARD RESOLUTION FORMATION PHOTOELECTRIC FACTOR
DPHZ .DEC   : HRGD STANDARD RESOLUTION DENSITY POROSITY
HCALD.IN    : HRCC CALIPER CALIBRATED FROM DENSITY LOG
HDRA .G/C3  : HRDD SPINE AND RIBS DENSITY CORRECTION
HSGRD.GAPI  : HNGS STANDARD GAMMA RAY FROM DENSITY LOG
RHOZ .G/C3  : HRDD STANDARD RESOLUTION FORMATION DENSITY
~Params ----------------------------------------------------
~Other -----------------------------------------------------
~ASCII -----------------------------------------------------
# ...
 3008.00000   60.86730   62.91300   20.78060   24.07360   34.66970   16.43450    0.04790    5.22270   -0.09570   10.43750    0.05280   17.83060    2.88830
 3008.50000   59.69670   62.02850   20.26500   33.46540   38.01250   13.52520    0.07140    5.18770   -0.09200   10.43870    0.05260   20.12000    2.85970
 3009.00000   57.47670   60.64430   15.08080   49.21080  185.85100   36.10650    0.06060    5.27170   -0.14060   10.35990    0.03860   16.29230    2.85930
 3009.50000   55.37970   59.39420   11.32070  286.28470  939.43400  116.95840    0.03100    5.32430   -0.15990   10.29190    0.01860   10.43820    2.91590
 3010.00000   52.78230   58.64750    7.88900  778.27370 1549.11680  331.70750   -0.00010    5.37140   -0.17150   10.24120    0.00920    8.00050    2.98680
 3010.50000   50.73470   58.18380    7.14210 1332.08080 2158.79960 1925.75680   -0.01220    5.41860   -0.16950   10.21280    0.00370    6.86280    2.98730
 3011.00000   50.39090   57.72020    7.42530 1141.94670 2886.27930 1586.12850   -0.01350    5.32230   -0.16870   10.18920   -0.00000    7.00290    2.98070
 3011.50000   51.15560   57.38710    9.70050  942.48280 3746.90160  898.77250   -0.01230    5.20900   -0.15850   10.16130   -0.00310    9.14360    2.95390
 3012.00000   52.59700   57.47240   16.94440  777.85940 3158.91500  668.25120   -0.00280    5.02510   -0.13250   10.12540   -0.00340   15.10370    2.92080
 3012.50000   54.38210   58.41840   24.52350  557.97620 1279.31490  474.02240    0.01050    4.79910   -0.08780   10.08870   -0.00370   24.87680    2.87000
 3013.00000   56.14220   58.98790   31.44960  305.97240  569.31950  181.52250    0.02540    4.69220   -0.06020   10.07210   -0.00400   33.79740    2.82710
 3013.50000   56.94190   59.43130   34.97260  121.73820  221.20510   49.37350    0.04350    4.78850   -0.03680   10.09130   -0.00790   34.19680    2.78390
 3014.00000   56.83070   59.50210   31.57170   71.52170   87.75310   31.86410    0.05780    4.93380   -0.04320   10.13240   -0.00580   30.83710    2.76970
 3014.50000   56.03040   58.87300   26.60930   78.10740   87.64020   41.66090    0.05120    5.07400   -0.07510   10.14530   -0.00460   25.45190    2.78790
 3015.00000   54.28500   58.19030   22.34770  141.88980  514.93950   76.92010    0.03770    5.18320   -0.12000   10.15820   -0.00340   21.80580    2.88940
 3015.50000   52.90380   57.64900   19.15080  214.22090  829.27090  240.12530    0.02300    5.29260   -0.14670   10.15900   -0.00210   18.94550    2.93350
 3016.00000   52.14300   57.35910   15.12500  322.11850 1248.46450  605.83470    0.00820    5.35560   -0.16110   10.14890   -0.00090   15.44230    2.95900
 3016.50000   51.90800   57.06930   10.99540  484.36110 1598.76610  942.69650   -0.00190    5.42340   -0.16410   10.15130    0.00030   10.72890    2.97320
 3017.00000   51.90800   56.90560    7.58930  727.71750 1675.41460 1169.43740   -0.00950    5.43640   -0.15990   10.15150    0.00120    7.32450    2.97460
 3017.50000   51.88920   57.00870    6.64020 1048.77610 3887.00510 1136.71340   -0.01310    5.38960   -0.16300   10.13970    0.00170    6.09420    2.97890
 3018.00000   51.59770   57.21920    6.83070 1137.25130 5875.05220  756.57570   -0.01370    5.33180   -0.17190   10.12440    0.00210    6.25620    2.98570
 3018.50000   51.30160   57.40600    7.41160 1032.70740 1429.16530  479.34490   -0.01340    5.26280   -0.17100   10.10910    0.00260    6.96040    2.98840
 3019.00000   50.69980   57.42910    7.79920  820.52140  330.09730  389.45810   -0.01200    5.19950   -0.16520   10.09400    0.00340    7.56890    2.98900
 3019.50000   49.99530   57.32650    7.93230  665.43520  318.90580  622.86890   -0.01120    5.20680   -0.16240   10.07020    0.00580    7.63510    2.98800
 3020.00000   49.41260   57.06300    8.00150  754.31460 2088.83130 1618.19860   -0.01170    5.21670   -0.16740   10.05130    0.00470    7.64480    2.98630
 3020.50000   49.83120   57.38670    8.18120  967.24620 2275.62130 1843.80150   -0.01240    5.21570   -0.17060   10.03010    0.00290    7.66170    2.98390
 3021.00000   52.56840   58.67100    8.36090 1210.22580  685.47500 1478.05590   -0.01060    5.14930   -0.15800   10.03240    0.00250    8.12050    2.97610
 3021.50000   56.51820   59.96910    9.92600  414.01230  391.38950 1468.13230   -0.00030    4.98790   -0.13130   10.05680    0.01640   11.02450    2.92920
 3022.00000   60.13720   61.23210   15.29330   79.16670  251.11190   28.67020    0.03660    4.77890   -0.09220   10.06190    0.05200   15.74750    2.86700
 3022.50000   62.07870   62.28210   23.63160   20.92610   29.54120    0.80320    0.07550    4.57280   -0.03480   10.14340    0.07240   22.52840    2.75680
 3023.00000   61.79340   62.05030   26.53980   12.41340   12.96620    0.75430    0.10980    4.52550   -0.00250   10.21690    0.07900   26.21820    2.71940
 3023.50000   61.31290   61.44100   23.12040   22.32880   21.51670    0.74540    0.11800    4.70710   -0.01560   10.25030    0.06640   23.87080    2.73290
 3024.00000   59.86360   60.05410   18.35130   40.16440   74.90190   19.20850    0.10080    4.97880   -0.04900   10.22850    0.04410   19.21390    2.81750
 3024.50000   56.50700   58.66720   12.74840   72.24650  339.12100   32.18830    0.05950    5.15140   -0.12040   10.16780    0.02540   12.63890    2.87270
 3025.00000   54.29620   57.31390    7.10460  444.12120 1624.51730  176.76310    0.01910    5.24250   -0.14190   10.10710    0.00880    7.56730    2.93780
 3025.50000   51.62080   56.41280    6.58700  701.13260 2108.91260 1361.13170   -0.00630    5.21590   -0.15130   10.04640    0.00280    6.27440    2.95380
 3026.00000   50.13540   55.71610    7.79310 1106.87630 2593.30810 1993.06380   -0.01160    5.14030   -0.15320    9.97580    0.00100    7.11060    2.96030
 3026.50000   49.49230   55.17480   11.65800 1155.45980 3357.12010 2002.26600   -0.01000    4.98860   -0.14760    9.93180   -0.00080    9.94190    2.95840
 3027.00000   49.08780   54.98500   16.46840 1024.45030 3524.65040 1997.66130   -0.00380    4.60280   -0.13360    9.90930   -0.00050   15.11600    2.95610
 3027.50000   48.88800   54.85810   21.18290  866.69200 2800.98580 1971.72380    0.00670    4.31580   -0.11940    9.88750    0.00010   19.75770    2.90430
 3028.00000   48.69620   54.97330   25.26180  726.76930 2009.15500 1623.18910    0.01780    4.17620   -0.09550    9.86740    0.00070   23.34420    2.86540
 3028.50000   48.85210   55.46120   25.09900  533.68580 1217.32430  600.89960    0.02180    4.14320   -0.07300    9.85090    0.00050   24.48480    2.82660
 3029.00000   49.39550   56.19870   22.26580  391.89950  600.86500  260.95060    0.01710    4.24890   -0.06680    9.86370    0.00300   22.12830    2.82260
 3029.50000   51.45300   56.93620   18.19450  354.77970  455.36190  227.64820    0.00720    4.44320   -0.08770    9.90700    0.00580   18.22880    2.82790
 3030.00000   52.99560   57.67380   14.45520  493.15250 1366.93210  374.08940   -0.00140    4.75930   -0.13600    9.94420    0.00900   14.64690    2.91600
 3030.50000   53.92070   58.65590   13.33570  647.07210 2509.63620  366.17830   -0.00370    4.98640   -0.13700    9.98410    0.01540   13.00250    2.93000
 3031.00000   55.18590   59.74320   14.93670  222.63420 1737.43460  101.08200    0.00160    5.10700   -0.12870   10.01880    0.02710   14.21020    2.93040
 3031.50000   56.56100   60.35530   18.19200  115.00640  514.17210   42.19040    0.01560    5.11630   -0.11260   10.04670    0.03430   17.90590    2.91070
 3032.00000   57.42050   60.25900   21.19550   61.84440  152.16270   33.65780    0.02470    5.07920   -0.10590   10.07450    0.02690   21.64360    2.88340
 3032.50000   57.07200   59.46840   21.61890   54.32000   80.43860   22.12270    0.02900    5.06470   -0.11690   10.09030    0.00850   21.06080    2.88280
 3033.00000   55.33670   58.71670   18.16170   79.33130  295.77330   56.31930    0.02470    5.07270   -0.13650   10.07330    0.00220   17.61490    2.94230
 3033.50000   53.42020   58.03400   14.75690  244.56520  812.28250  213.30590    0.01270    5.06640   -0.14460   10.04810    0.00220   14.20420    2.94390
