~Version ---------------------------------------------------
VERS.   2.0 : CWLS log ASCII Standard -VERSION 2.0
WRAP.    NO : One line per depth step
DLM . SPACE : Column Data Section Delimiter
~Well ------------------------------------------------------
STRT .F                 174.0 : START DEPTH
STOP .F                4477.0 : STOP DEPTH
STEP .F                   0.5 : STEP
NULL .               -9999.25 : NULL VALUE
COMP .                        : COMPANY
WELL .                        : WELL
FLD  .                        : FIELD
LOC  .                        : LOCATION
PROV .                        : PROVINCE
CNTY .                        : COUNTY
STAT .                        : STATE
CTRY .                        : COUNTRY
SRVC .                        : SERVICE COMPANY
DATE .                        : DATE
UWI  .                        : UNIQUE WELL ID
API  .                        : API NUMBER
SLAT .WGS84 2.700226482833699 : SURFACE LATITUDE
SLON .WGS84 7.804906492775004 : SURFACE LONGITUDE
DATUM.F               3504.06 : DEPTH DATUM ELEV
~Curve Information -----------------------------------------
DEPT .F     : 1 MEASURED DEPTH
DTCO .US/F  : DELTA-T COMPRESSIONAL
DTSM .US/F  : DELTA-T SHEAR
HSGR .GAPI  : HNGS STANDARD GAMMA RAY
RLA3 .OHMM  : APPARENT RESISTIVITY FROM COMPUTED FOCUSING MODE 3
RLA5 .OHMM  : APPARENT RESISTIVITY FROM COMPUTED FOCUSING MODE 5
RXOZ .OHMM  : INVADED FORMATION RESISTIVITY FILTERED AT 18 INCHES
TNPH .DEC   : THERMAL NEUTRON POROSITY RATIO METHOD IN SELECTED LITHOLOGY
PEFZ .B/E   : HRDD STANDARD RESOLUTION FORMATION PHOTOELECTRIC FACTOR
DPHZ .DEC   : HRGD STANDARD RESOLUTION DENSITY POROSITY
HCALD.IN    : HRCC CALIPER CALIBRATED FROM DENSITY LOG
HDRA .G/C3  : HRDD SPINE AND RIBS DENSITY CORRECTION
HSGRD.GAPI  : HNGS STANDARD GAMMA RAY FROM DENSITY LOG
RHOZ .G/C3  : HRDD STANDARD RESOLUTION FORMATION DENSITY
~Params ----------------------------------------------------
~Other -----------------------------------------------------
~ASCII -----------------------------------------------------
# ...
 3684.00000   49.81580   54.56120   34.41420  566.39290  697.87390  258.22240    0.04710    3.02580   -0.04520    9.12420   -0.00120   35.12400    2.75760
 3684.50000   49.93120   54.05620   29.03110  600.23390  629.41500  674.17850    0.04150    3.09100   -0.06470    9.11270   -0.00190   30.93990    2.79860
 3685.00000   52.38120   53.89840   25.71250  603.29470  619.46430 1116.87570    0.03580    3.17960   -0.07380    9.10110   -0.00310   27.63560    2.82380
 3685.50000   55.28790   54.38970   24.75240  566.97440  606.65500  951.43160    0.03380    3.19370   -0.07270    9.08960   -0.00570   25.37580    2.83010
 3686.00000   57.61880   55.02670   31.40600  452.13680  573.92240  821.32140    0.03380    3.20790   -0.06220    9.07810   -0.00570   30.47130    2.82310
 3686.50000   57.45710   55.50510   40.01590   90.33080   59.94300  195.50630    0.05530    3.19260   -0.04920    9.06650   -0.00330   41.79240    2.79880
 3687.00000   56.08410   55.25380   56.78210   30.19400   27.42980   19.80060    0.08960    3.13710   -0.03080    9.05500   -0.00090   53.41100    2.77220
 3687.50000   52.70080   54.11550   57.39500   13.62400   17.20440    9.55570    0.12680    3.13550   -0.01680    9.04350    0.00060   57.92740    2.74550
 3688.00000   48.85780   52.97730   42.86470   40.95960  112.17490   11.97930    0.12310    3.20460   -0.02140    9.03190   -0.00190   50.80050    2.73740
 3688.50000   47.03190   52.85730   28.08820  196.33410  474.63670   79.99360    0.07760    3.27940   -0.03640    9.02040   -0.00450   37.19820    2.73840
 3689.00000   46.63490   53.16440   22.37810  392.11250  685.79980  215.15270    0.05010    3.34930   -0.05320    9.01010   -0.00700   21.94080    2.75970
 3689.50000   45.88770   53.26170   18.27870  643.75670  899.43140  365.92650    0.03540    3.34270   -0.06490    9.00210   -0.00570   18.25560    2.80580
 3690.00000   45.34400   52.96110   15.72840  913.16470 1262.45280  658.63530    0.02690    3.32170   -0.08240    8.99410   -0.00350   16.13840    2.82930
 3690.50000   44.83200   52.66050   14.57030 1236.45640 1739.77200 1111.36190    0.02090    3.30360   -0.09000    8.98600   -0.00220   14.12310    2.84350
 3691.00000   44.44860   52.35990   13.99700 1540.18860 2866.00270 1502.54720    0.01550    3.29370   -0.09460    8.97800   -0.00300   13.85550    2.85560
 3691.50000   44.05000   52.20950   14.26740 1880.27210 2929.97310 1541.15280    0.01250    3.27970   -0.09530    8.97000   -0.00440   13.87340    2.86360
 3692.00000   43.55760   52.22890   15.13420 1607.77280 3765.18120 1535.66750    0.01150    3.26620   -0.09420    8.96200   -0.00480   14.70800    2.86430
 3692.50000   43.45460   52.66450   16.44510 1075.78190 2244.54390 1491.40600    0.01120    3.26340   -0.09740    8.95400   -0.00460   15.57360    2.86460
 3693.00000   43.66330   52.70110   15.33520 1369.95070 2269.67530 1468.78300    0.01200    3.28890   -0.09350    8.94640   -0.00360   14.96740    2.86330
 3693.50000   44.01160   52.61520   12.44500 1728.08470 17131.45310 1856.96040    0.01310    3.30230   -0.08970    8.94780   -0.00190   12.28750    2.85950
 3694.00000   44.90640   52.51990   10.47330 2467.80910 101690.38280 1784.82540    0.01460    3.31160   -0.08590    8.94770   -0.00300   10.72640    2.85260
 3694.50000   45.98490   52.92670   11.28880 2051.15800 23570.13870  587.66880    0.01580    3.30900   -0.08180    8.94760   -0.00400   10.84400    2.84740
 3695.00000   46.83440   53.59540   15.53520 1635.22770 2687.62400  369.23610    0.01860    3.31240   -0.07630    8.94750   -0.00410   14.60720    2.83960
 3695.50000   47.55060   54.26420   25.66150 1002.71840 1435.71830  336.04170    0.02270    3.31530   -0.07000    8.94740   -0.00420   23.94720    2.82850
 3696.00000   47.69470   54.71550   36.32920  458.74870  611.00340  141.12950    0.03290    3.31870   -0.06810    8.94730   -0.00360   33.98330    2.81980
 3696.50000   47.42050   54.75580   44.20620  227.71300  328.20860   89.86830    0.04410    3.32550   -0.06950    8.94720   -0.00200   43.17240    2.81980
 3697.00000   46.84240   54.28150   46.36550  288.12990  436.67320  181.28390    0.04470    3.31360   -0.07600    8.94710   -0.00170   45.44390    2.83080
 3697.50000   45.95490   53.67860   41.35880  465.51940  693.99530  365.68910    0.04090    3.29070   -0.08130    8.94700   -0.00210   39.66440    2.83840
 3698.00000   44.89620   53.07570   32.26980  739.56380 1102.95240  555.99050    0.03250    3.26540   -0.08130    8.94690   -0.00450   32.07640    2.84130
 3698.50000   44.31780   52.81890   23.18070 1023.70710 1699.49720  841.17710    0.02750    3.24140   -0.08330    8.94680   -0.00550   22.74290    2.84370
 3699.00000   44.22530   52.75090   14.78090 1417.02010 3469.96000  934.70340    0.02140    3.21830   -0.08700    8.94670   -0.00590   14.94690    2.84880
 3699.50000   44.63870   52.78300   11.35180 1788.10500 2397.09720  819.30570    0.01920    3.21010   -0.09090    8.94660   -0.00420   10.95030    2.85620
 3700.00000   45.48240   53.02430    9.80390 1974.54760 2667.31030  718.65220    0.01810    3.22920   -0.09050    8.94650   -0.00320   10.45040    2.85680
 3700.50000   46.17290   53.27540   11.84160 1989.18120 4584.95650  728.77210    0.02020    3.25430   -0.08870    8.94370   -0.00220   12.18700    2.85370
 3701.00000   46.62430   53.52650   15.90850 1752.28850 2860.36670  533.85390    0.02530    3.26610   -0.08700    8.94370   -0.00170   14.83510    2.85050
 3701.50000   46.56350   53.53530   20.13990  190.95160 1135.77700   69.65410    0.03400    3.27040   -0.08510    8.94370   -0.00220   19.43260    2.84620
 3702.00000   46.40960   53.49170   22.69290  121.17980  157.42720   68.07260    0.04260    3.27480   -0.08090    8.94340   -0.00310   21.45890    2.84160
 3702.50000   46.05650   53.41710   20.76970  179.58640  383.47650  105.82390    0.04450    3.28220   -0.08590    8.94330   -0.00190   20.01530    2.84380
 3703.00000   45.96270   53.34260   17.68590  402.30490  585.08090  257.35240    0.03830    3.30640   -0.08300    8.95050   -0.00410   17.01390    2.84640
 3703.50000   45.86980   53.27240   15.21520  597.82340  903.95830  507.69720    0.03120    3.32890   -0.08540    8.95760   -0.00410   14.70470    2.84750
 3704.00000   45.80430   53.10260   14.21170  677.79790 1728.67020  507.66210    0.02840    3.32710   -0.08460    8.95180   -0.00420   13.91980    2.84850
 3704.50000   45.67730   53.01610   15.02770  590.44660 1514.93480  497.51450    0.02640    3.27760   -0.08660    8.94390   -0.00190   14.13200    2.84960
 3705.00000   45.81350   53.05890   15.41680  489.80600  565.68690  361.63200    0.02800    3.22720   -0.09810    8.94390    0.00230   14.52300    2.86520
 3705.50000   45.87620   53.10110   14.49300  464.46740  552.71620  384.61930    0.03120    3.20670   -0.10950    8.94400    0.00550   13.83880    2.88820
 3706.00000   45.57220   53.00990   13.03640  445.82480 1712.38560  384.90820    0.03160    3.22990   -0.10740    8.95620    0.00190   12.37570    2.88860
 3706.50000   45.09700   52.79260   11.72590  453.34820 1941.55880  370.23130    0.02750    3.25900   -0.09200    8.96420   -0.00170   11.25580    2.84870
 3707.00000   44.96550   52.68720   10.74790  557.47920  609.89650  362.37570    0.02200    3.28980   -0.08120    8.95220   -0.00390   10.27370    2.84510
 3707.50000   44.99140   52.59770    9.76990  871.49370 3582.88870  365.09190    0.01620    3.29270   -0.08470    8.94440   -0.00430    9.43950    2.84640
 3708.00000   44.96190   52.74500    9.02770 1362.38460 4386.12740  815.34550    0.01250    3.28160   -0.09240    8.94050   -0.00390    8.70060    2.85140
 3708.50000   45.12700   53.07660    9.75340 1794.55510 3274.46090 1930.46920    0.01100    3.26450   -0.09310    8.93330   -0.00400    8.97710    2.85590
 3709.00000   45.82930   53.41990   10.66520 1276.57100 2550.48360 1931.00980    0.01200    3.29240   -0.08990    8.92740   -0.00440    9.85090    2.85810
 3709.50000   46.36190   53.61650   11.81210  867.06560 1826.50630 1667.80980    0.01360    3.25650   -0.08880    8.87840   -0.00350   11.14880    2.85960
