~Version ---------------------------------------------------
VERS.   2.0 : CWLS log ASCII Standard -VERSION 2.0
WRAP.    NO : One line per depth step
DLM . SPACE : Column Data Section Delimiter
~Well ------------------------------------------------------
STRT .F                 174.0 : START DEPTH
STOP .F                4477.0 : STOP DEPTH
STEP .F                   0.5 : STEP
NULL .               -9999.25 : NULL VALUE
COMP .                        : COMPANY
WELL .                        : WELL
FLD  .                        : FIELD
LOC  .                        : LOCATION
PROV .                        : PROVINCE
CNTY .                        : COUNTY
STAT .                        : STATE
CTRY .                        : COUNTRY
SRVC .                        : SERVICE COMPANY
DATE .                        : DATE
UWI  .                        : UNIQUE WELL ID
API  .                        : API NUMBER
SLAT .WGS84 2.700226482833699 : SURFACE LATITUDE
SLON .WGS84 7.804906492775004 : SURFACE LONGITUDE
DATUM.F               3504.06 : DEPTH DATUM ELEV
~Curve Information -----------------------------------------
DEPT .F     : 1 MEASURED DEPTH
DTCO .US/F  : DELTA-T COMPRESSIONAL
DTSM .US/F  : DELTA-T SHEAR
HSGR .GAPI  : HNGS STANDARD GAMMA RAY
RLA3 .OHMM  : APPARENT RESISTIVITY FROM COMPUTED FOCUSING MODE 3
RLA5 .OHMM  : APPARENT RESISTIVITY FROM COMPUTED FOCUSING MODE 5
RXOZ .OHMM  : INVADED FORMATION RESISTIVITY FILTERED AT 18 INCHES
TNPH .DEC   : THERMAL NEUTRON POROSITY RATIO METHOD IN SELECTED LITHOLOGY
PEFZ .B/E   : HRDD STANDARD RESOLUTION FORMATION PHOTOELECTRIC FACTOR
DPHZ .DEC   : HRGD STANDARD RESOLUTION DENSITY POROSITY
HCALD.IN    : HRCC CALIPER CALIBRATED FROM DENSITY LOG
HDRA .G/C3  : HRDD SPINE AND RIBS DENSITY CORRECTION
HSGRD.GAPI  : HNGS STANDARD GAMMA RAY FROM DENSITY LOG
RHOZ .G/C3  : HRDD STANDARD RESOLUTION FORMATION DENSITY
~Params ----------------------------------------------------
~Other -----------------------------------------------------
~ASCII -----------------------------------------------------
# ...
 2618.00000   65.69970   63.86060   44.21670   40.41760   62.40920   33.38540    0.08400    3.69550    0.06280   10.21380   -0.00180   44.00420    2.59820
 2618.50000   65.48560   63.90210   41.18010   36.02270   55.87240   30.86920    0.08910    3.82960    0.07060   10.23860   -0.00290   40.98150    2.59550
 2619.00000   65.14620   63.52380   36.57010   36.27010   48.79090   29.46380    0.09550    4.05340    0.03870   10.21460   -0.00250   35.52670    2.61760
 2619.50000   63.35850   62.95500   31.29300   46.36670   53.10330   34.49970    0.09550    4.31450   -0.01260   10.19060    0.00030   30.07190    2.78350
 2620.00000   62.90370   62.69190   24.65130   59.27380   85.21700   42.47640    0.07900    4.52770   -0.06850   10.16120    0.00320   24.83180    2.84360
 2620.50000   63.47620   62.89020   19.01360   63.76640  136.75130   51.47310    0.05230    4.84960   -0.11110   10.12760    0.00390   19.98650    2.90110
 2621.00000   64.42480   63.84990   15.86360   54.89770  153.21060   52.73120    0.04880    4.93570   -0.12120   10.12400    0.00320   16.21560    2.90350
 2621.50000   65.37750   64.80970   17.08860   33.35120   66.65310   16.39290    0.05060    4.93810   -0.11450   10.15380    0.00250   16.35540    2.86640
 2622.00000   67.30820   65.76940   18.98630   18.10170   18.65030   11.16270    0.07390    4.93430   -0.09140   10.20090    0.00180   19.25150    2.84750
 2622.50000   69.07500   66.56560   22.44120   14.33340   20.34830   10.69500    0.09420    4.83940   -0.07500   10.22600    0.00110   21.77940    2.82860
 2623.00000   69.93840   67.34150   25.03440   15.92200   26.99840   14.12850    0.09930    4.73910   -0.05770   10.25120    0.00130   24.59610    2.81170
 2623.50000   71.15550   68.28040   26.88510   18.13250   31.72000   16.56190    0.10390    4.72090   -0.04340   10.27630    0.00160   26.25560    2.78870
 2624.00000   72.53420   69.00310   26.54490   16.66550   24.16700   11.02770    0.11060    4.70910   -0.02930   10.28230    0.00190   26.47370    2.76350
 2624.50000   72.70340   69.06140   24.17990   13.51920   14.12160   10.80490    0.12510    4.66700   -0.02270   10.28410    0.00280   24.77180    2.74910
 2625.00000   71.99240   68.72170   21.64740   12.19660   23.29350    9.17720    0.12650    4.66660   -0.02910   10.28620    0.00200   21.92410    2.74870
 2625.50000   70.52500   67.37130   18.76010   11.49280   18.76320    8.70730    0.12360    4.74290   -0.03840   10.29340    0.00110   18.99350    2.77170
 2626.00000   67.52530   65.94780   16.03030   13.56380   16.79150    7.81630    0.11090    4.85260   -0.06360   10.26840    0.00130   16.96500    2.79870
 2626.50000   64.59250   64.55230   14.03320   16.69920   23.58440   10.05880    0.08680    4.97880   -0.08880   10.23460    0.00220   14.34890    2.83280
 2627.00000   61.54810   63.15670   12.09250   20.55950   45.73670   16.18590    0.06400    5.12830   -0.09850   10.21460    0.00320   12.19940    2.86130
 2627.50000   58.67430   61.76110   11.37900   37.67790  126.01040   26.23920    0.04560    5.23090   -0.12370   10.19680    0.00750   10.91320    2.90370
 2628.00000   57.43230   60.41400   11.35220   96.63810  347.17490   58.32990    0.03130    5.24420   -0.13000   10.19130    0.01180   10.77050    2.92240
 2628.50000   56.50230   59.76220   12.41580  109.74860  149.75770  101.46720    0.02500    5.19990   -0.14000   10.19630    0.00950   11.44860    2.93480
 2629.00000   55.88130   59.56450   12.61270  103.65970   29.06160   97.10560    0.02350    5.15670   -0.12660   10.21020    0.01030   12.03470    2.93560
 2629.50000   55.67260   59.57950   11.96690  100.33730   64.49770   83.43450    0.01990    5.11910   -0.13270   10.22530    0.00660   11.68100    2.93560
 2630.00000   56.63170   60.38100   11.08630   93.28860  248.62990   71.56680    0.01600    5.08340   -0.13660   10.24040    0.00330   10.96080    2.93510
 2630.50000   59.98940   61.81740   11.29350   78.50670  246.49010   55.99140    0.01500    5.04330   -0.13360   10.25810    0.00330   11.03040    2.92400
 2631.00000   63.31130   63.18820   13.30270   65.24110  112.82870   37.33260    0.02310    5.00320   -0.11830   10.29210    0.00570   12.47620    2.90330
 2631.50000   66.68610   64.55910   17.88370   38.88020   72.04130   25.02810    0.03530    4.83220   -0.10310   10.33480    0.00820   14.72500    2.88270
 2632.00000   70.64740   65.92990   23.55040   21.76800   43.62950   18.29100    0.06260    4.62800   -0.07440   10.41010    0.00890   20.35690    2.85910
 2632.50000   72.71330   67.33230   30.99660   12.16080   20.46430    6.06650    0.10490    4.25020   -0.01920   10.49260    0.00740   27.91110    2.76720
 2633.00000   74.07850   68.30080   38.82430    9.05500   14.58660    4.97490    0.13310    3.80980    0.03730   10.60580    0.00660   36.94600    2.65240
 2633.50000   74.46960   67.44970   42.55480   12.26520   31.46760    6.79290    0.15080    3.61700    0.08730   10.68680   -0.00520   40.83930    2.56640
 2634.00000   71.98790   66.16760   38.95720   17.06750   25.40680   13.33230    0.15320    3.57370    0.08470   10.72200   -0.00320   40.81030    2.56670
 2634.50000   68.75500   65.38880   34.76760   21.02290   22.74520   14.15630    0.13000    3.87220    0.04290   10.69350    0.00250   36.04020    2.65320
 2635.00000   66.60550   64.72830   27.26810   29.81530   70.13370   17.75190    0.10310    4.31440   -0.00680   10.63300    0.01590   28.50140    2.73200
 2635.50000   63.59660   63.57540   18.20260   61.14370  104.92260   39.70360    0.05330    4.73640   -0.08530   10.56350    0.02480   22.54690    2.81350
 2636.00000   60.19850   61.71050   15.86680   52.69750   73.39460   43.10570    0.04110    5.04330   -0.12010   10.52150    0.02160   18.02780    2.89150
 2636.50000   56.79780   60.29080   13.15550   43.11580   26.54680   50.15160    0.02820    5.20640   -0.12690   10.49200    0.01010   13.61840    2.92040
 2637.00000   54.36790   58.85930   10.30820   52.17270  329.77540   54.87940    0.01600    5.30630   -0.13690   10.47150    0.00680   10.48380    2.93900
 2637.50000   52.86450   58.25820    7.58590  197.98210  678.79140 1690.75060    0.00230    5.40490   -0.15380   10.46900    0.00750    7.70020    2.95750
 2638.00000   51.29980   57.84970    6.49190  460.83060 1230.09290 1928.01750   -0.00950    5.40850   -0.16010   10.47950    0.00610    5.98760    2.96830
 2638.50000   51.05240   56.76020    5.63720  712.00180 2981.48710 1939.24830   -0.01620    5.35760   -0.15690   10.51410    0.00450    5.13220    2.96840
 2639.00000   51.78450   56.85050    5.41160  698.95820 2997.02950 1947.79460   -0.01710    5.27900   -0.15210   10.56730    0.00290    4.94330    2.96770
 2639.50000   52.63680   57.31940    5.50490  402.91670 1827.58890 1928.10420   -0.01520    5.23730   -0.13750   10.60780    0.00260    4.97140    2.93770
 2640.00000   53.12070   57.92700    6.46580  187.35810  426.64940  129.14680   -0.00870    5.16910   -0.11300   10.64830    0.00260    5.89880    2.90710
 2640.50000   53.57400   58.39550    8.35340   87.12230   99.60110   51.72900    0.00090    5.09190   -0.07390   10.67020    0.00190    7.81000    2.86060
 2641.00000   53.62510   58.33910   10.71740   82.53430  130.23950   45.09320    0.00370    5.07130   -0.05290   10.67650   -0.00040    9.72250    2.81690
 2641.50000   53.31120   58.01450   11.45520  234.34520  493.49810   79.89090    0.00610    5.13080   -0.03850   10.67630   -0.00370   10.83910    2.77320
 2642.00000   53.08070   57.69520   11.04080  390.50120  884.64830  422.07260    0.00530    5.13500   -0.04300   10.65900   -0.00250   10.50560    2.77060
 2642.50000   52.84780   57.40620   10.28210  612.96280 1585.82730  558.81790    0.00460    5.10790   -0.07890   10.64690    0.00050    9.80600    2.79600
 2643.00000   52.61480   57.16440    9.86620  583.19890 2398.98100  621.08620    0.00380    5.11180   -0.09720   10.63480    0.00180    9.42280    2.84010
 2643.50000   52.58940   56.90550    9.33610  405.05910 1903.92350  520.84890    0.00300    5.11950   -0.11120   10.61740    0.00190    9.00540    2.88420
