~Version ---------------------------------------------------
VERS.   2.0 : CWLS log ASCII Standard -VERSION 2.0
WRAP.    NO : One line per depth step
DLM . SPACE : Column Data Section Delimiter
~Well ------------------------------------------------------
STRT .F                5502.0 : START DEPTH
STOP .F               16373.0 : STOP DEPTH
STEP .F                   0.5 : STEP
NULL .               -9999.25 : NULL VALUE
COMP .                        : COMPANY
WELL .                        : WELL
FLD  .                        : FIELD
LOC  .                        : LOCATION
PROV .                        : PROVINCE
CNTY .                        : COUNTY
STAT .                        : STATE
CTRY .                        : COUNTRY
SRVC .                        : SERVICE COMPANY
DATE .                        : DATE
UWI  .                        : UNIQUE WELL ID
API  .                        : API NUMBER
SLAT .WGS84   5.6462746719519 : SURFACE LATITUDE
SLON .WGS84 4.499251356554581 : SURFACE LONGITUDE
DATUM.F                   nan : DEPTH DATUM ELEV
~Curve Information -----------------------------------------
DEPT.F     : 1 MEASURED DEPTH
DTCO.US/F  : DELTA-T COMPRESSIONAL
DTSM.US/F  : DELTA-T SHEAR
~Params ----------------------------------------------------
~Other -----------------------------------------------------
~ASCII -----------------------------------------------------
# ...
 6210.00000   53.04210   93.80310
 6210.50000   53.41200   94.11840
 6211.00000   53.44220   94.47590
 6211.50000   54.50040   95.74180
 6212.00000   54.79760   96.76440
 6212.50000   54.54040   97.63750
 6213.00000   53.41270   97.95750
 6213.50000   53.30610   97.92540
 6214.00000   53.74950   97.48890
 6214.50000   53.69900   97.04500
 6215.00000   53.19610   97.12860
 6215.50000   52.97150   97.93070
 6216.00000   52.58420   98.56570
 6216.50000   52.13940   98.46930
 6217.00000   51.68710   98.39690
 6217.50000   51.44940   98.39000
 6218.00000   51.21230   98.43400
 6218.50000   50.97580   98.50490
 6219.00000   50.77120   98.64080
 6219.50000   51.21190   98.68030
 6220.00000   52.26440   98.51790
 6220.50000   53.75130   98.15800
 6221.00000   54.29420   97.68820
 6221.50000   54.41140   97.71320
 6222.00000   54.42310   98.17130
 6222.50000   54.54960   98.87120
 6223.00000   54.46460   99.57120
 6223.50000   54.38190  100.47210
 6224.00000   54.21160  101.37600
 6224.50000   53.76940  102.44290
 6225.00000   53.34520  102.31030
 6225.50000   53.27530  101.73490
 6226.00000   53.73620  101.14830
 6226.50000   54.25360  100.13460
 6227.00000   55.45350   98.69600
 6227.50000   56.22810   96.71020
 6228.00000   56.42350   94.85710
 6228.50000   56.19640   93.85960
 6229.00000   55.08820   92.73220
 6229.50000   53.28380   92.61160
 6230.00000   51.89310   92.71720
 6230.50000   51.02250   92.87030
 6231.00000   50.55860   93.06880
 6231.50000   50.37680   93.30920
 6232.00000   50.34870   93.60810
 6232.50000   50.32910   93.68590
 6233.00000   50.38410   93.80240
 6233.50000   50.86180   93.99040
 6234.00000   52.11770   94.49430
 6234.50000   52.35770   95.19850
 6235.00000   52.77570   96.12340
 6235.50000   52.79670   96.53130
 6236.00000   53.12390   96.92580
 6236.50000   53.86760   97.88590
 6237.00000   55.17180   99.23460
 6237.50000   56.78120  101.84810
 6238.00000   57.94360  105.99070
 6238.50000   58.19440  106.98450
 6239.00000   57.74560  102.78390
 6239.50000   56.33640   96.81160
 6240.00000   54.85540   98.25290
 6240.50000   53.36960  105.02330
 6241.00000   52.41680  104.48630
 6241.50000   52.07580   91.41400
 6242.00000   52.10350   82.07730
 6242.50000   52.25090   84.79210
 6243.00000   52.71760   88.21820
 6243.50000   53.96600   89.60730
 6244.00000   54.92830   90.36050
 6244.50000   54.83110   91.11380
 6245.00000   54.42560   91.43350
 6245.50000   53.00130   91.29990
 6246.00000   51.66720   90.98350
 6246.50000   50.50720   90.31900
 6247.00000   50.26750   89.59320
 6247.50000   50.18970   88.82950
 6248.00000   50.17150   88.38350
 6248.50000   50.09230   88.62320
 6249.00000   49.84120   89.67330
 6249.50000   49.59000   91.61110
 6250.00000   49.37730   99.13650
 6250.50000   49.65270  109.18390
 6251.00000   50.83970  125.53470
 6251.50000   56.43270  140.67610
 6252.00000   69.43100  150.59390
 6252.50000   74.65630  159.26820
 6253.00000   74.88110  157.59360
 6253.50000   72.30810  151.31950
 6254.00000   70.41980  144.22950
 6254.50000   70.18590  137.12790
 6255.00000   69.96480  127.84060
 6255.50000   70.13930  122.26860
 6256.00000   71.87310  118.92550
 6256.50000   70.60430  116.09370
 6257.00000   65.16870  113.42300
 6257.50000   60.92150  109.58280
 6258.00000   57.94100  106.71810
 6258.50000   54.86890  103.40320
 6259.00000   50.33290  100.68560
 6259.50000   46.65410   97.96810
 6260.00000   46.04590   95.25060
 6260.50000   46.86120   92.53310
 6261.00000   48.12540   92.06090
 6261.50000   50.32940   91.73100
 6262.00000   51.52200   91.40110
 6262.50000   50.89380   91.36980
 6263.00000   50.12430   92.08270
 6263.50000   50.03060   92.33780
 6264.00000   50.06820   91.86020
 6264.50000   50.14520   91.20410
 6265.00000   50.14660   92.09870
 6265.50000   50.25010   93.99410
 6266.00000   50.88030   95.32940
 6266.50000   52.26470   96.96990
 6267.00000   52.93580   99.13810
 6267.50000   52.81270   97.84740
 6268.00000   52.22160   94.40950
 6268.50000   51.60310   92.37960
 6269.00000   51.77510   91.01840
 6269.50000   52.30230   90.41610
 6270.00000   52.22020   90.42210
 6270.50000   51.88570   90.68750
 6271.00000   51.12560   93.20120
 6271.50000   50.71360   94.30100
 6272.00000   51.43750   92.98600
 6272.50000   52.59510   92.05750
 6273.00000   53.93000   92.35390
 6273.50000   55.02510   92.52050
 6274.00000   54.90600   92.01710
 6274.50000   54.24800   90.04590
 6275.00000   53.02060   87.47680
 6275.50000   51.82180   85.43420
 6276.00000   51.15020   85.24420
 6276.50000   51.04510   89.69950
 6277.00000   51.89910  101.52340
 6277.50000   55.99190  120.77830
 6278.00000   63.70470  143.43370
 6278.50000   69.03820  166.08910
 6279.00000   71.10580  182.94300
 6279.50000   71.36010  174.67980
 6280.00000   69.09480  144.83770
 6280.50000   65.07960  118.78450
 6281.00000   61.69990  111.21610
 6281.50000   61.19890  108.02820
 6282.00000   61.34980  107.62220
 6282.50000   61.32520  108.78160
 6283.00000   60.54430  109.96020
 6283.50000   59.53280  111.35410
 6284.00000   60.00190  112.69950
 6284.50000   61.52540  114.24020
 6285.00000   62.55690  115.92790
 6285.50000   63.05930  119.13950
 6286.00000   64.81070  122.31390
 6286.50000   66.89730  125.64500
 6287.00000   69.70500  127.74010
 6287.50000   71.69720  128.07780
 6288.00000   70.82670  126.89800
 6288.50000   68.39540  122.82510
 6289.00000   66.09250  118.95010
 6289.50000   64.79560  117.29240
 6290.00000   63.87930  117.48680
 6290.50000   63.04770  117.48880
 6291.00000   62.24940  117.22360
 6291.50000   61.12510  116.22270
 6292.00000   60.51330  115.20760
 6292.50000   59.45890  114.19260
 6293.00000   57.14240  111.79240
 6293.50000   55.44090  108.10350
 6294.00000   54.33640  102.84290
 6294.50000   52.48180   97.82750
 6295.00000   51.14620   95.71260
 6295.50000   51.02760   95.65760
 6296.00000   51.06830   97.43180
 6296.50000   51.01680   98.47900
 6297.00000   51.59810   99.20910
 6297.50000   52.83360   99.25760
 6298.00000   54.09480   99.43430
 6298.50000   54.93810   99.30360
 6299.00000   55.37620   98.51410
 6299.50000   55.59710   97.62120
 6300.00000   56.17820   96.48770
 6300.50000   56.99190   95.34280
 6301.00000   58.40490   95.23310
 6301.50000   60.18070   98.44350
 6302.00000   61.18620  104.19420
 6302.50000   60.71390  106.89900
 6303.00000   58.79160  106.14810
 6303.50000   55.88130  101.74640
 6304.00000   52.88210   96.73750
 6304.50000   51.58430   91.09410
 6305.00000   52.16890   91.59120
 6305.50000   52.79600   96.88670
 6306.00000   53.58090   99.62140
 6306.50000   54.98350  108.06340
 6307.00000   56.96360  117.55980
 6307.50000   62.14650  121.26760
 6308.00000   67.44490  123.64050
 6308.50000   68.47490  125.57070
 6309.00000   69.12330  126.09490
 6309.50000   70.06840  127.18770
 6310.00000   67.91140  130.36350
 6310.50000   65.13660  136.56180
 6311.00000   65.24570  141.37290
 6311.50000   62.96560  141.23830
 6312.00000   56.77520  138.18810
 6312.50000   56.97380  139.64670
 6313.00000   61.33690  145.88550
 6313.50000   59.72170  147.74320
 6314.00000   55.86920  139.05790
 6314.50000   52.72150  126.68010
 6315.00000   50.44540  116.25040
 6315.50000   49.27010  107.86230
 6316.00000   49.18390   99.75370
 6316.50000   50.32460   92.44510
 6317.00000   57.30940   95.82180
 6317.50000   68.06940  104.38900
 6318.00000   71.55270  115.01950
 6318.50000   69.01830  125.06480
 6319.00000   62.90140  132.06740
 6319.50000   56.32590  136.83200
 6320.00000   52.67190  138.72760
 6320.50000   51.31650  137.26140
 6321.00000   50.32580  134.26050
 6321.50000   51.90590  131.19840
 6322.00000   57.52200  128.22700
 6322.50000   62.13170  125.00890
 6323.00000   64.12780  120.61580
 6323.50000   65.21370  117.16140
 6324.00000   64.31910  113.58890
 6324.50000   60.80440  109.58330
 6325.00000   57.57680  105.19360
 6325.50000   56.46270  104.99260
 6326.00000   57.14860  104.87060
 6326.50000   57.72030  104.79370
 6327.00000   57.70820  104.34970
 6327.50000   57.30540  104.34440
