~Version ---------------------------------------------------
VERS.   2.0 : CWLS log ASCII Standard -VERSION 2.0
WRAP.    NO : One line per depth step
DLM . SPACE : Column Data Section Delimiter
~Well ------------------------------------------------------
STRT .F                5502.0 : START DEPTH
STOP .F               16373.0 : STOP DEPTH
STEP .F                   0.5 : STEP
NULL .               -9999.25 : NULL VALUE
COMP .                        : COMPANY
WELL .                        : WELL
FLD  .                        : FIELD
LOC  .                        : LOCATION
PROV .                        : PROVINCE
CNTY .                        : COUNTY
STAT .                        : STATE
CTRY .                        : COUNTRY
SRVC .                        : SERVICE COMPANY
DATE .                        : DATE
UWI  .                        : UNIQUE WELL ID
API  .                        : API NUMBER
SLAT .WGS84   5.6462746719519 : SURFACE LATITUDE
SLON .WGS84 4.499251356554581 : SURFACE LONGITUDE
DATUM.F                   nan : DEPTH DATUM ELEV
~Curve Information -----------------------------------------
DEPT.F     : 1 MEASURED DEPTH
DTCO.US/F  : DELTA-T COMPRESSIONAL
DTSM.US/F  : DELTA-T SHEAR
~Params ----------------------------------------------------
~Other -----------------------------------------------------
~ASCII -----------------------------------------------------
# ...
 12047.50000   79.47870  167.00860
 12048.00000   79.54420  165.13660
 12048.50000   79.89930  162.55140
 12049.00000   79.60260  160.73460
 12049.50000   79.68080  159.38860
 12050.00000   80.54890  160.54870
 12050.50000   81.76040  165.47660
 12051.00000   82.32160  171.95690
 12051.50000   81.58700  174.52160
 12052.00000   79.83950  170.91780
 12052.50000   78.20940  164.06630
 12053.00000   77.46700  158.21030
 12053.50000   76.79820  154.58030
 12054.00000   77.07490  151.55200
 12054.50000   77.52590  149.71720
 12055.00000   77.01890  149.12760
 12055.50000   75.77040  149.30680
 12056.00000   75.18030  148.92020
 12056.50000   75.08780  148.41750
 12057.00000   75.72030  148.36860
 12057.50000   76.65970  150.57320
 12058.00000   76.45750  153.25900
 12058.50000   75.40500  155.47830
 12059.00000   76.17270  156.70110
 12059.50000   77.70890  158.48580
 12060.00000   77.19610  159.15850
 12060.50000   76.66040  157.89150
 12061.00000   76.26140  154.88910
 12061.50000   76.15130  152.43170
 12062.00000   77.17530  150.37250
 12062.50000   78.08230  147.88550
 12063.00000   77.24610  148.56270
 12063.50000   76.02030  149.28550
 12064.00000   74.84800  148.15530
 12064.50000   73.82920  146.14100
 12065.00000   72.81030  144.13010
 12065.50000   72.32630  143.93510
 12066.00000   72.91100  145.26550
 12066.50000   74.11750  145.15230
 12067.00000   75.99960  142.53020
 12067.50000   76.17970  145.26080
 12068.00000   76.13930  147.15020
 12068.50000   76.80740  148.24140
 12069.00000   76.72200  148.87730
 12069.50000   75.72680  150.53460
 12070.00000   74.96250  151.21610
 12070.50000   74.58240  151.04800
 12071.00000   74.14740  149.90280
 12071.50000   73.49330  148.48640
 12072.00000   73.38870  147.11150
 12072.50000   73.79610  146.36730
 12073.00000   74.69970  147.97280
 12073.50000   75.67760  149.37460
 12074.00000   76.65490  150.80290
 12074.50000   77.53530  151.04070
 12075.00000   77.50950  150.69230
 12075.50000   75.88820  149.94990
 12076.00000   74.38250  149.09990
 12076.50000   74.02510  148.18770
 12077.00000   74.22620  147.25600
 12077.50000   73.31440  146.32430
 12078.00000   71.03500  145.39270
 12078.50000   70.15990  144.30310
 12079.00000   71.36950  143.51410
 12079.50000   72.53560  144.09310
 12080.00000   70.46290  145.79430
 12080.50000   70.60860  148.25070
 12081.00000   74.25800  151.01420
 12081.50000   76.55140  151.53510
 12082.00000   77.21510  151.16850
 12082.50000   76.00510  150.25370
 12083.00000   75.23450  149.24290
 12083.50000   76.82950  147.53970
 12084.00000   77.53710  146.04170
 12084.50000   77.09820  144.73580
 12085.00000   75.48750  143.17570
 12085.50000   74.41720  141.81280
 12086.00000   73.78830  139.38250
 12086.50000   73.70080  136.23780
 12087.00000   73.76150  134.51060
 12087.50000   73.68630  135.20140
 12088.00000   74.01270  137.96000
 12088.50000   74.37940  141.24780
 12089.00000   74.56820  144.02810
 12089.50000   74.59600  147.48740
 12090.00000   74.63910  150.07340
 12090.50000   74.81860  149.91150
 12091.00000   75.24880  148.70250
 12091.50000   75.05470  147.82110
 12092.00000   75.13630  147.16090
 12092.50000   75.52680  146.70000
 12093.00000   76.02580  147.61390
 12093.50000   76.45390  148.92410
 12094.00000   75.89170  149.82840
 12094.50000   74.92650  150.44100
 12095.00000   74.25900  149.94940
 12095.50000   74.90350  149.38990
 12096.00000   75.90940  148.75440
 12096.50000   76.20010  148.13260
 12097.00000   76.26550  148.07220
 12097.50000   76.33890  148.27160
 12098.00000   76.43690  148.63610
 12098.50000   77.24690  149.00150
 12099.00000   77.69770  149.27460
 12099.50000   77.17270  149.22890
 12100.00000   76.37590  149.18320
 12100.50000   75.95490  148.11010
 12101.00000   75.47330  145.93880
 12101.50000   75.06210  143.06580
 12102.00000   74.84190  140.90950
 12102.50000   74.54020  138.75320
 12103.00000   74.24770  136.43180
 12103.50000   73.48020  133.38200
 12104.00000   71.85610  132.15090
 12104.50000   70.24310  130.91980
 12105.00000   69.73410  130.42750
 12105.50000   71.02280  132.23330
 12106.00000   73.04400  135.10930
 12106.50000   74.44170  136.99270
 12107.00000   74.93610  138.29290
 12107.50000   74.47540  138.58450
 12108.00000   73.82510  138.62910
 12108.50000   73.23260  137.69710
 12109.00000   72.98950  135.86290
 12109.50000   72.54460  133.13820
 12110.00000   71.95620  131.23210
 12110.50000   70.89860  128.91940
 12111.00000   68.84320  126.32350
 12111.50000   65.57710  122.18280
 12112.00000   63.45510  119.55650
 12112.50000   63.99120  117.15040
 12113.00000   66.08900  114.75200
 12113.50000   68.29720  115.62870
 12114.00000   69.65990  118.02580
 12114.50000   70.71320  121.62040
 12115.00000   72.36460  126.12240
 12115.50000   72.74480  130.77350
 12116.00000   72.68030  132.84940
 12116.50000   72.60060  132.37440
 12117.00000   73.06290  131.30620
 12117.50000   74.15310  131.60850
 12118.00000   74.22690  134.39790
 12118.50000   74.80080  139.64950
 12119.00000   75.37470  143.12270
 12119.50000   75.85450  145.75140
 12120.00000   75.58570  147.91510
 12120.50000   75.06770  146.73230
 12121.00000   73.69640  143.25520
 12121.50000   70.86430  138.94260
 12122.00000   69.43550  133.55160
 12122.50000   69.59840  130.39030
 12123.00000   70.32990  128.82720
 12123.50000   71.26060  129.87590
 12124.00000   71.40960  130.70930
 12124.50000   71.25590  130.72320
 12125.00000   70.94730  130.90610
 12125.50000   70.97710  132.22870
 12126.00000   71.16750  133.41940
 12126.50000   71.27020  134.09950
 12127.00000   71.11130  134.16060
 12127.50000   70.95930  134.85950
 12128.00000   70.78780  135.43040
 12128.50000   70.96900  136.17500
 12129.00000   71.42960  137.10270
 12129.50000   71.49680  137.30370
 12130.00000   71.97870  136.73240
 12130.50000   72.74630  135.99300
 12131.00000   73.36440  136.24790
 12131.50000   73.63490  136.76690
 12132.00000   73.11410  135.53430
 12132.50000   72.63040  134.12520
 12133.00000   71.98810  133.41510
 12133.50000   70.30840  131.81090
 12134.00000   68.35190  130.00490
 12134.50000   68.86550  128.22690
 12135.00000   69.66540  127.68200
 12135.50000   70.35770  127.97930
 12136.00000   71.32720  128.93500
 12136.50000   72.35380  129.94650
 12137.00000   73.19390  130.70920
 12137.50000   73.25150  131.46010
 12138.00000   73.11970  132.85980
 12138.50000   72.31370  134.81570
 12139.00000   71.61190  134.90200
 12139.50000   71.53900  134.57160
 12140.00000   71.22630  133.60160
 12140.50000   70.69900  132.54540
 12141.00000   70.94770  131.61270
 12141.50000   71.37660  131.45490
 12142.00000   71.68950  131.90760
 12142.50000   71.91260  133.02560
 12143.00000   72.22090  134.56250
 12143.50000   73.16530  135.56120
 12144.00000   73.53630  136.38290
 12144.50000   73.48730  137.78740
 12145.00000   73.40510  138.72740
 12145.50000   73.50090  139.12800
 12146.00000   73.63660  138.49850
 12146.50000   73.60570  137.98630
 12147.00000   73.27730  138.06630
 12147.50000   72.64060  138.20440
 12148.00000   72.26390  138.20460
 12148.50000   72.21470  138.07590
 12149.00000   72.52020  137.30340
 12149.50000   72.36920  135.79070
 12150.00000   71.79990  135.27700
 12150.50000   71.44340  135.13090
 12151.00000   71.35230  134.40480
 12151.50000   72.07650  134.29970
 12152.00000   72.96400  134.19450
 12152.50000   73.75840  134.08940
 12153.00000   73.06040  133.77700
 12153.50000   71.59070  132.40530
 12154.00000   70.17780  131.11660
 12154.50000   71.26580  129.64110
 12155.00000   72.85260  130.12990
 12155.50000   73.72790  130.56150
 12156.00000   73.67610  131.80330
 12156.50000   73.12020  133.19560
 12157.00000   72.63460  133.42960
 12157.50000   72.30740  133.55900
 12158.00000   72.40500  133.23950
 12158.50000   72.33290  133.57010
 12159.00000   72.38970  134.35470
 12159.50000   73.21270  135.75840
 12160.00000   74.41080  137.67910
 12160.50000   75.10250  140.32690
 12161.00000   74.89710  140.36780
 12161.50000   74.12440  139.33070
