~Version ---------------------------------------------------
VERS.   2.0 : CWLS log ASCII Standard -VERSION 2.0
WRAP.    NO : One line per depth step
DLM . SPACE : Column Data Section Delimiter
~Well ------------------------------------------------------
STRT .F                5502.0 : START DEPTH
STOP .F               16373.0 : STOP DEPTH
STEP .F                   0.5 : STEP
NULL .               -9999.25 : NULL VALUE
COMP .                        : COMPANY
WELL .                        : WELL
FLD  .                        : FIELD
LOC  .                        : LOCATION
PROV .                        : PROVINCE
CNTY .                        : COUNTY
STAT .                        : STATE
CTRY .                        : COUNTRY
SRVC .                        : SERVICE COMPANY
DATE .                        : DATE
UWI  .                        : UNIQUE WELL ID
API  .                        : API NUMBER
SLAT .WGS84   5.6462746719519 : SURFACE LATITUDE
SLON .WGS84 4.499251356554581 : SURFACE LONGITUDE
DATUM.F                   nan : DEPTH DATUM ELEV
~Curve Information -----------------------------------------
DEPT.F     : 1 MEASURED DEPTH
DTCO.US/F  : DELTA-T COMPRESSIONAL
DTSM.US/F  : DELTA-T SHEAR
~Params ----------------------------------------------------
~Other -----------------------------------------------------
~ASCII -----------------------------------------------------
# ...
 16284.00000   65.98430  114.15050
 16284.50000   68.95530  122.30120
 16285.00000   72.98980  129.39130
 16285.50000   75.24130  130.67550
 16286.00000   75.60560  131.85510
 16286.50000   75.42600  132.15280
 16287.00000   74.86550  132.30580
 16287.50000   74.59670  132.41130
 16288.00000   74.69920  132.38190
 16288.50000   74.90210  132.34480
 16289.00000   75.01450  132.42400
 16289.50000   74.91500  132.54140
 16290.00000   74.59920  132.74400
 16290.50000   74.32960  132.73810
 16291.00000   74.14090  132.51490
 16291.50000   74.62620  132.29680
 16292.00000   75.90580  132.22030
 16292.50000   77.06680  132.59410
 16293.00000   76.90690  132.72820
 16293.50000   75.74800  132.41110
 16294.00000   75.11560  131.98850
 16294.50000   75.01640  131.55620
 16295.00000   74.63790  129.57950
 16295.50000   73.69680  127.06870
 16296.00000   72.52050  126.57350
 16296.50000   71.72010  126.54760
 16297.00000   70.88040  127.21050
 16297.50000   70.61870  126.51260
 16298.00000   71.50960  123.96650
 16298.50000   72.59730  122.89000
 16299.00000   73.00200  123.35860
 16299.50000   73.32920  123.71470
 16300.00000   72.83320  123.88830
 16300.50000   72.10980  124.01700
 16301.00000   71.41110  124.13140
 16301.50000   70.71240  124.36310
 16302.00000   70.10740  124.67100
 16302.50000   69.57670  124.65660
 16303.00000   69.26980  124.31320
 16303.50000   69.33970  123.85120
 16304.00000   69.26060  122.56670
 16304.50000   68.87380  121.31540
 16305.00000   68.16460  120.40830
 16305.50000   67.51890  120.53720
 16306.00000   66.99040  120.78290
 16306.50000   66.46190  120.99000
 16307.00000   66.46340  121.09120
 16307.50000   68.24390  121.28240
 16308.00000   70.43300  120.86580
 16308.50000   71.53390  119.85530
 16309.00000   72.35450  118.89580
 16309.50000   72.84540  118.00150
 16310.00000   72.87300  117.48420
 16310.50000   72.75120  117.83220
 16311.00000   72.98900  122.35270
 16311.50000   73.63880  128.73790
 16312.00000   74.54090  135.44440
 16312.50000   75.55510  137.96090
 16313.00000   75.74670  137.84920
 16313.50000   75.05430  137.12350
 16314.00000   73.70860  137.63860
 16314.50000   72.13570  139.75750
 16315.00000   70.95220  134.80160
 16315.50000   70.55580  129.97760
 16316.00000   71.07000  128.85990
 16316.50000   71.41520  129.25950
 16317.00000   71.89090  129.59390
 16317.50000   72.21710  129.76720
 16318.00000   72.52010  129.67390
 16318.50000   72.71220  129.46380
 16319.00000   72.94770  129.16830
 16319.50000   73.14750  128.90470
 16320.00000   73.04920  129.01830
 16320.50000   72.63250  129.19570
 16321.00000   71.98120  128.78420
 16321.50000   71.39990  127.47070
 16322.00000   70.54190  126.17460
 16322.50000   69.71930  125.02990
 16323.00000   68.84850  125.08170
 16323.50000   68.46520  124.81100
 16324.00000   68.94020  124.58780
 16324.50000   69.68280  124.41530
 16325.00000   70.31890  124.28520
 16325.50000   71.51290  124.38840
 16326.00000   72.22000  124.53260
 16326.50000   72.41190  124.67310
 16327.00000   72.39460  124.81350
 16327.50000   72.42950  124.83980
 16328.00000   72.07860  124.65230
 16328.50000   71.71990  124.47850
 16329.00000   71.62530  124.29370
 16329.50000   71.57680  124.25720
 16330.00000   71.37590  124.13460
 16330.50000   71.26650  123.92680
 16331.00000   71.26100  123.80430
 16331.50000   71.22770  123.92160
 16332.00000   71.08470  124.05020
 16332.50000   71.03300  124.17880
 16333.00000   70.87270  124.27720
 16333.50000   70.69400  124.13990
 16334.00000   70.30140  124.13190
 16334.50000   69.93780  124.12800
 16335.00000   69.75750  123.80790
 16335.50000   69.57720  123.88650
 16336.00000   69.39690  123.96750
 16336.50000   69.21660  124.05100
 16337.00000   69.20900  124.10920
 16337.50000   69.21690  124.08350
 16338.00000   69.22470  123.99380
 16338.50000   69.23260  123.84990
 16339.00000   69.24040  123.94930
 16339.50000   69.24830  124.05280
 16340.00000   69.25610  124.05240
 16340.50000   69.26400  124.04580
 16341.00000   69.27190  124.01480
 16341.50000   69.27970  123.89140
 16342.00000   69.28760  123.83310
 16342.50000   69.29540  123.83350
 16343.00000   69.30330  123.88220
 16343.50000   69.31110  123.90580
 16344.00000   69.31900  123.90730
 16344.50000   69.32680  123.91820
 16345.00000   69.33470  124.00190
 16345.50000   69.34250  124.10760
 16346.00000   69.35040  123.96250
 16346.50000   69.35820  123.87010
 16347.00000   69.36610  123.90350
 16347.50000   69.37390  123.88540
 16348.00000   69.38180  123.77430
 16348.50000   69.38960  123.50970
 16349.00000   69.39750  123.25590
 16349.50000   69.40540  122.96320
 16350.00000   69.41320  122.43780
 16350.50000   69.42110  121.84720
 16351.00000   69.42890  121.43090
 16351.50000   69.43680  122.81680
 16352.00000   69.44460  123.60800
 16352.50000   69.45250  124.06440
 16353.00000   69.46030  124.17640
 16353.50000   69.46820  124.28850
 16354.00000   69.47600  124.35660
 16354.50000   69.48390  124.40600
 16355.00000   69.49170  124.52890
 16355.50000   69.49960  124.65080
 16356.00000   69.50740  124.73230
 16356.50000   69.51530  124.75120
 16357.00000   69.52320  124.73080
 16357.50000   69.53100  124.64520
 16358.00000   69.53890  124.51240
 16358.50000   69.54670  124.47810
 16359.00000   69.55310  124.36680
 16359.50000   69.55430  124.32760
 16360.00000   69.55560  124.21090
 16360.50000   69.55690  124.07610
 16361.00000   69.55810  124.00920
 16361.50000   69.55940  123.98080
 16362.00000   69.56060  124.02770
 16362.50000   69.56190  124.02170
 16363.00000   69.56310  124.01160
 16363.50000   69.56440  123.93640
 16364.00000   69.56570  123.96670
 16364.50000   69.56690  124.00160
 16365.00000   69.56820  124.01590
 16365.50000   69.56940  124.20400
 16366.00000   69.57070  124.30740
 16366.50000   69.57200  124.39160
 16367.00000   69.57320  124.39950
 16367.50000   69.57450  124.30980
 16368.00000   69.57570  124.11520
 16368.50000   69.57700  123.88910
 16369.00000   69.57820  123.82360
 16369.50000   69.57950  124.14520
 16370.00000   69.58080  124.28740
 16370.50000   69.58200  124.27650
 16371.00000   69.58330  124.25660
 16371.50000   69.58450  124.41360
 16372.00000   69.59020  124.64980
 16372.50000   69.60250  125.08860
 16373.00000   69.55440  125.19860
