~Version ---------------------------------------------------
VERS.   2.0 : CWLS log ASCII Standard -VERSION 2.0
WRAP.    NO : One line per depth step
DLM . SPACE : Column Data Section Delimiter
~Well ------------------------------------------------------
STRT .F                5502.0 : START DEPTH
STOP .F               16373.0 : STOP DEPTH
STEP .F                   0.5 : STEP
NULL .               -9999.25 : NULL VALUE
COMP .                        : COMPANY
WELL .                        : WELL
FLD  .                        : FIELD
LOC  .                        : LOCATION
PROV .                        : PROVINCE
CNTY .                        : COUNTY
STAT .                        : STATE
CTRY .                        : COUNTRY
SRVC .                        : SERVICE COMPANY
DATE .                        : DATE
UWI  .                        : UNIQUE WELL ID
API  .                        : API NUMBER
SLAT .WGS84   5.6462746719519 : SURFACE LATITUDE
SLON .WGS84 4.499251356554581 : SURFACE LONGITUDE
DATUM.F                   nan : DEPTH DATUM ELEV
~Curve Information -----------------------------------------
DEPT.F     : 1 MEASURED DEPTH
DTCO.US/F  : DELTA-T COMPRESSIONAL
DTSM.US/F  : DELTA-T SHEAR
~Params ----------------------------------------------------
~Other -----------------------------------------------------
~ASCII -----------------------------------------------------
 5502.00000   79.91420  172.95120
 5502.50000   77.44190  175.67130
 5503.00000   76.98110  174.33600
 5503.50000   79.90970  171.68360
 5504.00000   80.85830  165.53240
 5504.50000   77.36890  154.90610
 5505.00000   77.86350  143.27790
 5505.50000   81.52000  142.68190
 5506.00000   81.34350  148.83780
 5506.50000   77.55820  147.45540
 5507.00000   74.69240  144.71950
 5507.50000   74.21050  144.91080
 5508.00000   72.90680  146.67060
 5508.50000   68.32930  148.60650
 5509.00000   63.93120  147.80280
 5509.50000   62.09370  134.61100
 5510.00000   59.60200  125.02080
 5510.50000   56.82620  114.17230
 5511.00000   54.63790  110.49100
 5511.50000   54.04590  106.08440
 5512.00000   54.22730  102.94440
 5512.50000   54.73950  102.35950
 5513.00000   55.45170  103.25780
 5513.50000   56.43930  103.65610
 5514.00000   57.63690  103.52480
 5514.50000   58.21500  103.97820
 5515.00000   58.97260  106.02340
 5515.50000   59.99230  107.54710
 5516.00000   60.28580  108.48900
 5516.50000   59.97820  105.95820
 5517.00000   58.95050  101.45750
 5517.50000   56.68530   94.47110
 5518.00000   55.56120   89.20660
 5518.50000   55.45690   91.71210
 5519.00000   55.81870   97.45910
 5519.50000   56.33970  102.94340
 5520.00000   59.97870  110.60500
 5520.50000   67.72960  127.55810
 5521.00000   77.05070  145.97140
 5521.50000   82.84660  162.58710
 5522.00000   86.04290  175.87690
 5522.50000   87.35130  175.08240
 5523.00000   87.52710  166.41390
 5523.50000   87.97970  161.89770
 5524.00000   88.30050  162.65780
 5524.50000   85.19200  161.76480
 5525.00000   77.89890  157.55930
 5525.50000   73.17970  154.49560
 5526.00000   71.80450  155.36380
 5526.50000   70.94700  157.06780
 5527.00000   72.22850  156.94260
 5527.50000   76.32960  154.79400
 5528.00000   78.49500  149.10540
 5528.50000   77.35910  144.01360
 5529.00000   74.75100  136.55310
 5529.50000   72.94520  132.93000
 5530.00000   72.81460  132.42240
 5530.50000   69.94540  132.01350
 5531.00000   66.67960  133.98900
 5531.50000   70.91390  140.25330
 5532.00000   76.50990  146.16980
 5532.50000   76.41930  146.82170
 5533.00000   74.57520  146.82110
 5533.50000   70.73370  141.77430
 5534.00000   65.06360  132.32450
 5534.50000   60.05560  123.75830
 5535.00000   57.54680  115.19210
 5535.50000   56.91200  111.32530
 5536.00000   56.61980  109.48350
 5536.50000   56.96560  108.33170
 5537.00000   58.26240  109.83710
 5537.50000   59.58420  112.71690
 5538.00000   60.42600  115.81510
 5538.50000   60.60860  117.58280
 5539.00000   61.14760  118.42730
 5539.50000   61.69250  119.30970
 5540.00000   62.44080  120.25640
 5540.50000   63.54800  121.20310
 5541.00000   65.67220  122.11840
 5541.50000   67.61590  123.45400
 5542.00000   68.44050  124.12370
 5542.50000   67.92770  124.21210
 5543.00000   66.81620  122.56650
 5543.50000   65.23260  120.70810
 5544.00000   63.34350  118.63140
 5544.50000   61.61120  116.49820
 5545.00000   60.94300  115.03710
 5545.50000   61.32520  114.11270
 5546.00000   62.34030  114.79060
 5546.50000   63.88080  116.13340
 5547.00000   65.15070  118.07500
 5547.50000   65.97890  119.43050
 5548.00000   66.27970  120.48650
 5548.50000   66.25650  121.04470
 5549.00000   66.37290  121.77960
 5549.50000   67.15990  122.27310
 5550.00000   67.45290  123.07590
 5550.50000   67.04950  123.88350
 5551.00000   67.63570  123.72270
 5551.50000   68.05020  123.28180
 5552.00000   68.00300  122.68030
 5552.50000   67.07990  121.93650
 5553.00000   66.11750  121.07710
 5553.50000   65.37430  120.83560
 5554.00000   65.18640  120.72080
 5554.50000   65.61090  120.72900
 5555.00000   65.98920  120.73710
 5555.50000   66.11530  120.59140
 5556.00000   65.95230  120.05980
 5556.50000   65.25530  119.45370
 5557.00000   64.57290  115.91410
 5557.50000   64.28040  110.41860
 5558.00000   64.23150  124.64960
 5558.50000   64.31400  156.84490
 5559.00000   64.77400  186.89350
 5559.50000   65.92700  194.34390
 5560.00000   67.71200  179.22880
 5560.50000   69.41200  160.57650
 5561.00000   71.00460  141.92410
 5561.50000   71.61500  133.74030
 5562.00000   71.90100  131.44500
 5562.50000   72.06150  131.14690
 5563.00000   72.02380  133.70870
 5563.50000   71.78110  153.29930
 5564.00000   70.86060  167.41580
 5564.50000   69.89520  159.29420
 5565.00000   68.79670  149.47140
 5565.50000   66.76560  151.27310
 5566.00000   64.49290  146.27020
 5566.50000   63.04280  136.28610
 5567.00000   63.01970  125.32270
 5567.50000   62.75390  127.82630
 5568.00000   62.10710  122.80490
 5568.50000   61.19700  106.38740
 5569.00000   59.12830   93.11440
 5569.50000   61.52660  111.60320
 5570.00000   67.58630  175.69980
 5570.50000   71.94160  188.86410
 5571.00000   74.76730  181.04920
 5571.50000   82.25250  178.42240
 5572.00000   89.74170  185.43470
 5572.50000   89.46960  185.83300
 5573.00000   82.96570  184.62260
 5573.50000   77.10710  180.83540
 5574.00000   75.25120  169.49480
 5574.50000   75.04480  150.69880
 5575.00000   76.09440  138.67680
 5575.50000   77.83110  129.87100
 5576.00000   80.07390  124.85640
 5576.50000   80.14170  124.44270
 5577.00000   76.76620  128.73580
 5577.50000   76.28960  128.68300
 5578.00000   77.54580  130.67730
 5578.50000   75.19160  137.88810
 5579.00000   67.25340  138.49320
 5579.50000   65.69800  130.68120
 5580.00000   72.45010  126.57090
 5580.50000   74.35690  125.79280
 5581.00000   66.78550  127.25680
 5581.50000   60.78490  130.27980
 5582.00000   58.73840  135.85630
 5582.50000   58.30240  140.96470
 5583.00000   59.90520  147.83970
 5583.50000   61.07900  172.29450
 5584.00000   63.55230  231.24170
 5584.50000   67.44340  327.17800
 5585.00000   73.87010  399.65800
 5585.50000   77.09570  389.41620
 5586.00000   79.07970  360.34540
 5586.50000   81.05950  218.48950
 5587.00000   82.96490  158.01480
 5587.50000   84.16080  159.43130
 5588.00000   85.98610  162.97690
 5588.50000   87.18760  166.00970
 5589.00000   88.08330  165.59200
 5589.50000   89.04150  165.65810
 5590.00000   89.94040  170.50000
 5590.50000   90.55000  177.56050
 5591.00000   90.53010  182.33780
 5591.50000   89.52430  181.95850
 5592.00000   88.07960  181.50020
 5592.50000   86.56290  185.11020
 5593.00000   82.56320  187.12920
 5593.50000   76.75670  176.00030
 5594.00000   70.97100  149.57160
 5594.50000   69.45560  133.71680
 5595.00000   71.23860  132.41440
 5595.50000   76.59470  137.91580
 5596.00000   81.84840  159.74830
 5596.50000   86.10150  200.43570
 5597.00000   88.05970  208.75730
 5597.50000   89.12540  189.31110
 5598.00000   89.70690  157.93340
 5598.50000   84.91170  132.65170
 5599.00000   79.76960  134.31990
 5599.50000   76.40160  137.97660
 5600.00000   75.91070  140.77180
 5600.50000   74.98990  137.11110
 5601.00000   71.94290  121.26510
 5601.50000   71.15850  110.07320
 5602.00000   72.42370  107.19780
 5602.50000   68.60020  105.92510
 5603.00000   61.53240  107.13220
 5603.50000   60.71940  116.65590
 5604.00000   62.54810  146.97840
 5604.50000   62.36350  181.03260
 5605.00000   59.81520  172.43620
 5605.50000   57.27770  147.11780
 5606.00000   54.80520  111.59160
 5606.50000   52.67200  113.87660
 5607.00000   51.36800  118.75450
 5607.50000   52.00270  123.66160
 5608.00000   58.34390  126.03860
 5608.50000   61.30280  121.81430
 5609.00000   59.10360  121.54450
 5609.50000   61.07440  125.51240
 5610.00000   65.27240  129.39330
 5610.50000   64.52820  131.34530
 5611.00000   64.00440  132.33780
 5611.50000   67.36510  135.13820
 5612.00000   70.82110  140.00840
 5612.50000   72.48210  136.27990
 5613.00000   72.71810  140.57970
 5613.50000   68.91200  148.95720
 5614.00000   63.35980  144.28580
 5614.50000   56.17870  132.22160
 5615.00000   53.67750  134.27490
 5615.50000   54.85220  144.65860
 5616.00000   56.25440  165.36390
 5616.50000   57.49660  176.04030
 5617.00000   59.37040  168.01730
 5617.50000   63.71010  156.57380
 5618.00000   72.43750  156.33690
 5618.50000   79.31450  158.90750
 5619.00000   82.80350  161.67110
 5619.50000   81.96640  161.22430
