~Version ---------------------------------------------------
VERS.   2.0 : CWLS log ASCII Standard -VERSION 2.0
WRAP.    NO : One line per depth step
DLM . SPACE : Column Data Section Delimiter
~Well ------------------------------------------------------
STRT .F                5502.0 : START DEPTH
STOP .F               16373.0 : STOP DEPTH
STEP .F                   0.5 : STEP
NULL .               -9999.25 : NULL VALUE
COMP .                        : COMPANY
WELL .                        : WELL
FLD  .                        : FIELD
LOC  .                        : LOCATION
PROV .                        : PROVINCE
CNTY .                        : COUNTY
STAT .                        : STATE
CTRY .                        : COUNTRY
SRVC .                        : SERVICE COMPANY
DATE .                        : DATE
UWI  .                        : UNIQUE WELL ID
API  .                        : API NUMBER
SLAT .WGS84   5.6462746719519 : SURFACE LATITUDE
SLON .WGS84 4.499251356554581 : SURFACE LONGITUDE
DATUM.F                   nan : DEPTH DATUM ELEV
~Curve Information -----------------------------------------
DEPT.F     : 1 MEASURED DEPTH
DTCO.US/F  : DELTA-T COMPRESSIONAL
DTSM.US/F  : DELTA-T SHEAR
~Params ----------------------------------------------------
~Other -----------------------------------------------------
~ASCII -----------------------------------------------------
# ...
 9868.00000   79.78310  158.97050
 9868.50000   79.96840  160.61980
 9869.00000   80.15370  161.22110
 9869.50000   80.03530  160.87530
 9870.00000   79.43610  159.37100
 9870.50000   78.93520  156.18720
 9871.00000   79.23790  151.03690
 9871.50000   80.97270  150.35560
 9872.00000   82.98410  155.28210
 9872.50000   85.31310  161.48050
 9873.00000   85.88380  165.94690
 9873.50000   83.87340  168.06580
 9874.00000   81.90610  168.21970
 9874.50000   79.99120  167.64880
 9875.00000   78.74550  165.89460
 9875.50000   78.38780  165.05450
 9876.00000   78.58250  165.47840
 9876.50000   78.80680  167.94030
 9877.00000   79.19290  168.48480
 9877.50000   79.82500  166.11920
 9878.00000   80.73110  162.96000
 9878.50000   82.25070  161.24580
 9879.00000   83.90690  161.44310
 9879.50000   84.65680  162.07440
 9880.00000   83.86200  162.95360
 9880.50000   82.58320  164.58860
 9881.00000   81.36560  166.62860
 9881.50000   80.06110  167.52450
 9882.00000   79.41250  165.54010
 9882.50000   79.43800  163.38440
 9883.00000   79.88260  162.13920
 9883.50000   80.63660  159.73450
 9884.00000   82.06290  158.32250
 9884.50000   83.80500  161.67630
 9885.00000   84.34990  165.16310
 9885.50000   84.90780  168.55470
 9886.00000   85.41820  171.50450
 9886.50000   85.46300  172.74390
 9887.00000   83.86340  168.35780
 9887.50000   82.29440  164.01430
 9888.00000   80.86270  160.61090
 9888.50000   79.96040  160.89380
 9889.00000   80.10780  163.69730
 9889.50000   80.46370  166.35470
 9890.00000   80.75080  165.95460
 9890.50000   80.90190  164.82020
 9891.00000   81.62090  165.13160
 9891.50000   82.15620  166.47510
 9892.00000   82.06540  165.86160
 9892.50000   81.83960  158.44900
 9893.00000   82.09080  156.78730
 9893.50000   81.48540  160.17620
 9894.00000   80.74860  162.59950
 9894.50000   80.33860  163.41690
 9895.00000   80.37090  164.16780
 9895.50000   80.95140  164.67140
 9896.00000   81.56060  165.98180
 9896.50000   81.58350  166.53420
 9897.00000   80.44220  166.58260
 9897.50000   80.37490  165.52010
 9898.00000   80.96800  163.45760
 9898.50000   81.61160  161.39500
 9899.00000   81.52280  159.27990
 9899.50000   81.00530  156.32160
 9900.00000   80.52030  153.32470
 9900.50000   80.44560  154.59770
 9901.00000   80.17800  157.73590
 9901.50000   79.53330  161.63940
 9902.00000   78.87350  162.86240
 9902.50000   78.26580  159.89410
 9903.00000   76.10210  156.33190
 9903.50000   73.92400  153.93540
 9904.00000   74.12690  160.29430
 9904.50000   74.39340  168.77590
 9905.00000   74.40100  172.36090
 9905.50000   75.81580  174.46980
 9906.00000   76.08380  177.38510
 9906.50000   75.98960  179.78690
 9907.00000   76.19630  177.64390
 9907.50000   77.44620  168.12740
 9908.00000   78.13150  164.71520
 9908.50000   77.36000  164.62510
 9909.00000   76.94030  165.77920
 9909.50000   78.54500  164.62330
 9910.00000   80.28090  163.54270
 9910.50000   81.31480  163.20230
 9911.00000   82.30280  162.86190
 9911.50000   80.89290  161.91330
 9912.00000   79.87170  161.54210
 9912.50000   79.42020  161.03780
 9913.00000   79.07220  159.08190
 9913.50000   79.19800  158.40870
 9914.00000   79.67090  160.98540
 9914.50000   79.66850  161.67660
 9915.00000   79.66510  156.93200
 9915.50000   79.53800  150.43460
 9916.00000   79.89020  152.94490
 9916.50000   81.16690  164.43510
 9917.00000   82.55130  173.16770
 9917.50000   84.05590  176.68440
 9918.00000   85.09190  177.00950
 9918.50000   85.84930  174.94990
 9919.00000   85.40420  169.72960
 9919.50000   83.45550  164.66280
 9920.00000   81.33110  162.67110
 9920.50000   80.40360  163.09820
 9921.00000   80.22880  164.26750
 9921.50000   80.55350  165.40910
 9922.00000   80.65310  165.42160
 9922.50000   80.75270  165.17310
 9923.00000   80.85620  164.46280
 9923.50000   80.76430  162.57960
 9924.00000   80.70030  160.08940
 9924.50000   80.68220  159.96450
 9925.00000   80.33830  160.75130
 9925.50000   79.43740  160.98140
 9926.00000   78.72900  159.13740
 9926.50000   79.67630  156.94200
 9927.00000   80.39010  155.30410
 9927.50000   80.57780  157.18960
 9928.00000   80.79870  160.97790
 9928.50000   80.92510  163.36320
 9929.00000   80.67120  165.04380
 9929.50000   81.32250  165.28340
 9930.00000   82.09210  165.49720
 9930.50000   82.46880  165.74080
 9931.00000   82.63400  166.27410
 9931.50000   83.22320  166.57430
 9932.00000   84.26200  167.13410
 9932.50000   85.01010  168.64780
 9933.00000   85.41530  170.82390
 9933.50000   85.29200  173.05310
 9934.00000   84.62260  173.95950
 9934.50000   83.77120  174.53650
 9935.00000   82.79470  175.05650
 9935.50000   82.06160  175.55620
 9936.00000   81.32840  174.77050
 9936.50000   81.47620  173.57930
 9937.00000   81.85570  172.23970
 9937.50000   82.80150  168.50830
 9938.00000   83.74730  163.17570
 9938.50000   84.09680  164.24690
 9939.00000   83.00900  168.12340
 9939.50000   81.57060  168.40520
 9940.00000   79.73700  165.06970
 9940.50000   77.91770  161.07860
 9941.00000   76.08440  156.82860
 9941.50000   74.59100  151.96440
 9942.00000   74.49430  148.28820
 9942.50000   74.77100  149.19240
 9943.00000   75.10970  150.68350
 9943.50000   76.32280  150.99330
 9944.00000   78.15650  151.94080
 9944.50000   79.82390  153.16190
 9945.00000   80.55700  154.49800
 9945.50000   81.24830  156.26760
 9946.00000   81.92840  157.13020
 9946.50000   82.29360  157.98170
 9947.00000   82.61890  159.58530
 9947.50000   82.39680  161.33700
 9948.00000   81.49240  163.44240
 9948.50000   80.32250  164.60360
 9949.00000   79.71850  165.66490
 9949.50000   79.89500  166.77510
 9950.00000   80.70690  167.49310
 9950.50000   82.44300  167.97780
 9951.00000   83.32900  168.44370
 9951.50000   83.46990  169.15770
 9952.00000   83.40620  170.64030
 9952.50000   83.22040  171.56110
 9953.00000   82.89690  170.24830
 9953.50000   82.93420  168.29090
 9954.00000   82.83670  166.05080
 9954.50000   81.64410  164.99000
 9955.00000   79.72980  163.28410
 9955.50000   77.73090  159.48140
 9956.00000   76.11490  154.31990
 9956.50000   74.93900  146.38570
 9957.00000   74.37540  142.27090
 9957.50000   73.79890  139.65850
 9958.00000   73.21080  138.80900
 9958.50000   73.25490  140.07560
 9959.00000   72.84710  140.80020
 9959.50000   72.54310  140.82970
 9960.00000   73.72090  139.15110
 9960.50000   76.58560  139.66630
 9961.00000   76.52680  144.01990
 9961.50000   76.73380  155.39140
 9962.00000   81.74660  166.71470
 9962.50000   82.82050  168.67480
 9963.00000   76.93240  165.71110
 9963.50000   71.25290  159.25620
 9964.00000   69.17680  154.60130
 9964.50000   67.94940  148.77710
 9965.00000   66.93740  145.25600
 9965.50000   67.71550  151.65080
 9966.00000   69.62510  160.53280
 9966.50000   71.81340  161.45270
 9967.00000   73.18400  157.56100
 9967.50000   75.06670  156.22840
 9968.00000   78.51190  158.72790
 9968.50000   80.64430  158.69710
 9969.00000   80.11970  158.05200
 9969.50000   80.09730  157.94250
 9970.00000   80.81580  158.29230
 9970.50000   81.96880  159.37800
 9971.00000   81.90940  162.05290
 9971.50000   82.66800  163.30190
 9972.00000   84.54670  162.11260
 9972.50000   85.07590  162.10030
 9973.00000   83.40680  164.24430
 9973.50000   79.93460  160.25210
 9974.00000   78.40250  155.89470
 9974.50000   77.00430  154.13480
 9975.00000   75.93470  153.41380
 9975.50000   75.83710  152.20120
 9976.00000   76.47180  150.04610
 9976.50000   77.30410  148.33140
 9977.00000   78.02310  146.92860
 9977.50000   78.78190  145.17690
 9978.00000   79.76580  143.59070
 9978.50000   80.64020  146.33730
 9979.00000   79.12240  152.64130
 9979.50000   76.67760  153.06600
 9980.00000   73.99410  149.05230
 9980.50000   70.04090  142.74160
 9981.00000   68.22360  134.95360
 9981.50000   69.10500  127.50020
 9982.00000   70.67270  126.92650
 9982.50000   71.97700  128.50460
 9983.00000   73.32850  131.75550
 9983.50000   75.43830  136.47120
 9984.00000   79.00060  145.05720
 9984.50000   82.03820  156.20260
 9985.00000   84.19560  156.98010
 9985.50000   84.97820  155.29090
