~Version ---------------------------------------------------
VERS.   2.0 : CWLS log ASCII Standard -VERSION 2.0
WRAP.    NO : One line per depth step
DLM . SPACE : Column Data Section Delimiter
~Well ------------------------------------------------------
STRT .F                5502.0 : START DEPTH
STOP .F               16373.0 : STOP DEPTH
STEP .F                   0.5 : STEP
NULL .               -9999.25 : NULL VALUE
COMP .                        : COMPANY
WELL .                        : WELL
FLD  .                        : FIELD
LOC  .                        : LOCATION
PROV .                        : PROVINCE
CNTY .                        : COUNTY
STAT .                        : STATE
CTRY .                        : COUNTRY
SRVC .                        : SERVICE COMPANY
DATE .                        : DATE
UWI  .                        : UNIQUE WELL ID
API  .                        : API NUMBER
SLAT .WGS84   5.6462746719519 : SURFACE LATITUDE
SLON .WGS84 4.499251356554581 : SURFACE LONGITUDE
DATUM.F                   nan : DEPTH DATUM ELEV
~Curve Information -----------------------------------------
DEPT.F     : 1 MEASURED DEPTH
DTCO.US/F  : DELTA-T COMPRESSIONAL
DTSM.US/F  : DELTA-T SHEAR
~Params ----------------------------------------------------
~Other -----------------------------------------------------
~ASCII -----------------------------------------------------
# ...
 7744.00000   71.34610  130.87160
 7744.50000   70.93550  131.37440
 7745.00000   71.12690  131.98520
 7745.50000   71.70180  133.06910
 7746.00000   71.90350  133.76110
 7746.50000   71.59690  133.43770
 7747.00000   71.23640  132.92440
 7747.50000   71.54080  133.28860
 7748.00000   73.27580  134.22150
 7748.50000   75.04590  137.61340
 7749.00000   76.97490  138.21230
 7749.50000   77.48600  138.28510
 7750.00000   77.30660  137.92030
 7750.50000   73.57990  136.40400
 7751.00000   69.78410  133.37340
 7751.50000   67.89690  129.86100
 7752.00000   68.61350  128.40120
 7752.50000   70.81710  129.92770
 7753.00000   74.69570  132.77690
 7753.50000   77.35840  135.00700
 7754.00000   78.45550  137.05640
 7754.50000   78.50840  138.65370
 7755.00000   76.97270  139.24460
 7755.50000   74.23540  138.53320
 7756.00000   72.19210  135.91640
 7756.50000   70.92580  133.16220
 7757.00000   70.33110  131.09450
 7757.50000   70.30050  130.52580
 7758.00000   70.77060  129.99020
 7758.50000   71.30230  129.45470
 7759.00000   71.50190  129.09970
 7759.50000   71.29960  128.12550
 7760.00000   70.97680  126.15730
 7760.50000   70.68610  124.20580
 7761.00000   70.49110  125.13880
 7761.50000   70.33010  126.35070
 7762.00000   70.14000  127.40070
 7762.50000   69.88510  127.79290
 7763.00000   69.78130  127.30500
 7763.50000   70.30250  126.55740
 7764.00000   71.02380  125.56950
 7764.50000   71.68870  124.91460
 7765.00000   72.06030  125.77200
 7765.50000   72.20380  126.85230
 7766.00000   71.90990  127.88240
 7766.50000   71.39400  128.87820
 7767.00000   71.14730  128.60000
 7767.50000   71.52430  128.46490
 7768.00000   71.98190  128.34930
 7768.50000   72.21870  127.80690
 7769.00000   71.69710  127.22100
 7769.50000   70.95470  127.02500
 7770.00000   70.13670  126.67900
 7770.50000   69.54210  126.53820
 7771.00000   69.06650  126.64500
 7771.50000   69.02250  126.82220
 7772.00000   69.37980  126.99930
 7772.50000   70.44340  127.22110
 7773.00000   71.17470  127.76190
 7773.50000   70.94040  127.40740
 7774.00000   70.33820  126.60350
 7774.50000   69.89320  126.02940
 7775.00000   68.99230  124.80820
 7775.50000   68.52540  122.93490
 7776.00000   68.35160  123.04000
 7776.50000   67.92040  124.33650
 7777.00000   67.48920  125.36850
 7777.50000   67.13650  125.69210
 7778.00000   67.15890  125.51300
 7778.50000   68.07840  125.64790
 7779.00000   68.73240  125.79600
 7779.50000   68.63980  126.84170
 7780.00000   68.80350  127.28810
 7780.50000   69.33070  127.28850
 7781.00000   70.09260  126.75280
 7781.50000   69.98080  125.92660
 7782.00000   69.31150  124.40440
 7782.50000   68.89860  122.71290
 7783.00000   69.91040  122.26550
 7783.50000   71.29850  124.06330
 7784.00000   71.65110  126.43470
 7784.50000   71.44410  127.81350
 7785.00000   71.63300  128.99790
 7785.50000   71.46580  129.40760
 7786.00000   70.33120  128.36620
 7786.50000   68.70840  126.47720
 7787.00000   67.94990  124.27160
 7787.50000   68.93410  124.28320
 7788.00000   70.70010  125.41270
 7788.50000   71.18910  126.86980
 7789.00000   71.14860  127.56110
 7789.50000   70.23440  127.50380
 7790.00000   69.16280  126.80240
 7790.50000   68.70660  125.66600
 7791.00000   68.39470  124.42190
 7791.50000   67.89390  122.68960
 7792.00000   67.45490  122.28860
 7792.50000   67.67960  122.33480
 7793.00000   68.10870  122.20650
 7793.50000   67.94730  121.36930
 7794.00000   68.15020  121.16130
 7794.50000   68.63630  121.54430
 7795.00000   68.50430  122.11790
 7795.50000   67.41040  123.02630
 7796.00000   66.97970  123.67640
 7796.50000   67.38530  124.41970
 7797.00000   68.51980  125.62430
 7797.50000   69.81210  126.52350
 7798.00000   70.82690  127.33720
 7798.50000   71.30820  128.14850
 7799.00000   71.11730  127.53190
 7799.50000   70.70440  126.39880
 7800.00000   69.63040  123.92240
 7800.50000   67.90940  121.26160
 7801.00000   67.41130  119.40270
 7801.50000   68.19340  120.29840
 7802.00000   69.86360  122.09200
 7802.50000   71.40050  124.58440
 7803.00000   71.61790  126.70190
 7803.50000   71.31770  127.14100
 7804.00000   70.32270  125.55820
 7804.50000   68.73950  121.77050
 7805.00000   66.20810  119.13160
 7805.50000   66.13820  117.28510
 7806.00000   67.55340  117.00330
 7806.50000   69.03270  116.95750
 7807.00000   69.33670  118.65350
 7807.50000   69.28180  119.97540
 7808.00000   68.88940  120.49870
 7808.50000   68.29150  120.10330
 7809.00000   68.24400  119.72730
 7809.50000   68.54090  119.71840
 7810.00000   68.95870  119.76280
 7810.50000   69.61360  120.12000
 7811.00000   69.95620  120.94150
 7811.50000   69.82060  121.63580
 7812.00000   69.31240  121.69950
 7812.50000   68.49000  121.10780
 7813.00000   68.04310  120.26240
 7813.50000   68.33410  119.99260
 7814.00000   68.39430  120.11460
 7814.50000   68.53130  119.81360
 7815.00000   68.73410  119.50130
 7815.50000   68.50290  118.01130
 7816.00000   68.33370  116.20280
 7816.50000   68.31110  115.65000
 7817.00000   68.31880  115.93360
 7817.50000   68.22810  115.90580
 7818.00000   68.09190  115.99390
 7818.50000   67.98270  116.22170
 7819.00000   67.75660  116.26190
 7819.50000   67.42650  116.27510
 7820.00000   66.98280  116.37230
 7820.50000   66.61160  116.52700
 7821.00000   66.43970  116.60710
 7821.50000   66.56300  115.95430
 7822.00000   67.39250  114.82060
 7822.50000   68.91100  113.68700
 7823.00000   69.73080  113.85220
 7823.50000   70.21700  116.43110
 7824.00000   71.16810  121.27260
 7824.50000   71.61240  123.97520
 7825.00000   71.71900  125.90720
 7825.50000   71.63950  126.58930
 7826.00000   71.22450  127.34530
 7826.50000   70.85740  128.00530
 7827.00000   70.53120  128.28650
 7827.50000   70.01190  130.69150
 7828.00000   69.38880  133.99080
 7828.50000   68.41880  139.33020
 7829.00000   66.00760  142.35710
 7829.50000   67.86520  143.51260
 7830.00000   71.04670  144.09430
 7830.50000   71.13720  143.47490
 7831.00000   71.03450  141.41830
 7831.50000   71.47930  136.63080
 7832.00000   72.68800  132.63970
 7832.50000   73.36570  130.87690
 7833.00000   73.66370  130.45620
 7833.50000   75.13710  131.35280
 7834.00000   76.50340  134.46310
 7834.50000   77.00530  138.25250
 7835.00000   76.30750  142.63840
 7835.50000   73.49950  145.42850
 7836.00000   68.42280  144.28840
 7836.50000   64.55460  140.98930
 7837.00000   63.83450  135.21840
 7837.50000   64.24200  125.50510
 7838.00000   65.50990  120.56330
 7838.50000   67.08170  116.42010
 7839.00000   68.64230  116.33760
 7839.50000   69.36580  118.39720
 7840.00000   70.10330  124.18300
 7840.50000   70.56250  127.77240
 7841.00000   70.32930  130.94170
 7841.50000   70.30720  132.33020
 7842.00000   71.94170  133.38150
 7842.50000   75.11630  136.69460
 7843.00000   78.08010  141.29320
 7843.50000   80.66160  145.20140
 7844.00000   81.18390  150.26770
 7844.50000   80.39800  152.87090
 7845.00000   79.61200  155.74780
 7845.50000   78.82600  158.63580
 7846.00000   78.88720  160.61430
 7846.50000   80.47370  163.05500
 7847.00000   80.92960  164.07260
 7847.50000   81.06330  164.61140
 7848.00000   81.06550  165.70350
 7848.50000   80.71990  167.84860
 7849.00000   80.10330  169.38850
 7849.50000   79.52960  168.39010
 7850.00000   78.94190  167.10440
 7850.50000   78.11180  165.60890
 7851.00000   77.76250  162.59810
 7851.50000   78.36510  156.55250
 7852.00000   79.82410  151.90900
 7852.50000   80.58960  151.75020
 7853.00000   81.13510  153.72700
 7853.50000   80.67730  156.17510
 7854.00000   80.64270  156.66280
 7854.50000   80.80500  156.31580
 7855.00000   80.72880  154.20770
 7855.50000   79.74520  153.49810
 7856.00000   78.44070  153.84380
 7856.50000   77.67370  154.71840
 7857.00000   77.86310  155.92320
 7857.50000   79.11670  157.49410
 7858.00000   80.52190  156.94770
 7858.50000   81.40790  155.08830
 7859.00000   82.42300  154.58810
 7859.50000   82.64180  155.30020
 7860.00000   81.07640  155.72350
 7860.50000   78.21660  156.82790
 7861.00000   76.86530  158.58990
 7861.50000   75.96150  156.70030
