~Version ---------------------------------------------------
VERS.   2.0 : CWLS log ASCII Standard -VERSION 2.0
WRAP.    NO : One line per depth step
DLM . SPACE : Column Data Section Delimiter
~Well ------------------------------------------------------
STRT .F                5502.0 : START DEPTH
STOP .F               16373.0 : STOP DEPTH
STEP .F                   0.5 : STEP
NULL .               -9999.25 : NULL VALUE
COMP .                        : COMPANY
WELL .                        : WELL
FLD  .                        : FIELD
LOC  .                        : LOCATION
PROV .                        : PROVINCE
CNTY .                        : COUNTY
STAT .                        : STATE
CTRY .                        : COUNTRY
SRVC .                        : SERVICE COMPANY
DATE .                        : DATE
UWI  .                        : UNIQUE WELL ID
API  .                        : API NUMBER
SLAT .WGS84   5.6462746719519 : SURFACE LATITUDE
SLON .WGS84 4.499251356554581 : SURFACE LONGITUDE
DATUM.F                   nan : DEPTH DATUM ELEV
~Curve Information -----------------------------------------
DEPT.F     : 1 MEASURED DEPTH
DTCO.US/F  : DELTA-T COMPRESSIONAL
DTSM.US/F  : DELTA-T SHEAR
~Params ----------------------------------------------------
~Other -----------------------------------------------------
~ASCII -----------------------------------------------------
# ...
 12734.50000   58.01710   99.36670
 12735.00000   56.64830   97.71750
 12735.50000   55.82640   96.86750
 12736.00000   55.16180   96.28100
 12736.50000   54.62100   95.86140
 12737.00000   54.40700   95.52620
 12737.50000   54.24710   95.53690
 12738.00000   54.36990   95.31580
 12738.50000   54.74490   94.48420
 12739.00000   54.70150   93.34830
 12739.50000   54.07010   92.11870
 12740.00000   53.74670   91.80890
 12740.50000   53.93460   92.16470
 12741.00000   55.44490   92.87390
 12741.50000   57.01710   92.95760
 12742.00000   58.31140   93.81070
 12742.50000   59.62220   95.43240
 12743.00000   61.20970   94.30490
 12743.50000   62.56480   90.49330
 12744.00000   62.82950   96.39040
 12744.50000   62.89300  111.95620
 12745.00000   62.74350  126.87330
 12745.50000   62.33070  129.65230
 12746.00000   62.17970  130.08050
 12746.50000   61.95680  129.30030
 12747.00000   60.44660  127.03680
 12747.50000   58.69330  119.84500
 12748.00000   57.37970  113.23830
 12748.50000   56.75020  115.89580
 12749.00000   57.58290  119.70990
 12749.50000   58.35340  122.23520
 12750.00000   59.79170  128.13460
 12750.50000   65.33150  140.79120
 12751.00000   71.33210  144.97680
 12751.50000   77.09890  143.42060
 12752.00000   78.50750  140.45050
 12752.50000   76.32090  138.57910
 12753.00000   73.73660  137.25290
 12753.50000   72.59780  135.60580
 12754.00000   72.57560  135.09320
 12754.50000   72.81930  135.07920
 12755.00000   72.93570  134.41810
 12755.50000   72.00680  132.41140
 12756.00000   72.10610  130.86570
 12756.50000   72.85820  129.73640
 12757.00000   72.83080  128.45030
 12757.50000   71.37270  126.92100
 12758.00000   70.34610  124.75770
 12758.50000   69.32210  122.04720
 12759.00000   68.82680  119.69570
 12759.50000   67.80790  117.39970
 12760.00000   67.31030  114.88010
 12760.50000   67.11660  113.24390
 12761.00000   68.32280  115.61930
 12761.50000   69.52110  119.34990
 12762.00000   70.61240  123.32360
 12762.50000   71.93520  127.01070
 12763.00000   72.69900  129.76980
 12763.50000   73.51220  130.00430
 12764.00000   73.71790  128.87120
 12764.50000   73.57180  127.38520
 12765.00000   73.39370  126.41820
 12765.50000   72.84790  124.99690
 12766.00000   70.51260  122.36420
 12766.50000   66.77280  117.34770
 12767.00000   63.47200  114.04300
 12767.50000   61.31800  112.01860
 12768.00000   59.82180  110.81540
 12768.50000   59.70670  110.85430
 12769.00000   60.47230  111.05900
 12769.50000   61.36710  111.19530
 12770.00000   62.23910  111.10680
 12770.50000   62.75330  110.81700
 12771.00000   62.86350  109.37580
 12771.50000   61.97090  107.07460
 12772.00000   60.19270  104.24680
 12772.50000   58.54410  102.82050
 12773.00000   57.88160  102.18130
 12773.50000   57.46470  101.54200
 12774.00000   57.49250  101.52220
 12774.50000   57.67040  102.04190
 12775.00000   57.79010  102.48540
 12775.50000   57.76640  102.87020
 12776.00000   57.97030  102.82770
 12776.50000   58.20870  102.73490
 12777.00000   57.99690  102.52140
 12777.50000   58.24680  102.17310
 12778.00000   58.64800  102.04560
 12778.50000   58.84730  102.00270
 12779.00000   58.91290  101.91130
 12779.50000   59.44090  101.87170
 12780.00000   59.13030  101.77260
 12780.50000   58.46730  101.63270
 12781.00000   57.42860  101.54080
 12781.50000   56.85870  100.86340
 12782.00000   56.15450  100.05080
 12782.50000   55.62930   99.19830
 12783.00000   55.63610   98.04570
 12783.50000   55.85250   96.99740
 12784.00000   56.05080   96.14270
 12784.50000   55.87040   95.29330
 12785.00000   55.49650   94.16790
 12785.50000   55.32240   93.32370
 12786.00000   55.69780   94.07180
 12786.50000   56.07330   95.81040
 12787.00000   56.48210   97.86110
 12787.50000   56.99670   99.69850
 12788.00000   57.23410  100.50800
 12788.50000   57.20910  100.90270
 12789.00000   57.07710  100.86670
 12789.50000   57.09270  100.13740
 12790.00000   57.17450   99.24960
 12790.50000   57.24270   98.33380
 12791.00000   57.40190   97.68220
 12791.50000   57.39810   97.52500
 12792.00000   57.48990   97.59300
 12792.50000   57.58280   98.43210
 12793.00000   57.70950   99.06570
 12793.50000   58.17170   99.57680
 12794.00000   58.60900  100.28400
 12794.50000   59.00180  101.18360
 12795.00000   59.10960  101.84990
 12795.50000   58.86850  101.85590
 12796.00000   58.63750  101.95470
 12796.50000   58.37580  101.76830
 12797.00000   57.90180  101.38770
 12797.50000   57.52000  100.55990
 12798.00000   57.21150   99.59860
 12798.50000   56.80760   98.83290
 12799.00000   56.49100   98.53920
 12799.50000   56.49420   98.31820
 12800.00000   56.21960   98.37330
 12800.50000   56.30840   98.58120
 12801.00000   56.81840   98.79840
 12801.50000   57.51320   99.03830
 12802.00000   57.90350   99.07360
 12802.50000   57.95430   99.00810
 12803.00000   57.51190   98.89590
 12803.50000   56.89820   98.16870
 12804.00000   56.21980   96.79660
 12804.50000   55.54520   96.54180
 12805.00000   55.05230   96.84510
 12805.50000   55.19180   97.48250
 12806.00000   55.41000   97.40610
 12806.50000   55.65040   97.20830
 12807.00000   55.85070   98.28920
 12807.50000   56.01440   99.32350
 12808.00000   56.45030   99.74090
 12808.50000   57.07320   99.59810
 12809.00000   57.42250   99.32660
 12809.50000   57.53440   99.89390
 12810.00000   57.70140  100.46790
 12810.50000   57.97820  100.64890
 12811.00000   58.19430  100.02410
 12811.50000   58.35590   99.50190
 12812.00000   58.39600   98.72150
 12812.50000   58.10830   97.82940
 12813.00000   57.39070   96.38840
 12813.50000   56.23460   95.58720
 12814.00000   55.47930   97.36380
 12814.50000   53.57100   99.78640
 12815.00000   51.92460  100.72830
 12815.50000   52.72960  101.52030
 12816.00000   57.67130  102.32670
 12816.50000   63.10080  103.12400
 12817.00000   63.78450  102.94030
 12817.50000   62.00870  101.51380
 12818.00000   59.65590  100.36600
 12818.50000   58.31280   99.55050
 12819.00000   58.13020   99.31500
 12819.50000   57.67350   98.76420
 12820.00000   57.04600   97.92680
 12820.50000   56.23040   97.04110
 12821.00000   55.75860   96.15570
 12821.50000   55.96980   95.64170
 12822.00000   57.29770   95.57150
 12822.50000   60.08670   97.33440
 12823.00000   63.66690   99.92440
 12823.50000   65.16700  102.03350
 12824.00000   65.01260  103.69310
 12824.50000   64.19880  105.33500
 12825.00000   62.28230  105.26450
 12825.50000   60.53190  103.70760
 12826.00000   58.78310  101.86880
 12826.50000   57.81520  100.33580
 12827.00000   58.24590  100.10450
 12827.50000   59.31870  100.47230
 12828.00000   60.10970  101.03950
 12828.50000   60.38130  101.15550
 12829.00000   60.35460  101.14220
 12829.50000   60.31410  101.49720
 12830.00000   60.54130  102.01900
 12830.50000   60.49290  102.59760
 12831.00000   60.30060  102.96100
 12831.50000   59.81400  103.32360
 12832.00000   59.13670  103.56140
 12832.50000   58.42120  102.95800
 12833.00000   57.72930  102.05060
 12833.50000   57.22280  101.06620
 12834.00000   57.30160  100.35030
 12834.50000   57.57540   99.70550
 12835.00000   57.70310   99.29000
 12835.50000   57.68230   99.09090
 12836.00000   57.32590   98.75030
 12836.50000   56.91490   98.47170
 12837.00000   56.74630   98.42820
 12837.50000   56.72880   98.10640
 12838.00000   56.83720   97.64100
 12838.50000   57.04150   96.64440
 12839.00000   57.08570   95.79150
 12839.50000   56.96690   94.84400
 12840.00000   56.72080   92.51040
 12840.50000   56.53360   90.06480
 12841.00000   56.61230   89.41910
 12841.50000   57.27660   90.32630
 12842.00000   57.77680   92.06320
 12842.50000   58.69600   94.43780
 12843.00000   59.86740   98.30920
 12843.50000   60.64640  100.43240
 12844.00000   61.28040  101.83320
 12844.50000   61.77240  102.68420
 12845.00000   62.17840  103.00500
 12845.50000   62.35180  102.45310
 12846.00000   62.33530  101.61240
 12846.50000   62.35720  101.11370
 12847.00000   61.51350  101.27930
 12847.50000   61.12270  101.61410
 12848.00000   61.53500  102.37320
 12848.50000   62.04410  103.25170
