~Version ---------------------------------------------------
VERS.   2.0 : CWLS log ASCII Standard -VERSION 2.0
WRAP.    NO : One line per depth step
DLM . SPACE : Column Data Section Delimiter
~Well ------------------------------------------------------
STRT .F                5502.0 : START DEPTH
STOP .F               16373.0 : STOP DEPTH
STEP .F                   0.5 : STEP
NULL .               -9999.25 : NULL VALUE
COMP .                        : COMPANY
WELL .                        : WELL
FLD  .                        : FIELD
LOC  .                        : LOCATION
PROV .                        : PROVINCE
CNTY .                        : COUNTY
STAT .                        : STATE
CTRY .                        : COUNTRY
SRVC .                        : SERVICE COMPANY
DATE .                        : DATE
UWI  .                        : UNIQUE WELL ID
API  .                        : API NUMBER
SLAT .WGS84   5.6462746719519 : SURFACE LATITUDE
SLON .WGS84 4.499251356554581 : SURFACE LONGITUDE
DATUM.F                   nan : DEPTH DATUM ELEV
~Curve Information -----------------------------------------
DEPT.F     : 1 MEASURED DEPTH
DTCO.US/F  : DELTA-T COMPRESSIONAL
DTSM.US/F  : DELTA-T SHEAR
~Params ----------------------------------------------------
~Other -----------------------------------------------------
~ASCII -----------------------------------------------------
# ...
 6918.00000   72.97740  136.88030
 6918.50000   74.38510  137.91300
 6919.00000   74.44380  139.22680
 6919.50000   74.41200  140.48700
 6920.00000   73.76800  141.74720
 6920.50000   75.84550  143.87360
 6921.00000   76.74410  146.99570
 6921.50000   78.46450  148.12930
 6922.00000   80.43780  148.62110
 6922.50000   81.31330  148.51590
 6923.00000   79.70720  148.23210
 6923.50000   77.30390  146.51610
 6924.00000   74.82280  143.77290
 6924.50000   73.90390  141.27310
 6925.00000   75.17240  142.12020
 6925.50000   77.26610  142.87970
 6926.00000   78.62580  144.07630
 6926.50000   77.96520  145.63920
 6927.00000   76.68460  145.57520
 6927.50000   75.74630  144.76500
 6928.00000   75.74660  142.40660
 6928.50000   76.02830  141.84890
 6929.00000   76.32230  142.75060
 6929.50000   76.96320  143.96140
 6930.00000   77.88220  145.27180
 6930.50000   78.81370  146.78920
 6931.00000   79.35640  148.25460
 6931.50000   79.58190  148.86570
 6932.00000   79.18710  147.08100
 6932.50000   78.32410  144.38030
 6933.00000   77.07090  141.58890
 6933.50000   76.15030  139.50000
 6934.00000   76.46510  138.19970
 6934.50000   76.81770  137.53850
 6935.00000   75.86350  137.65730
 6935.50000   75.18010  139.02110
 6936.00000   76.00360  141.28520
 6936.50000   77.10210  142.91400
 6937.00000   78.69660  144.23410
 6937.50000   79.32340  144.92230
 6938.00000   79.33120  145.66930
 6938.50000   78.86930  145.92800
 6939.00000   78.44170  146.12430
 6939.50000   78.35010  146.01200
 6940.00000   78.05600  145.66070
 6940.50000   78.00720  145.61570
 6941.00000   78.34300  145.62990
 6941.50000   78.74980  145.87400
 6942.00000   78.53250  145.10310
 6942.50000   78.08200  144.40390
 6943.00000   78.31730  144.41240
 6943.50000   78.33770  144.63780
 6944.00000   78.05420  144.31510
 6944.50000   78.14440  144.09660
 6945.00000   78.77480  145.61250
 6945.50000   80.29090  147.90210
 6946.00000   81.43510  150.28670
 6946.50000   81.58430  151.92780
 6947.00000   81.80570  153.17590
 6947.50000   82.05860  154.86880
 6948.00000   81.82460  157.93110
 6948.50000   81.45990  160.69480
 6949.00000   81.85910  160.22630
 6949.50000   82.13170  160.12450
 6950.00000   82.51470  161.82640
 6950.50000   83.26040  162.73610
 6951.00000   84.41790  162.91960
 6951.50000   84.71310  162.79950
 6952.00000   84.17390  162.88460
 6952.50000   83.24980  163.25430
 6953.00000   82.55980  164.12920
 6953.50000   82.66320  164.80610
 6954.00000   83.37630  165.37810
 6954.50000   84.32190  166.40220
 6955.00000   82.21710  167.51260
 6955.50000   78.12360  167.62120
 6956.00000   75.55600  162.95330
 6956.50000   72.13150  153.30290
 6957.00000   66.56410  142.02430
 6957.50000   63.37870  129.42260
 6958.00000   62.57000  118.24140
 6958.50000   62.15780  111.39280
 6959.00000   61.96910  109.48300
 6959.50000   61.31080  110.41590
 6960.00000   59.03660  110.21590
 6960.50000   56.80560  109.69710
 6961.00000   54.32980  108.43330
 6961.50000   52.03930  106.91890
 6962.00000   50.35000  105.38740
 6962.50000   50.06030  101.04720
 6963.00000   51.59250   98.11010
 6963.50000   53.40180   97.49830
 6964.00000   54.03830   98.92540
 6964.50000   54.47600  101.15800
 6965.00000   54.72140  101.65370
 6965.50000   53.69480  101.69950
 6966.00000   52.62420  101.63670
 6966.50000   52.46190  101.65130
 6967.00000   52.95800  101.75520
 6967.50000   53.83890  101.93850
 6968.00000   55.31090  102.71580
 6968.50000   56.70470  103.75560
 6969.00000   57.28790  105.11660
 6969.50000   57.51720  105.68210
 6970.00000   57.33940  105.35830
 6970.50000   56.96900  104.41290
 6971.00000   56.40040  103.49450
 6971.50000   55.26660  102.80640
 6972.00000   53.40030  102.41420
 6972.50000   52.36510  101.76990
 6973.00000   52.55730  100.95140
 6973.50000   52.31900  100.18920
 6974.00000   51.80240   99.38760
 6974.50000   51.04600   98.10990
 6975.00000   50.37830   96.58550
 6975.50000   49.88330   94.94440
 6976.00000   49.50550   94.23050
 6976.50000   49.47090   93.71450
 6977.00000   49.23490   93.31930
 6977.50000   49.08040   93.57210
 6978.00000   49.11820   94.08700
 6978.50000   49.89750   94.85730
 6979.00000   50.55290   95.73950
 6979.50000   50.86920   95.90750
 6980.00000   51.55710   95.13250
 6980.50000   51.87520   94.36400
 6981.00000   51.32450   93.44160
 6981.50000   51.02720   92.29960
 6982.00000   52.11500   92.40940
 6982.50000   54.69960   99.68230
 6983.00000   57.15060  105.06400
 6983.50000   58.41710  109.22350
 6984.00000   59.14100  111.54000
 6984.50000   59.54520  110.98180
 6985.00000   58.94210  107.84190
 6985.50000   56.36740  103.47340
 6986.00000   55.22570  103.57400
 6986.50000   55.07690  104.31470
 6987.00000   56.06020  105.36600
 6987.50000   56.69990  106.65000
 6988.00000   56.89060  108.16210
 6988.50000   56.85630  109.51960
 6989.00000   56.82200  109.66490
 6989.50000   56.74800  108.90960
 6990.00000   56.49390  107.60420
 6990.50000   56.26100  106.09540
 6991.00000   56.26660  104.14660
 6991.50000   56.52070  103.29220
 6992.00000   58.37050  105.21000
 6992.50000   61.91940  109.50360
 6993.00000   63.74390  114.36460
 6993.50000   63.27550  118.26760
 6994.00000   62.89540  120.81930
 6994.50000   62.18380  121.32280
 6995.00000   59.36610  118.19470
 6995.50000   56.90580  113.82940
 6996.00000   56.09160  108.94760
 6996.50000   55.63810  107.41010
 6997.00000   55.90360  107.18180
 6997.50000   56.30160  108.10120
 6998.00000   56.66680  109.30040
 6998.50000   56.86010  110.77080
 6999.00000   57.55540  111.08120
 6999.50000   58.14190  110.59100
 7000.00000   58.06080  109.89790
 7000.50000   57.84160  109.11430
 7001.00000   57.29920  108.47800
 7001.50000   56.89060  107.53640
 7002.00000   56.68040  106.38490
 7002.50000   56.71300  105.80620
 7003.00000   56.98360  105.27810
 7003.50000   57.08650  105.03440
 7004.00000   57.33490  104.79060
 7004.50000   57.53480  104.51930
 7005.00000   56.96390  104.19960
 7005.50000   55.90910  103.45290
 7006.00000   54.49840  101.20260
 7006.50000   53.71570   99.08040
 7007.00000   53.19840   96.95730
 7007.50000   53.19910   95.80550
 7008.00000   53.40250   95.28660
 7008.50000   53.58070   94.98340
 7009.00000   53.14170   94.29340
 7009.50000   52.75850   91.58730
 7010.00000   52.75340   90.01490
 7010.50000   53.15250   90.82820
 7011.00000   54.10440   93.92220
 7011.50000   54.29540   99.53060
 7012.00000   54.43730  103.90450
 7012.50000   55.65660  108.30790
 7013.00000   58.13300  119.75960
 7013.50000   61.19120  132.85510
 7014.00000   61.18950  138.17710
 7014.50000   60.91200  141.90280
 7015.00000   62.86480  144.71220
 7015.50000   64.08950  149.10120
 7016.00000   63.68700  154.13130
 7016.50000   63.24740  156.55590
 7017.00000   63.09800  152.61140
 7017.50000   62.66120  149.24440
 7018.00000   61.90870  147.02890
 7018.50000   60.47840  147.93420
 7019.00000   59.71220  152.14470
 7019.50000   58.26900  157.40830
 7020.00000   56.06400  153.80010
 7020.50000   51.92000  143.77820
 7021.00000   50.24560  132.23010
 7021.50000   52.97060  122.76980
 7022.00000   56.35110  114.64420
 7022.50000   53.33310  110.08070
 7023.00000   50.25650  107.67180
 7023.50000   50.05250  105.26290
 7024.00000   51.04950  103.61370
 7024.50000   51.96420  102.04760
 7025.00000   52.37250  102.17680
 7025.50000   52.68500  101.93900
 7026.00000   52.24000  101.63000
 7026.50000   51.35070  101.16870
 7027.00000   50.94520  100.59800
 7027.50000   50.94060  100.03950
 7028.00000   50.57100   99.48110
 7028.50000   50.29880   98.92260
 7029.00000   50.22220   98.89910
 7029.50000   49.78010   98.89840
 7030.00000   49.63290   98.81820
 7030.50000   50.21420   98.55660
 7031.00000   51.73880   98.29510
 7031.50000   52.06430   98.03350
 7032.00000   51.64390   97.66190
 7032.50000   51.35350   97.13940
 7033.00000   51.15710   96.61270
 7033.50000   50.98460   96.40710
 7034.00000   50.61670   96.18380
 7034.50000   50.62470   95.93130
 7035.00000   50.73460   95.46440
 7035.50000   50.73360   95.14610
