~Version ---------------------------------------------------
VERS.   2.0 : CWLS log ASCII Standard -VERSION 2.0
WRAP.    NO : One line per depth step
DLM . SPACE : Column Data Section Delimiter
~Well ------------------------------------------------------
STRT .F                5502.0 : START DEPTH
STOP .F               16373.0 : STOP DEPTH
STEP .F                   0.5 : STEP
NULL .               -9999.25 : NULL VALUE
COMP .                        : COMPANY
WELL .                        : WELL
FLD  .                        : FIELD
LOC  .                        : LOCATION
PROV .                        : PROVINCE
CNTY .                        : COUNTY
STAT .                        : STATE
CTRY .                        : COUNTRY
SRVC .                        : SERVICE COMPANY
DATE .                        : DATE
UWI  .                        : UNIQUE WELL ID
API  .                        : API NUMBER
SLAT .WGS84   5.6462746719519 : SURFACE LATITUDE
SLON .WGS84 4.499251356554581 : SURFACE LONGITUDE
DATUM.F                   nan : DEPTH DATUM ELEV
~Curve Information -----------------------------------------
DEPT.F     : 1 MEASURED DEPTH
DTCO.US/F  : DELTA-T COMPRESSIONAL
DTSM.US/F  : DELTA-T SHEAR
~Params ----------------------------------------------------
~Other -----------------------------------------------------
~ASCII -----------------------------------------------------
# ...
 14910.00000   57.65130   99.41110
 14910.50000   59.62620  107.19080
 14911.00000   61.10510  111.73490
 14911.50000   63.12800  117.04240
 14912.00000   67.00090  123.36360
 14912.50000   72.50400  130.48740
 14913.00000   76.60240  134.59980
 14913.50000   78.22560  137.22220
 14914.00000   79.38480  137.13310
 14914.50000   79.49680  134.80070
 14915.00000   79.58460  132.61580
 14915.50000   79.63300  132.19360
 14916.00000   78.93360  132.68940
 14916.50000   77.82270  134.21480
 14917.00000   76.05670  138.48550
 14917.50000   75.24250  144.23050
 14918.00000   74.33390  147.21660
 14918.50000   73.14420  146.84880
 14919.00000   72.47840  141.89290
 14919.50000   72.12160  137.17580
 14920.00000   71.29800  135.70160
 14920.50000   70.70290  135.23730
 14921.00000   70.24340  136.52540
 14921.50000   70.03750  138.25890
 14922.00000   70.95530  138.97060
 14922.50000   72.00230  138.40130
 14923.00000   73.20470  137.68640
 14923.50000   73.54610  137.00190
 14924.00000   73.45800  136.86180
 14924.50000   73.87020  137.22000
 14925.00000   74.38460  135.80020
 14925.50000   74.22030  133.30690
 14926.00000   71.67320  130.16350
 14926.50000   70.07940  128.10410
 14927.00000   68.71840  124.67860
 14927.50000   67.35750  120.29790
 14928.00000   65.99650  117.05040
 14928.50000   64.63560  113.03550
 14929.00000   63.27460  111.66000
 14929.50000   60.95820  111.74880
 14930.00000   58.72210  107.21330
 14930.50000   56.81850  102.31540
 14931.00000   55.81990   94.38890
 14931.50000   55.46620   89.13710
 14932.00000   55.47460   85.72780
 14932.50000   55.66020   83.46740
 14933.00000   55.54600   85.57330
 14933.50000   55.26480   89.51950
 14934.00000   55.60480   94.39340
 14934.50000   56.86150   97.97740
 14935.00000   56.74640  101.27130
 14935.50000   56.05570  103.74700
 14936.00000   55.36930  108.68430
 14936.50000   54.81830  109.46060
 14937.00000   54.44370  106.55240
 14937.50000   54.05220  104.14970
 14938.00000   54.25110  102.58860
 14938.50000   54.66960  101.98920
 14939.00000   55.15930  101.67840
 14939.50000   56.06240  102.45910
 14940.00000   57.70510  103.33180
 14940.50000   59.59020  104.20380
 14941.00000   60.74720  104.67430
 14941.50000   61.05620  104.58220
 14942.00000   61.92200  104.36740
 14942.50000   63.37600  105.19940
 14943.00000   64.49260  111.41440
 14943.50000   65.34240  115.80260
 14944.00000   67.34500  119.39700
 14944.50000   69.60590  121.28640
 14945.00000   69.92930  121.42950
 14945.50000   68.49830  120.94350
 14946.00000   66.86150  118.30630
 14946.50000   64.09670  114.32230
 14947.00000   61.69240  107.72680
 14947.50000   58.60120  103.18650
 14948.00000   56.01600  102.12930
 14948.50000   54.70150  101.14480
 14949.00000   54.73190  100.25970
 14949.50000   54.93170   99.47800
 14950.00000   55.59330   97.80390
 14950.50000   55.79220   95.12870
 14951.00000   55.08060   94.07440
 14951.50000   55.18800   93.36250
 14952.00000   55.23830   93.15590
 14952.50000   54.68790   93.07190
 14953.00000   53.27690   93.13140
 14953.50000   54.28610   93.26590
 14954.00000   58.13520   93.32080
 14954.50000   61.60900   93.35000
 14955.00000   65.90280   93.77300
 14955.50000   69.50700   94.40150
 14956.00000   70.93290   94.99810
 14956.50000   71.87810   95.36940
 14957.00000   74.24090   95.30690
 14957.50000   76.20890   95.20690
 14958.00000   76.75900   94.82400
 14958.50000   76.77580   94.44250
 14959.00000   76.83900   94.25630
 14959.50000   76.97320   94.11360
 14960.00000   75.82270   94.25940
 14960.50000   74.30280   94.50030
 14961.00000   74.40510   94.67640
 14961.50000   74.09510   94.45460
 14962.00000   73.48560   94.02230
 14962.50000   72.79740   93.73100
 14963.00000   71.09710   93.65460
 14963.50000   69.52580   93.75720
 14964.00000   69.04530   94.11930
 14964.50000   69.84840   94.35810
 14965.00000   69.83870   94.43840
 14965.50000   67.78690   94.45770
 14966.00000   66.51520   94.39620
 14966.50000   68.47530   94.30660
 14967.00000   70.00210   94.14350
 14967.50000   69.49620   94.18400
 14968.00000   67.32170   94.36340
 14968.50000   64.99200   94.35720
 14969.00000   62.20000   94.11260
 14969.50000   58.42930   93.89130
 14970.00000   55.92170   93.88990
 14970.50000   55.18630   93.91940
 14971.00000   55.57580   93.71640
 14971.50000   55.66420   90.07150
 14972.00000   54.58700   86.82990
 14972.50000   53.33130   86.03300
 14973.00000   53.25630   87.22900
 14973.50000   53.96960   88.49780
 14974.00000   54.10770   89.49000
 14974.50000   53.84790   90.36940
 14975.00000   53.17630   91.25640
 14975.50000   52.57150   92.48510
 14976.00000   51.97020   94.19750
 14976.50000   51.49350   95.81750
 14977.00000   51.34750   96.76700
 14977.50000   51.13990   97.18150
 14978.00000   50.61510   96.44310
 14978.50000   50.08570   95.10100
 14979.00000   49.71320   93.75900
 14979.50000   49.76940   93.05750
 14980.00000   50.78440   93.22090
 14980.50000   54.04170   95.48540
 14981.00000   57.89230  101.78860
 14981.50000   60.40900  108.97170
 14982.00000   60.86340  108.73310
 14982.50000   59.54650  106.00260
 14983.00000   57.55860  102.73510
 14983.50000   55.67220   99.35790
 14984.00000   55.03110   98.18960
 14984.50000   55.02650   97.82870
 14985.00000   54.70210   98.27980
 14985.50000   54.40330   97.75180
 14986.00000   54.29140   96.64310
 14986.50000   54.18800   94.83210
 14987.00000   53.70800   94.53140
 14987.50000   53.01420   98.24200
 14988.00000   52.74700  102.25010
 14988.50000   52.69830  104.75630
 14989.00000   52.77880  104.62310
 14989.50000   52.77480  104.24160
 14990.00000   52.97710  102.68670
 14990.50000   53.20410  100.69230
 14991.00000   53.76380   97.53650
 14991.50000   54.86580   96.18090
 14992.00000   55.66190   96.26460
 14992.50000   55.88730   96.21220
 14993.00000   55.07420   98.06160
 14993.50000   54.36730   99.21100
 14994.00000   54.63490   98.46750
 14994.50000   55.19960   96.01880
 14995.00000   55.13050   93.67590
 14995.50000   54.79610   92.02820
 14996.00000   54.39860   90.17140
 14996.50000   53.41940   87.26450
 14997.00000   52.31750   81.82730
 14997.50000   52.08760   80.08770
 14998.00000   52.76170   84.84140
 14998.50000   54.15310   89.63560
 14999.00000   55.12030   95.25980
 14999.50000   54.83290   99.21710
 15000.00000   54.37350  101.73460
 15000.50000   53.88910  101.33710
 15001.00000   53.33140   98.00990
 15001.50000   52.96460   94.51550
 15002.00000   53.14650   92.20420
 15002.50000   53.78140   92.25490
 15003.00000   54.89280   95.73170
 15003.50000   57.16600  102.81700
 15004.00000   61.70610  111.26070
 15004.50000   67.05500  119.77280
 15005.00000   69.47080  128.02110
 15005.50000   70.12610  135.65980
 15006.00000   71.50190  135.75340
 15006.50000   71.83530  133.86070
 15007.00000   69.99940  131.67560
 15007.50000   68.16340  129.73810
 15008.00000   66.46310  128.70380
 15008.50000   65.09620  127.59180
 15009.00000   63.97050  124.20670
 15009.50000   62.11240  117.68360
 15010.00000   58.13530  106.07550
 15010.50000   55.03990   97.20670
 15011.00000   53.34550   93.94890
 15011.50000   51.93750   91.69030
 15012.00000   51.21940   91.72430
 15012.50000   51.53300   91.98450
 15013.00000   52.21200   92.83650
 15013.50000   52.90690   94.20560
 15014.00000   53.45890  100.21830
 15014.50000   53.64290  103.58080
 15015.00000   53.21320   98.38250
 15015.50000   52.64990   92.32720
 15016.00000   52.19460   92.95710
 15016.50000   52.34430   99.85930
 15017.00000   53.86830  100.31730
 15017.50000   54.85900   99.84700
 15018.00000   57.28750   99.38820
 15018.50000   59.58510  100.88700
 15019.00000   57.34980  101.87760
 15019.50000   53.93780  101.85290
 15020.00000   52.73300  100.50670
 15020.50000   52.84220  100.31260
 15021.00000   53.95760  100.34950
 15021.50000   54.85440  100.39420
 15022.00000   54.56070  100.38450
 15022.50000   53.88000  100.33350
 15023.00000   53.51290  100.28250
 15023.50000   53.60960  100.22800
 15024.00000   53.03760  100.17180
