~Version ---------------------------------------------------
VERS.   2.0 : CWLS log ASCII Standard -VERSION 2.0
WRAP.    NO : One line per depth step
DLM . SPACE : Column Data Section Delimiter
~Well ------------------------------------------------------
STRT .F                5502.0 : START DEPTH
STOP .F               16373.0 : STOP DEPTH
STEP .F                   0.5 : STEP
NULL .               -9999.25 : NULL VALUE
COMP .                        : COMPANY
WELL .                        : WELL
FLD  .                        : FIELD
LOC  .                        : LOCATION
PROV .                        : PROVINCE
CNTY .                        : COUNTY
STAT .                        : STATE
CTRY .                        : COUNTRY
SRVC .                        : SERVICE COMPANY
DATE .                        : DATE
UWI  .                        : UNIQUE WELL ID
API  .                        : API NUMBER
SLAT .WGS84   5.6462746719519 : SURFACE LATITUDE
SLON .WGS84 4.499251356554581 : SURFACE LONGITUDE
DATUM.F                   nan : DEPTH DATUM ELEV
~Curve Information -----------------------------------------
DEPT.F     : 1 MEASURED DEPTH
DTCO.US/F  : DELTA-T COMPRESSIONAL
DTSM.US/F  : DELTA-T SHEAR
~Params ----------------------------------------------------
~Other -----------------------------------------------------
~ASCII -----------------------------------------------------
# ...
 9160.00000   67.56370  121.72460
 9160.50000   68.85530  122.91190
 9161.00000   73.81470  129.10470
 9161.50000   78.86380  137.14070
 9162.00000   82.53890  143.49580
 9162.50000   83.64050  148.21020
 9163.00000   82.97600  152.10210
 9163.50000   80.98810  152.83220
 9164.00000   79.69280  149.30710
 9164.50000   79.46810  145.68830
 9165.00000   79.49870  144.16890
 9165.50000   80.05360  143.65990
 9166.00000   80.71660  143.22130
 9166.50000   81.77200  142.84530
 9167.00000   82.34780  142.51660
 9167.50000   82.69400  141.84710
 9168.00000   84.09750  142.16280
 9168.50000   85.23480  143.97450
 9169.00000   84.49650  146.65110
 9169.50000   83.98110  147.61450
 9170.00000   83.90040  148.68520
 9170.50000   84.59030  151.84640
 9171.00000   84.32620  154.63870
 9171.50000   83.12610  154.93250
 9172.00000   82.17170  154.65960
 9172.50000   79.13650  153.32110
 9173.00000   74.38790  151.77060
 9173.50000   75.34100  154.94010
 9174.00000   76.47810  158.64710
 9174.50000   76.62950  147.45440
 9175.00000   75.74420  137.03190
 9175.50000   74.26390  133.57560
 9176.00000   72.24220  130.45190
 9176.50000   70.41030  127.99530
 9177.00000   69.93520  127.16410
 9177.50000   70.55550  128.66080
 9178.00000   73.23740  131.65940
 9178.50000   76.99370  135.77550
 9179.00000   79.65590  139.16340
 9179.50000   80.03130  140.58710
 9180.00000   80.03230  141.24240
 9180.50000   79.92600  140.56210
 9181.00000   79.66540  139.42450
 9181.50000   79.86750  137.88020
 9182.00000   80.31410  136.35140
 9182.50000   80.77190  134.86420
 9183.00000   80.82990  135.92940
 9183.50000   80.72080  137.60810
 9184.00000   80.51100  139.01300
 9184.50000   80.02270  139.47290
 9185.00000   79.46310  139.51440
 9185.50000   79.18320  139.16070
 9186.00000   79.02180  137.24390
 9186.50000   79.43510  135.49110
 9187.00000   80.31020  138.19920
 9187.50000   80.97010  140.53010
 9188.00000   81.86930  141.81740
 9188.50000   82.84150  142.45210
 9189.00000   83.03430  143.04690
 9189.50000   82.85300  143.63760
 9190.00000   82.60410  144.10140
 9190.50000   82.31290  144.52990
 9191.00000   81.92670  144.21130
 9191.50000   82.02580  144.05150
 9192.00000   83.17280  144.57320
 9192.50000   85.00800  148.07260
 9193.00000   87.29810  152.32080
 9193.50000   89.70260  155.72960
 9194.00000   92.28360  157.51520
 9194.50000   93.61600  159.47460
 9195.00000   93.94710  161.17060
 9195.50000   93.65990  162.94460
 9196.00000   92.84030  164.72920
 9196.50000   91.14000  164.93450
 9197.00000   89.86040  158.49750
 9197.50000   88.51340  153.37990
 9198.00000   83.37040  150.12650
 9198.50000   72.81620  146.80040
 9199.00000   60.26480  144.90100
 9199.50000   54.51050  143.77510
 9200.00000   50.41730  142.16590
 9200.50000   48.13270  137.54170
 9201.00000   48.51060  129.40670
 9201.50000   51.31900  120.40920
 9202.00000   52.23280  114.48460
 9202.50000   52.68270  109.12680
 9203.00000   53.47440  104.11800
 9203.50000   53.63080  103.87050
 9204.00000   52.66370  103.55720
 9204.50000   50.63280  102.49770
 9205.00000   49.01270   97.94900
 9205.50000   48.36240   93.56660
 9206.00000   48.76800   89.97480
 9206.50000   50.47240   86.93170
 9207.00000   52.94810   89.49520
 9207.50000   55.74560   99.97820
 9208.00000   58.73350  111.67960
 9208.50000   60.03660  119.79140
 9209.00000   60.15070  125.50520
 9209.50000   58.26580  131.21890
 9210.00000   57.17010  137.56880
 9210.50000   60.47030  141.74350
 9211.00000   67.51470  141.63470
 9211.50000   73.03120  138.82320
 9212.00000   73.46020  135.72950
 9212.50000   71.01790  132.26290
 9213.00000   68.79530  128.66270
 9213.50000   67.37220  125.15180
 9214.00000   66.43550  121.43570
 9214.50000   64.69050  116.76880
 9215.00000   62.42550  113.36950
 9215.50000   61.24040  111.18830
 9216.00000   60.42560  109.69870
 9216.50000   59.81730  108.79260
 9217.00000   59.80010  108.45000
 9217.50000   60.47340  109.50610
 9218.00000   61.74920  112.43230
 9218.50000   63.10480  114.75200
 9219.00000   65.60860  116.31600
 9219.50000   67.85990  116.59570
 9220.00000   66.40880  116.39920
 9220.50000   64.07560  115.78920
 9221.00000   63.58920  114.98820
 9221.50000   63.59960  113.05730
 9222.00000   63.69330  110.73120
 9222.50000   63.35010  107.54200
 9223.00000   62.05230  105.35650
 9223.50000   61.10010  104.66930
 9224.00000   61.23320  104.55900
 9224.50000   61.68410  104.51140
 9225.00000   61.89600  104.81850
 9225.50000   61.84700  105.15410
 9226.00000   61.21060  105.51810
 9226.50000   60.11860  105.26180
 9227.00000   59.01800  103.23540
 9227.50000   57.94520  100.73050
 9228.00000   57.01250   96.77100
 9228.50000   56.86520   94.31680
 9229.00000   57.15770   93.26270
 9229.50000   57.84060   93.15190
 9230.00000   58.68890   93.37670
 9230.50000   59.58410   93.76600
 9231.00000   60.99570   94.42720
 9231.50000   62.47910   96.56960
 9232.00000   62.59800   99.90270
 9232.50000   62.11700  103.60160
 9233.00000   61.31320  106.87030
 9233.50000   60.73280  109.52470
 9234.00000   61.50200  109.29200
 9234.50000   63.26490  108.88010
 9235.00000   64.78660  110.03570
 9235.50000   65.64850  113.60930
 9236.00000   65.98920  117.69880
 9236.50000   66.43040  122.04130
 9237.00000   67.54030  125.91830
 9237.50000   67.60120  127.19500
 9238.00000   66.20080  126.66180
 9238.50000   64.24230  124.45440
 9239.00000   63.04490  120.36170
 9239.50000   62.31680  115.60880
 9240.00000   61.18700  112.62550
 9240.50000   60.17380  110.65150
 9241.00000   59.40190  108.23790
 9241.50000   58.45420  106.54880
 9242.00000   57.62160  104.95850
 9242.50000   56.78240  103.71320
 9243.00000   57.29520  103.35880
 9243.50000   58.28920  103.57970
 9244.00000   59.16880  104.12040
 9244.50000   59.91980  104.71100
 9245.00000   60.60470  105.49050
 9245.50000   61.17430  106.73380
 9246.00000   62.16010  108.05180
 9246.50000   62.72890  109.52890
 9247.00000   63.36380  111.09600
 9247.50000   65.84880  112.68690
 9248.00000   68.45620  114.79940
 9248.50000   68.89310  116.40050
 9249.00000   68.67550  118.57400
 9249.50000   69.23630  122.94300
 9250.00000   71.95430  129.63820
 9250.50000   75.34080  135.22150
 9251.00000   76.00490  138.08330
 9251.50000   74.31530  138.67870
 9252.00000   73.05480  138.05450
 9252.50000   72.05510  136.32520
 9253.00000   70.05510  134.86020
 9253.50000   68.64110  132.32730
 9254.00000   69.16610  130.70990
 9254.50000   69.97090  130.50850
 9255.00000   70.30250  130.29900
 9255.50000   70.52080  129.64920
 9256.00000   70.75490  128.59420
 9256.50000   71.18240  127.96230
 9257.00000   70.87180  127.52850
 9257.50000   70.24310  126.52810
 9258.00000   69.71320  125.67640
 9258.50000   69.55150  124.84670
 9259.00000   68.49720  123.97050
 9259.50000   66.79000  122.64690
 9260.00000   66.42910  121.49750
 9260.50000   66.79470  120.68300
 9261.00000   67.90350  123.04340
 9261.50000   68.90870  125.89820
 9262.00000   70.58840  129.61490
 9262.50000   72.44020  133.83310
 9263.00000   72.87250  133.71090
 9263.50000   71.27920  132.40120
 9264.00000   71.16770  131.31140
 9264.50000   71.77960  131.09190
 9265.00000   72.48890  134.50420
 9265.50000   72.19780  137.94000
 9266.00000   71.20690  138.36670
 9266.50000   70.44920  138.23530
 9267.00000   70.56060  137.76720
 9267.50000   70.88310  137.56930
 9268.00000   72.71860  138.01770
 9268.50000   75.77270  139.51580
 9269.00000   78.22940  141.06220
 9269.50000   77.10400  141.69810
 9270.00000   70.78980  142.06740
 9270.50000   65.58910  140.74780
 9271.00000   68.27550  138.23440
 9271.50000   70.41950  135.86390
 9272.00000   70.19220  133.84590
 9272.50000   69.85010  130.00490
 9273.00000   69.22450  126.45520
 9273.50000   69.24350  123.18190
 9274.00000   70.33410  123.50270
 9274.50000   71.26320  131.58480
 9275.00000   70.78310  145.76100
 9275.50000   68.85670  164.34850
 9276.00000   66.23850  179.22380
 9276.50000   65.53860  181.07530
 9277.00000   69.59820  180.92340
 9277.50000   74.56050  168.78900
