~Version ---------------------------------------------------
VERS.   2.0 : CWLS log ASCII Standard -VERSION 2.0
WRAP.    NO : One line per depth step
DLM . SPACE : Column Data Section Delimiter
~Well ------------------------------------------------------
STRT .F                5502.0 : START DEPTH
STOP .F               16373.0 : STOP DEPTH
STEP .F                   0.5 : STEP
NULL .               -9999.25 : NULL VALUE
COMP .                        : COMPANY
WELL .                        : WELL
FLD  .                        : FIELD
LOC  .                        : LOCATION
PROV .                        : PROVINCE
CNTY .                        : COUNTY
STAT .                        : STATE
CTRY .                        : COUNTRY
SRVC .                        : SERVICE COMPANY
DATE .                        : DATE
UWI  .                        : UNIQUE WELL ID
API  .                        : API NUMBER
SLAT .WGS84   5.6462746719519 : SURFACE LATITUDE
SLON .WGS84 4.499251356554581 : SURFACE LONGITUDE
DATUM.F                   nan : DEPTH DATUM ELEV
~Curve Information -----------------------------------------
DEPT.F     : 1 MEASURED DEPTH
DTCO.US/F  : DELTA-T COMPRESSIONAL
DTSM.US/F  : DELTA-T SHEAR
~Params ----------------------------------------------------
~Other -----------------------------------------------------
~ASCII -----------------------------------------------------
# ...
 13421.50000   60.38970  104.20370
 13422.00000   61.15690  104.08060
 13422.50000   61.60270  103.50900
 13423.00000   62.10730  102.91260
 13423.50000   63.05300  102.34470
 13424.00000   63.66410  102.09480
 13424.50000   64.41520  102.05420
 13425.00000   65.71340  102.43480
 13425.50000   67.23840  105.10550
 13426.00000   68.65830  109.35330
 13426.50000   69.19530  113.16560
 13427.00000   68.90170  115.21930
 13427.50000   67.52700  115.66240
 13428.00000   65.42350  115.24590
 13428.50000   63.67210  113.61100
 13429.00000   62.68930  109.26170
 13429.50000   62.45520  104.94100
 13430.00000   62.59680  102.50180
 13430.50000   63.01510  101.29830
 13431.00000   63.81660  101.73000
 13431.50000   64.29600  102.39920
 13432.00000   64.38460  103.14340
 13432.50000   64.44530  104.40790
 13433.00000   64.69600  105.80060
 13433.50000   65.17840  107.25740
 13434.00000   65.55700  108.35810
 13434.50000   65.90360  109.34840
 13435.00000   66.36650  110.33870
 13435.50000   66.66140  110.80490
 13436.00000   66.25970  110.45350
 13436.50000   65.56090  109.98790
 13437.00000   64.57090  109.67330
 13437.50000   63.68450  109.36440
 13438.00000   63.08820  109.26800
 13438.50000   62.62270  109.34780
 13439.00000   62.33270  109.42760
 13439.50000   62.84310  109.83790
 13440.00000   64.11090  109.74410
 13440.50000   65.59270  109.65030
 13441.00000   66.13150  109.73090
 13441.50000   66.28480  109.81510
 13442.00000   66.08170  109.84000
 13442.50000   65.69030  109.84340
 13443.00000   65.28580  109.86780
 13443.50000   64.69880  109.77840
 13444.00000   64.00370  109.68910
 13444.50000   63.32130  109.59980
 13445.00000   63.02220  109.54770
 13445.50000   62.62250  109.11940
 13446.00000   61.82840  108.18360
 13446.50000   61.37350  107.27860
 13447.00000   61.23920  106.65100
 13447.50000   61.53590  106.49150
 13448.00000   61.98460  106.38430
 13448.50000   62.58500  106.32680
 13449.00000   62.95670  106.70910
 13449.50000   63.28290  107.04850
 13450.00000   63.57180  107.73160
 13450.50000   63.74560  108.81480
 13451.00000   63.62840  109.26120
 13451.50000   63.60260  109.18940
 13452.00000   63.61040  108.71670
 13452.50000   63.31730  108.25280
 13453.00000   61.97870  107.61760
 13453.50000   60.42000  106.51580
 13454.00000   59.55520  105.42970
 13454.50000   59.30250  104.37080
 13455.00000   59.43230  103.21350
 13455.50000   59.72690  102.69600
 13456.00000   60.27670  103.39970
 13456.50000   60.91220  103.78850
 13457.00000   61.21320  104.33330
 13457.50000   61.44440  105.07440
 13458.00000   61.86510  106.11560
 13458.50000   62.28590  107.11660
 13459.00000   62.44060  107.08430
 13459.50000   62.40860  107.08910
 13460.00000   62.36170  107.28700
 13460.50000   62.36250  107.61770
 13461.00000   62.55380  107.91930
 13461.50000   63.01710  108.26920
 13462.00000   63.58240  108.93370
 13462.50000   64.23160  109.47770
 13463.00000   64.69730  110.02170
 13463.50000   64.86890  110.29290
 13464.00000   64.96260  109.90920
 13464.50000   64.88510  109.48740
 13465.00000   64.38730  109.00030
 13465.50000   64.03640  108.48890
 13466.00000   63.98770  108.67400
 13466.50000   63.96960  109.25990
 13467.00000   64.20000  109.38260
 13467.50000   64.43050  109.14600
 13468.00000   64.73810  109.01370
 13468.50000   65.16060  108.96590
 13469.00000   65.48960  109.19420
 13469.50000   65.70600  109.42730
 13470.00000   65.50080  109.70510
 13470.50000   65.10140  109.98300
 13471.00000   64.46560  110.26080
 13471.50000   63.97350  110.58990
 13472.00000   63.73570  111.11850
 13472.50000   63.84740  111.66420
 13473.00000   64.11410  112.23210
 13473.50000   64.34420  112.59410
 13474.00000   64.45010  112.55800
 13474.50000   64.36600  111.85670
 13475.00000   63.91410  111.15540
 13475.50000   63.00580  109.35140
 13476.00000   62.10940  107.58650
 13476.50000   61.32290  106.15300
 13477.00000   61.21590  105.52590
 13477.50000   61.63460  105.59080
 13478.00000   62.36090  106.05390
 13478.50000   63.24640  107.07380
 13479.00000   64.13850  108.17270
 13479.50000   64.35200  109.37710
 13480.00000   64.13590  110.40840
 13480.50000   63.73840  110.41500
 13481.00000   63.26410  109.47880
 13481.50000   62.69350  108.40790
 13482.00000   62.19810  107.33100
 13482.50000   62.19670  105.94200
 13483.00000   62.19920  104.58260
 13483.50000   62.20780  103.46380
 13484.00000   62.35910  102.76920
 13484.50000   62.81070  102.37210
 13485.00000   63.12330  101.96090
 13485.50000   63.18910  101.94480
 13486.00000   63.30210  102.27180
 13486.50000   63.56530  102.33630
 13487.00000   63.86530  101.83380
 13487.50000   64.27040  101.26550
 13488.00000   64.64140  101.78600
 13488.50000   64.74510  103.65090
 13489.00000   64.36110  107.05570
 13489.50000   63.68370  107.51700
 13490.00000   62.91290  107.32910
 13490.50000   62.41930  106.97120
 13491.00000   62.81170  107.20690
 13491.50000   63.33230  108.69740
 13492.00000   63.39640  111.32000
 13492.50000   63.47600  113.85160
 13493.00000   64.41060  114.71610
 13493.50000   65.25830  114.69700
 13494.00000   64.71360  113.04020
 13494.50000   63.04680  110.75300
 13495.00000   61.64590  106.19720
 13495.50000   61.02490  102.52300
 13496.00000   61.46310  102.59840
 13496.50000   62.56360  104.01580
 13497.00000   63.81280  106.89390
 13497.50000   64.36400  108.99220
 13498.00000   63.68130  109.99760
 13498.50000   62.10530  108.19910
 13499.00000   60.84090  105.56880
 13499.50000   60.46670  103.78420
 13500.00000   62.38260  102.32470
 13500.50000   63.74450  102.63880
 13501.00000   65.10630  103.85910
 13501.50000   66.46820  108.12180
 13502.00000   66.99500  108.37230
 13502.50000   66.22250  108.18190
 13503.00000   65.29180  107.08950
 13503.50000   65.05140  105.58200
 13504.00000   64.22020  104.00930
 13504.50000   63.04850  102.37320
 13505.00000   62.61080  101.69590
 13505.50000   63.00560  102.57110
 13506.00000   63.60550  103.58870
 13506.50000   63.55610  104.74930
 13507.00000   62.12870  105.98770
 13507.50000   60.71060  103.92150
 13508.00000   60.25380  103.18790
 13508.50000   59.94890  103.07860
 13509.00000   59.81800  108.00910
 13509.50000   62.36690  114.48010
 13510.00000   66.48830  118.02170
 13510.50000   65.33600  118.30700
 13511.00000   62.10880  116.59220
 13511.50000   60.21520  112.34070
 13512.00000   58.49260  106.15940
 13512.50000   58.02750  103.90280
 13513.00000   57.15920  103.17820
 13513.50000   55.86350  104.99550
 13514.00000   55.78050  106.48930
 13514.50000   56.40250  107.28840
 13515.00000   56.75800  106.55170
 13515.50000   57.08040  105.58020
 13516.00000   57.31430  105.14580
 13516.50000   57.83030  104.97130
 13517.00000   58.43980  104.80520
 13517.50000   58.94210  104.51650
 13518.00000   59.17580  104.43510
 13518.50000   59.30250  104.35370
 13519.00000   59.42660  104.58050
 13519.50000   59.54730  104.37950
 13520.00000   59.27520  104.13880
 13520.50000   59.09300  103.86660
 13521.00000   59.11600  103.49490
 13521.50000   59.83900  102.47020
 13522.00000   60.56880  102.53950
 13522.50000   60.87280  102.94260
 13523.00000   60.93060  103.69450
 13523.50000   60.79270  104.20320
 13524.00000   60.45250  104.47680
 13524.50000   59.85360  105.09790
 13525.00000   59.57240  105.24840
 13525.50000   59.78710  104.99180
 13526.00000   60.10520  104.99330
 13526.50000   60.42680  106.23290
 13527.00000   60.80360  107.24010
 13527.50000   61.08350  107.80690
 13528.00000   61.18430  108.17910
 13528.50000   61.18430  108.18010
 13529.00000   61.01510  107.49170
 13529.50000   60.63810  105.52760
 13530.00000   59.68770  103.36590
 13530.50000   57.97730  101.26320
 13531.00000   56.34100   99.32570
 13531.50000   55.94280   98.25190
 13532.00000   55.90530   99.35640
 13532.50000   56.11050  100.47640
 13533.00000   56.32740  101.46230
 13533.50000   56.50840  102.43680
 13534.00000   56.69120  102.64500
 13534.50000   56.82000  103.41960
 13535.00000   56.66510  104.27250
 13535.50000   56.55480  104.67630
