~Version ---------------------------------------------------
VERS.   2.0 : CWLS log ASCII Standard -VERSION 2.0
WRAP.    NO : One line per depth step
DLM . SPACE : Column Data Section Delimiter
~Well ------------------------------------------------------
STRT .F                5502.0 : START DEPTH
STOP .F               16373.0 : STOP DEPTH
STEP .F                   0.5 : STEP
NULL .               -9999.25 : NULL VALUE
COMP .                        : COMPANY
WELL .                        : WELL
FLD  .                        : FIELD
LOC  .                        : LOCATION
PROV .                        : PROVINCE
CNTY .                        : COUNTY
STAT .                        : STATE
CTRY .                        : COUNTRY
SRVC .                        : SERVICE COMPANY
DATE .                        : DATE
UWI  .                        : UNIQUE WELL ID
API  .                        : API NUMBER
SLAT .WGS84   5.6462746719519 : SURFACE LATITUDE
SLON .WGS84 4.499251356554581 : SURFACE LONGITUDE
DATUM.F                   nan : DEPTH DATUM ELEV
~Curve Information -----------------------------------------
DEPT.F     : 1 MEASURED DEPTH
DTCO.US/F  : DELTA-T COMPRESSIONAL
DTSM.US/F  : DELTA-T SHEAR
~Params ----------------------------------------------------
~Other -----------------------------------------------------
~ASCII -----------------------------------------------------
# ...
 10559.00000   84.31390  177.11110
 10559.50000   84.42250  178.86420
 10560.00000   83.79150  179.23330
 10560.50000   83.25550  174.05080
 10561.00000   82.43710  169.67100
 10561.50000   81.44980  170.81810
 10562.00000   80.18550  171.61240
 10562.50000   78.82460  168.39910
 10563.00000   78.25720  164.75920
 10563.50000   79.01280  159.18470
 10564.00000   81.25810  159.95510
 10564.50000   83.27560  166.92420
 10565.00000   84.14830  171.94750
 10565.50000   84.69370  174.59590
 10566.00000   84.67370  177.40050
 10566.50000   83.01640  181.25620
 10567.00000   81.07050  181.71150
 10567.50000   80.41350  176.71030
 10568.00000   80.64760  173.01180
 10568.50000   81.83750  171.99860
 10569.00000   82.61270  171.77880
 10569.50000   82.33910  171.66450
 10570.00000   81.56890  171.63010
 10570.50000   80.54200  171.29330
 10571.00000   79.60450  169.00840
 10571.50000   79.11910  166.06600
 10572.00000   79.76150  164.72530
 10572.50000   81.35700  165.77900
 10573.00000   83.55720  170.01470
 10573.50000   84.66910  174.27390
 10574.00000   84.77820  175.11230
 10574.50000   84.37590  175.14020
 10575.00000   83.89010  174.01070
 10575.50000   83.26250  171.91190
 10576.00000   83.46590  169.39350
 10576.50000   83.92560  165.59730
 10577.00000   83.74110  162.03020
 10577.50000   83.73650  164.20130
 10578.00000   83.28820  166.41050
 10578.50000   82.28530  166.81040
 10579.00000   81.95210  164.57740
 10579.50000   81.78350  162.97830
 10580.00000   81.84800  163.76130
 10580.50000   82.29060  164.68870
 10581.00000   82.67800  165.47090
 10581.50000   82.79150  167.67010
 10582.00000   83.32770  172.28550
 10582.50000   83.63770  172.79600
 10583.00000   82.80060  171.58650
 10583.50000   82.24430  169.86810
 10584.00000   83.03940  169.42050
 10584.50000   84.12600  169.02210
 10585.00000   84.49390  168.25150
 10585.50000   84.48170  167.22250
 10586.00000   83.91790  166.24180
 10586.50000   83.05990  165.65570
 10587.00000   83.46130  165.17490
 10587.50000   84.34310  162.39650
 10588.00000   85.22490  162.24450
 10588.50000   86.37120  164.76130
 10589.00000   87.74870  168.63820
 10589.50000   88.29860  172.18480
 10590.00000   87.52650  172.28770
 10590.50000   86.01110  170.44230
 10591.00000   83.59300  164.97090
 10591.50000   80.32420  156.86980
 10592.00000   78.77150  149.77400
 10592.50000   77.51630  147.38590
 10593.00000   76.26100  145.29890
 10593.50000   75.94590  142.14180
 10594.00000   74.97530  137.34600
 10594.50000   73.12090  135.05060
 10595.00000   70.43520  132.85140
 10595.50000   67.45680  130.16620
 10596.00000   66.25420  126.20850
 10596.50000   66.33370  121.60800
 10597.00000   68.05970  121.57900
 10597.50000   69.49470  124.06850
 10598.00000   70.63230  127.14630
 10598.50000   71.17020  127.99600
 10599.00000   71.63760  128.87560
 10599.50000   72.74810  130.33150
 10600.00000   75.31000  132.24520
 10600.50000   77.64870  134.50210
 10601.00000   79.20710  140.54650
 10601.50000   80.01620  146.14470
 10602.00000   80.39060  150.70950
 10602.50000   80.63970  153.97580
 10603.00000   80.42250  155.73900
 10603.50000   81.37360  156.33900
 10604.00000   82.95080  157.56540
 10604.50000   84.15240  159.90600
 10605.00000   84.66440  161.48630
 10605.50000   85.09160  163.44730
 10606.00000   85.11420  165.77430
 10606.50000   84.72700  166.96920
 10607.00000   84.27280  169.28830
 10607.50000   83.99080  172.79460
 10608.00000   84.22830  174.95620
 10608.50000   84.92810  172.54990
 10609.00000   85.91850  168.14840
 10609.50000   87.18100  165.58960
 10610.00000   86.95280  161.63980
 10610.50000   83.76740  156.95060
 10611.00000   80.93920  158.00580
 10611.50000   79.84880  159.80420
 10612.00000   79.27940  159.42960
 10612.50000   78.81010  157.02350
 10613.00000   78.90170  154.67970
 10613.50000   79.05450  152.57660
 10614.00000   79.25140  151.59270
 10614.50000   79.57040  151.03160
 10615.00000   79.69100  150.61180
 10615.50000   79.06540  149.26170
 10616.00000   77.38890  145.93170
 10616.50000   74.91150  142.13350
 10617.00000   71.95950  138.05820
 10617.50000   70.40590  134.83240
 10618.00000   70.91760  132.14930
 10618.50000   73.00750  132.03620
 10619.00000   75.52100  133.31740
 10619.50000   76.33360  134.91930
 10620.00000   75.34940  135.07650
 10620.50000   73.16490  133.31300
 10621.00000   69.87820  130.22060
 10621.50000   68.03640  126.88000
 10622.00000   68.57120  124.90810
 10622.50000   69.87540  127.34520
 10623.00000   72.13010  134.09290
 10623.50000   75.09220  140.92380
 10624.00000   76.74350  145.27520
 10624.50000   77.90390  147.56650
 10625.00000   78.39450  147.36250
 10625.50000   77.40630  144.72590
 10626.00000   75.64460  141.46240
 10626.50000   73.56860  138.47220
 10627.00000   71.53260  134.89700
 10627.50000   70.05220  130.58680
 10628.00000   69.55570  126.73750
 10628.50000   69.82920  124.73670
 10629.00000   70.26100  124.32590
 10629.50000   71.42030  124.59160
 10630.00000   73.20840  125.57820
 10630.50000   73.54770  126.73560
 10631.00000   72.41210  125.89720
 10631.50000   70.28970  123.50480
 10632.00000   68.61600  121.17720
 10632.50000   67.39490  120.87870
 10633.00000   66.14230  121.57100
 10633.50000   64.69820  122.57600
 10634.00000   64.32650  123.31420
 10634.50000   64.52830  121.40160
 10635.00000   63.79690  118.34060
 10635.50000   62.95170  114.86070
 10636.00000   62.93700  113.38970
 10636.50000   63.34160  112.64500
 10637.00000   63.61750  111.55310
 10637.50000   63.14970  110.31710
 10638.00000   61.19760  107.55550
 10638.50000   58.19020  105.45970
 10639.00000   55.32590  103.53490
 10639.50000   55.06440  103.07460
 10640.00000   57.81150  103.32370
 10640.50000   61.71590  105.34370
 10641.00000   65.56800  110.21110
 10641.50000   68.30590  114.90630
 10642.00000   69.52160  120.09270
 10642.50000   69.80320  121.93330
 10643.00000   69.58570  122.12980
 10643.50000   69.48950  122.76850
 10644.00000   70.42530  124.28320
 10644.50000   74.21250  127.83710
 10645.00000   77.57820  131.82120
 10645.50000   78.93310  135.13140
 10646.00000   78.68350  134.85840
 10646.50000   76.79380  133.43520
 10647.00000   73.70850  128.38140
 10647.50000   69.39020  122.60980
 10648.00000   64.65970  114.65200
 10648.50000   60.10490  107.26410
 10649.00000   57.56870  102.69070
 10649.50000   56.09570  100.91380
 10650.00000   56.40160  100.48990
 10650.50000   57.52520  102.22550
 10651.00000   59.05600  103.46620
 10651.50000   62.12600  106.31880
 10652.00000   64.99680  111.86780
 10652.50000   66.53640  115.80440
 10653.00000   66.47780  117.95560
 10653.50000   65.49770  117.19100
 10654.00000   63.72270  114.27050
 10654.50000   62.03580  111.25160
 10655.00000   60.63090  109.03430
 10655.50000   62.38670  108.64410
 10656.00000   67.34610  111.56810
 10656.50000   70.64350  119.06280
 10657.00000   71.86200  124.95560
 10657.50000   71.26580  127.19130
 10658.00000   69.90050  128.48880
 10658.50000   67.82660  128.98940
 10659.00000   65.62900  125.58570
 10659.50000   64.61060  121.95130
 10660.00000   65.50720  122.54400
 10660.50000   67.64670  125.27150
 10661.00000   69.87380  123.62770
 10661.50000   71.48110  120.61110
 10662.00000   71.61070  120.72280
 10662.50000   71.52370  122.74640
 10663.00000   71.68640  124.70490
 10663.50000   72.27480  126.71240
 10664.00000   73.49960  128.42080
 10664.50000   74.63370  130.49520
 10665.00000   75.22000  132.88460
 10665.50000   76.03770  134.69920
 10666.00000   76.51180  135.86700
 10666.50000   77.25100  133.96160
 10667.00000   78.11570  132.80000
 10667.50000   78.89740  140.32960
 10668.00000   80.61270  148.36540
 10668.50000   82.48890  152.60630
 10669.00000   83.08920  153.88500
 10669.50000   81.82350  149.88670
 10670.00000   78.86430  147.61350
 10670.50000   78.32830  146.92720
 10671.00000   81.03980  146.69470
 10671.50000   80.69300  144.43860
 10672.00000   81.05380  141.55480
 10672.50000   81.70940  149.81330
 10673.00000   82.21290  168.02560
