~Version ---------------------------------------------------
VERS.   2.0 : CWLS log ASCII Standard -VERSION 2.0
WRAP.    NO : One line per depth step
DLM . SPACE : Column Data Section Delimiter
~Well ------------------------------------------------------
STRT .F                5502.0 : START DEPTH
STOP .F               16373.0 : STOP DEPTH
STEP .F                   0.5 : STEP
NULL .               -9999.25 : NULL VALUE
COMP .                        : COMPANY
WELL .                        : WELL
FLD  .                        : FIELD
LOC  .                        : LOCATION
PROV .                        : PROVINCE
CNTY .                        : COUNTY
STAT .                        : STATE
CTRY .                        : COUNTRY
SRVC .                        : SERVICE COMPANY
DATE .                        : DATE
UWI  .                        : UNIQUE WELL ID
API  .                        : API NUMBER
SLAT .WGS84   5.6462746719519 : SURFACE LATITUDE
SLON .WGS84 4.499251356554581 : SURFACE LONGITUDE
DATUM.F                   nan : DEPTH DATUM ELEV
~Curve Information -----------------------------------------
DEPT.F     : 1 MEASURED DEPTH
DTCO.US/F  : DELTA-T COMPRESSIONAL
DTSM.US/F  : DELTA-T SHEAR
~Params ----------------------------------------------------
~Other -----------------------------------------------------
~ASCII -----------------------------------------------------
# ...
 8452.00000   76.93040  152.01520
 8452.50000   81.90540  158.73510
 8453.00000   85.98440  162.96100
 8453.50000   86.61670  163.13240
 8454.00000   86.69790  162.58580
 8454.50000   85.91230  162.15390
 8455.00000   85.56790  161.17150
 8455.50000   86.10660  160.12700
 8456.00000   85.93700  159.15520
 8456.50000   85.09270  157.94060
 8457.00000   85.47340  156.36810
 8457.50000   86.09800  152.80920
 8458.00000   85.41580  148.93810
 8458.50000   83.11180  148.60100
 8459.00000   80.55430  150.54650
 8459.50000   79.47680  154.92650
 8460.00000   78.68820  157.37340
 8460.50000   78.26150  159.69570
 8461.00000   77.20170  161.76910
 8461.50000   73.06740  158.22590
 8462.00000   69.68790  145.91120
 8462.50000   67.87530  132.34800
 8463.00000   68.34580  128.83260
 8463.50000   70.51700  126.53290
 8464.00000   73.30150  120.26460
 8464.50000   75.54270  114.70860
 8465.00000   78.11320  110.83100
 8465.50000   81.23780  113.72810
 8466.00000   84.09940  121.02860
 8466.50000   82.07570  125.41960
 8467.00000   76.85440  129.58720
 8467.50000   73.15290  131.54250
 8468.00000   73.87210  131.06100
 8468.50000   75.58470  130.83570
 8469.00000   76.83990  148.61070
 8469.50000   77.94400  180.46350
 8470.00000   79.16720  195.68960
 8470.50000   80.79070  204.33320
 8471.00000   83.65990  211.24750
 8471.50000   79.55540  201.11380
 8472.00000   73.94850  161.03170
 8472.50000   69.88320  142.29370
 8473.00000   69.46640  136.01160
 8473.50000   69.78400  134.58660
 8474.00000   70.54770  134.42760
 8474.50000   72.02320  136.59380
 8475.00000   73.10410  136.88000
 8475.50000   73.79890  137.43360
 8476.00000   75.42610  138.58570
 8476.50000   76.99520  139.73780
 8477.00000   77.13180  140.86380
 8477.50000   76.90260  145.32730
 8478.00000   76.45420  155.77740
 8478.50000   75.33090  160.63440
 8479.00000   74.86610  158.69100
 8479.50000   74.62000  153.26470
 8480.00000   75.15270  148.52860
 8480.50000   75.61180  143.04950
 8481.00000   75.27860  140.05280
 8481.50000   74.76840  137.88390
 8482.00000   74.36100  136.19330
 8482.50000   73.95370  134.00780
 8483.00000   74.06630  132.04330
 8483.50000   74.18080  134.60990
 8484.00000   74.01320  143.79620
 8484.50000   73.90230  149.70650
 8485.00000   74.67380  150.88450
 8485.50000   77.90840  147.42580
 8486.00000   79.47160  137.68250
 8486.50000   76.58090  131.52720
 8487.00000   70.09460  124.99450
 8487.50000   65.00430  124.73020
 8488.00000   62.99070  125.46350
 8488.50000   62.92180  126.86030
 8489.00000   64.28570  131.69730
 8489.50000   67.82370  141.36790
 8490.00000   70.51850  148.34460
 8490.50000   72.07930  152.04510
 8491.00000   72.06240  148.86090
 8491.50000   73.97320  148.31550
 8492.00000   80.16200  155.06210
 8492.50000   79.48060  162.91440
 8493.00000   75.98040  167.74900
 8493.50000   75.04000  166.95840
 8494.00000   76.34270  163.71870
 8494.50000   76.03330  159.87820
 8495.00000   74.76370  152.20270
 8495.50000   73.52290  145.68600
 8496.00000   72.07340  140.17510
 8496.50000   72.75350  134.66420
 8497.00000   75.94790  133.52920
 8497.50000   77.09110  134.05860
 8498.00000   76.90320  134.78650
 8498.50000   76.58310  135.01630
 8499.00000   76.31380  134.78830
 8499.50000   76.62510  134.59810
 8500.00000   77.75730  137.72010
 8500.50000   79.03160  142.06620
 8501.00000   80.70790  145.27180
 8501.50000   81.96940  148.51170
 8502.00000   82.36380  151.03510
 8502.50000   81.73080  151.31430
 8503.00000   78.77070  152.89880
 8503.50000   74.16910  161.16420
 8504.00000   71.81310  167.04570
 8504.50000   71.46390  169.04750
 8505.00000   72.99600  169.08500
 8505.50000   77.25870  168.58310
 8506.00000   79.84220  167.63310
 8506.50000   80.34010  166.31350
 8507.00000   79.54370  166.97330
 8507.50000   78.96680  166.56900
 8508.00000   82.17990  166.05420
 8508.50000   85.28320  166.05660
 8509.00000   85.31750  166.77370
 8509.50000   84.49960  169.24530
 8510.00000   85.23180  171.73540
 8510.50000   87.63600  174.38220
 8511.00000   89.09170  176.19460
 8511.50000   88.36980  174.70160
 8512.00000   87.16640  171.74120
 8512.50000   86.34460  169.47380
 8513.00000   84.36760  168.29700
 8513.50000   82.78330  166.28640
 8514.00000   82.22700  161.55270
 8514.50000   81.74530  160.05890
 8515.00000   81.40810  158.32660
 8515.50000   80.94760  156.41200
 8516.00000   79.97930  153.05940
 8516.50000   77.42810  149.97800
 8517.00000   74.44020  149.99130
 8517.50000   76.45710  153.67890
 8518.00000   79.97290  159.17000
 8518.50000   82.90690  163.79340
 8519.00000   83.95700  165.31240
 8519.50000   84.65570  166.59680
 8520.00000   84.69590  165.03460
 8520.50000   84.61090  160.38500
 8521.00000   84.84220  157.24710
 8521.50000   83.49660  155.72110
 8522.00000   80.54160  154.32510
 8522.50000   78.93230  152.84060
 8523.00000   78.03320  149.86770
 8523.50000   77.74530  150.23680
 8524.00000   77.83060  151.42040
 8524.50000   77.90910  151.22420
 8525.00000   77.44450  151.39520
 8525.50000   74.96960  149.12530
 8526.00000   71.31100  145.09870
 8526.50000   68.23640  139.34770
 8527.00000   65.93530  134.46870
 8527.50000   65.11570  131.34360
 8528.00000   65.37940  127.65170
 8528.50000   65.65020  123.44290
 8529.00000   65.40830  121.81150
 8529.50000   64.88230  120.75490
 8530.00000   63.89350  118.92310
 8530.50000   62.84600  115.75770
 8531.00000   62.90100  115.80840
 8531.50000   65.05270  117.13250
 8532.00000   68.31620  119.28060
 8532.50000   69.24350  121.72590
 8533.00000   69.05540  124.30380
 8533.50000   68.97220  125.29920
 8534.00000   68.40730  123.95760
 8534.50000   66.22830  120.80110
 8535.00000   63.35020  117.08320
 8535.50000   61.46790  113.66670
 8536.00000   62.02240  112.12390
 8536.50000   65.64600  111.29530
 8537.00000   68.42920  114.34170
 8537.50000   69.95680  118.67680
 8538.00000   71.02750  123.69340
 8538.50000   71.06180  128.20660
 8539.00000   70.51240  129.72860
 8539.50000   69.60330  127.85460
 8540.00000   67.47510  123.97040
 8540.50000   65.55560  119.66310
 8541.00000   64.86470  117.21750
 8541.50000   64.63680  115.54380
 8542.00000   64.55220  115.06760
 8542.50000   64.30540  114.46030
 8543.00000   63.90990  113.46070
 8543.50000   63.39360  113.01730
 8544.00000   62.79840  112.72030
 8544.50000   62.44370  112.40320
 8545.00000   61.86560  111.67650
 8545.50000   60.36450  110.41290
 8546.00000   59.79090  109.65730
 8546.50000   59.61620  109.13470
 8547.00000   59.99430  108.40890
 8547.50000   60.33760  108.65860
 8548.00000   60.59400  110.00790
 8548.50000   61.05470  112.03280
 8549.00000   62.76490  112.78950
 8549.50000   64.58440  114.46480
 8550.00000   66.32790  118.35190
 8550.50000   67.76770  123.60640
 8551.00000   69.05860  128.32790
 8551.50000   69.65820  131.33350
 8552.00000   69.24420  131.41770
 8552.50000   68.39140  128.98280
 8553.00000   65.53030  124.96250
 8553.50000   63.97540  121.09810
 8554.00000   65.00360  120.22680
 8554.50000   67.57780  122.31160
 8555.00000   69.63940  125.42780
 8555.50000   71.19610  128.11330
 8556.00000   71.45520  130.69040
 8556.50000   71.33330  131.97540
 8557.00000   71.23860  131.33160
 8557.50000   71.69600  130.93950
 8558.00000   72.38450  132.63180
 8558.50000   73.95400  134.38830
 8559.00000   74.36300  134.71450
 8559.50000   74.38920  134.39210
 8560.00000   73.16380  133.92860
 8560.50000   72.71560  133.41920
 8561.00000   73.93610  132.91790
 8561.50000   75.45290  134.91930
 8562.00000   75.65790  137.61380
 8562.50000   75.63410  138.91860
 8563.00000   75.32070  140.02840
 8563.50000   73.35630  140.18950
 8564.00000   69.68610  135.69900
 8564.50000   67.32460  127.69730
 8565.00000   66.86570  122.65210
 8565.50000   67.03290  122.31100
 8566.00000   66.86890  123.14270
 8566.50000   66.32970  123.12810
 8567.00000   64.74370  122.41000
 8567.50000   63.06280  121.70870
 8568.00000   62.34160  120.52500
 8568.50000   62.68730  119.03680
 8569.00000   64.09390  117.28240
 8569.50000   67.41800  118.27300
