~Version ---------------------------------------------------
VERS.   2.0 : CWLS log ASCII Standard -VERSION 2.0
WRAP.    NO : One line per depth step
DLM . SPACE : Column Data Section Delimiter
~Well ------------------------------------------------------
STRT .F                5502.0 : START DEPTH
STOP .F               16373.0 : STOP DEPTH
STEP .F                   0.5 : STEP
NULL .               -9999.25 : NULL VALUE
COMP .                        : COMPANY
WELL .                        : WELL
FLD  .                        : FIELD
LOC  .                        : LOCATION
PROV .                        : PROVINCE
CNTY .                        : COUNTY
STAT .                        : STATE
CTRY .                        : COUNTRY
SRVC .                        : SERVICE COMPANY
DATE .                        : DATE
UWI  .                        : UNIQUE WELL ID
API  .                        : API NUMBER
SLAT .WGS84   5.6462746719519 : SURFACE LATITUDE
SLON .WGS84 4.499251356554581 : SURFACE LONGITUDE
DATUM.F                   nan : DEPTH DATUM ELEV
~Curve Information -----------------------------------------
DEPT.F     : 1 MEASURED DEPTH
DTCO.US/F  : DELTA-T COMPRESSIONAL
DTSM.US/F  : DELTA-T SHEAR
~Params ----------------------------------------------------
~Other -----------------------------------------------------
~ASCII -----------------------------------------------------
# ...
 15597.00000   55.81810  100.50730
 15597.50000   55.44310  100.22000
 15598.00000   55.10080   99.93270
 15598.50000   54.60710   98.47160
 15599.00000   53.44250   95.97150
 15599.50000   52.27190  100.02540
 15600.00000   50.80270  105.11480
 15600.50000   49.59770  105.80950
 15601.00000   48.83320  102.74500
 15601.50000   48.53320   94.09020
 15602.00000   48.76310   88.61290
 15602.50000   49.38910   83.76190
 15603.00000   49.65930   78.91080
 15603.50000   50.29010   76.90530
 15604.00000   50.69180   75.54780
 15604.50000   50.97840   74.73930
 15605.00000   51.06580   74.59380
 15605.50000   51.01470   75.90330
 15606.00000   51.75690   80.89700
 15606.50000   52.92680   88.34060
 15607.00000   54.54120   93.22570
 15607.50000   55.51790  102.92090
 15608.00000   55.06510  111.00370
 15608.50000   53.29080  105.74940
 15609.00000   51.62830   95.00520
 15609.50000   49.88340   86.06000
 15610.00000   48.19550   82.01240
 15610.50000   47.79910   80.33460
 15611.00000   48.54710   80.42980
 15611.50000   49.44760   80.51730
 15612.00000   50.68730   79.28670
 15612.50000   50.56230   76.57190
 15613.00000   50.09740   75.62170
 15613.50000   49.43590   74.67150
 15614.00000   48.89100   75.36900
 15614.50000   48.85040   80.59560
 15615.00000   49.63530   85.92330
 15615.50000   50.51640   91.25110
 15616.00000   51.16250   95.50040
 15616.50000   51.52510   94.49700
 15617.00000   51.61630   92.60000
 15617.50000   51.20960   91.31390
 15618.00000   50.81330   90.24160
 15618.50000   50.83380   89.42700
 15619.00000   51.11550   90.33730
 15619.50000   51.31630   91.82340
 15620.00000   51.40760   91.94330
 15620.50000   51.43030   91.74880
 15621.00000   51.40450   91.59390
 15621.50000   51.61260   93.27130
 15622.00000   51.54910   98.04340
 15622.50000   50.90110  103.00460
 15623.00000   50.24970  105.60920
 15623.50000   49.71340  104.81020
 15624.00000   49.25530   98.58890
 15624.50000   48.73930   92.00420
 15625.00000   48.04710   85.56630
 15625.50000   47.38790   80.93520
 15626.00000   46.95720   80.52160
 15626.50000   47.67640   82.20980
 15627.00000   48.86290   82.33130
 15627.50000   49.98940   80.13210
 15628.00000   51.22290   81.14690
 15628.50000   51.67960   81.82930
 15629.00000   51.62550   82.65840
 15629.50000   51.66020   83.46430
 15630.00000   52.15490   82.95060
 15630.50000   52.69200   81.36310
 15631.00000   52.90750   81.04270
 15631.50000   52.88460   80.88440
 15632.00000   52.12360   80.59880
 15632.50000   51.01020   80.33070
 15633.00000   50.01950   82.16680
 15633.50000   49.50890   86.15380
 15634.00000   48.85890   85.18490
 15634.50000   48.07570   83.07310
 15635.00000   47.73240   79.20560
 15635.50000   47.49220   77.72730
 15636.00000   47.60630   77.03970
 15636.50000   47.96780   76.74420
 15637.00000   48.34430   76.74990
 15637.50000   47.55970   76.83490
 15638.00000   46.86180   76.87240
 15638.50000   46.67970   76.87820
 15639.00000   46.86970   76.91230
 15639.50000   47.22740   78.12640
 15640.00000   47.91760   79.78950
 15640.50000   48.72060   82.17370
 15641.00000   49.61970   87.92800
 15641.50000   50.66830   90.97810
 15642.00000   51.64540   90.92100
 15642.50000   52.26020   89.22500
 15643.00000   51.95880   87.81910
 15643.50000   51.44300   86.54550
 15644.00000   50.18820   84.80750
 15644.50000   49.13450   82.53690
 15645.00000   47.83580   81.04170
 15645.50000   47.51610   81.97390
 15646.00000   47.84730   84.14160
 15646.50000   48.63040   87.27390
 15647.00000   49.55950   90.62460
 15647.50000   50.38660   92.42620
 15648.00000   51.31510   93.84670
 15648.50000   52.06610   94.02970
 15649.00000   52.16000   93.75550
 15649.50000   51.83980   92.12220
 15650.00000   51.65140   90.42460
 15650.50000   51.63300   89.67400
 15651.00000   51.70200   88.76380
 15651.50000   51.88530   86.97280
 15652.00000   52.64360   85.46370
 15652.50000   53.62230   86.29500
 15653.00000   55.57540   88.44960
 15653.50000   57.87090   87.82940
 15654.00000   58.98630   86.29730
 15654.50000   59.48780   84.41500
 15655.00000   58.70280   81.95650
 15655.50000   56.69210   81.79050
 15656.00000   54.48520   81.90260
 15656.50000   52.07970   82.21130
 15657.00000   50.09030   82.74410
 15657.50000   49.26730   84.73400
 15658.00000   49.01480   87.08920
 15658.50000   48.98490   86.90590
 15659.00000   49.19710   81.72500
 15659.50000   49.40940   77.19050
 15660.00000   50.14680   75.74670
 15660.50000   51.01170   77.66300
 15661.00000   51.26620   84.71220
 15661.50000   50.40500   91.05290
 15662.00000   49.53960   87.34620
 15662.50000   48.85710   79.82160
 15663.00000   49.12100   76.84990
 15663.50000   49.64350   75.74530
 15664.00000   50.22030   76.23380
 15664.50000   50.56710   77.07790
 15665.00000   50.58660   78.25070
 15665.50000   50.58660   79.50610
 15666.00000   50.33300   79.57250
 15666.50000   49.73310   78.25470
 15667.00000   49.51980   77.70110
 15667.50000   49.67390   77.47170
 15668.00000   50.13330   77.57900
 15668.50000   49.57760   80.86610
 15669.00000   49.89550   86.89560
 15669.50000   50.22230   87.92370
 15670.00000   50.69050   87.02730
 15670.50000   50.88790   84.21140
 15671.00000   49.74410   81.03610
 15671.50000   48.36140   78.03010
 15672.00000   47.64750   77.15620
 15672.50000   47.55160   76.95690
 15673.00000   47.88010   77.12410
 15673.50000   48.50460   77.55210
 15674.00000   49.64660   78.77390
 15674.50000   50.29140   79.95640
 15675.00000   50.32880   80.74860
 15675.50000   50.09950   82.33820
 15676.00000   50.02580   86.34220
 15676.50000   50.96970   90.36860
 15677.00000   52.11710   93.53590
 15677.50000   53.10610   95.08200
 15678.00000   54.63360   92.70480
 15678.50000   54.98070   89.19890
 15679.00000   53.87540   87.15840
 15679.50000   52.16020   85.83260
 15680.00000   50.85660   85.94640
 15680.50000   50.07040   86.71490
 15681.00000   49.84480   87.94210
 15681.50000   49.71610   86.25770
 15682.00000   50.04740   83.65830
 15682.50000   50.35390   81.00490
 15683.00000   50.73950   81.33710
 15683.50000   50.52800   81.12140
 15684.00000   50.29040   79.23230
 15684.50000   50.23820   83.19910
 15685.00000   51.58570   88.90320
 15685.50000   53.63800   93.64620
 15686.00000   55.64720   96.91240
 15686.50000   56.86430   95.90900
 15687.00000   56.98860   93.87650
 15687.50000   56.37400   91.05810
 15688.00000   55.45400   92.18780
 15688.50000   54.64250   93.42180
 15689.00000   54.41690   97.36930
 15689.50000   54.39900   99.57840
 15690.00000   54.85150  102.31620
 15690.50000   55.46140  102.89650
 15691.00000   55.82900  102.92360
 15691.50000   56.05500  102.07780
 15692.00000   56.04390  101.23400
 15692.50000   55.82520  100.52740
 15693.00000   55.28820   99.96230
 15693.50000   54.44250  101.45940
 15694.00000   54.40670  104.25530
 15694.50000   55.16410  104.92300
 15695.00000   56.46290  104.23490
 15695.50000   57.20690  102.23950
 15696.00000   57.61600  100.89780
 15696.50000   57.69360  100.92770
 15697.00000   57.55970  104.05820
 15697.50000   57.60080  105.64030
 15698.00000   58.18010  106.57140
 15698.50000   58.57880  107.53060
 15699.00000   58.60240  107.17530
 15699.50000   58.22440  108.21210
 15700.00000   57.36180  107.85510
 15700.50000   56.18510  106.85980
 15701.00000   55.30930  102.91510
 15701.50000   55.04010  101.36430
 15702.00000   55.40810  101.34290
 15702.50000   56.24600  102.81830
 15703.00000   57.33470  106.10820
 15703.50000   59.66350  110.00560
 15704.00000   62.89410  115.47360
 15704.50000   66.53930  131.13620
 15705.00000   70.08040  137.32720
 15705.50000   71.90450  140.68810
 15706.00000   71.81020  141.66790
 15706.50000   70.93760  142.62020
 15707.00000   69.83720  139.53900
 15707.50000   69.36690  136.14270
 15708.00000   69.32520  132.73070
 15708.50000   69.63350  129.34570
 15709.00000   70.49900  127.71880
 15709.50000   71.17560  126.27060
 15710.00000   71.34610  124.73330
 15710.50000   71.49140  122.95140
 15711.00000   71.63780  121.67040
