~Version ---------------------------------------------------
VERS.   2.0 : CWLS log ASCII Standard -VERSION 2.0
WRAP.    NO : One line per depth step
DLM . SPACE : Column Data Section Delimiter
~Well ------------------------------------------------------
STRT .F                5502.0 : START DEPTH
STOP .F               16373.0 : STOP DEPTH
STEP .F                   0.5 : STEP
NULL .               -9999.25 : NULL VALUE
COMP .                        : COMPANY
WELL .                        : WELL
FLD  .                        : FIELD
LOC  .                        : LOCATION
PROV .                        : PROVINCE
CNTY .                        : COUNTY
STAT .                        : STATE
CTRY .                        : COUNTRY
SRVC .                        : SERVICE COMPANY
DATE .                        : DATE
UWI  .                        : UNIQUE WELL ID
API  .                        : API NUMBER
SLAT .WGS84   5.6462746719519 : SURFACE LATITUDE
SLON .WGS84 4.499251356554581 : SURFACE LONGITUDE
DATUM.F                   nan : DEPTH DATUM ELEV
~Curve Information -----------------------------------------
DEPT.F     : 1 MEASURED DEPTH
DTCO.US/F  : DELTA-T COMPRESSIONAL
DTSM.US/F  : DELTA-T SHEAR
~Params ----------------------------------------------------
~Other -----------------------------------------------------
~ASCII -----------------------------------------------------
# ...
 14108.50000   59.10960  106.83400
 14109.00000   58.91300  107.98600
 14109.50000   58.52320  108.97560
 14110.00000   58.11050  108.37040
 14110.50000   57.94870  107.35760
 14111.00000   58.44620  106.28960
 14111.50000   58.87490  104.75290
 14112.00000   58.74100  103.66830
 14112.50000   58.20120  102.79990
 14113.00000   57.35190  102.12230
 14113.50000   56.78670  101.47480
 14114.00000   56.56080  100.82730
 14114.50000   56.06480  100.17980
 14115.00000   55.98510  100.05210
 14115.50000   56.78540  100.26560
 14116.00000   57.20220  100.26490
 14116.50000   57.29090  100.33680
 14117.00000   57.15620  100.42520
 14117.50000   57.34230   99.97160
 14118.00000   57.88730   98.80130
 14118.50000   58.56240   97.86480
 14119.00000   58.60120   98.39860
 14119.50000   58.37400   99.29860
 14120.00000   58.07120   99.75850
 14120.50000   58.00800   99.98920
 14121.00000   58.47970  100.11230
 14121.50000   60.07960  100.36180
 14122.00000   62.09650  101.15670
 14122.50000   65.07550  103.23320
 14123.00000   70.96850  106.52950
 14123.50000   74.57220  111.85020
 14124.00000   75.08110  116.87840
 14124.50000   74.84340  119.88940
 14125.00000   74.13500  120.67690
 14125.50000   73.50500  121.97910
 14126.00000   72.59080  125.06000
 14126.50000   71.92530  128.51370
 14127.00000   71.75210  129.08020
 14127.50000   71.66410  128.13750
 14128.00000   71.14160  126.69400
 14128.50000   70.61190  126.43990
 14129.00000   70.31350  126.61250
 14129.50000   70.01520  127.41400
 14130.00000   69.92040  128.32400
 14130.50000   70.03060  128.73200
 14131.00000   70.33550  128.33770
 14131.50000   70.81660  127.77720
 14132.00000   71.37680  127.62440
 14132.50000   71.89420  127.25220
 14133.00000   72.30820  126.95820
 14133.50000   72.74900  127.09730
 14134.00000   72.61900  126.50240
 14134.50000   72.15110  125.73130
 14135.00000   71.64460  125.07440
 14135.50000   72.16360  124.82890
 14136.00000   73.18930  124.90620
 14136.50000   74.95370  124.99870
 14137.00000   76.60250  125.22610
 14137.50000   76.69860  125.20620
 14138.00000   74.93590  124.33160
 14138.50000   73.36040  122.97850
 14139.00000   72.07340  120.77670
 14139.50000   70.69860  118.50070
 14140.00000   69.44920  117.63030
 14140.50000   69.61200  116.80450
 14141.00000   69.90190  117.30220
 14141.50000   69.87350  117.55380
 14142.00000   69.76900  117.19920
 14142.50000   69.51390  117.28460
 14143.00000   69.27350  117.61740
 14143.50000   68.93970  117.77720
 14144.00000   68.35640  117.73200
 14144.50000   68.47760  117.41800
 14145.00000   68.75980  116.94760
 14145.50000   69.27870  115.99310
 14146.00000   69.32420  115.06810
 14146.50000   69.18370  114.43370
 14147.00000   69.98480  116.00960
 14147.50000   71.00700  117.92020
 14148.00000   71.98040  119.66810
 14148.50000   72.16710  122.78220
 14149.00000   72.14930  125.67230
 14149.50000   71.37990  127.56020
 14150.00000   70.49930  128.20270
 14150.50000   69.81980  127.56690
 14151.00000   70.00910  126.80670
 14151.50000   70.99170  126.62830
 14152.00000   71.27410  126.45160
 14152.50000   71.21490  125.85640
 14153.00000   70.81350  125.11870
 14153.50000   71.06360  124.17400
 14154.00000   71.17650  123.43300
 14154.50000   71.33300  122.35030
 14155.00000   71.37340  120.51730
 14155.50000   71.27990  119.01570
 14156.00000   71.26350  120.07110
 14156.50000   71.13890  123.10830
 14157.00000   70.43000  125.62940
 14157.50000   69.66200  125.95150
 14158.00000   69.28060  124.37310
 14158.50000   69.67970  122.48110
 14159.00000   69.89560  118.73220
 14159.50000   69.92780  117.23480
 14160.00000   70.11280  114.71960
 14160.50000   70.34380  114.00980
 14161.00000   70.61300  116.54380
 14161.50000   71.49250  120.13990
 14162.00000   71.92910  121.62520
 14162.50000   71.32530  123.23160
 14163.00000   69.88680  124.03690
 14163.50000   68.21200  123.60350
 14164.00000   67.29710  120.49460
 14164.50000   66.75560  118.79580
 14165.00000   66.59060  117.52370
 14165.50000   67.47890  117.73340
 14166.00000   68.04140  117.58280
 14166.50000   68.59200  116.98340
 14167.00000   69.61880  114.40620
 14167.50000   70.73810  112.55960
 14168.00000   71.48040  113.45440
 14168.50000   71.43290  116.96040
 14169.00000   70.85210  118.51520
 14169.50000   70.14300  118.41330
 14170.00000   69.19440  117.54350
 14170.50000   68.77500  116.25170
 14171.00000   68.40050  118.00400
 14171.50000   68.06750  119.99230
 14172.00000   68.35150  120.00160
 14172.50000   68.77570  119.78290
 14173.00000   69.09120  120.43800
 14173.50000   70.06690  121.91090
 14174.00000   70.83680  123.73690
 14174.50000   71.04480  125.39330
 14175.00000   70.24040  126.16080
 14175.50000   68.82740  125.84820
 14176.00000   68.16240  125.35670
 14176.50000   68.01490  124.80720
 14177.00000   68.08050  123.66970
 14177.50000   67.10380  122.61740
 14178.00000   65.65180  121.66170
 14178.50000   64.45430  123.12330
 14179.00000   63.29550  126.44580
 14179.50000   62.46660  128.04000
 14180.00000   62.30260  127.06790
 14180.50000   64.71160  125.59540
 14181.00000   69.17580  124.64650
 14181.50000   69.40530  124.16310
 14182.00000   67.80860  123.90940
 14182.50000   66.76800  123.88250
 14183.00000   68.20190  124.53250
 14183.50000   70.63300  125.17540
 14184.00000   71.14820  124.36940
 14184.50000   69.87710  120.85650
 14185.00000   66.80100  117.77920
 14185.50000   65.07230  115.08630
 14186.00000   64.47450  112.08970
 14186.50000   64.29020  110.70760
 14187.00000   64.18070  110.52040
 14187.50000   63.08020  110.73630
 14188.00000   62.16610  110.52220
 14188.50000   62.73450  110.21750
 14189.00000   62.69640  110.09450
 14189.50000   62.67320  111.38500
 14190.00000   62.51380  112.58060
 14190.50000   62.21090  113.82770
 14191.00000   62.37790  114.44310
 14191.50000   63.80080  115.24210
 14192.00000   64.91620  116.16140
 14192.50000   65.43850  116.67910
 14193.00000   65.09980  117.06690
 14193.50000   64.43610  117.52230
 14194.00000   65.08090  117.78500
 14194.50000   65.91950  117.88940
 14195.00000   66.18760  118.10110
 14195.50000   66.40140  118.20830
 14196.00000   66.92920  117.99230
 14196.50000   67.64840  117.75760
 14197.00000   68.26610  117.29730
 14197.50000   68.62720  116.50560
 14198.00000   68.16100  114.67890
 14198.50000   66.19480  113.08540
 14199.00000   64.16490  112.85790
 14199.50000   63.52510  114.90390
 14200.00000   64.00220  116.36630
 14200.50000   64.96890  117.18340
 14201.00000   65.57960  116.69060
 14201.50000   66.83670  115.70460
 14202.00000   68.03050  114.55160
 14202.50000   68.60970  113.59050
 14203.00000   67.58080  113.62580
 14203.50000   65.98550  112.86450
 14204.00000   65.58660  111.82240
 14204.50000   65.22060  110.69680
 14205.00000   65.17750  110.60720
 14205.50000   65.19570  111.02330
 14206.00000   65.24500  111.75020
 14206.50000   66.27430  112.09850
 14207.00000   67.88620  111.43490
 14207.50000   68.26300  110.50730
 14208.00000   67.06200  110.62250
 14208.50000   66.36310  112.18730
 14209.00000   66.56110  115.64210
 14209.50000   67.56110  118.10670
 14210.00000   67.61740  120.41820
 14210.50000   67.10990  120.75140
 14211.00000   66.98920  119.62980
 14211.50000   68.66730  118.42970
 14212.00000   69.76420  117.25100
 14212.50000   70.31770  115.75410
 14213.00000   70.91160  113.71660
 14213.50000   70.83980  113.80590
 14214.00000   70.59250  115.87660
 14214.50000   71.03960  121.03100
 14215.00000   72.09650  122.05170
 14215.50000   72.51260  122.71820
 14216.00000   71.13620  123.03510
 14216.50000   68.51730  121.41990
 14217.00000   67.94720  118.81240
 14217.50000   68.22160  118.17690
 14218.00000   68.50670  118.47840
 14218.50000   68.81020  119.15090
 14219.00000   69.28540  119.60480
 14219.50000   69.45950  120.19650
 14220.00000   69.71130  120.74720
 14220.50000   70.03880  120.90340
 14221.00000   70.18630  120.01580
 14221.50000   70.14710  119.08240
 14222.00000   69.90060  118.51300
 14222.50000   69.70850  118.27620
