~Version ---------------------------------------------------
VERS.   2.0 : CWLS log ASCII Standard -VERSION 2.0
WRAP.    NO : One line per depth step
DLM . SPACE : Column Data Section Delimiter
~Well ------------------------------------------------------
STRT .F                5502.0 : START DEPTH
STOP .F               16373.0 : STOP DEPTH
STEP .F                   0.5 : STEP
NULL .               -9999.25 : NULL VALUE
COMP .                        : COMPANY
WELL .                        : WELL
FLD  .                        : FIELD
LOC  .                        : LOCATION
PROV .                        : PROVINCE
CNTY .                        : COUNTY
STAT .                        : STATE
CTRY .                        : COUNTRY
SRVC .                        : SERVICE COMPANY
DATE .                        : DATE
UWI  .                        : UNIQUE WELL ID
API  .                        : API NUMBER
SLAT .WGS84   5.6462746719519 : SURFACE LATITUDE
SLON .WGS84 4.499251356554581 : SURFACE LONGITUDE
DATUM.F                   nan : DEPTH DATUM ELEV
~Curve Information -----------------------------------------
DEPT.F     : 1 MEASURED DEPTH
DTCO.US/F  : DELTA-T COMPRESSIONAL
DTSM.US/F  : DELTA-T SHEAR
~Params ----------------------------------------------------
~Other -----------------------------------------------------
~ASCII -----------------------------------------------------
# ...
 11360.50000   65.10710  115.02110
 11361.00000   64.83100  116.03180
 11361.50000   65.29530  117.28510
 11362.00000   65.46090  116.95360
 11362.50000   64.95430  116.12690
 11363.00000   63.09170  114.29260
 11363.50000   60.90920  111.66610
 11364.00000   60.17440  110.43020
 11364.50000   61.34790  111.10320
 11365.00000   63.76700  114.95670
 11365.50000   66.69140  117.59700
 11366.00000   69.32550  121.18720
 11366.50000   71.13250  124.47200
 11367.00000   71.75420  126.26940
 11367.50000   71.96050  127.10650
 11368.00000   72.24350  127.39870
 11368.50000   72.02500  127.40680
 11369.00000   72.04350  127.93240
 11369.50000   72.87340  128.08180
 11370.00000   74.29420  127.41920
 11370.50000   74.67520  123.26830
 11371.00000   74.05970  118.80650
 11371.50000   72.57080  114.34240
 11372.00000   69.66930  110.26880
 11372.50000   64.70050  107.01520
 11373.00000   60.98240  103.77070
 11373.50000   58.83780  103.28580
 11374.00000   58.17670  103.02490
 11374.50000   58.70620  103.81980
 11375.00000   60.30610  106.14720
 11375.50000   61.89350  110.26770
 11376.00000   63.62120  112.58890
 11376.50000   64.75630  113.05910
 11377.00000   65.54730  112.63160
 11377.50000   65.61200  111.90770
 11378.00000   65.18650  111.20180
 11378.50000   64.35220  110.59520
 11379.00000   63.23900  109.98850
 11379.50000   62.31290  109.62730
 11380.00000   61.90560  109.46000
 11380.50000   61.97860  109.38510
 11381.00000   62.49820  110.19230
 11381.50000   63.10660  111.01660
 11382.00000   63.77840  111.31580
 11382.50000   64.25160  111.42270
 11383.00000   64.72840  111.39800
 11383.50000   64.55780  111.07680
 11384.00000   64.30070  110.73190
 11384.50000   63.90140  110.35570
 11385.00000   63.60440  109.97950
 11385.50000   63.47060  109.70490
 11386.00000   63.49890  109.44430
 11386.50000   63.09890  108.87160
 11387.00000   61.84290  107.16180
 11387.50000   60.08420  105.11430
 11388.00000   59.06630  104.45550
 11388.50000   58.39220  104.40860
 11389.00000   58.74900  104.90790
 11389.50000   59.91550  105.61610
 11390.00000   61.38170  107.62710
 11390.50000   62.70530  110.08120
 11391.00000   63.45420  112.00730
 11391.50000   64.10230  113.34600
 11392.00000   64.19260  114.24820
 11392.50000   64.24750  115.09080
 11393.00000   64.21370  115.17980
 11393.50000   64.19550  114.69840
 11394.00000   64.09380  114.37900
 11394.50000   64.03800  114.43500
 11395.00000   64.19320  114.42220
 11395.50000   64.42270  114.29520
 11396.00000   64.33650  114.24180
 11396.50000   64.25740  114.23540
 11397.00000   64.31610  114.60390
 11397.50000   65.39430  115.84270
 11398.00000   67.87710  118.51910
 11398.50000   69.54740  121.92940
 11399.00000   70.87100  124.60050
 11399.50000   71.51270  127.00890
 11400.00000   71.71020  127.81280
 11400.50000   70.97700  126.50610
 11401.00000   69.08060  124.34810
 11401.50000   67.10010  121.24790
 11402.00000   65.13660  113.44920
 11402.50000   63.40910  108.94400
 11403.00000   61.47240  106.06010
 11403.50000   59.82040  104.16980
 11404.00000   58.90840  103.62690
 11404.50000   59.03110  103.76960
 11405.00000   59.98410  104.74760
 11405.50000   61.09450  106.37030
 11406.00000   61.74370  107.65070
 11406.50000   62.05900  108.88450
 11407.00000   61.82800  110.87590
 11407.50000   61.36800  111.74340
 11408.00000   60.95330  111.14720
 11408.50000   60.38220  109.43880
 11409.00000   59.60690  106.58950
 11409.50000   59.12130  104.43080
 11410.00000   59.05510  103.85180
 11410.50000   59.16620  103.66420
 11411.00000   59.30780  103.57030
 11411.50000   59.28000  102.95400
 11412.00000   59.25780  102.50860
 11412.50000   58.98040  102.20580
 11413.00000   58.46150  101.94760
 11413.50000   57.23870  101.23540
 11414.00000   55.48270  100.24050
 11414.50000   54.06520   99.09510
 11415.00000   54.20170   98.05700
 11415.50000   55.15210   98.05560
 11416.00000   57.37380   99.59920
 11416.50000   60.42030  103.21890
 11417.00000   63.37650  104.37970
 11417.50000   63.75310  104.32800
 11418.00000   63.49460  104.10500
 11418.50000   63.04290  104.64710
 11419.00000   62.61230  106.71360
 11419.50000   62.28360  110.80560
 11420.00000   62.15230  113.10140
 11420.50000   62.16480  115.17900
 11421.00000   62.29560  115.92950
 11421.50000   63.03250  115.14810
 11422.00000   63.76670  113.13240
 11422.50000   65.04630  112.64300
 11423.00000   67.71240  113.53930
 11423.50000   69.88420  115.23700
 11424.00000   69.70720  116.84900
 11424.50000   69.05350  118.24340
 11425.00000   66.94300  117.39220
 11425.50000   63.69390  114.80020
 11426.00000   60.94010  111.93280
 11426.50000   57.95250  108.21920
 11427.00000   56.06610  105.65890
 11427.50000   55.34230  103.74540
 11428.00000   56.23270  103.72100
 11428.50000   58.44850  105.12630
 11429.00000   60.89840  108.76410
 11429.50000   62.89900  111.83330
 11430.00000   64.37400  114.14220
 11430.50000   65.43500  114.52830
 11431.00000   66.15970  114.45900
 11431.50000   66.06300  114.80070
 11432.00000   65.39900  115.52220
 11432.50000   64.60870  115.89420
 11433.00000   64.27410  115.55060
 11433.50000   64.25000  115.31960
 11434.00000   64.60010  115.23170
 11434.50000   65.73200  115.46210
 11435.00000   66.25640  116.09230
 11435.50000   66.82560  117.34340
 11436.00000   67.86300  118.86520
 11436.50000   68.81110  121.23070
 11437.00000   69.36160  121.46950
 11437.50000   69.72210  121.38240
 11438.00000   70.06420  121.14100
 11438.50000   69.96410  120.49730
 11439.00000   68.59420  119.51620
 11439.50000   67.13780  117.31810
 11440.00000   65.90640  115.83130
 11440.50000   64.55100  114.82480
 11441.00000   64.18770  114.49750
 11441.50000   64.41770  113.94630
 11442.00000   64.64090  114.12160
 11442.50000   64.91630  114.43270
 11443.00000   64.99750  114.68270
 11443.50000   65.12410  114.95680
 11444.00000   65.31480  115.09970
 11444.50000   65.31090  114.94590
 11445.00000   65.25740  114.60660
 11445.50000   65.32740  114.02770
 11446.00000   65.31620  113.27240
 11446.50000   65.05220  112.51710
 11447.00000   64.72960  111.88210
 11447.50000   64.47830  111.89680
 11448.00000   64.71630  112.13790
 11448.50000   64.71160  112.45920
 11449.00000   64.43420  113.50290
 11449.50000   64.39210  115.44830
 11450.00000   66.30370  117.54470
 11450.50000   69.30430  119.43390
 11451.00000   71.50840  121.49940
 11451.50000   74.42610  124.85930
 11452.00000   77.02240  128.71850
 11452.50000   79.28920  132.24490
 11453.00000   81.09820  134.82970
 11453.50000   82.42090  136.66630
 11454.00000   83.53060  138.60870
 11454.50000   85.38320  139.98140
 11455.00000   86.58170  140.83790
 11455.50000   86.68170  140.98420
 11456.00000   86.02870  140.97630
 11456.50000   85.59440  140.72760
 11457.00000   84.99190  139.67490
 11457.50000   84.66890  137.33460
 11458.00000   83.89600  134.51850
 11458.50000   82.78570  133.71630
 11459.00000   81.56130  140.03220
 11459.50000   80.86280  148.56150
 11460.00000   79.90950  154.31120
 11460.50000   77.99070  155.20670
 11461.00000   76.62820  153.33930
 11461.50000   76.91140  147.66430
 11462.00000   76.88770  142.93960
 11462.50000   76.11560  141.28020
 11463.00000   75.56520  143.95670
 11463.50000   75.41150  146.24670
 11464.00000   75.77810  147.20230
 11464.50000   76.63780  147.84960
 11465.00000   77.62020  147.95370
 11465.50000   78.13620  147.27110
 11466.00000   77.94140  145.03610
 11466.50000   78.21480  141.70000
 11467.00000   79.29560  142.97260
 11467.50000   79.99330  149.21390
 11468.00000   79.78960  151.67980
 11468.50000   76.58200  154.16370
 11469.00000   72.09650  155.16060
 11469.50000   74.51930  156.24470
 11470.00000   77.96500  156.14700
 11470.50000   75.81290  152.40570
 11471.00000   74.58860  148.63690
 11471.50000   77.72270  148.10560
 11472.00000   78.11210  148.03090
 11472.50000   77.50830  147.92300
 11473.00000   76.80300  147.95090
 11473.50000   76.09770  147.13020
 11474.00000   76.32820  144.19980
 11474.50000   77.45520  142.21580
