~Version ---------------------------------------------------
VERS.   2.0 : CWLS log ASCII Standard -VERSION 2.0
WRAP.    NO : One line per depth step
DLM . SPACE : Column Data Section Delimiter
~Well ------------------------------------------------------
STRT .F                5080.0 : START DEPTH
STOP .F               13760.0 : STOP DEPTH
STEP .F                   0.5 : STEP
NULL .               -9999.25 : NULL VALUE
COMP .                        : COMPANY
WELL .                        : WELL
FLD  .                        : FIELD
LOC  .                        : LOCATION
PROV .                        : PROVINCE
CNTY .                        : COUNTY
STAT .                        : STATE
CTRY .                        : COUNTRY
SRVC .                        : SERVICE COMPANY
DATE .                        : DATE
UWI  .                        : UNIQUE WELL ID
API  .                        : API NUMBER
SLAT .WGS84 5.853983019465105 : SURFACE LATITUDE
SLON .WGS84 4.017662594110803 : SURFACE LONGITUDE
DATUM.F               1824.85 : DEPTH DATUM ELEV
~Curve Information -----------------------------------------
DEPT.F     : 
DTCO.US/F  : COMPRESSIONAL-WAVE INTERVAL TRANSIT TIME ACOUSTIC SLOWNESS
DTSM.US/F  : INTERVAL TRANSIT TIME
NPHI.DEC   : NEUTRON POROSITY LIMESTONE
DPHI.DEC   : DENSITY POROSITY LIMESTONE
RHOB.G/C3  : BULK DENSITY
DRHO.G/C3  : DENSITY CORRECTION
CALD.IN    : CALIPER FROM DENSITY LOG
SFLU.OHMM  : SPHERICALLY FOCUSED LOG UNAVERAGED RESISTIVITY
IDPH.OHMM  : INDUCTION DEEP PHASOR RES.
IMPH.OHMM  : INDUCTION MEDIUM PHASOR RES.
SPR .MV    : SPONTANEOUS POTENTIAL
GRR .GAPI  : GAMMA RAY FROM RES. LOG.
~Params ----------------------------------------------------
~Other -----------------------------------------------------
~ASCII -----------------------------------------------------
# ...
 8356.00000   -9999.25   -9999.25    0.35500    0.30020    1.58140   -0.00890   17.60280    5.51370    4.50480    3.93380 -102.81130   86.89080
 8356.50000   -9999.25   -9999.25    0.33550    0.30030    1.72180   -0.00170   17.10500    5.88870    4.56020    4.14280 -102.21980   83.79130
 8357.00000   -9999.25   -9999.25    0.31610    0.30040    1.87550    0.02360   16.68000    6.28930    4.67590    4.36270 -101.68970   87.85360
 8357.50000   -9999.25   -9999.25    0.30780    0.28940    2.03630    0.04830   16.23250    6.71710    4.84890    4.59450 -101.11640   93.32860
 8358.00000   -9999.25   -9999.25    0.30540    0.25180    2.15210    0.07040   16.14840    7.36390    5.02830    4.83870 -100.56040   98.72700
 8358.50000   -9999.25   -9999.25    0.31270    0.18530    2.26580    0.08410   15.99630    6.88200    5.14340    4.96350 -100.09200  103.98190
 8359.00000   -9999.25   -9999.25    0.31970    0.16860    2.38090    0.08010   15.77600    6.15180    5.26010    5.00400 -100.03000  107.30950
 8359.50000   -9999.25   -9999.25    0.31440    0.16110    2.43560    0.07850   15.59020    5.60740    5.37940    5.04480  -99.97580  109.47350
 8360.00000   -9999.25   -9999.25    0.30290    0.16980    2.42750    0.08000   15.61380    5.63510    5.45170    5.08590  -99.93480  108.71030
 8360.50000   -9999.25   -9999.25    0.30210    0.18170    2.41030    0.08210   15.64860    5.67140    5.57540    5.12140  -99.88670  107.48480
 8361.00000   -9999.25   -9999.25    0.30120    0.19360    2.39320    0.09240   15.69160    5.71020    5.60740    5.12160  -99.84020  105.43460
 8361.50000   -9999.25   -9999.25    0.30350    0.20720    2.37610    0.10490   15.67660    5.47550    5.55810    5.11960  -99.79440  103.07420
 8362.00000   -9999.25   -9999.25    0.29880    0.20930    2.35910    0.11760   15.62470    5.31000    5.50580    5.12050  -99.74770  100.52130
 8362.50000   -9999.25   -9999.25    0.28000    0.20570    2.35720    0.12400   15.50820    5.41960    5.45410    5.33410  -99.70140  100.70060
 8363.00000   -9999.25   -9999.25    0.28000    0.19240    2.37020    0.12540   15.25960    5.54260    5.40280    5.57890  -99.65500  101.17420
 8363.50000   -9999.25   -9999.25    0.28620    0.17760    2.39210    0.12060   15.00670    5.66830    5.35200    5.83500  -99.60890  101.66860
 8364.00000   -9999.25   -9999.25    0.29460    0.17120    2.41720    0.11660   15.00030    5.73310    5.30170    6.03000  -99.56190  101.86320
 8364.50000   -9999.25   -9999.25    0.29960    0.18410    2.41020    0.10780   15.06470    5.81950    5.25180    5.76390  -99.51620   99.31180
 8365.00000   -9999.25   -9999.25    0.30190    0.19540    2.38110    0.09240   15.17040    5.92150    5.21440    5.46990  -99.47130   97.34150
 8365.50000   -9999.25   -9999.25    0.30490    0.20210    2.36380    0.07740   15.06450    5.70290    5.21440    5.31000  -99.41560   98.42600
 8366.00000   -9999.25   -9999.25    0.29510    0.18270    2.37030    0.06230   15.00730    5.45270    5.21440    5.52630  -99.38980  101.71600
 8366.50000   -9999.25   -9999.25    0.27780    0.15680    2.39910    0.04850   14.80620    5.21440    5.29840    5.72250  -99.32020  105.38130
 8367.00000   -9999.25   -9999.25    0.26640    0.13320    2.44500    0.05440   14.65330    5.59690    5.40340    5.92580  -99.23430  105.03830
 8367.50000   -9999.25   -9999.25    0.27100    0.13730    2.47870    0.06830   14.59690    6.00580    5.51050    6.25310  -98.62980  104.55380
 8368.00000   -9999.25   -9999.25    0.28010    0.14580    2.46970    0.08190   14.56570    6.36780    5.61980    6.17300  -97.86690  104.03530
 8368.50000   -9999.25   -9999.25    0.27430    0.13850    2.46390    0.09510   14.51700    6.45190    5.73120    6.03610  -98.21050  106.28080
 8369.00000   -9999.25   -9999.25    0.26510    0.13130    2.47840    0.10770   14.47600    6.52470    5.84480    5.92150  -97.89300  108.49350
 8369.50000   -9999.25   -9999.25    0.26070    0.13150    2.48660    0.11210   14.39300    6.59830    5.92360    5.93270  -97.44320  108.59490
 8370.00000   -9999.25   -9999.25    0.25890    0.13290    2.48310    0.11370   14.35450    6.67270    5.92030    5.96600  -96.91680  109.03930
 8370.50000   -9999.25   -9999.25    0.25890    0.11970    2.49090    0.11510   14.32150    6.74800    5.92210    5.99960  -96.91560  110.56950
 8371.00000   -9999.25   -9999.25    0.26180    0.10080    2.51230    0.11660   14.28850    6.84770    5.92350    6.03000  -96.91360  111.32870
 8371.50000   -9999.25   -9999.25    0.26710    0.10460    2.53570    0.11790   14.25370    6.75720    5.91920    6.03000  -96.97370  115.84810
 8372.00000   -9999.25   -9999.25    0.27500    0.11420    2.52750    0.11960   14.22200    6.62850    5.91810    6.03000  -97.02120  113.37950
 8372.50000   -9999.25   -9999.25    0.28470    0.12120    2.51020    0.12010   14.16440    6.48450    5.92560    6.03000  -97.07090  107.14910
 8373.00000   -9999.25   -9999.25    0.28940    0.12040    2.50450    0.12080   14.07930    6.44690    5.81110    6.03000  -97.12180  102.38000
 8373.50000   -9999.25   -9999.25    0.28570    0.12680    2.50540    0.12160   14.00610    6.36480    5.81840    6.03010  -97.17130   97.39470
 8374.00000   -9999.25   -9999.25    0.27830    0.14210    2.49390    0.11930   13.99310    6.28370    5.81740    6.03010  -97.22180   95.23130
 8374.50000   -9999.25   -9999.25    0.27220    0.15630    2.46730    0.11200   13.97730    6.25310    5.81620    6.03010  -97.27190   95.54400
 8375.00000   -9999.25   -9999.25    0.27870    0.15260    2.44170    0.10460   13.90980    6.25310    5.81500    5.98850  -97.32190   96.34760
 8375.50000   -9999.25   -9999.25    0.28430    0.14460    2.45340    0.10180   13.76280    6.25310    5.79210    5.93750  -97.37220  101.12950
 8376.00000   -9999.25   -9999.25    0.28990    0.14010    2.47090    0.10190   13.61840    6.25310    5.75300    5.88700  -97.42300  107.47590
 8376.50000   -9999.25   -9999.25    0.29150    0.16290    2.44270    0.10200   13.54110    6.29330    5.71410    5.83650  -97.47120  118.30890
 8377.00000   -9999.25   -9999.25    0.29050    0.18470    2.41620    0.10190   13.49900    6.36780    5.67540    5.78610  -97.52480  119.80650
 8377.50000   -9999.25   -9999.25    0.29020    0.19100    2.38430    0.10200   13.45600    6.44640    5.63780    5.73790  -97.57250  121.08520
 8378.00000   -9999.25   -9999.25    0.29020    0.18810    2.38890    0.10200   13.41550    6.60340    5.60000    5.68910  -97.61760  117.94380
 8378.50000   -9999.25   -9999.25    0.29960    0.19180    2.39600    0.10210   13.37600    6.48450    5.56240    5.64070  -97.69620  115.09510
 8379.00000   -9999.25   -9999.25    0.31400    0.19900    2.37940    0.10200   13.34260    6.20620    5.50650    5.60740  -97.46580  112.34610
 8379.50000   -9999.25   -9999.25    0.33330    0.20880    2.36380    0.10190   13.21080    5.96720    5.60740    5.60740  -96.90530  109.44150
 8380.00000   -9999.25   -9999.25    0.32180    0.19580    2.35180    0.10270   13.08700    5.71020    6.07600    5.85730  -96.37820  106.64160
 8380.50000   -9999.25   -9999.25    0.30040    0.17610    2.39930    0.09330   12.89610    5.98360    6.53890    6.40720  -95.85000  103.36680
 8381.00000   -9999.25   -9999.25    0.22870    0.13250    2.45370    0.07310   12.63600    6.60440    7.03710    7.00880  -95.30840   97.36120
 8381.50000   -9999.25   -9999.25    0.18840    0.07950    2.51430    0.05340   12.37270    7.69080    7.57330    7.63630  -94.78330   90.06930
 8382.00000   -9999.25   -9999.25    0.16810    0.04290    2.57720    0.03510   12.13660    9.56370    8.21610    8.51880  -94.25560   87.90400
 8382.50000   -9999.25   -9999.25    0.15850    0.03110    2.65320    0.01320   12.03060   11.89260    8.95400    9.45910  -93.68690   89.31840
 8383.00000   -9999.25   -9999.25    0.14870    0.02820    2.65840    0.01100   11.97630   13.00410    9.75810   10.50310  -93.24630   86.99680
 8383.50000   -9999.25   -9999.25    0.13900    0.02480    2.66560    0.00910   11.91890   13.12130   10.63450   11.26970  -92.27110   80.63020
