~Version ---------------------------------------------------
VERS.   2.0 : CWLS log ASCII Standard -VERSION 2.0
WRAP.    NO : One line per depth step
DLM . SPACE : Column Data Section Delimiter
~Well ------------------------------------------------------
STRT .F                5080.0 : START DEPTH
STOP .F               13760.0 : STOP DEPTH
STEP .F                   0.5 : STEP
NULL .               -9999.25 : NULL VALUE
COMP .                        : COMPANY
WELL .                        : WELL
FLD  .                        : FIELD
LOC  .                        : LOCATION
PROV .                        : PROVINCE
CNTY .                        : COUNTY
STAT .                        : STATE
CTRY .                        : COUNTRY
SRVC .                        : SERVICE COMPANY
DATE .                        : DATE
UWI  .                        : UNIQUE WELL ID
API  .                        : API NUMBER
SLAT .WGS84 5.853983019465105 : SURFACE LATITUDE
SLON .WGS84 4.017662594110803 : SURFACE LONGITUDE
DATUM.F               1824.85 : DEPTH DATUM ELEV
~Curve Information -----------------------------------------
DEPT.F     : 
DTCO.US/F  : COMPRESSIONAL-WAVE INTERVAL TRANSIT TIME ACOUSTIC SLOWNESS
DTSM.US/F  : INTERVAL TRANSIT TIME
NPHI.DEC   : NEUTRON POROSITY LIMESTONE
DPHI.DEC   : DENSITY POROSITY LIMESTONE
RHOB.G/C3  : BULK DENSITY
DRHO.G/C3  : DENSITY CORRECTION
CALD.IN    : CALIPER FROM DENSITY LOG
SFLU.OHMM  : SPHERICALLY FOCUSED LOG UNAVERAGED RESISTIVITY
IDPH.OHMM  : INDUCTION DEEP PHASOR RES.
IMPH.OHMM  : INDUCTION MEDIUM PHASOR RES.
SPR .MV    : SPONTANEOUS POTENTIAL
GRR .GAPI  : GAMMA RAY FROM RES. LOG.
~Params ----------------------------------------------------
~Other -----------------------------------------------------
~ASCII -----------------------------------------------------
# ...
 7936.00000   -9999.25   -9999.25    0.24890    0.23460    2.33660    0.03390   12.32000    7.49880    9.20960    7.63090 -107.83210  104.27060
 7936.50000   -9999.25   -9999.25    0.27240    0.29650    2.23710    0.04150   12.23230    6.97330    8.67430    7.37910 -108.17170  105.54790
 7937.00000   -9999.25   -9999.25    0.29590    0.29090    2.20880    0.05780   12.06470    7.54370    7.86750    7.14110 -108.51140  103.56740
 7937.50000   -9999.25   -9999.25    0.32620    0.28080    2.23310    0.07570   11.87830    8.30830    6.97890    6.95660 -108.84880  100.53150
 7938.00000   -9999.25   -9999.25    0.34290    0.27070    2.25400    0.08660   11.93090    9.15750    6.19120    5.96990 -109.19210   99.05960
 7938.50000   -9999.25   -9999.25    0.37280    0.26520    2.27350    0.09160   12.90630    7.41790    5.60850    5.25760 -109.53200   97.18070
 7939.00000   -9999.25   -9999.25    0.41910    0.29960    2.11380    0.08760   14.68730    5.99850    5.66930    4.63260 -110.05280   95.26410
 7939.50000   -9999.25   -9999.25    0.46530    0.29970    1.99710    0.06360   16.49470    5.02830    5.71020    3.89920 -110.63410   87.83820
 7940.00000   -9999.25   -9999.25    0.51330    0.29980    1.76040    0.03590   18.38470    4.62190    6.68790    4.13560 -111.21440   80.10450
 7940.50000   -9999.25   -9999.25    0.43820    0.29990    1.49230    0.00840   20.22320    4.34820    7.49880    4.86370 -111.79190   72.17410
 7941.00000   -9999.25   -9999.25    0.32980    0.30000    1.33430   -0.01970   21.22410    5.71020    7.91890    6.03220 -112.37160   64.38350
 7941.50000   -9999.25   -9999.25    0.23580    0.30010    1.72250   -0.03200   18.54320   11.54400    8.06400    8.26880 -112.95040   54.56790
 7942.00000   -9999.25   -9999.25    0.14850    0.30020    1.99900   -0.02360   14.60930   31.38500    8.67180   11.33450 -113.52770   55.86270
 7942.50000   -9999.25   -9999.25    0.19550    0.30030    2.14950   -0.00430   11.26800   50.51230    9.82990   14.95540 -114.10880   65.07680
 7943.00000   -9999.25   -9999.25    0.23880    0.25190    2.26760    0.01250   11.40040   18.86710   11.25240   12.21980 -114.68430   75.83010
 7943.50000   -9999.25   -9999.25    0.28220    0.30110    2.15970    0.02180   11.55540   11.35930   14.16210   10.20470 -115.25940   85.73350
 7944.00000   -9999.25   -9999.25    0.31680    0.30090    2.09170    0.03180   11.72750    9.79630   13.89810    8.52190 -115.85900   95.64470
 7944.50000   -9999.25   -9999.25    0.33740    0.30070    2.12060    0.05670   11.92520    8.40790   13.04860    7.77630 -116.38960   94.25350
 7945.00000   -9999.25   -9999.25    0.37550    0.30050    2.02840    0.05700   12.34310    7.90330   12.47100    8.31120 -117.02650   88.36450
 7945.50000   -9999.25   -9999.25    0.36930    0.30030    1.92870    0.03120   13.21940    8.27340   12.47100   10.51980 -117.70130   76.74020
 7946.00000   -9999.25   -9999.25    0.30860    0.30010    1.81080    0.00140   14.43120    8.81110   12.85280   13.31530 -120.53690   66.56650
 7946.50000   -9999.25   -9999.25    0.19720    0.30090    1.88840   -0.03030   14.14820   14.91320   13.44510   16.85380 -123.21320   56.20970
 7947.00000   -9999.25   -9999.25    0.10310    0.30090    2.02650   -0.03280   12.69720   27.46270   14.06470   21.38950 -126.02360   47.75630
 7947.50000   -9999.25   -9999.25    0.05460    0.24470    2.27630   -0.02580   11.25000   49.36790   14.71280   26.85950 -128.76340   44.36140
 7948.00000   -9999.25   -9999.25    0.06800    0.15400    2.50690   -0.01850   10.39700   50.72380   15.50170   22.99840 -131.50180   43.55770
 7948.50000   -9999.25   -9999.25    0.08130    0.10100    2.53690   -0.01360   10.38100   37.84700   16.37740   17.99840 -134.31320   44.45150
 7949.00000   -9999.25   -9999.25    0.09300    0.10790    2.52560   -0.01030   10.43960   26.74620   16.75960   13.44580 -136.99330   44.12250
 7949.50000   -9999.25   -9999.25    0.09570    0.11710    2.51440   -0.00610   10.47310   22.88390   17.29470   16.36040 -139.64010   43.24450
 7950.00000   -9999.25   -9999.25    0.09730    0.11960    2.50100   -0.00630   10.45220   19.63990   17.29470   21.94360 -139.73090   42.59290
 7950.50000   -9999.25   -9999.25    0.07530    0.12270    2.50100   -0.00650   10.42250   19.81650   17.52950   21.84830 -139.67680   42.91330
 7951.00000   -9999.25   -9999.25    0.05690    0.11470    2.50100   -0.00690   10.38870   20.00000   17.93460   21.95610 -138.56140   44.13680
 7951.50000   -9999.25   -9999.25    0.03850    0.09800    2.52090   -0.00730   10.36200   33.33980   20.74000   21.88030 -138.06290   44.14430
 7952.00000   -9999.25   -9999.25    0.02810    0.08130    2.56220   -0.00770   10.33210   51.44450   22.01040   25.19820 -137.41190   41.50900
 7952.50000   -9999.25   -9999.25    0.02480    0.06010    2.59510   -0.00780   10.38830   97.14500   23.41110   31.34160 -136.81930   35.50590
 7953.00000   -9999.25   -9999.25    0.02950    0.06260    2.60240   -0.00690   10.44940   93.67880   24.90100   34.71670 -136.26210   30.81210
 7953.50000   -9999.25   -9999.25    0.03370    0.07000    2.59770   -0.00610   10.51340   64.46210   24.87170   30.58110 -135.08980   30.66770
 7954.00000   -9999.25   -9999.25    0.03820    0.07730    2.58360   -0.00530   10.57810   46.30060   25.32760   30.09190 -132.65370   33.35090
 7954.50000   -9999.25   -9999.25    0.05510    0.08480    2.56960   -0.00450   10.64120   32.07440   23.20340   28.14080 -130.26150   36.60110
 7955.00000   -9999.25   -9999.25    0.07210    0.09570    2.55510   -0.00370   10.70140   28.76210   21.79060   24.12990 -127.83300   41.21690
 7955.50000   -9999.25   -9999.25    0.10590    0.11110    2.53770   -0.00290   10.77480   22.98180   20.46380   20.77770 -125.42190   48.75260
 7956.00000   -9999.25   -9999.25    0.14880    0.12660    2.50620   -0.00170   10.84300   18.46250   19.28640   17.89130 -122.99220   58.81960
 7956.50000   -9999.25   -9999.25    0.17830    0.14200    2.47400    0.00060   11.21920   14.21020   18.58810   15.40580 -120.58460   70.77460
 7957.00000   -9999.25   -9999.25    0.15340    0.15000    2.45270    0.00130   11.87010   13.19410   17.95060   14.16210 -118.18520   84.22070
 7957.50000   -9999.25   -9999.25    0.12630    0.14000    2.46280    0.00230   11.77710   14.70370   17.33490   15.08840 -115.63850   81.99990
 7958.00000   -9999.25   -9999.25    0.09880    0.12760    2.48550    0.00330   11.43350   19.15280   16.59450   16.69130 -113.91580   73.25990
 7958.50000   -9999.25   -9999.25    0.08270    0.10820    2.50620    0.00420   11.22700   27.69820   15.68940   19.73830 -113.06750   66.11310
 7959.00000   -9999.25   -9999.25    0.10840    0.11170    2.52570    0.00530   11.37130   24.32560   14.83360   19.55770 -112.07360   59.05010
 7959.50000   -9999.25   -9999.25    0.15890    0.14280    2.45710    0.00620   11.61170   17.24160   14.16210   13.85270 -111.07800   63.48780
 7960.00000   -9999.25   -9999.25    0.20940    0.28080    2.34690    0.00700   12.14100   12.02600   11.77740   11.52860 -110.13110   72.49550
 7960.50000   -9999.25   -9999.25    0.26140    0.29960    2.23410    0.01150   12.65820   11.51930   10.06570    9.86230 -109.13720   81.11660
 7961.00000   -9999.25   -9999.25    0.29880    0.29960    2.14210    0.02270   13.17410   10.98180    8.60280    8.43590 -108.13740   90.56580
 7961.50000   -9999.25   -9999.25    0.32170    0.29960    2.11620    0.03340   13.70280    9.67050    7.49880    7.23070 -107.35010   92.13720
 7962.00000   -9999.25   -9999.25    0.33800    0.29960    2.13510    0.04440   13.96530    8.93270    7.49880    7.31760 -106.58870   92.19510
 7962.50000   -9999.25   -9999.25    0.32560    0.29960    2.15180    0.05620   14.07470    8.32450    7.57220    7.61180 -106.41830   90.38820
 7963.00000   -9999.25   -9999.25    0.31430    0.29960    2.16950    0.06350   14.19990    7.77630    7.71920    7.91770 -106.41310   91.46030
 7963.50000   -9999.25   -9999.25    0.30020    0.29960    2.17680    0.06470   14.18460    7.77630    7.86910    8.21000 -106.44030   94.61760
