~Version ---------------------------------------------------
VERS.   2.0 : CWLS log ASCII Standard -VERSION 2.0
WRAP.    NO : One line per depth step
DLM . SPACE : Column Data Section Delimiter
~Well ------------------------------------------------------
STRT .F                5080.0 : START DEPTH
STOP .F               13760.0 : STOP DEPTH
STEP .F                   0.5 : STEP
NULL .               -9999.25 : NULL VALUE
COMP .                        : COMPANY
WELL .                        : WELL
FLD  .                        : FIELD
LOC  .                        : LOCATION
PROV .                        : PROVINCE
CNTY .                        : COUNTY
STAT .                        : STATE
CTRY .                        : COUNTRY
SRVC .                        : SERVICE COMPANY
DATE .                        : DATE
UWI  .                        : UNIQUE WELL ID
API  .                        : API NUMBER
SLAT .WGS84 5.853983019465105 : SURFACE LATITUDE
SLON .WGS84 4.017662594110803 : SURFACE LONGITUDE
DATUM.F               1824.85 : DEPTH DATUM ELEV
~Curve Information -----------------------------------------
DEPT.F     : 
DTCO.US/F  : COMPRESSIONAL-WAVE INTERVAL TRANSIT TIME ACOUSTIC SLOWNESS
DTSM.US/F  : INTERVAL TRANSIT TIME
NPHI.DEC   : NEUTRON POROSITY LIMESTONE
DPHI.DEC   : DENSITY POROSITY LIMESTONE
RHOB.G/C3  : BULK DENSITY
DRHO.G/C3  : DENSITY CORRECTION
CALD.IN    : CALIPER FROM DENSITY LOG
SFLU.OHMM  : SPHERICALLY FOCUSED LOG UNAVERAGED RESISTIVITY
IDPH.OHMM  : INDUCTION DEEP PHASOR RES.
IMPH.OHMM  : INDUCTION MEDIUM PHASOR RES.
SPR .MV    : SPONTANEOUS POTENTIAL
GRR .GAPI  : GAMMA RAY FROM RES. LOG.
~Params ----------------------------------------------------
~Other -----------------------------------------------------
~ASCII -----------------------------------------------------
# ...
 12752.00000   -9999.25  103.16320   -9999.25   -9999.25   -9999.25   -9999.25   -9999.25    3.99420    3.72020    3.60140  -79.01890  126.86640
 12752.50000   -9999.25  100.80950   -9999.25   -9999.25   -9999.25   -9999.25   -9999.25    4.60680    3.87070    4.00140  -79.28300  112.42890
 12753.00000   -9999.25   96.27510   -9999.25   -9999.25   -9999.25   -9999.25   -9999.25    6.49230    4.12630    4.44590  -79.55130  102.99930
 12753.50000   -9999.25   91.72120   -9999.25   -9999.25   -9999.25   -9999.25   -9999.25    8.30900    4.39880    4.93980  -79.81800   97.03410
 12754.00000   -9999.25   87.15350   -9999.25   -9999.25   -9999.25   -9999.25   -9999.25    8.24140    4.68930    5.48840  -80.08750   98.42400
 12754.50000   -9999.25   82.35850   -9999.25   -9999.25   -9999.25   -9999.25   -9999.25    8.24500    4.99900    5.74810  -80.35310  100.13960
 12755.00000   -9999.25   80.11560   -9999.25   -9999.25   -9999.25   -9999.25   -9999.25    8.25080    5.15340    5.53560  -80.61710  104.15570
 12755.50000   78.11740   80.47770   -9999.25   -9999.25   -9999.25   -9999.25   -9999.25    8.14780    5.34450    5.31520  -80.90640  108.13960
 12756.00000   79.22290   82.93090   -9999.25   -9999.25   -9999.25   -9999.25   -9999.25    7.92410    5.34450    5.10360  -80.98650  110.72330
 12756.50000   79.88110   84.14410   -9999.25   -9999.25   -9999.25   -9999.25   -9999.25    7.31550    4.80280    4.87960  -80.83010  108.75630
 12757.00000   79.73970   84.14410   -9999.25   -9999.25   -9999.25   -9999.25   -9999.25    6.60360    4.36000    4.44760  -80.69950  105.75480
 12757.50000   80.22020   84.62460   -9999.25   -9999.25   -9999.25   -9999.25   -9999.25    5.97330    3.95800    4.01000  -80.56560  103.94940
 12758.00000   81.61500   85.96460   -9999.25   -9999.25   -9999.25   -9999.25   -9999.25    5.44270    3.59300    3.61550  -80.42770  106.82630
 12758.50000   82.15080   86.28670   -9999.25   -9999.25   -9999.25   -9999.25   -9999.25    4.66150    3.26180    3.25980  -80.29400  108.38080
 12759.00000   80.48970   84.72760   -9999.25   -9999.25   -9999.25   -9999.25   -9999.25    4.06750    2.96100    2.93910  -80.15740  109.33570
 12759.50000   79.40710   83.14250   -9999.25   -9999.25   -9999.25   -9999.25   -9999.25    3.92210    2.68800    2.65000  -80.02290  108.81210
 12760.00000   78.79080   83.71140   -9999.25   -9999.25   -9999.25   -9999.25   -9999.25    3.56920    2.35600    2.39930  -79.88800  107.15180
 12760.50000   73.86190   84.06850   -9999.25   -9999.25   -9999.25   -9999.25   -9999.25    3.00660    2.38110    2.82640  -79.74960  105.02600
 12761.00000   61.68070   90.21020   -9999.25   -9999.25   -9999.25   -9999.25   -9999.25    2.71220    2.42100    2.77540  -79.62260  103.83940
 12761.50000   50.32190   95.20960   -9999.25   -9999.25   -9999.25   -9999.25   -9999.25    2.67620    2.46160    2.65000  -79.48500  104.32650
 12762.00000   50.44870   97.01000   -9999.25   -9999.25   -9999.25   -9999.25   -9999.25    2.97660    2.50290    2.53390  -79.78310  104.54860
 12762.50000   54.52830   96.25630   -9999.25   -9999.25   -9999.25   -9999.25   -9999.25    3.68840    2.54490    2.64500  -80.28770  104.75530
 12763.00000   65.62840  101.29660   -9999.25   -9999.25   -9999.25   -9999.25   -9999.25    4.57050    2.58760    2.83950  -80.79650  105.11840
 12763.50000   76.80740  110.17420   -9999.25   -9999.25   -9999.25   -9999.25   -9999.25    5.44270    2.63100    3.09570  -81.02220  104.09010
 12764.00000   81.24020  117.78350   -9999.25   -9999.25   -9999.25   -9999.25   -9999.25    5.20770    2.67620    3.03660  -80.46820  102.76880
 12764.50000   83.43290  120.65490   -9999.25   -9999.25   -9999.25   -9999.25   -9999.25    4.96920    2.76000    2.88630  -80.21590  101.14860
 12765.00000   87.05370  128.27170   -9999.25   -9999.25   -9999.25   -9999.25   -9999.25    4.06570    2.84860    2.74340  -80.31350  103.41760
 12765.50000   91.68880  155.28340   -9999.25   -9999.25   -9999.25   -9999.25   -9999.25    3.43170    2.94000    2.62790  -80.44080  108.19910
 12766.00000   93.23920  168.89980   -9999.25   -9999.25   -9999.25   -9999.25   -9999.25    2.89570    3.03980    2.67970  -80.56250  112.59130
 12766.50000   92.04110  174.66560   -9999.25   -9999.25   -9999.25   -9999.25   -9999.25    2.49940    3.05060    2.72540  -80.68480  116.97780
 12767.00000   90.70280  170.99110   -9999.25   -9999.25   -9999.25   -9999.25   -9999.25    3.73650    3.06210    2.77540  -80.80800  118.87860
 12767.50000   89.36530  167.39300   -9999.25   -9999.25   -9999.25   -9999.25   -9999.25    5.31520    3.07370    2.82640  -80.93060  116.31430
 12768.00000   88.56550  165.43570   -9999.25   -9999.25   -9999.25   -9999.25   -9999.25    6.19100    3.08520    2.98500  -81.03040  112.66150
 12768.50000   89.45880  167.31370   -9999.25   -9999.25   -9999.25   -9999.25   -9999.25    5.16190    3.09570    3.23150  -81.01600  112.16090
 12769.00000   89.95000  169.12270   -9999.25   -9999.25   -9999.25   -9999.25   -9999.25    5.23990    3.33610    3.51630  -80.97450  115.44740
 12769.50000   89.93740  170.93170   -9999.25   -9999.25   -9999.25   -9999.25   -9999.25    5.45080    3.45290    3.54490  -80.93120  120.30390
 12770.00000   91.35950  172.74070   -9999.25   -9999.25   -9999.25   -9999.25   -9999.25    5.44260    3.38980    3.58090  -80.88880  120.46200
 12770.50000   92.55290  174.43440   -9999.25   -9999.25   -9999.25   -9999.25   -9999.25    4.69270    3.33300    3.53630  -80.84610  120.47050
 12771.00000   92.37900  174.79080   -9999.25   -9999.25   -9999.25   -9999.25   -9999.25    4.70420    3.27700    3.44440  -80.80340  122.09370
 12771.50000   91.72870  175.03500   -9999.25   -9999.25   -9999.25   -9999.25   -9999.25    4.62980    3.22200    3.35490  -80.76080  125.72080
 12772.00000   91.07840  178.72790   -9999.25   -9999.25   -9999.25   -9999.25   -9999.25    3.90070    3.16790    3.26770  -80.71810  128.75080
 12772.50000   90.41470  179.71530   -9999.25   -9999.25   -9999.25   -9999.25   -9999.25    3.96160    3.11470    3.15250  -80.67550  128.78050
 12773.00000   90.96540  179.26860   -9999.25   -9999.25   -9999.25   -9999.25   -9999.25    4.09380    3.08090    3.21040  -80.63290  129.00270
 12773.50000   92.21210  179.38500   -9999.25   -9999.25   -9999.25   -9999.25   -9999.25    4.54850    3.05780    3.21040  -80.59020  128.93350
 12774.00000   93.35330  180.24020   -9999.25   -9999.25   -9999.25   -9999.25   -9999.25    5.15340    3.03480    3.21040  -80.54760  134.03050
 12774.50000   92.87930  177.60830   -9999.25   -9999.25   -9999.25   -9999.25   -9999.25    4.99200    3.01210    3.21040  -80.50500  139.95390
 12775.00000   91.05100  173.43340   -9999.25   -9999.25   -9999.25   -9999.25   -9999.25    4.62030    2.98500    3.06760  -80.46230  144.66190
 12775.50000   88.70600  173.68570   -9999.25   -9999.25   -9999.25   -9999.25   -9999.25    4.27620    2.90540    2.93220  -80.41980  142.09090
 12776.00000   87.71700  173.31910   -9999.25   -9999.25   -9999.25   -9999.25   -9999.25    4.14220    2.82640    2.80280  -80.37720  133.50610
 12776.50000   87.29730  172.31630   -9999.25   -9999.25   -9999.25   -9999.25   -9999.25    4.28790    2.67160    2.67900  -80.33430  123.47140
 12777.00000   85.19210  171.32980   -9999.25   -9999.25   -9999.25   -9999.25   -9999.25    3.96800    2.54760    2.56070  -80.29230  113.51930
 12777.50000   82.95740  171.18960   -9999.25   -9999.25   -9999.25   -9999.25   -9999.25    3.43900    2.42930    2.44760  -80.24940  113.71320
 12778.00000   83.04410  173.25900   -9999.25   -9999.25   -9999.25   -9999.25   -9999.25    3.04570    2.31660    2.33930  -80.23730  114.22390
 12778.50000   84.00160  176.74210   -9999.25   -9999.25   -9999.25   -9999.25   -9999.25    3.01900    2.20910    2.23570  -80.23800  111.29940
 12779.00000   84.95150  180.22780   -9999.25   -9999.25   -9999.25   -9999.25   -9999.25    2.98400    2.10660    2.13670  -80.23820  107.67770
 12779.50000   85.89740  183.24320   -9999.25   -9999.25   -9999.25   -9999.25   -9999.25    2.94930    2.00880    2.03550  -80.23790  103.97360
