~Version ---------------------------------------------------
VERS.   2.0 : CWLS log ASCII Standard -VERSION 2.0
WRAP.    NO : One line per depth step
DLM . SPACE : Column Data Section Delimiter
~Well ------------------------------------------------------
STRT .F                5080.0 : START DEPTH
STOP .F               13760.0 : STOP DEPTH
STEP .F                   0.5 : STEP
NULL .               -9999.25 : NULL VALUE
COMP .                        : COMPANY
WELL .                        : WELL
FLD  .                        : FIELD
LOC  .                        : LOCATION
PROV .                        : PROVINCE
CNTY .                        : COUNTY
STAT .                        : STATE
CTRY .                        : COUNTRY
SRVC .                        : SERVICE COMPANY
DATE .                        : DATE
UWI  .                        : UNIQUE WELL ID
API  .                        : API NUMBER
SLAT .WGS84 5.853983019465105 : SURFACE LATITUDE
SLON .WGS84 4.017662594110803 : SURFACE LONGITUDE
DATUM.F               1824.85 : DEPTH DATUM ELEV
~Curve Information -----------------------------------------
DEPT.F     : 
DTCO.US/F  : COMPRESSIONAL-WAVE INTERVAL TRANSIT TIME ACOUSTIC SLOWNESS
DTSM.US/F  : INTERVAL TRANSIT TIME
NPHI.DEC   : NEUTRON POROSITY LIMESTONE
DPHI.DEC   : DENSITY POROSITY LIMESTONE
RHOB.G/C3  : BULK DENSITY
DRHO.G/C3  : DENSITY CORRECTION
CALD.IN    : CALIPER FROM DENSITY LOG
SFLU.OHMM  : SPHERICALLY FOCUSED LOG UNAVERAGED RESISTIVITY
IDPH.OHMM  : INDUCTION DEEP PHASOR RES.
IMPH.OHMM  : INDUCTION MEDIUM PHASOR RES.
SPR .MV    : SPONTANEOUS POTENTIAL
GRR .GAPI  : GAMMA RAY FROM RES. LOG.
~Params ----------------------------------------------------
~Other -----------------------------------------------------
~ASCII -----------------------------------------------------
# ...
 7068.00000   -9999.25   -9999.25   -9999.25   -9999.25   -9999.25   -9999.25   -9999.25    6.84770    7.41570    6.90340 -119.90980  115.56190
 7068.50000   -9999.25   -9999.25   -9999.25   -9999.25   -9999.25   -9999.25   -9999.25    7.13470    7.36390    7.08340 -119.91930  112.27580
 7069.00000   -9999.25   -9999.25   -9999.25   -9999.25   -9999.25   -9999.25   -9999.25    7.49880    7.34530    7.26820 -119.92290  107.52090
 7069.50000   -9999.25   -9999.25   -9999.25   -9999.25   -9999.25   -9999.25   -9999.25    7.49880    7.28350    7.36390 -119.91970  103.65610
 7070.00000   -9999.25   -9999.25   -9999.25   -9999.25   -9999.25   -9999.25   -9999.25    7.46220    7.22230    7.28400 -119.92110  105.38820
 7070.50000   -9999.25   -9999.25   -9999.25   -9999.25   -9999.25   -9999.25   -9999.25    7.42860    7.16150    7.21150 -119.92080  106.55940
 7071.00000   -9999.25   -9999.25   -9999.25   -9999.25   -9999.25   -9999.25   -9999.25    7.39520    7.10130    7.13960 -119.92060  105.43790
 7071.50000   -9999.25   -9999.25   -9999.25   -9999.25   -9999.25   -9999.25   -9999.25    7.36390    7.04220    7.06850 -119.92080  103.74320
 7072.00000   -9999.25   -9999.25   -9999.25   -9999.25   -9999.25   -9999.25   -9999.25    7.24100    6.97400    6.99810 -119.92060  103.73020
 7072.50000   -9999.25   -9999.25   -9999.25   -9999.25   -9999.25   -9999.25   -9999.25    7.05700    6.97390    6.92840 -119.92060  106.16110
 7073.00000   -9999.25   -9999.25   -9999.25   -9999.25   -9999.25   -9999.25   -9999.25    6.87760    6.97380    6.84770 -119.92060  109.00180
 7073.50000   -9999.25   -9999.25   -9999.25   -9999.25   -9999.25   -9999.25   -9999.25    6.70280    6.97360    6.86610 -119.92060  110.53670
 7074.00000   -9999.25   -9999.25   -9999.25   -9999.25   -9999.25   -9999.25   -9999.25    6.53250    6.97350    6.88820 -119.92060  110.43470
 7074.50000   -9999.25   -9999.25   -9999.25   -9999.25   -9999.25   -9999.25   -9999.25    6.36780    6.97340    6.91040 -119.92060  109.64640
 7075.00000   -9999.25   -9999.25   -9999.25   -9999.25   -9999.25   -9999.25   -9999.25    6.36780    6.97350    6.93270 -119.92060  107.43040
 7075.50000   -9999.25   -9999.25   -9999.25   -9999.25   -9999.25   -9999.25   -9999.25    6.52040    6.97370    6.95480 -119.92060  105.67050
 7076.00000   -9999.25   -9999.25   -9999.25   -9999.25   -9999.25   -9999.25   -9999.25    6.65020    6.97420    6.97320 -119.92060  107.39060
 7076.50000   -9999.25   -9999.25   -9999.25   -9999.25   -9999.25   -9999.25   -9999.25    6.78260    6.95580    6.97330 -119.92060  110.28250
 7077.00000   -9999.25   -9999.25   -9999.25   -9999.25   -9999.25   -9999.25   -9999.25    6.91760    6.90680    6.97360 -119.92060  112.69860
 7077.50000   -9999.25   -9999.25   -9999.25   -9999.25   -9999.25   -9999.25   -9999.25    7.05530    6.85800    6.95550 -119.92060  110.51540
 7078.00000   -9999.25   -9999.25   -9999.25   -9999.25   -9999.25   -9999.25   -9999.25    7.19570    6.81130    6.90480 -119.92060  106.53270
 7078.50000   -9999.25   -9999.25   -9999.25   -9999.25   -9999.25   -9999.25   -9999.25    7.23130    6.76680    6.84470 -119.92060  102.43900
 7079.00000   -9999.25   -9999.25   -9999.25   -9999.25   -9999.25   -9999.25   -9999.25    7.23130    6.72450    6.84930 -119.92060   99.06310
 7079.50000   -9999.25   -9999.25   -9999.25   -9999.25   -9999.25   -9999.25   -9999.25    7.23130    6.82080    6.94330 -119.92060   97.11480
 7080.00000   -9999.25   -9999.25   -9999.25   -9999.25   -9999.25   -9999.25   -9999.25    7.23130    6.90670    7.02680 -119.92060   95.59030
 7080.50000   -9999.25   -9999.25   -9999.25   -9999.25   -9999.25   -9999.25   -9999.25    7.23130    6.99370    7.11120 -119.92070   97.48650
 7081.00000   -9999.25   -9999.25   -9999.25   -9999.25   -9999.25   -9999.25   -9999.25    7.23130    7.08180    7.19670 -119.92100  100.33670
 7081.50000   -9999.25   -9999.25   -9999.25   -9999.25   -9999.25   -9999.25   -9999.25    7.02850    7.17100    7.28340 -119.92030  103.10350
 7082.00000   -9999.25   -9999.25   -9999.25   -9999.25   -9999.25   -9999.25   -9999.25    6.84990    7.26130    7.36350 -119.92180  105.54810
 7082.50000   -9999.25   -9999.25   -9999.25   -9999.25   -9999.25   -9999.25   -9999.25    6.72450    7.36390    7.36350 -119.92070  105.27700
 7083.00000   -9999.25   -9999.25   -9999.25   -9999.25   -9999.25   -9999.25   -9999.25    6.88610    7.36390    7.36390 -119.91880  104.95150
 7083.50000   -9999.25   -9999.25   -9999.25   -9999.25   -9999.25   -9999.25   -9999.25    7.10110    7.30480    7.38150 -119.93060  103.12930
 7084.00000   -9999.25   -9999.25   -9999.25   -9999.25   -9999.25   -9999.25   -9999.25    7.10110    7.25010    7.44830 -119.80860  104.22260
 7084.50000   -9999.25   -9999.25   -9999.25   -9999.25   -9999.25   -9999.25   -9999.25    7.10110    7.19590    7.49880 -119.53590  106.59050
 7085.00000   -9999.25   -9999.25   -9999.25   -9999.25   -9999.25   -9999.25   -9999.25    7.10110    7.14210    7.42770 -119.27370  108.84060
 7085.50000   -9999.25   -9999.25   -9999.25   -9999.25   -9999.25   -9999.25   -9999.25    7.10110    7.08860    7.34450 -119.01410  104.62290
 7086.00000   -9999.25   -9999.25   -9999.25   -9999.25   -9999.25   -9999.25   -9999.25    7.10110    7.03560    7.26220 -118.75250   99.55860
 7086.50000   -9999.25   -9999.25   -9999.25   -9999.25   -9999.25   -9999.25   -9999.25    7.21120    6.98300    7.17630 -118.47080   96.16900
 7087.00000   -9999.25   -9999.25   -9999.25   -9999.25   -9999.25   -9999.25   -9999.25    7.36390    6.92990    7.08940 -118.34090   98.75470
 7087.50000   -9999.25   -9999.25   -9999.25   -9999.25   -9999.25   -9999.25   -9999.25    7.30390    6.84830    7.00260 -118.41430  105.07920
 7088.00000   -9999.25   -9999.25   -9999.25   -9999.25    2.56570   -9999.25   15.50590    7.20580    6.85100    6.91690 -118.46460  108.13530
 7088.50000   -9999.25   -9999.25   -9999.25   -9999.25    2.56570   -9999.25   15.50590    7.10910    6.86180    6.84780 -118.51840  110.33140
 7089.00000   -9999.25   -9999.25   -9999.25   -9999.25    2.55780   -9999.25   15.50590    7.01370    6.87270    6.82780 -118.57510  104.86380
 7089.50000   -9999.25   -9999.25   -9999.25   -9999.25    2.55780   -9999.25   15.50590    6.87710    6.88360    6.80220 -118.62860  103.52290
 7090.00000   -9999.25   -9999.25   -9999.25    0.08430    2.56080    0.06490   15.50590    6.71230    6.89450    6.77680 -118.68380  103.97270
 7090.50000   -9999.25   -9999.25   -9999.25    0.08500    2.56440    0.07000   15.74230    6.55140    6.90530    6.75150 -118.73870  107.63630
 7091.00000   -9999.25   -9999.25   -9999.25    0.08900    2.56220    0.07450   16.05930    6.39440    6.91630    6.72480 -118.79320  111.60630
 7091.50000   -9999.25   -9999.25   -9999.25    0.09380    2.56640    0.07180   16.08970    6.14060    6.92690    6.74870 -118.84830  114.00870
 7092.00000   -9999.25   -9999.25   -9999.25    0.09950    2.55360    0.06650   16.07830    6.18650    6.93760    6.77410 -118.90300  112.84380
 7092.50000   -9999.25   -9999.25   -9999.25    0.10520    2.54050    0.06120   16.09270    6.32740    6.94900    6.79950 -118.95640  110.39540
 7093.00000   -9999.25   -9999.25    0.21800    0.11090    2.52810    0.05620   16.10120    6.47160    6.95940    6.82510 -119.01500  100.21040
 7093.50000   -9999.25   -9999.25    0.21350    0.11400    2.51620    0.05100   16.08250    6.61900    6.96760    6.84800 -119.06370   95.21380
 7094.00000   -9999.25   -9999.25    0.21140    0.11950    2.50310    0.04700   16.02240    6.76980    7.00340    6.89070 -119.11620   95.29710
 7094.50000   -9999.25   -9999.25    0.21630    0.12190    2.50880    0.04840   15.93000    6.92400    7.05320    6.92940 -118.94130   99.41680
 7095.00000   -9999.25   -9999.25    0.22110    0.11490    2.51930    0.05110   15.81160    6.97330    7.10070    6.96850 -118.73670  107.05300
 7095.50000   -9999.25   -9999.25    0.22660    0.11120    2.51680    0.05750   15.69800    6.97330    7.14840    7.00790 -118.52610  113.98910
