~Version ---------------------------------------------------
VERS.   2.0 : CWLS log ASCII Standard -VERSION 2.0
WRAP.    NO : One line per depth step
DLM . SPACE : Column Data Section Delimiter
~Well ------------------------------------------------------
STRT .F                5080.0 : START DEPTH
STOP .F               13760.0 : STOP DEPTH
STEP .F                   0.5 : STEP
NULL .               -9999.25 : NULL VALUE
COMP .                        : COMPANY
WELL .                        : WELL
FLD  .                        : FIELD
LOC  .                        : LOCATION
PROV .                        : PROVINCE
CNTY .                        : COUNTY
STAT .                        : STATE
CTRY .                        : COUNTRY
SRVC .                        : SERVICE COMPANY
DATE .                        : DATE
UWI  .                        : UNIQUE WELL ID
API  .                        : API NUMBER
SLAT .WGS84 5.853983019465105 : SURFACE LATITUDE
SLON .WGS84 4.017662594110803 : SURFACE LONGITUDE
DATUM.F               1824.85 : DEPTH DATUM ELEV
~Curve Information -----------------------------------------
DEPT.F     : 
DTCO.US/F  : COMPRESSIONAL-WAVE INTERVAL TRANSIT TIME ACOUSTIC SLOWNESS
DTSM.US/F  : INTERVAL TRANSIT TIME
NPHI.DEC   : NEUTRON POROSITY LIMESTONE
DPHI.DEC   : DENSITY POROSITY LIMESTONE
RHOB.G/C3  : BULK DENSITY
DRHO.G/C3  : DENSITY CORRECTION
CALD.IN    : CALIPER FROM DENSITY LOG
SFLU.OHMM  : SPHERICALLY FOCUSED LOG UNAVERAGED RESISTIVITY
IDPH.OHMM  : INDUCTION DEEP PHASOR RES.
IMPH.OHMM  : INDUCTION MEDIUM PHASOR RES.
SPR .MV    : SPONTANEOUS POTENTIAL
GRR .GAPI  : GAMMA RAY FROM RES. LOG.
~Params ----------------------------------------------------
~Other -----------------------------------------------------
~ASCII -----------------------------------------------------
# ...
 13284.00000   87.48920  187.33220    0.21910    0.04240    2.63720   -0.01690    6.30950    4.14810    2.96530    2.99650  -62.15700  118.89610
 13284.50000   87.08560  187.61060    0.21620    0.04830    2.62800   -0.01720    6.30870    4.42320    2.98500    3.07620  -62.08170  117.95050
 13285.00000   87.54000  187.88890    0.21790    0.04480    2.63200   -0.01880    6.26570    4.62030    3.09220    3.15800  -61.99140  116.32570
 13285.50000   88.30000  188.10000    0.21970    0.03630    2.64420   -0.02090    6.18960    4.54390    3.19080    3.24190  -61.98480  115.75480
 13286.00000   86.39850  187.90000    0.22130    0.02880    2.65580   -0.02100    6.11880    4.45510    3.29250    3.32810  -61.98270  113.15310
 13286.50000   83.51780  186.42340    0.22430    0.02950    2.65470   -0.02110    6.04770    4.70200    3.39740    3.41660  -61.98480  109.32060
 13287.00000   82.70000  184.50000    0.22700    0.03360    2.64950   -0.02110    6.01940    5.22650    3.51630    3.51630  -61.98380  105.63990
 13287.50000   83.50000  184.38180    0.23830    0.03800    2.64390   -0.02100    5.99950    5.90670    3.50300    3.51630  -61.98400  102.05830
 13288.00000   84.55200  184.56400    0.25210    0.03970    2.64040   -0.02200    5.97950    5.82090    3.47670    3.51630  -61.98420   99.13670
 13288.50000   85.55400  184.70000    0.26130    0.03970    2.64030   -0.02530    5.95880    5.36990    3.45050    3.51630  -61.98420  101.26260
 13289.00000   86.39200  185.50000    0.26520    0.04020    2.63980   -0.02700    5.93860    4.95330    3.42450    3.48970  -61.98390  103.58970
 13289.50000   85.56570  184.02270    0.25760    0.04100    2.63900   -0.02620    5.91750    4.56870    3.39880    3.46540  -61.98480  108.24270
 13290.00000   84.70000  183.50000    0.24920    0.04210    2.64100   -0.02560    5.90900    4.45220    3.37320    3.44130  -61.98370  111.27210
 13290.50000   84.70000  184.71370    0.24470    0.03980    2.64550   -0.02500    5.90940    4.42860    3.34780    3.41740  -61.98140  114.31560
 13291.00000   84.90000  183.71100    0.24320    0.03580    2.65020   -0.02430    5.90960    4.40220    3.32950    3.39060  -61.93280  114.23370
 13291.50000   85.70000  181.14340    0.24560    0.03580    2.65030   -0.02370    5.91080    4.37470    3.35350    3.41230  -61.88300  112.61250
 13292.00000   85.50000  178.57570    0.24400    0.03910    2.64380   -0.02300    5.88840    4.45510    3.38120    3.45910  -61.83130  110.60870
 13292.50000   85.50000  176.50000    0.24050    0.04240    2.63690   -0.02200    5.82260    4.61790    3.40920    3.50640  -61.78080  115.45100
 13293.00000   86.50000  175.10000    0.23700    0.04520    2.63280   -0.02090    5.75830    4.99100    3.45290    3.55440  -61.72980  116.26630
 13293.50000   86.90000  171.40070    0.23540    0.04440    2.63540   -0.01980    5.71270    5.54270    3.44580    3.58090  -61.67890  117.00410
 13294.00000   84.70000  168.92700    0.24020    0.04240    2.63750   -0.01870    5.71300    5.48560    3.43020    3.54900  -61.62800  115.67840
 13294.50000   83.91100  171.55760    0.24830    0.04050    2.64020   -0.01760    5.71230    5.26240    3.41470    3.51900  -61.57710  114.56420
 13295.00000   84.88760  172.89730    0.25190    0.04290    2.63770   -0.01710    5.71240    5.04820    3.39930    3.48920  -61.52620  111.46790
 13295.50000   86.10800  171.47450    0.25310    0.04880    2.63090   -0.01790    5.71250    4.84280    3.38390    3.45970  -61.47510  108.82560
 13296.00000   85.30000  172.07440    0.25170    0.05230    2.62360   -0.01900    5.71240    4.64570    3.36860    3.43040  -61.42470  106.36240
 13296.50000   84.10000  173.10000    0.24920    0.04980    2.62460   -0.01780    5.71260    4.53690    3.35340    3.39060  -61.37280  108.44110
 13297.00000   83.90000  169.88080    0.24680    0.04720    2.62960   -0.01700    5.71260    4.63930    3.32950    3.40440  -61.32290  112.71440
 13297.50000   84.93640  165.91030    0.24440    0.04530    2.63480   -0.01520    5.71250    4.80750    3.39000    3.42650  -61.27290  114.45070
 13298.00000   86.12690  165.78160    0.24200    0.04580    2.63230   -0.01620    5.71040    4.98180    3.53790    3.45290  -61.21410  113.16720
 13298.50000   84.62320  164.56020    0.23100    0.04790    2.63050   -0.01820    5.70880    5.16240    3.69230    3.58890  -61.23160  103.46230
 13299.00000   79.93600  159.08400    0.21600    0.04910    2.62580   -0.02220    5.70700    5.34950    3.85350    3.76310  -61.35530  102.95470
 13299.50000   77.30000  156.90000    0.20020    0.05370    2.61840   -0.02600    5.70520    5.54270    4.02170    3.94550  -61.46780  103.23430
 13300.00000   80.10000  161.10000    0.19860    0.05630    2.61420   -0.03110    5.70340    5.64450    4.19720    4.13720  -61.58600  104.19530
 13300.50000   80.65750  159.85690    0.20290    0.05770    2.61190   -0.03050    5.70160    5.74810    4.38040    4.33820  -61.70170  104.82420
 13301.00000   77.75960  157.49730    0.20490    0.05560    2.61460   -0.02380    5.69990    5.96130    4.53690    4.54900  -61.81260  101.39280
 13301.50000   76.04300  157.73900    0.20430    0.05380    2.61990   -0.01780    5.69810    7.76890    4.53690    4.77010  -61.94900   97.70750
 13302.00000   77.50000  160.95950    0.20360    0.04980    2.62450   -0.01160    5.69630    9.72720    4.53690    5.01590  -61.85600   96.01710
 13302.50000   80.23750  163.25990    0.20460    0.04490    2.63180   -0.01060    5.69460    8.48010    4.47850    4.92510  -61.57390   97.71170
 13303.00000   82.90000  165.71630    0.21050    0.03910    2.64460   -0.00970    5.69280    6.77130    4.40180    4.74820  -61.31340  100.36910
 13303.50000   82.07900  166.32350    0.21640    0.03530    2.64840   -0.00910    5.69100    6.16440    4.32630    4.57760  -61.05680  103.01530
 13304.00000   81.30000  166.30000    0.22240    0.03620    2.64710   -0.00840    5.68920    5.66430    4.25210    4.41310  -60.79200  105.73870
 13304.50000   81.70000  165.65500    0.22520    0.03700    2.64600   -0.00750    5.68750    5.15130    4.17920    4.25440  -60.52130  108.53180
 13305.00000   81.90000  163.65000    0.21610    0.04080    2.63990   -0.00850    5.68570    5.17660    4.10760    4.10140  -60.39580  109.84280
 13305.50000   81.90000  162.90000    0.20690    0.04630    2.62970   -0.01100    5.68390    5.21980    4.03720    3.99430  -60.56490  108.14980
 13306.00000   81.90000  163.52000    0.20270    0.05230    2.62210   -0.01310    5.68210    5.55920    3.96800    4.00990  -60.70790  106.82710
 13306.50000   81.50000  163.10000    0.20100    0.04720    2.61860   -0.01490    5.68040    6.31260    3.89990    4.04620  -60.86100  105.17940
 13307.00000   81.10000  161.50000    0.20340    0.03980    2.63560   -0.01100    5.67860    7.15140    3.83310    4.06750  -61.01240  105.10930
 13307.50000   80.50000  162.53590    0.20540    0.03200    2.65150   -0.00740    5.67670    6.78540    3.78190    3.99940  -61.16250  106.32590
 13308.00000   82.30000  167.17250    0.20720    0.02480    2.66500   -0.00520    5.67520    5.81610    3.78190    3.93460  -61.31360  109.23450
 13308.50000   86.50000  169.93960    0.21050    0.02040    2.67380   -0.00540    5.67360    4.53690    3.78190    3.87080  -61.46500  112.40110
 13309.00000   86.90000  169.49600    0.21510    0.01700    2.68210   -0.00540    5.68080    4.61690    3.78190    3.78190  -61.61570  114.04790
 13309.50000   84.90450  164.69380    0.21970    0.01550    2.68370   -0.00540    5.68850    4.79160    3.78190    3.85140  -61.76480  112.47200
 13310.00000   83.08180  160.76080    0.22090    0.01700    2.68200   -0.00530    5.69650    5.65620    3.78190    3.92600  -61.92180  107.93300
 13310.50000   81.70000  162.07710    0.22020    0.02280    2.67330   -0.00630    5.70440    7.15140    3.78190    3.99070  -61.98970  104.10080
 13311.00000   81.70000  164.16560    0.22330    0.02950    2.66180   -0.00870    5.71240    7.02240    3.84250    4.05540  -61.98320   99.97350
 13311.50000   80.35050  165.30000    0.23320    0.03150    2.65520   -0.01100    5.72030    6.89570    3.89610    4.14300  -61.98410   95.59240
