~Version ---------------------------------------------------
VERS.   2.0 : CWLS log ASCII Standard -VERSION 2.0
WRAP.    NO : One line per depth step
DLM . SPACE : Column Data Section Delimiter
~Well ------------------------------------------------------
STRT .F                5080.0 : START DEPTH
STOP .F               13760.0 : STOP DEPTH
STEP .F                   0.5 : STEP
NULL .               -9999.25 : NULL VALUE
COMP .                        : COMPANY
WELL .                        : WELL
FLD  .                        : FIELD
LOC  .                        : LOCATION
PROV .                        : PROVINCE
CNTY .                        : COUNTY
STAT .                        : STATE
CTRY .                        : COUNTRY
SRVC .                        : SERVICE COMPANY
DATE .                        : DATE
UWI  .                        : UNIQUE WELL ID
API  .                        : API NUMBER
SLAT .WGS84 5.853983019465105 : SURFACE LATITUDE
SLON .WGS84 4.017662594110803 : SURFACE LONGITUDE
DATUM.F               1824.85 : DEPTH DATUM ELEV
~Curve Information -----------------------------------------
DEPT.F     : 
DTCO.US/F  : COMPRESSIONAL-WAVE INTERVAL TRANSIT TIME ACOUSTIC SLOWNESS
DTSM.US/F  : INTERVAL TRANSIT TIME
NPHI.DEC   : NEUTRON POROSITY LIMESTONE
DPHI.DEC   : DENSITY POROSITY LIMESTONE
RHOB.G/C3  : BULK DENSITY
DRHO.G/C3  : DENSITY CORRECTION
CALD.IN    : CALIPER FROM DENSITY LOG
SFLU.OHMM  : SPHERICALLY FOCUSED LOG UNAVERAGED RESISTIVITY
IDPH.OHMM  : INDUCTION DEEP PHASOR RES.
IMPH.OHMM  : INDUCTION MEDIUM PHASOR RES.
SPR .MV    : SPONTANEOUS POTENTIAL
GRR .GAPI  : GAMMA RAY FROM RES. LOG.
~Params ----------------------------------------------------
~Other -----------------------------------------------------
~ASCII -----------------------------------------------------
# ...
 11800.00000   -9999.25   -9999.25    0.27870    0.23010    2.28990    0.06600   11.25700    4.25120    3.09730    3.37170  -51.64780  112.66460
 11800.50000   -9999.25   -9999.25    0.29120    0.28230    2.20670    0.04390   11.36400    3.87070    3.04290    3.25200  -51.68140  115.10890
 11801.00000   -9999.25   -9999.25    0.30020    0.30060    2.12360    0.03430   11.36020    3.52460    3.02100    3.10820  -51.50530  114.57230
 11801.50000   -9999.25   -9999.25    0.29970    0.30050    2.08030    0.05640   11.21570    3.20990    2.96080    2.97070  -51.17420  110.24240
 11802.00000   -9999.25   -9999.25    0.29910    0.30040    2.15140    0.09350   11.07340    2.86000    2.94630    2.91570  -50.87320  104.05990
 11802.50000   -9999.25   -9999.25    0.29660    0.25320    2.25260    0.12700   10.92210    3.01790    2.93200    2.92690  -50.56980   97.83110
 11803.00000   -9999.25   -9999.25    0.29250    0.20410    2.35490    0.16020   10.83470    3.75360    2.91570    2.95640  -50.26160   99.69160
 11803.50000   -9999.25   -9999.25    0.29000    0.18710    2.37630    0.19980   10.86750    3.73790    2.93440    2.98630  -49.95790  106.98840
 11804.00000   -9999.25   -9999.25    0.28840    0.17830    2.40350    0.20240   10.89200    3.66120    2.98520    3.01650  -49.65110  113.44810
 11804.50000   -9999.25   -9999.25    0.28530    0.18650    2.39620    0.20370   10.91570    3.56060    3.03690    3.04700  -49.34750  119.62970
 11805.00000   -9999.25   -9999.25    0.28170    0.18910    2.38640    0.17720   10.94100    3.69230    3.08940    3.07770  -49.04030  127.50440
 11805.50000   -9999.25   -9999.25    0.27810    0.18750    2.38470    0.14640   10.97120    3.62590    3.14290    3.10880  -48.73270  128.23290
 11806.00000   -9999.25   -9999.25    0.27310    0.19990    2.38610    0.12200   10.99670    3.37170    3.19730    3.13540  -48.49660  126.28390
 11806.50000   -9999.25   -9999.25    0.26320    0.25760    2.24420    0.08760   11.28690    3.73350    3.25260    3.25200  -48.49480  115.17980
 11807.00000   -9999.25   -9999.25    0.25320    0.29820    2.03770    0.02900   11.65160    4.27610    3.30890    3.35660  -48.48980  108.86980
 11807.50000   -9999.25   -9999.25    0.24320    0.29830    1.94180    0.01610   11.98490    4.93120    3.36610    3.46460  -48.49300  103.54620
 11808.00000   -9999.25   -9999.25    0.23850    0.29840    1.86700    0.00080   12.11520    4.77300    3.42440    3.56060  -48.49130   98.74250
 11808.50000   -9999.25   -9999.25    0.23550    0.29840    1.85090   -0.01370   12.22820    4.64740    3.48370    3.48300  -48.49380   94.03550
 11809.00000   -9999.25   -9999.25    0.23310    0.29840    1.86770   -0.02790   12.34300    4.42720    3.54400    3.41610  -48.49190   94.40200
 11809.50000   -9999.25   -9999.25    0.25350    0.29850    1.88510   -0.03000   12.51230    4.26260    3.56060    3.31100  -48.48960  100.46210
 11810.00000   -9999.25   -9999.25    0.28310    0.29860    1.94470   -0.02310   12.30770    4.12080    3.56060    3.31100  -48.50910  108.35560
 11810.50000   -9999.25   -9999.25    0.31450    0.29870    2.02730   -0.01650   11.65920    3.97110    3.69230    3.37130  -48.29190  116.36370
 11811.00000   -9999.25   -9999.25    0.30130    0.29880    2.16190   -0.01030   11.06400    4.02500    3.82900    3.73260  -47.74820  119.89660
 11811.50000   -9999.25   -9999.25    0.22160    0.19790    2.32410   -0.00400   10.43810    4.87240    4.11760    4.17120  -47.22100  120.32580
 11812.00000   -9999.25   -9999.25    0.21240    0.11510    2.42210    0.00250   10.15770    6.33410    4.46990    4.66110  -46.69440  119.41640
 11812.50000   -9999.25   -9999.25    0.20700    0.07560    2.52690    0.00370   10.03550    7.22030    4.89320    5.20910  -46.17070  117.28440
 11813.00000   -9999.25   -9999.25    0.20570    0.06900    2.57690    0.00280    9.97540    7.96310    5.35650    5.82230  -45.60170  120.14950
 11813.50000   -9999.25   -9999.25    0.20490    0.06200    2.59190    0.00190    9.93330    8.98400    5.86370    6.36920  -45.27650  124.24880
 11814.00000   -9999.25   -9999.25    0.19140    0.05460    2.60650    0.00110    9.88340   10.02830    6.41890    6.90260  -45.10250  122.28490
 11814.50000   -9999.25   -9999.25    0.17980    0.04690    2.62140    0.00030    9.84000    9.15750    7.02670    7.48140  -44.88030  112.20810
 11815.00000   -9999.25   -9999.25    0.16860    0.03620    2.63640    0.00010    9.79240   10.28660    7.63630    8.10470  -44.63880  100.28560
 11815.50000   -9999.25   -9999.25    0.15780    0.02220    2.64960    0.00230    9.77260   13.09320    7.95540    8.78000  -44.51380   87.58940
 11816.00000   -9999.25   -9999.25    0.14700    0.00820    2.67970    0.00460    9.78220   16.37740    8.21190    9.31600  -44.52600   88.90610
 11816.50000   -9999.25   -9999.25    0.13600   -0.01110    2.70420    0.00700    9.79200   15.02850    8.21190    9.84780  -44.52320   94.16560
 11817.00000   -9999.25   -9999.25    0.14570   -0.00160    2.72730    0.00920    9.80140   13.22070    8.21190    9.67050  -44.52260   98.20550
 11817.50000   -9999.25   -9999.25    0.15560    0.01370    2.69830    0.01160    9.81170   11.80950    8.21190    8.99680  -44.52480   98.98870
 11818.00000   -9999.25   -9999.25    0.16340    0.02750    2.67180    0.01000    9.82080   11.59690    7.74920    8.40660  -44.52230   97.92320
 11818.50000   -9999.25   -9999.25    0.15920    0.03790    2.65610    0.00830    9.83110   11.55280    7.10600    7.85480  -44.52430  101.52350
 11819.00000   -9999.25   -9999.25    0.15090    0.04520    2.64230    0.00640    9.84200   11.38820    6.51430    7.36430  -44.52970  107.54470
 11819.50000   -9999.25   -9999.25    0.15840    0.07070    2.63880    0.00450    9.84640    9.82630    5.97210    6.58130  -44.60250  105.13630
 11820.00000   -9999.25   -9999.25    0.17120    0.15520    2.56730    0.00430    9.89050    8.53640    5.47530    5.91230  -44.66320   99.16570
 11820.50000   -9999.25   -9999.25    0.18400    0.21270    2.46000    0.00550    9.91120    6.84770    5.03150    5.20690  -44.72900   93.02690
 11821.00000   -9999.25   -9999.25    0.19690    0.20080    2.34420    0.00980    9.92890    6.87470    5.05960    5.21720  -44.79250   90.68310
 11821.50000   -9999.25   -9999.25    0.21040    0.18050    2.36930    0.01560    9.92330    6.93710    5.09230    5.11380  -44.85640   93.90650
 11822.00000   -9999.25   -9999.25    0.20390    0.15770    2.40980    0.02080    9.90400    6.97330    5.12050    5.35210  -44.92060   97.74640
 11822.50000   -9999.25   -9999.25    0.19240    0.13520    2.45120    0.02690    9.88540    7.85970    5.48900    5.68910  -44.98440  101.82290
 11823.00000   -9999.25   -9999.25    0.18090    0.11250    2.49360    0.02070    9.86640    8.83400    5.87430    6.04740  -45.04860  102.96580
 11823.50000   -9999.25   -9999.25    0.16940    0.08920    2.53450    0.01290    9.85730    9.92910    6.28670    6.42880  -45.11250  100.01100
 11824.00000   -9999.25   -9999.25    0.15710    0.06490    2.57570    0.00590    9.87070   11.15980    6.72810    6.83470  -45.17640   94.75040
 11824.50000   -9999.25   -9999.25    0.15440    0.04440    2.61700    0.00390    9.88290   12.36050    7.23130    7.35550  -45.24080   89.70850
 11825.00000   -9999.25   -9999.25    0.15160    0.04150    2.63950    0.00200    9.89260   13.05050    7.23130    7.54470  -45.31600   87.27850
 11825.50000   -9999.25   -9999.25    0.14870    0.04390    2.63330    0.00020    9.88690   13.96670    7.10110    8.37740  -45.51320   88.22250
 11826.00000   -9999.25   -9999.25    0.14710    0.04500    2.63230   -0.00160    9.88220   14.94720    6.84940    8.36240  -45.76180   89.36200
 11826.50000   -9999.25   -9999.25    0.14830    0.04440    2.63120   -0.00350    9.87700   15.79300    6.64590    7.45110  -46.01780   91.07980
 11827.00000   -9999.25   -9999.25    0.14950    0.05000    2.62810   -0.00180    9.87190   12.82250    6.44850    6.63290  -46.11860   92.97650
 11827.50000   -9999.25   -9999.25    0.16880    0.07310    2.61280    0.00150    9.86690   10.76090    6.25690    6.03000  -46.11000   98.80790
