~Version ---------------------------------------------------
VERS.   2.0 : CWLS log ASCII Standard -VERSION 2.0
WRAP.    NO : One line per depth step
DLM . SPACE : Column Data Section Delimiter
~Well ------------------------------------------------------
STRT .F                5080.0 : START DEPTH
STOP .F               13760.0 : STOP DEPTH
STEP .F                   0.5 : STEP
NULL .               -9999.25 : NULL VALUE
COMP .                        : COMPANY
WELL .                        : WELL
FLD  .                        : FIELD
LOC  .                        : LOCATION
PROV .                        : PROVINCE
CNTY .                        : COUNTY
STAT .                        : STATE
CTRY .                        : COUNTRY
SRVC .                        : SERVICE COMPANY
DATE .                        : DATE
UWI  .                        : UNIQUE WELL ID
API  .                        : API NUMBER
SLAT .WGS84 5.853983019465105 : SURFACE LATITUDE
SLON .WGS84 4.017662594110803 : SURFACE LONGITUDE
DATUM.F               1824.85 : DEPTH DATUM ELEV
~Curve Information -----------------------------------------
DEPT.F     : 
DTCO.US/F  : COMPRESSIONAL-WAVE INTERVAL TRANSIT TIME ACOUSTIC SLOWNESS
DTSM.US/F  : INTERVAL TRANSIT TIME
NPHI.DEC   : NEUTRON POROSITY LIMESTONE
DPHI.DEC   : DENSITY POROSITY LIMESTONE
RHOB.G/C3  : BULK DENSITY
DRHO.G/C3  : DENSITY CORRECTION
CALD.IN    : CALIPER FROM DENSITY LOG
SFLU.OHMM  : SPHERICALLY FOCUSED LOG UNAVERAGED RESISTIVITY
IDPH.OHMM  : INDUCTION DEEP PHASOR RES.
IMPH.OHMM  : INDUCTION MEDIUM PHASOR RES.
SPR .MV    : SPONTANEOUS POTENTIAL
GRR .GAPI  : GAMMA RAY FROM RES. LOG.
~Params ----------------------------------------------------
~Other -----------------------------------------------------
~ASCII -----------------------------------------------------
# ...
 13704.00000   -9999.25   -9999.25    0.15640    0.05330    2.61650   -0.01740    5.78070    6.64920    4.90060    4.94250  -26.26080   97.28010
 13704.50000   -9999.25   -9999.25    0.13730    0.04990    2.62830   -0.01380    5.78430    6.90700    4.87960    4.90030  -26.15330   95.01660
 13705.00000   -9999.25   -9999.25    0.11950    0.04010    2.64790   -0.01020    5.78810    7.22990    4.83030    4.85850  -26.06430   95.37810
 13705.50000   -9999.25   -9999.25    0.11190    0.02920    2.66570   -0.00980    5.79120    7.55280    4.78330    4.81710  -25.96640   97.92400
 13706.00000   -9999.25   -9999.25    0.10860    0.01620    2.67880   -0.01050    5.79860    7.27000    4.73670    4.77600  -25.87290  100.53670
 13706.50000   -9999.25   -9999.25    0.10660    0.02170    2.66670   -0.01490    5.80910    7.02240    4.69050    4.73520  -25.77960  103.12350
 13707.00000   -9999.25   -9999.25    0.10470    0.02840    2.65620   -0.02420    5.81940    7.15140    4.62030    4.70510  -25.68100  102.73630
 13707.50000   -9999.25   -9999.25   -9999.25    0.03350    2.64960   -0.03320    5.82970    7.15140    4.71800    4.90770  -25.59350  100.67030
 13708.00000   -9999.25   -9999.25   -9999.25    0.03420    2.64900   -0.04250    5.84000    6.41320    4.93850    5.15520  -25.48660   94.49680
 13708.50000   -9999.25   -9999.25   -9999.25    0.03490    2.64890   -0.04870    5.85030    6.07080    5.16940    5.41520  -25.57480   87.79190
 13709.00000   -9999.25   -9999.25   -9999.25    0.03420    2.65690   -0.05210    5.86060    6.72340    5.41110    5.68830  -25.69720   80.01630
 13709.50000   -9999.25   -9999.25   -9999.25    0.02740    2.66870   -0.05120    5.87100    9.80140    5.66400    5.97510  -25.82450   77.44140
 13710.00000   -9999.25   -9999.25   -9999.25    0.02090    2.67400   -0.05020    5.88120   13.19060    5.74810    6.21160  -25.94660   82.61940
 13710.50000   -9999.25   -9999.25   -9999.25    0.01870    2.67160   -0.04890    5.89160   15.08340    5.74810    6.74400  -26.07130   92.76250
 13711.00000   -9999.25   -9999.25   -9999.25    0.02100    2.67000   -0.04780    5.90190   14.00380    5.69820    7.15140  -26.19550  101.90930
 13711.50000   -9999.25   -9999.25   -9999.25    0.02390    2.66860   -0.04660    5.91080   13.07630    5.52720    6.62360  -26.31930  111.38790
 13712.00000   -9999.25   -9999.25   -9999.25    0.02410    2.66890   -0.04550    5.91600   10.92900    5.36140    6.07590  -26.44360  118.96490
 13712.50000   -9999.25   -9999.25   -9999.25    0.02100    2.67530   -0.04430    5.92120    8.69700    5.20060    5.24810  -26.56780  123.45770
 13713.00000   -9999.25   -9999.25   -9999.25    0.01720    2.68070   -0.04310    5.92630    6.92090    5.15340    5.25620  -26.69080  126.78800
 13713.50000   -9999.25   -9999.25   -9999.25    0.01230    2.68620   -0.04250    5.93160    5.64450    5.15340    5.28290  -26.81740  131.09050
 13714.00000   -9999.25   -9999.25   -9999.25    0.01780    2.67380   -0.03970    5.93660    6.49200    5.06050    5.30980  -26.93810  132.14520
 13714.50000   -9999.25   -9999.25   -9999.25    0.03460    2.64410   -0.03530    5.94160    9.67220    4.85390    5.33680  -27.05530  124.24270
 13715.00000   -9999.25   -9999.25   -9999.25    0.05760    2.61360   -0.02990    5.94780   17.01880    4.63710    5.48640  -27.03160  111.76700
 13715.50000   -9999.25   -9999.25   -9999.25    0.05360    2.61790   -0.02270    5.94120   14.48960    4.43000    5.69070  -27.00440  106.98570
 13716.00000   -9999.25   -9999.25   -9999.25    0.04660    2.62880   -0.01550    5.92610   10.33790    4.23220    5.31710  -26.97120  104.37600
 13716.50000   -9999.25   -9999.25   -9999.25    0.03960    2.64430   -0.01320    5.91200    7.37210    3.96240    4.77520  -26.94180  114.92000
 13717.00000   -9999.25   -9999.25   -9999.25    0.03340    2.65130   -0.01930    5.89810    5.25670    3.64400    4.28850  -26.91110  128.32090
 13717.50000   -9999.25   -9999.25   -9999.25    0.03550    2.64510   -0.02600    5.88390    3.93010    3.35120    3.85140  -26.88030  141.52960
 13718.00000   -9999.25   -9999.25   -9999.25    0.04120    2.63820   -0.03280    5.86990    3.69800    3.08200    3.45880  -26.84990  145.98800
 13718.50000   -9999.25   -9999.25   -9999.25    0.04740    2.63170   -0.03960    5.85570    3.50070    2.83440    3.10630  -26.81930  137.69230
 13719.00000   -9999.25   -9999.25   -9999.25    0.04510    2.63530   -0.04450    5.84150    3.51630    2.77540    2.77540  -26.78880  129.86250
 13719.50000   -9999.25   -9999.25   -9999.25    0.03940    2.63890   -0.04490    5.83210    3.57800    2.77540    2.77540  -26.75820  127.13020
 13720.00000   -9999.25   -9999.25   -9999.25    0.03910    2.64350   -0.04540    5.83820    3.64670    2.77540    2.77540  -26.72770  131.17610
 13720.50000   -9999.25   -9999.25   -9999.25    0.04240    2.64080   -0.04580    5.84390    3.71370    2.83540    2.89360  -26.69720  131.12460
 13721.00000   -9999.25   -9999.25   -9999.25    0.04570    2.63160   -0.04620    5.85020    4.88730    2.94540    3.11660  -26.66670  130.07580
 13721.50000   -9999.25   -9999.25   -9999.25    0.04750    2.62850   -0.04530    5.85640    6.41150    3.03980    3.51630  -26.63610  129.26250
 13722.00000   -9999.25   -9999.25   -9999.25    0.04590    2.63470   -0.04020    5.86210    6.05600    3.05520    3.45290  -26.60560  130.56990
 13722.50000   -9999.25   -9999.25   -9999.25    0.03850    2.64770   -0.03530    5.86900    5.20060    3.07520    3.38270  -26.57510  132.67050
 13723.00000   -9999.25   -9999.25   -9999.25    0.03150    2.66010   -0.03020    5.85750    4.46590    3.09570    3.26470  -26.54460  134.27780
 13723.50000   -9999.25   -9999.25   -9999.25    0.02450    2.67330   -0.02830    5.83540    3.76300    3.04390    3.15070  -26.51400  134.76160
 13724.00000   -9999.25   -9999.25   -9999.25    0.01890    2.67640   -0.02780    5.82130    3.85000    2.99220    3.03980  -26.48350  135.32720
 13724.50000   -9999.25   -9999.25   -9999.25    0.02290    2.66370   -0.02700    5.79830    4.02990    2.93110    2.98500  -26.45300  132.37420
 13725.00000   -9999.25   -9999.25   -9999.25    0.04360    2.63300   -0.02770    5.76840    4.21830    2.94570    3.03980  -26.42250  128.56890
 13725.50000   -9999.25   -9999.25   -9999.25    0.06290    2.57800   -0.02920    5.79280    4.41550    2.98270    3.03980  -26.39200  124.73240
 13726.00000   -9999.25   -9999.25   -9999.25    0.06240    2.56180   -0.03050    5.49210    4.62030    3.02010    3.03980  -26.36140  122.09010
 13726.50000   -9999.25   -9999.25   -9999.25    0.06240   -9999.25   -9999.25   -9999.25    4.51850    3.05790    3.03980  -26.33100  119.41570
 13727.00000   -9999.25   -9999.25   -9999.25    0.06240   -9999.25   -9999.25   -9999.25    4.29580    3.09570    3.03980  -26.30030  116.60900
 13727.50000   -9999.25   -9999.25   -9999.25    0.06240   -9999.25   -9999.25   -9999.25    4.40220    3.08400    3.03980  -26.26940  115.05010
 13728.00000   -9999.25   -9999.25   -9999.25    0.06240   -9999.25   -9999.25   -9999.25    4.52970    3.06530    3.03980  -26.23090  115.15870
 13728.50000   -9999.25   -9999.25   -9999.25    0.06240   -9999.25   -9999.25   -9999.25    4.66090    3.04670    3.03980  -26.19210  116.26960
 13729.00000   -9999.25   -9999.25   -9999.25    0.06240   -9999.25   -9999.25   -9999.25    4.79160    3.02820    3.05260  -26.15310  119.74660
 13729.50000   -9999.25   -9999.25   -9999.25    0.06240   -9999.25   -9999.25   -9999.25    4.41950    3.00980    3.06710  -26.11420  122.80080
 13730.00000   -9999.25   -9999.25   -9999.25    0.06240   -9999.25   -9999.25   -9999.25    3.92970    2.98500    3.08150  -26.07530  124.32700
 13730.50000   -9999.25   -9999.25   -9999.25   -9999.25   -9999.25   -9999.25   -9999.25    3.93160    3.01270    3.11740  -26.03640  120.01930
 13731.00000   -9999.25   -9999.25   -9999.25   -9999.25   -9999.25   -9999.25   -9999.25    4.27980    3.12970    3.22360  -25.99750   -9999.25
 13731.50000   -9999.25   -9999.25   -9999.25   -9999.25   -9999.25   -9999.25   -9999.25    4.65870    3.26940    3.32340  -25.95860   -9999.25
