~Version ---------------------------------------------------
VERS.   2.0 : CWLS log ASCII Standard -VERSION 2.0
WRAP.    NO : One line per depth step
DLM . SPACE : Column Data Section Delimiter
~Well ------------------------------------------------------
STRT .F                5080.0 : START DEPTH
STOP .F               13760.0 : STOP DEPTH
STEP .F                   0.5 : STEP
NULL .               -9999.25 : NULL VALUE
COMP .                        : COMPANY
WELL .                        : WELL
FLD  .                        : FIELD
LOC  .                        : LOCATION
PROV .                        : PROVINCE
CNTY .                        : COUNTY
STAT .                        : STATE
CTRY .                        : COUNTRY
SRVC .                        : SERVICE COMPANY
DATE .                        : DATE
UWI  .                        : UNIQUE WELL ID
API  .                        : API NUMBER
SLAT .WGS84 5.853983019465105 : SURFACE LATITUDE
SLON .WGS84 4.017662594110803 : SURFACE LONGITUDE
DATUM.F               1824.85 : DEPTH DATUM ELEV
~Curve Information -----------------------------------------
DEPT.F     : 
DTCO.US/F  : COMPRESSIONAL-WAVE INTERVAL TRANSIT TIME ACOUSTIC SLOWNESS
DTSM.US/F  : INTERVAL TRANSIT TIME
NPHI.DEC   : NEUTRON POROSITY LIMESTONE
DPHI.DEC   : DENSITY POROSITY LIMESTONE
RHOB.G/C3  : BULK DENSITY
DRHO.G/C3  : DENSITY CORRECTION
CALD.IN    : CALIPER FROM DENSITY LOG
SFLU.OHMM  : SPHERICALLY FOCUSED LOG UNAVERAGED RESISTIVITY
IDPH.OHMM  : INDUCTION DEEP PHASOR RES.
IMPH.OHMM  : INDUCTION MEDIUM PHASOR RES.
SPR .MV    : SPONTANEOUS POTENTIAL
GRR .GAPI  : GAMMA RAY FROM RES. LOG.
~Params ----------------------------------------------------
~Other -----------------------------------------------------
~ASCII -----------------------------------------------------
# ...
 10512.00000   -9999.25   -9999.25    0.19960    0.05910    2.60370   -0.00930   10.44670    7.94510    6.46310    6.03000  -70.41610  112.08350
 10512.50000   -9999.25   -9999.25    0.19580    0.05600    2.61170   -0.00650   10.44660    8.48760    6.82850    6.56490  -70.31750  111.95450
 10513.00000   -9999.25   -9999.25    0.19530    0.05320    2.61450   -0.00330   10.44670    9.06730    7.21470    7.03780  -70.21880  109.54930
 10513.50000   -9999.25   -9999.25    0.19700    0.05230    2.61360   -0.00260   10.44690    9.68650    7.62290    7.54500  -70.11780  105.61690
 10514.00000   -9999.25   -9999.25    0.19860    0.06040    2.60950   -0.00470   10.44280   10.21210    8.05440    8.20520  -70.02080  103.00110
 10514.50000   -9999.25   -9999.25    0.20020    0.06740    2.59850   -0.00670   10.42910   10.21210    8.51050    8.55580  -69.92590  106.94470
 10515.00000   -9999.25   -9999.25    0.20180    0.07440    2.58740   -0.00820   10.41540   10.30530    8.99280    9.01780  -69.92150  109.83610
 10515.50000   -9999.25   -9999.25    0.20340    0.08200    2.57560   -0.00880   10.40200   10.78410    9.50250    9.50580  -69.91940  113.11210
 10516.00000   -9999.25   -9999.25    0.20490    0.08360    2.56720   -0.00960   10.38840   11.18320   10.04130   10.01990  -69.92100  109.40630
 10516.50000   -9999.25   -9999.25    0.20270    0.08540    2.56220   -0.00890   10.37340   13.65680   10.60750   10.56040  -69.92040  105.77510
 10517.00000   -9999.25   -9999.25    0.19940    0.08710    2.56000   -0.00700   10.37370   13.35020   11.20780   10.91850  -69.92040  103.27060
 10517.50000   -9999.25   -9999.25    0.20860    0.08890    2.55750   -0.00540   10.39070   12.85440   11.84210   11.14630  -69.92040  108.32070
 10518.00000   -9999.25   -9999.25    0.21950    0.09060    2.55200   -0.00410   10.40630   12.47100   12.51230   11.37880  -69.92100  112.79010
 10518.50000   -9999.25   -9999.25    0.22920    0.09220    2.54890   -0.00510   10.42180   13.65680   12.93250   11.61610  -69.91960  109.93610
 10519.00000   -9999.25   -9999.25    0.22370    0.09140    2.54880   -0.00610   10.43790   14.73070   12.93250   11.91730  -69.92140  104.87740
 10519.50000   -9999.25   -9999.25    0.21640    0.09060    2.55080   -0.00710   10.45470   16.37740   12.93250   12.24650  -69.92500   99.90160
 10520.00000   -9999.25   -9999.25    0.20900    0.09220    2.55080   -0.00780   10.47270   15.20980   12.93250   12.93250  -70.00400   99.51160
 10520.50000   -9999.25   -9999.25    0.20650    0.09430    2.54640   -0.00650   10.49090   13.44580   13.10990   12.93250  -70.08490  103.41620
 10521.00000   -9999.25   -9999.25    0.21520    0.09630    2.54200   -0.00510   10.50920   11.36720   13.65680   12.76570  -70.16900  106.86040
 10521.50000   -9999.25   -9999.25    0.22500    0.09830    2.54020   -0.00360   10.52740   11.50520   13.62580   12.60110  -70.25110  110.23790
 10522.00000   -9999.25   -9999.25    0.23700    0.09730    2.53990   -0.00210   10.54560   12.14360   13.54870   12.47100  -70.33380  111.99770
 10522.50000   -9999.25   -9999.25    0.23440    0.09320    2.54360   -0.00060   10.56380   13.09600   13.47200   12.24650  -70.41660  109.31760
 10523.00000   -9999.25   -9999.25    0.22790    0.08800    2.55270    0.00090   10.58220   13.91450   13.41100   12.48720  -70.49920  105.71300
 10523.50000   -9999.25   -9999.25    0.22450    0.08200    2.56280    0.00320   10.60030   14.17120   13.45980   12.73260  -70.58200  102.36170
 10524.00000   -9999.25   -9999.25    0.22890    0.08670    2.56770    0.00770   10.61840   14.14820   13.58260   12.93250  -70.66510  102.91170
 10524.50000   -9999.25   -9999.25    0.23230    0.10140    2.54650    0.01220   10.63750   14.58190   13.65680   13.90720  -70.77230  105.97510
 10525.00000   -9999.25   -9999.25    0.22450    0.12190    2.51880    0.01570   10.64130   14.95920   13.65680   13.78140  -70.91220  108.31240
 10525.50000   -9999.25   -9999.25    0.21660    0.11480    2.50310    0.01560   10.63350   15.51480   13.65680   13.49240  -71.05410  111.40810
 10526.00000   -9999.25   -9999.25    0.22690    0.10470    2.51280    0.01670   10.62660   15.31590   14.13000   13.28970  -71.19710  116.38630
 10526.50000   -9999.25   -9999.25    0.23900    0.10750    2.52560    0.01850   10.61980   14.98740   14.42180   13.16950  -71.33280  123.31350
 10527.00000   -9999.25   -9999.25    0.24950    0.11680    2.51340    0.02020   10.61330   15.56600   15.55580   13.90720  -71.50080  127.00590
 10527.50000   -9999.25   -9999.25    0.23620    0.12270    2.49640    0.02180   10.60640   16.73270   16.77890   14.77530  -71.48400  123.12980
 10528.00000   -9999.25   -9999.25    0.24170    0.11220    2.50230    0.02350   10.62650   19.79870   18.23580   15.69490  -71.73910  119.28380
 10528.50000   -9999.25   -9999.25    0.25250    0.09220    2.52530    0.02140   10.65590   24.97540   19.91940   16.67910  -72.19270  116.54130
 10529.00000   -9999.25   -9999.25    0.26570    0.09760    2.55310    0.01930   10.68530   31.58290   21.75850   17.72580  -72.61090  116.37100
 10529.50000   -9999.25   -9999.25    0.27220    0.11310    2.54430    0.01240   10.71430   39.81470   23.76730   18.83640  -73.04070  119.51890
 10530.00000   -9999.25   -9999.25    0.26990    0.13590    2.50890    0.00590   10.74360   46.75910   25.96170   19.65300  -73.46580  122.54440
 10530.50000   -9999.25   -9999.25    0.26830    0.15870    2.47400    0.00200   10.77290   52.38130   28.35860   21.39120  -73.84640  125.82300
 10531.00000   -9999.25   -9999.25    0.27790    0.17570    2.43940    0.00200   10.80190   56.32930   30.97680   22.95320  -74.08270  128.34470
 10531.50000   -9999.25   -9999.25    0.28600    0.18460    2.40440    0.00190   10.83110   60.57480   33.26120   24.62620  -74.48550  130.53810
 10532.00000   -9999.25   -9999.25    0.29420    0.19350    2.38250    0.00190   10.86080   64.38410   34.18000   26.34440  -74.84290  132.06450
 10532.50000   -9999.25   -9999.25    0.29970    0.20020    2.36940    0.00210   10.88870   69.14700   35.76810   28.13050  -75.21060  134.43660
 10533.00000   -9999.25   -9999.25    0.30020    0.20280    2.36370    0.00080   10.91880   75.34760   33.32160   30.03780  -75.58060  142.37460
 10533.50000   -9999.25   -9999.25    0.30220    0.20270    2.36350   -0.00350   10.90840   65.89470   29.61040   32.07440  -75.94790  151.44360
 10534.00000   -9999.25   -9999.25    0.30740    0.20180    2.36290   -0.00690   10.89790   51.55200   25.32760   33.26120  -76.31370  190.82760
 10534.50000   -9999.25   -9999.25    0.29570    0.20620    2.36170   -0.00900   10.88280   38.29110   21.12020   26.57010  -76.68280  229.18530
 10535.00000   -9999.25   -9999.25    0.29800    0.21330    2.34750   -0.01130   10.91090   30.16820   17.61180   20.06620  -77.05640  264.89120
 10535.50000   -9999.25   -9999.25    0.32310    0.23510    2.32330   -0.01370   10.94740   19.61840   14.68610   15.15430  -77.40130  279.87090
 10536.00000   -9999.25   -9999.25    0.36100    0.29860    2.30080   -0.01600   10.98380   13.71010   12.69960   11.44470  -77.85300  239.15740
 10536.50000   -9999.25   -9999.25    0.40530    0.29880    2.09080   -0.02150   11.02000   11.18320   11.26470    9.67050  -77.50370  176.48370
 10537.00000   -9999.25   -9999.25    0.33890    0.29890    1.92660   -0.02620   11.05890   12.02600   10.39940    9.32540  -76.56100  151.03210
 10537.50000   -9999.25   -9999.25    0.26390    0.29880    1.89710   -0.03150   11.07730   13.16950    8.04310    7.94160  -75.62830  132.34860
 10538.00000   -9999.25   -9999.25    0.20030    0.25640    2.01850   -0.03420   11.06770   14.16210    6.49290    6.94670  -74.71560   95.11780
 10538.50000   -9999.25   -9999.25    0.15950    0.17480    2.21440   -0.02540   11.06200    9.05830    5.51270    6.07630  -73.78800   95.05360
 10539.00000   -9999.25   -9999.25    0.16990    0.10260    2.53040   -0.00970   11.05030    6.72450    5.04840    5.31510  -72.80350   99.72460
 10539.50000   -9999.25   -9999.25    0.19100    0.06240    2.58500   -0.00310   11.04800    5.26200    4.62310    4.64920  -72.26580  104.39430
