~Version ---------------------------------------------------
VERS.   2.0 : CWLS log ASCII Standard -VERSION 2.0
WRAP.    NO : One line per depth step
DLM . SPACE : Column Data Section Delimiter
~Well ------------------------------------------------------
STRT .F                5080.0 : START DEPTH
STOP .F               13760.0 : STOP DEPTH
STEP .F                   0.5 : STEP
NULL .               -9999.25 : NULL VALUE
COMP .                        : COMPANY
WELL .                        : WELL
FLD  .                        : FIELD
LOC  .                        : LOCATION
PROV .                        : PROVINCE
CNTY .                        : COUNTY
STAT .                        : STATE
CTRY .                        : COUNTRY
SRVC .                        : SERVICE COMPANY
DATE .                        : DATE
UWI  .                        : UNIQUE WELL ID
API  .                        : API NUMBER
SLAT .WGS84 5.853983019465105 : SURFACE LATITUDE
SLON .WGS84 4.017662594110803 : SURFACE LONGITUDE
DATUM.F               1824.85 : DEPTH DATUM ELEV
~Curve Information -----------------------------------------
DEPT.F     : 
DTCO.US/F  : COMPRESSIONAL-WAVE INTERVAL TRANSIT TIME ACOUSTIC SLOWNESS
DTSM.US/F  : INTERVAL TRANSIT TIME
NPHI.DEC   : NEUTRON POROSITY LIMESTONE
DPHI.DEC   : DENSITY POROSITY LIMESTONE
RHOB.G/C3  : BULK DENSITY
DRHO.G/C3  : DENSITY CORRECTION
CALD.IN    : CALIPER FROM DENSITY LOG
SFLU.OHMM  : SPHERICALLY FOCUSED LOG UNAVERAGED RESISTIVITY
IDPH.OHMM  : INDUCTION DEEP PHASOR RES.
IMPH.OHMM  : INDUCTION MEDIUM PHASOR RES.
SPR .MV    : SPONTANEOUS POTENTIAL
GRR .GAPI  : GAMMA RAY FROM RES. LOG.
~Params ----------------------------------------------------
~Other -----------------------------------------------------
~ASCII -----------------------------------------------------
# ...
 9644.00000   -9999.25   -9999.25    0.16660    0.03800    2.64550   -0.00380   10.95010    8.82630    7.23180    7.23130  -85.00000   85.31010
 9644.50000   -9999.25   -9999.25    0.16980    0.03300    2.65130   -0.00330   10.95270    8.53910    7.24980    7.26920  -85.00000   87.38410
 9645.00000   -9999.25   -9999.25    0.17360    0.02940    2.65690   -0.00270   10.95530    8.26020    7.28250    7.33450  -85.00000   89.49500
 9645.50000   -9999.25   -9999.25    0.17440    0.02790    2.66290   -0.00210   10.95780    7.91330    7.31540    7.40030  -85.00000   90.47590
 9646.00000   -9999.25   -9999.25    0.17410    0.02580    2.66870   -0.00200   10.96030    8.11770    7.34850    7.46680  -85.00000   90.89650
 9646.50000   -9999.25   -9999.25    0.17380    0.02370    2.67320   -0.00420   10.96050    8.72370    7.36450    7.53380  -85.00000   89.81640
 9647.00000   -9999.25   -9999.25    0.17360    0.02240    2.67000   -0.00640   10.96050    9.17330    7.32590    7.63630  -85.00000   87.82920
 9647.50000   -9999.25   -9999.25    0.17630    0.02440    2.66730   -0.00870   10.96050    9.14400    7.27140    7.56970  -85.00000   86.01810
 9648.00000   -9999.25   -9999.25    0.17910    0.02640    2.66510   -0.01110   10.96050    8.89470    7.20450    7.43490  -85.00000   89.09430
 9648.50000   -9999.25   -9999.25    0.18140    0.02750    2.66420   -0.01140   10.96050    8.49920    7.10360    7.30250  -85.00000   92.84280
 9649.00000   -9999.25   -9999.25    0.17980    0.02800    2.66320   -0.00990   10.96050    8.12100    7.00460    7.17240  -85.00000   91.38700
 9649.50000   -9999.25   -9999.25    0.17670    0.02850    2.66220   -0.00850   10.96050    7.64670    6.90690    7.04470  -85.00000   88.03050
 9650.00000   -9999.25   -9999.25    0.17350    0.02890    2.66110   -0.00690   10.96050    7.93070    6.81060    6.91920  -85.00000   86.59340
 9650.50000   -9999.25   -9999.25    0.17050    0.02940    2.65940   -0.00560   10.96050    7.84500    6.71560    6.79600  -85.00000   85.16630
 9651.00000   -9999.25   -9999.25    0.17520    0.03190    2.65740   -0.00440   10.96050    7.69550    6.60340    6.60340  -85.00000   85.76660
 9651.50000   -9999.25   -9999.25    0.17980    0.03560    2.65130   -0.00590   10.96050    7.50370    6.64850    6.64350  -85.00000   87.65100
 9652.00000   -9999.25   -9999.25    0.18300    0.03850    2.64620   -0.00500   10.96050    7.57270    6.76270    6.74490  -85.00000   89.20730
 9652.50000   -9999.25   -9999.25    0.18020    0.03890    2.64310   -0.00450   10.96050    7.70850    6.87890    6.84770  -85.00000   90.80150
 9653.00000   -9999.25   -9999.25    0.17660    0.03750    2.64180   -0.00390   10.96050    7.84600    6.97330    6.97330  -85.00000   91.57000
 9653.50000   -9999.25   -9999.25    0.17170    0.03170    2.64550   -0.00310   10.96050    7.98520    6.97330    6.97330  -85.00000   91.75730
 9654.00000   -9999.25   -9999.25    0.16690    0.02470    2.65770   -0.00240   10.96050    8.12590    6.97330    6.97330  -85.00000   88.60200
 9654.50000   -9999.25   -9999.25    0.15950    0.01770    2.67710   -0.00160   10.96050    8.21120    6.97330    6.97330  -85.00000   85.10020
 9655.00000   -9999.25   -9999.25    0.16110    0.01440    2.68600   -0.00080   10.96050    8.04580    6.97330    6.97330  -85.00000   83.86060
 9655.50000   -9999.25   -9999.25    0.16500    0.01680    2.68160    0.00000   10.96050    7.88330    6.97330    6.97330  -85.00000   87.83000
 9656.00000   -9999.25   -9999.25    0.17140    0.01940    2.67770    0.00080   10.96050    7.72380    6.97330    6.97240  -85.00000   92.33090
 9656.50000   -9999.25   -9999.25    0.17630    0.01740    2.68080    0.00150   10.96060    7.62930    6.97330    6.97210  -85.00000   96.69310
 9657.00000   -9999.25   -9999.25    0.17730    0.01570    2.68280    0.00230   10.96050    7.72600    6.97330    6.97190  -85.00000   95.33070
 9657.50000   -9999.25   -9999.25    0.17830    0.01610    2.68480    0.00300   10.96050    7.87790    7.02560    7.03220  -85.00000   93.44500
 9658.00000   -9999.25   -9999.25    0.17660    0.01970    2.67690    0.00380   10.96080    8.06400    7.15820    7.18540  -85.00000   91.27170
 9658.50000   -9999.25   -9999.25    0.17500    0.02330    2.66970    0.00250   10.95640    8.22850    7.29340    7.34180  -85.00000   90.14310
 9659.00000   -9999.25   -9999.25    0.17340    0.02720    2.66210    0.00100   10.94750    8.65440    7.43100    7.50140  -85.00000   89.22510
 9659.50000   -9999.25   -9999.25    0.17200    0.02720    2.66240   -0.00050   10.93880    9.10230    7.57130    7.66420  -85.00000   89.59750
 9660.00000   -9999.25   -9999.25    0.16880    0.02430    2.66450   -0.00190   10.93070    9.67050    7.71420    7.83230  -85.00000   90.45270
 9660.50000   -9999.25   -9999.25    0.16600    0.02170    2.66920   -0.00170   10.92150    9.52110    7.85980    8.00260  -85.00000   91.09770
 9661.00000   -9999.25   -9999.25    0.16320    0.01980    2.67570   -0.00130   10.91960    9.33750    7.91890    8.21190  -85.00000   88.01720
 9661.50000   -9999.25   -9999.25    0.16110    0.01900    2.67770   -0.00090   10.91760    9.15750    7.91890    8.21190  -85.00000   80.25120
 9662.00000   -9999.25   -9999.25    0.16200    0.01880    2.67730   -0.00050   10.91610    8.81740    7.91890    8.21190  -85.00000   76.51710
 9662.50000   -9999.25   -9999.25    0.16400    0.01920    2.67690   -0.00020   10.91430    8.36240    7.91890    8.21190  -85.00000   77.64170
 9663.00000   -9999.25   -9999.25    0.16570    0.02100    2.67140    0.00020   10.91260    8.50610    7.91890    8.21190  -85.00000   79.30130
 9663.50000   -9999.25   -9999.25    0.16560    0.02420    2.66650    0.00060   10.91100    8.75100    7.91890    8.21190  -85.00000   81.12360
 9664.00000   -9999.25   -9999.25    0.16520    0.02730    2.66200    0.00100   10.90930    9.00290    7.91890    8.21040  -85.00000   81.22790
 9664.50000   -9999.25   -9999.25    0.16480    0.02720    2.66220    0.00140   10.90760    9.15750    7.91890    8.21310  -85.00000   79.61980
 9665.00000   -9999.25   -9999.25    0.16440    0.02360    2.66760    0.00190   10.90590    9.15750    8.16230    8.34770  -85.00000   78.37190
 9665.50000   -9999.25   -9999.25    0.16170    0.02170    2.67110    0.00120   10.90420    9.15750    8.41320    8.48460  -85.00000   79.54500
 9666.00000   -9999.25   -9999.25    0.15620    0.02380    2.66750   -0.00040   10.90250    9.15750    8.56230    8.62370  -85.00000   81.18790
 9666.50000   -9999.25   -9999.25    0.15080    0.02640    2.66510   -0.00190   10.90080    9.93760    8.64040    8.76520  -85.00000   83.42640
 9667.00000   -9999.25   -9999.25    0.14930    0.02680    2.66290   -0.00350   10.89910   10.78410    8.71920    8.99080  -85.00000   83.78860
 9667.50000   -9999.25   -9999.25    0.14930    0.02710    2.66130   -0.00430   10.89740   10.98180    8.80110    8.95200  -85.00000   81.90210
 9668.00000   -9999.25   -9999.25    0.15200    0.02910    2.65950   -0.00480   10.89570   10.61410    8.83320    8.85090  -85.00000   78.61600
 9668.50000   -9999.25   -9999.25    0.15430    0.03140    2.65790   -0.00530   10.89400   10.02580    8.76910    8.75100  -85.00000   76.24700
 9669.00000   -9999.25   -9999.25    0.15740    0.03300    2.65600   -0.00580   10.89230    9.47020    8.61080    8.65220  -85.00000   75.06470
 9669.50000   -9999.25   -9999.25    0.16140    0.03360    2.65490   -0.00630   10.89060    9.15110    8.45520    8.55450  -85.00000   74.01290
 9670.00000   -9999.25   -9999.25    0.16540    0.03420    2.65210   -0.00680   10.88890    9.23300    8.30260    8.45790  -85.00000   73.26820
 9670.50000   -9999.25   -9999.25    0.16970    0.03350    2.65280   -0.00730   10.88710    9.31580    8.15280    8.36240  -85.00000   77.57600
 9671.00000   -9999.25   -9999.25    0.16970    0.03280    2.65330   -0.00770   10.88550    9.44280    8.00580    8.26800  -85.00000   81.95640
 9671.50000   -9999.25   -9999.25    0.16940    0.03000    2.65680   -0.00610   10.88380    9.65960    7.86150    8.15070  -85.00000   83.88300
