~Version ---------------------------------------------------
VERS.   2.0 : CWLS log ASCII Standard -VERSION 2.0
WRAP.    NO : One line per depth step
DLM . SPACE : Column Data Section Delimiter
~Well ------------------------------------------------------
STRT .F                5080.0 : START DEPTH
STOP .F               13760.0 : STOP DEPTH
STEP .F                   0.5 : STEP
NULL .               -9999.25 : NULL VALUE
COMP .                        : COMPANY
WELL .                        : WELL
FLD  .                        : FIELD
LOC  .                        : LOCATION
PROV .                        : PROVINCE
CNTY .                        : COUNTY
STAT .                        : STATE
CTRY .                        : COUNTRY
SRVC .                        : SERVICE COMPANY
DATE .                        : DATE
UWI  .                        : UNIQUE WELL ID
API  .                        : API NUMBER
SLAT .WGS84 5.853983019465105 : SURFACE LATITUDE
SLON .WGS84 4.017662594110803 : SURFACE LONGITUDE
DATUM.F               1824.85 : DEPTH DATUM ELEV
~Curve Information -----------------------------------------
DEPT.F     : 
DTCO.US/F  : COMPRESSIONAL-WAVE INTERVAL TRANSIT TIME ACOUSTIC SLOWNESS
DTSM.US/F  : INTERVAL TRANSIT TIME
NPHI.DEC   : NEUTRON POROSITY LIMESTONE
DPHI.DEC   : DENSITY POROSITY LIMESTONE
RHOB.G/C3  : BULK DENSITY
DRHO.G/C3  : DENSITY CORRECTION
CALD.IN    : CALIPER FROM DENSITY LOG
SFLU.OHMM  : SPHERICALLY FOCUSED LOG UNAVERAGED RESISTIVITY
IDPH.OHMM  : INDUCTION DEEP PHASOR RES.
IMPH.OHMM  : INDUCTION MEDIUM PHASOR RES.
SPR .MV    : SPONTANEOUS POTENTIAL
GRR .GAPI  : GAMMA RAY FROM RES. LOG.
~Params ----------------------------------------------------
~Other -----------------------------------------------------
~ASCII -----------------------------------------------------
# ...
 7488.00000   -9999.25   -9999.25    0.31600    0.14950    2.49300    0.10150   11.43750    7.63630    8.82670    7.23130 -109.79910  105.62870
 7488.50000   -9999.25   -9999.25    0.30870    0.12660    2.47990    0.07250   11.55630    7.75880    8.67170    7.10110 -109.46730  104.17590
 7489.00000   -9999.25   -9999.25    0.30340    0.14080    2.45510    0.05530   11.37310    7.97140    8.51450    7.02570 -109.11810  101.49370
 7489.50000   -9999.25   -9999.25    0.30280    0.15530    2.43800    0.05540   11.17510    8.06400    8.74330    6.97330 -108.79020  100.21780
 7490.00000   -9999.25   -9999.25    0.30220    0.15950    2.45810    0.05430   10.93990    8.88180    8.98290    7.08820 -108.81140  102.25590
 7490.50000   -9999.25   -9999.25    0.30640    0.14960    2.48050    0.04800   10.94050    9.64650    9.22900    7.62700 -108.97540  108.22450
 7491.00000   -9999.25   -9999.25    0.31530    0.12900    2.49510    0.03410   10.93500   10.67500    9.48190    8.39320 -109.61570  114.48380
 7491.50000   -9999.25   -9999.25    0.32840    0.12430    2.39310    0.02120   11.09720   12.47100    9.74170    9.84780 -110.31230  121.49330
 7492.00000   -9999.25   -9999.25    0.35320    0.21370    2.05390    0.00350   11.75800   15.50870   10.02830    9.70220 -112.00070  126.31040
 7492.50000   -9999.25   -9999.25    0.38020    0.29960    1.70890   -0.01730   13.91970   13.89770   10.18670    9.32540 -113.47440  127.23420
 7493.00000   -9999.25   -9999.25    0.40730    0.29940    1.44410   -0.03810   13.82000   12.34760   10.36020    9.96840 -115.06320  125.72000
 7493.50000   -9999.25   -9999.25    0.43430    0.29930    1.49030   -0.04260   12.94140   10.59000   10.53670   10.59000 -115.78400  129.52030
 7494.00000   -9999.25   -9999.25    0.45770    0.29920    1.59670   -0.03610   12.22840   10.95200   10.68610   10.19580 -116.49890  135.75580
 7494.50000   -9999.25   -9999.25    0.41470    0.29910    1.73900   -0.03040   11.53630   12.25760   10.82450    9.49640 -117.17140  142.68350
 7495.00000   -9999.25   -9999.25    0.32320    0.29900    1.86290   -0.02490   11.74930   13.87620   10.98180   10.35410 -117.88420  149.20680
 7495.50000   -9999.25   -9999.25    0.26930    0.29890    1.97460   -0.01910   12.00290   13.96840   11.71130   11.74620 -118.55850  143.78350
 7496.00000   -9999.25   -9999.25    0.21550    0.29880    2.11380   -0.01340   11.34890   14.07520   13.24630   13.32550 -119.27270  129.96930
 7496.50000   -9999.25   -9999.25    0.16170    0.30050    2.34190   -0.00770   10.68320   14.35710   14.49530   15.11710 -119.98800  104.74140
 7497.00000   -9999.25   -9999.25    0.10710    0.13210    2.46480   -0.00200   10.39570   14.93610   15.86210   16.33820 -121.43910   75.72030
 7497.50000   -9999.25   -9999.25    0.09140    0.08830    2.54360    0.00380   10.37860   16.25560   17.40170   17.40190 -122.85060   67.16270
 7498.00000   -9999.25   -9999.25    0.09950    0.09050    2.55610    0.00910   10.35530   18.27220   19.05670   18.45690 -124.32250   62.66950
 7498.50000   -9999.25   -9999.25    0.09650    0.09610    2.55590    0.01520   10.32460   23.12840   20.80640   19.30740 -125.62230   58.86750
 7499.00000   -9999.25   -9999.25    0.08120    0.08580    2.56310    0.01210   10.29820   30.18380   29.79160   20.00000 -127.64020   52.50260
 7499.50000   -9999.25   -9999.25    0.06590    0.08090    2.57150    0.00810   10.27210   39.14430   31.81060   19.63640 -130.17870   44.13880
 7500.00000   -9999.25   -9999.25    0.05060    0.07930    2.57820    0.00390   10.24640   59.48440   33.95810   19.28640 -132.54750   34.37390
 7500.50000   -9999.25   -9999.25    0.03500    0.08020    2.57320    0.00010   10.21530   50.94230   36.29760   18.77510 -134.95930   38.56990
 7501.00000   -9999.25   -9999.25    0.05390    0.08510    2.55980    0.00050   10.24660   34.24210   27.56570   18.36000 -137.06510   50.66840
 7501.50000   -9999.25   -9999.25    0.08290    0.10230    2.53160    0.00110   10.31140   23.01670   20.85550   17.17130 -139.20300   62.55760
 7502.00000   -9999.25   -9999.25    0.11200    0.12780    2.48520    0.00210   10.37300   15.47120   15.79000   15.84520 -141.32970   72.65470
 7502.50000   -9999.25   -9999.25    0.14110    0.15330    2.44150    0.00290   10.44280   11.38820   13.01330   14.62060 -143.35410   77.67520
 7503.00000   -9999.25   -9999.25    0.16970    0.16680    2.42070    0.00290   10.33460   11.80950   13.01920   13.16180 -146.33070   69.74620
 7503.50000   -9999.25   -9999.25    0.15270    0.17720    2.40230    0.00910   10.02410   13.86680   12.49230   13.33220 -149.91040   60.67100
 7504.00000   -9999.25   -9999.25    0.13610    0.18750    2.38260    0.01870    9.72430   17.75310   12.52980   14.81320 -153.67880   51.83260
 7504.50000   -9999.25   -9999.25    0.11170    0.19780    2.36950    0.04010    9.42470   25.38290   12.89230   16.45800 -158.49610   52.10100
 7505.00000   -9999.25   -9999.25    0.11420    0.20250    2.37970    0.05940    9.12200   31.61160   13.75150   18.28880 -165.57220   52.83020
 7505.50000   -9999.25   -9999.25    0.11860    0.18620    2.42570    0.08100    8.81970   33.19090   14.67090   20.74000 -169.14370   53.49820
 7506.00000   -9999.25   -9999.25    0.11930    0.16970    2.42180    0.09080    8.55940   34.84910   15.63810   21.58180 -178.97790   51.39810
 7506.50000   -9999.25   -9999.25    0.11440    0.17500    2.39990    0.10290    8.54610   36.59020   16.66900   22.73680 -184.10330   46.04180
 7507.00000   -9999.25   -9999.25    0.10950    0.18680    2.37830    0.10270    8.65930   38.46390   17.76790   23.98420 -187.90950   40.86830
 7507.50000   -9999.25   -9999.25    0.10470    0.19860    2.35950    0.10290    8.67370   41.66460   18.89340   26.99730 -190.93810   35.50630
 7508.00000   -9999.25   -9999.25    0.10080    0.21040    2.34690    0.11120    8.69350   46.44110   20.05340   30.47890 -194.27540   31.53640
 7508.50000   -9999.25   -9999.25    0.09880    0.21920    2.33860    0.11920    8.70990   51.76500   21.28460   33.87090 -194.50720   30.56190
 7509.00000   -9999.25   -9999.25    0.09680    0.21730    2.34600    0.12570    8.72740   53.34150   22.71210   32.85130 -194.48500   29.37510
 7509.50000   -9999.25   -9999.25    0.09730    0.20670    2.35980    0.12940    8.74960   52.74410   22.62330   31.59150 -192.86550   29.04400
 7510.00000   -9999.25   -9999.25    0.09870    0.19940    2.37360    0.13340    8.89270   50.12050   22.53930   30.38000 -190.72610   30.10420
 7510.50000   -9999.25   -9999.25    0.10020    0.19500    2.38140    0.13760    9.00140   47.02070   22.45570   29.28940 -188.53130   31.33870
 7511.00000   -9999.25   -9999.25    0.10160    0.19240    2.38350    0.13940    9.02500   43.67980   22.36980   30.16420 -186.31740   33.76140
 7511.50000   -9999.25   -9999.25    0.10310    0.19130    2.38370    0.13920    9.05660   42.89350   21.60180   32.07440 -183.37380   36.47310
 7512.00000   -9999.25   -9999.25    0.10470    0.19010    2.39110    0.13910    9.08670   44.48050   19.90860   31.29730 -178.77950   35.99430
 7512.50000   -9999.25   -9999.25    0.10130    0.18590    2.40180    0.13540    9.12410   49.00580   17.89330   28.58850 -174.33050   35.09220
 7513.00000   -9999.25   -9999.25    0.09590    0.18090    2.40310    0.13090    9.15360   51.43830   16.07670   27.23660 -169.60730   37.15210
 7513.50000   -9999.25   -9999.25    0.09140    0.18210    2.39960    0.12600    9.36770   46.46270   14.45160   21.81790 -164.97810   47.35830
 7514.00000   -9999.25   -9999.25    0.09840    0.18330    2.39710    0.12300    9.67770   38.46390   12.99080   18.09890 -161.11970   57.75470
 7514.50000   -9999.25   -9999.25    0.12580    0.17050    2.41380    0.12110   10.02430   18.92200   11.38820   15.01380 -151.57950   68.62770
 7515.00000   -9999.25   -9999.25    0.15290    0.14860    2.44710    0.11900   10.35420   12.21870   11.49950   11.59690 -141.78440   79.36990
 7515.50000   -9999.25   -9999.25    0.18220    0.13340    2.48350    0.11270   10.70660    8.99270   11.71300   11.66580 -136.62250   83.93420
