~Version ---------------------------------------------------
VERS.   2.0 : CWLS log ASCII Standard -VERSION 2.0
WRAP.    NO : One line per depth step
DLM . SPACE : Column Data Section Delimiter
~Well ------------------------------------------------------
STRT .F                5080.0 : START DEPTH
STOP .F               13760.0 : STOP DEPTH
STEP .F                   0.5 : STEP
NULL .               -9999.25 : NULL VALUE
COMP .                        : COMPANY
WELL .                        : WELL
FLD  .                        : FIELD
LOC  .                        : LOCATION
PROV .                        : PROVINCE
CNTY .                        : COUNTY
STAT .                        : STATE
CTRY .                        : COUNTRY
SRVC .                        : SERVICE COMPANY
DATE .                        : DATE
UWI  .                        : UNIQUE WELL ID
API  .                        : API NUMBER
SLAT .WGS84 5.853983019465105 : SURFACE LATITUDE
SLON .WGS84 4.017662594110803 : SURFACE LONGITUDE
DATUM.F               1824.85 : DEPTH DATUM ELEV
~Curve Information -----------------------------------------
DEPT.F     : 
DTCO.US/F  : COMPRESSIONAL-WAVE INTERVAL TRANSIT TIME ACOUSTIC SLOWNESS
DTSM.US/F  : INTERVAL TRANSIT TIME
NPHI.DEC   : NEUTRON POROSITY LIMESTONE
DPHI.DEC   : DENSITY POROSITY LIMESTONE
RHOB.G/C3  : BULK DENSITY
DRHO.G/C3  : DENSITY CORRECTION
CALD.IN    : CALIPER FROM DENSITY LOG
SFLU.OHMM  : SPHERICALLY FOCUSED LOG UNAVERAGED RESISTIVITY
IDPH.OHMM  : INDUCTION DEEP PHASOR RES.
IMPH.OHMM  : INDUCTION MEDIUM PHASOR RES.
SPR .MV    : SPONTANEOUS POTENTIAL
GRR .GAPI  : GAMMA RAY FROM RES. LOG.
~Params ----------------------------------------------------
~Other -----------------------------------------------------
~ASCII -----------------------------------------------------
# ...
 12220.00000   -9999.25   -9999.25    0.19060    0.03030    2.65790    0.00430   10.16130   10.78410   10.33190   10.85790  -29.37000  102.43160
 12220.50000   -9999.25   -9999.25    0.18500    0.02480    2.66720    0.00490   10.16420   12.37000   10.25390   11.08470  -29.07920  102.03310
 12221.00000   -9999.25   -9999.25    0.18030    0.02690    2.66560    0.00550   10.16730   15.22950   10.21210   11.37700  -28.72150  101.74280
 12221.50000   -9999.25   -9999.25    0.17570    0.02950    2.65800    0.00610   10.17010   14.62720   10.35880   11.00400  -29.05860  101.83160
 12222.00000   -9999.25   -9999.25    0.17260    0.03310    2.65300    0.00670   10.17360   13.27590   10.59000   10.39920  -29.85850  103.32940
 12222.50000   -9999.25   -9999.25    0.17800    0.03630    2.64850    0.00730   10.17670   12.02260   10.35150    9.82710  -30.65270  103.93440
 12223.00000   -9999.25   -9999.25    0.18750    0.03820    2.64460    0.00770   10.18000   11.36890   10.13760    9.28590  -30.97860  103.39490
 12223.50000   -9999.25   -9999.25    0.19080    0.03680    2.64600    0.00600   10.18320   11.40550    9.92820    8.68050  -30.70720  103.82730
 12224.00000   -9999.25   -9999.25    0.18760    0.03500    2.65010    0.00420   10.18640   11.40130    9.72310    8.81230  -30.50760  105.47610
 12224.50000   -9999.25   -9999.25    0.18380    0.03540    2.65050    0.00240   10.18960   11.39770    9.52220    8.97770  -30.26090  103.36410
 12225.00000   -9999.25   -9999.25    0.18840    0.03890    2.64480    0.00060   10.19280   10.97360    9.32540    9.14370  -30.24260   98.84370
 12225.50000   -9999.25   -9999.25    0.19320    0.04000    2.64040   -0.00110   10.19600   10.58360    9.37970    9.31770  -30.19360   95.70200
 12226.00000   -9999.25   -9999.25    0.19790    0.04050    2.63960   -0.00290   10.19920   10.39940    9.47100    9.49500  -30.11310   99.03050
 12226.50000   -9999.25   -9999.25    0.20030    0.03780    2.64470   -0.00480   10.20250   10.55610    9.56330    9.67560  -30.03170  103.36910
 12227.00000   -9999.25   -9999.25    0.19610    0.03480    2.64990   -0.00600   10.20560   11.03780    9.65640    9.85970  -29.95360  103.54690
 12227.50000   -9999.25   -9999.25    0.19040    0.03380    2.65150   -0.00590   10.20920   11.72400    9.75050   10.04730  -29.87440  102.07050
 12228.00000   -9999.25   -9999.25    0.18480    0.03440    2.65000   -0.00560   10.20810   12.47100    9.84780   10.23850  -29.79510  100.77020
 12228.50000   -9999.25   -9999.25    0.18150    0.03500    2.64840   -0.00500   10.20640   12.24650    9.84780   10.39940  -29.71480   99.91230
 12229.00000   -9999.25   -9999.25    0.18490    0.03380    2.65000   -0.00440   10.20460   11.97120    9.43910    9.94970  -29.64050  101.34540
 12229.50000   -9999.25   -9999.25    0.18830    0.03250    2.65450   -0.00380   10.20290   11.74140    9.10880    9.58160  -29.55270  104.09050
 12230.00000   -9999.25   -9999.25    0.19240    0.03110    2.65770   -0.00320   10.20110   11.59690    8.78990    9.22710  -29.48070  108.38710
 12230.50000   -9999.25   -9999.25    0.19240    0.02950    2.66000   -0.00250   10.19940   10.70570    8.48190    8.88580  -29.47600  112.15150
 12231.00000   -9999.25   -9999.25    0.19240    0.03080    2.65500   -0.00190   10.19760    9.27700    8.18410    8.55710  -29.90990  116.09970
 12231.50000   -9999.25   -9999.25    0.20200    0.03350    2.65260   -0.00130   10.19590    8.21190    7.89650    8.24050  -30.29380  116.16090
 12232.00000   -9999.25   -9999.25    0.21280    0.03240    2.65380   -0.00070   10.19410    8.06400    7.61920    7.91890  -30.69520  115.72470
 12232.50000   -9999.25   -9999.25    0.21890    0.02930    2.66000    0.00000   10.19240    8.06400    7.49600    7.77630  -31.01070  117.70950
 12233.00000   -9999.25   -9999.25    0.22150    0.02640    2.66520    0.00060   10.19070    8.28260    7.49880    7.83590  -30.87890  121.59390
 12233.50000   -9999.25   -9999.25    0.22450    0.02770    2.66200    0.00120   10.18890    8.58780    7.63630    7.91890  -30.76520  124.22780
 12234.00000   -9999.25   -9999.25    0.22270    0.02880    2.65890    0.00180   10.18720    8.97280    8.06400    8.29640  -30.62950  121.45690
 12234.50000   -9999.25   -9999.25    0.22130    0.02930    2.65840    0.00130   10.18540    9.95590    8.35410    8.64470  -30.50460  112.89160
 12235.00000   -9999.25   -9999.25    0.21020    0.02910    2.65950    0.00040   10.18370   11.04570    8.67850    9.00760  -30.37710  106.82010
 12235.50000   -9999.25   -9999.25    0.19870    0.02820    2.66040   -0.00050   10.18200   11.61300    9.01540    9.38570  -30.24880  105.46110
 12236.00000   -9999.25   -9999.25    0.19030    0.02720    2.66140   -0.00140   10.18020   11.93780    9.36550    9.77970  -30.12140  108.18060
 12236.50000   -9999.25   -9999.25    0.18610    0.02800    2.66060   -0.00220   10.17850   12.23420    9.72910   10.19020  -29.99390  111.01290
 12237.00000   -9999.25   -9999.25    0.19170    0.03390    2.65450   -0.00310   10.17670   12.53590   10.10680   10.62080  -29.86620  113.13130
 12237.50000   -9999.25   -9999.25    0.19670    0.03820    2.64700   -0.00410   10.17500   12.84380   10.49930   11.06790  -29.73820  113.22060
 12238.00000   -9999.25   -9999.25    0.20160    0.04160    2.63950   -0.00490   10.17340   13.34920   10.74390   11.35980  -29.61250  109.57140
 12238.50000   -9999.25   -9999.25    0.20340    0.04450    2.63370   -0.00580   10.17140   13.61050   10.60980   11.24740  -29.48310  102.64860
 12239.00000   -9999.25   -9999.25    0.20100    0.04670    2.63120   -0.00410   10.16960   13.90720   10.47730   11.13600  -29.44150   98.88850
 12239.50000   -9999.25   -9999.25    0.19840    0.04760    2.62990   -0.00220   10.16240   13.90720   10.34650   11.02530  -29.44450  102.01340
 12240.00000   -9999.25   -9999.25    0.19570    0.04680    2.63430   -0.00020   10.15590   12.66970   10.21730   10.73110  -29.44460  109.89290
 12240.50000   -9999.25   -9999.25    0.19310    0.04350    2.64210    0.00170   10.14910   11.62630   10.08970   10.50990  -29.44400  117.33170
 12241.00000   -9999.25   -9999.25    0.20130    0.03780    2.64950    0.00390   10.14240   10.66880    9.96370   10.30070  -29.44450  121.84910
 12241.50000   -9999.25   -9999.25    0.21190    0.03270    2.65760    0.00270   10.13570    9.83700    9.84780   10.09570  -29.44430  125.06530
 12242.00000   -9999.25   -9999.25    0.21010    0.03110    2.66000    0.00010   10.12900   10.17370   10.08860   10.02830  -29.44440  124.79800
 12242.50000   -9999.25   -9999.25    0.20490    0.03550    2.65020   -0.00250   10.12230   11.56200   10.31940   10.33420  -29.44440  123.29050
 12243.00000   -9999.25   -9999.25    0.19970    0.03990    2.64020   -0.00500   10.11560   13.38810   10.55540   10.70010  -29.44440  118.11230
 12243.50000   -9999.25   -9999.25    0.19400    0.04440    2.63300   -0.00760   10.10890   13.50780   10.79690   11.07890  -29.44440  110.51680
 12244.00000   -9999.25   -9999.25    0.19150    0.04880    2.62590   -0.01010   10.10220   13.77870   11.04390   11.47120  -29.44440  106.87310
 12244.50000   -9999.25   -9999.25    0.18850    0.05320    2.61920   -0.01270   10.09550   14.17100   11.38820   12.02600  -29.44440  107.38640
 12245.00000   -9999.25   -9999.25    0.18980    0.05850    2.61140   -0.01380   10.08870   14.16490   11.32950   11.60630  -29.44440  107.81200
 12245.50000   -9999.25   -9999.25    0.19120    0.05690    2.61310   -0.01250   10.08210   14.16210   11.08930   10.98210  -29.44440  108.48510
 12246.00000   -9999.25   -9999.25    0.19250    0.05320    2.62020   -0.01090   10.07530   13.89120   10.85430   10.39140  -29.44440  108.22340
 12246.50000   -9999.25   -9999.25    0.19380    0.04870    2.62740   -0.00930   10.06870   12.78570   10.62420    9.84780  -29.44440  107.39660
 12247.00000   -9999.25   -9999.25    0.19470    0.04420    2.63460   -0.00770   10.06190   11.59690   10.39900    9.84780  -29.44440  106.67790
 12247.50000   -9999.25   -9999.25    0.19470    0.04050    2.64240   -0.00610   10.05480   11.59690   10.17850    9.82160  -29.44440  105.93580
