~Version ---------------------------------------------------
VERS.   2.0 : CWLS log ASCII Standard -VERSION 2.0
WRAP.    NO : One line per depth step
DLM . SPACE : Column Data Section Delimiter
~Well ------------------------------------------------------
STRT .F                5080.0 : START DEPTH
STOP .F               13760.0 : STOP DEPTH
STEP .F                   0.5 : STEP
NULL .               -9999.25 : NULL VALUE
COMP .                        : COMPANY
WELL .                        : WELL
FLD  .                        : FIELD
LOC  .                        : LOCATION
PROV .                        : PROVINCE
CNTY .                        : COUNTY
STAT .                        : STATE
CTRY .                        : COUNTRY
SRVC .                        : SERVICE COMPANY
DATE .                        : DATE
UWI  .                        : UNIQUE WELL ID
API  .                        : API NUMBER
SLAT .WGS84 5.853983019465105 : SURFACE LATITUDE
SLON .WGS84 4.017662594110803 : SURFACE LONGITUDE
DATUM.F               1824.85 : DEPTH DATUM ELEV
~Curve Information -----------------------------------------
DEPT.F     : 
DTCO.US/F  : COMPRESSIONAL-WAVE INTERVAL TRANSIT TIME ACOUSTIC SLOWNESS
DTSM.US/F  : INTERVAL TRANSIT TIME
NPHI.DEC   : NEUTRON POROSITY LIMESTONE
DPHI.DEC   : DENSITY POROSITY LIMESTONE
RHOB.G/C3  : BULK DENSITY
DRHO.G/C3  : DENSITY CORRECTION
CALD.IN    : CALIPER FROM DENSITY LOG
SFLU.OHMM  : SPHERICALLY FOCUSED LOG UNAVERAGED RESISTIVITY
IDPH.OHMM  : INDUCTION DEEP PHASOR RES.
IMPH.OHMM  : INDUCTION MEDIUM PHASOR RES.
SPR .MV    : SPONTANEOUS POTENTIAL
GRR .GAPI  : GAMMA RAY FROM RES. LOG.
~Params ----------------------------------------------------
~Other -----------------------------------------------------
~ASCII -----------------------------------------------------
# ...
 8776.00000   -9999.25   -9999.25    0.21070    0.04760    2.63160   -0.00260   12.18580    7.49350    6.80970    6.93610  -99.59840  112.23940
 8776.50000   -9999.25   -9999.25    0.21110    0.04770    2.62970   -0.00090   12.18580    7.23760    6.80320    6.91550  -99.58400  115.28470
 8777.00000   -9999.25   -9999.25    0.20810    0.04990    2.62310   -0.00030   12.18580    7.42990    6.79670    6.89490  -99.56970  110.03810
 8777.50000   -9999.25   -9999.25    0.20510    0.05300    2.61900   -0.00190   12.18580    7.53530    6.79030    6.87440  -99.55530  108.49000
 8778.00000   -9999.25   -9999.25    0.20250    0.05620    2.61460   -0.00330   12.18580    7.63630    6.78380    6.85390  -99.54100  109.02740
 8778.50000   -9999.25   -9999.25    0.20590    0.05930    2.61100   -0.00470   12.18580    7.55730    6.77740    6.83340  -99.52660  110.30740
 8779.00000   -9999.25   -9999.25    0.20880    0.05840    2.61130   -0.00610   12.18580    7.48650    6.77090    6.81310  -99.51230  110.36780
 8779.50000   -9999.25   -9999.25    0.21170    0.05760    2.61250   -0.00750   12.18580    7.41640    6.76450    6.79280  -99.49790  110.05570
 8780.00000   -9999.25   -9999.25    0.21350    0.05740    2.61120   -0.00900   12.18580    7.34700    6.75800    6.77260  -99.48350  110.04100
 8780.50000   -9999.25   -9999.25    0.21090    0.05890    2.60940   -0.01040   12.18580    7.27820    6.75160    6.75270  -99.46920  108.37260
 8781.00000   -9999.25   -9999.25    0.20800    0.05930    2.60950   -0.01180   12.18580    7.21000    6.74520    6.73200  -99.45480  105.52900
 8781.50000   -9999.25   -9999.25    0.20510    0.05820    2.61120   -0.01340   12.18580    7.14250    6.73870    6.72380  -99.44050  102.12830
 8782.00000   -9999.25   -9999.25    0.20210    0.05690    2.61880   -0.01190   12.18580    7.10110    6.73250    6.72450  -99.42610   98.67400
 8782.50000   -9999.25   -9999.25    0.19980    0.05100    2.62640   -0.00830   12.18580    7.23130    6.72660    6.72450  -99.41180   97.01000
 8783.00000   -9999.25   -9999.25    0.19860    0.04490    2.63520   -0.00480   12.18580    7.42160    6.73040    6.72440  -99.39740   95.83480
 8783.50000   -9999.25   -9999.25    0.19990    0.04420    2.63480   -0.00170   12.18590    7.49880    6.73870    6.72450  -99.38300   95.27370
 8784.00000   -9999.25   -9999.25    0.20120    0.04860    2.62600    0.00020   12.18580    7.31920    6.74690    6.72440  -99.36870   95.64590
 8784.50000   -9999.25   -9999.25    0.20240    0.05540    2.61840    0.00000   12.18570    7.10110    6.75500    6.72450  -99.35430   98.19400
 8785.00000   -9999.25   -9999.25    0.20360    0.05850    2.61120    0.00000   12.18660    7.36390    6.76320    6.72450  -99.33990  100.58520
 8785.50000   -9999.25   -9999.25    0.20490    0.05570    2.61440    0.00000   12.17820    7.32520    6.77140    6.72440  -99.32570  102.95500
 8786.00000   -9999.25   -9999.25    0.20130    0.05150    2.62000    0.00000   12.16410    7.23130    6.77960    6.72450  -99.31120  104.87450
 8786.50000   -9999.25   -9999.25    0.19390    0.04980    2.62610    0.00000   12.15080    7.27870    6.78770    6.72440  -99.29670  105.67880
 8787.00000   -9999.25   -9999.25    0.18840    0.04910    2.62610    0.00000   12.13790    7.38800    6.79590    6.72450  -99.28590  105.45820
 8787.50000   -9999.25   -9999.25    0.19220    0.04750    2.62880    0.00000   12.12460    7.49880    6.80420    6.72450  -99.28580  105.35670
 8788.00000   -9999.25   -9999.25    0.19650    0.04410    2.63260    0.00000   12.11140    7.46170    6.81240    6.72410  -99.28560  105.24780
 8788.50000   -9999.25   -9999.25    0.20020    0.04130    2.64540    0.00000   12.09820    7.42470    6.82060    6.72840  -99.28570  105.08300
 8789.00000   -9999.25   -9999.25    0.19820    0.03820    2.64340    0.00000   12.08510    7.36390    6.82900    6.73990  -99.28570  105.44160
 8789.50000   -9999.25   -9999.25    0.19650    0.04260    2.63660    0.00000   12.07180    7.38640    6.83700    6.75090  -99.28570  107.42720
 8790.00000   -9999.25   -9999.25    0.19510    0.04530    2.63470    0.00000   12.05870    7.49880    6.84540    6.76210  -99.28570  109.77950
 8790.50000   -9999.25   -9999.25    0.19680    0.04560    2.63300    0.00000   12.04560    7.49310    6.84110    6.77330  -99.28570  112.27690
 8791.00000   -9999.25   -9999.25    0.20010    0.04590    2.63290    0.00000   12.03220    7.47450    6.83110    6.78500  -99.28570  113.76950
 8791.50000   -9999.25   -9999.25    0.20340    0.04410    2.63440    0.00000   12.02730    7.45600    6.82140    6.79500  -99.28570  113.45600
 8792.00000   -9999.25   -9999.25    0.20650    0.04300    2.63590    0.00020   12.02760    7.43750    6.81180    6.80830  -99.28570  113.15900
 8792.50000   -9999.25   -9999.25    0.20560    0.04500    2.63280    0.00050   12.02770    7.41910    6.80210    6.81580  -99.28570  114.37490
 8793.00000   -9999.25   -9999.25    0.20330    0.04790    2.62840    0.00090   12.02760    7.40100    6.79240    6.82790  -99.28570  115.40290
 8793.50000   -9999.25   -9999.25    0.20110    0.05060    2.62530    0.00130   12.02760    7.38340    6.78280    6.85440  -99.28570  115.40920
 8794.00000   -9999.25   -9999.25    0.19860    0.04970    2.62580    0.00170   12.02760    7.36560    6.77320    6.71140  -99.28570  114.78020
 8794.50000   -9999.25   -9999.25    0.19820    0.04880    2.62860    0.00200   12.02760    7.42050    6.76360    6.72910  -99.28570  116.90050
 8795.00000   -9999.25   -9999.25    0.19770    0.04800    2.62980    0.00240   12.02770    7.49660    6.75400    6.72070  -99.28570  119.11080
 8795.50000   -9999.25   -9999.25    0.19720    0.04910    2.62600    0.00280   12.02770    7.48380    6.74440    6.72680  -99.28570  117.50910
 8796.00000   -9999.25   -9999.25    0.19670    0.05200    2.62070    0.00320   12.02770    7.45260    6.73490    6.72350  -99.28570  111.30890
 8796.50000   -9999.25   -9999.25    0.19630    0.05540    2.61590    0.00360   12.02770    7.42080    6.72530    6.72460  -99.28570  103.20760
 8797.00000   -9999.25   -9999.25    0.20010    0.05690    2.61370    0.00400   12.02770    7.39140    6.71580    6.72460  -99.28570  100.66790
 8797.50000   -9999.25   -9999.25    0.20490    0.05770    2.61120    0.00580   12.02770    7.36390    6.70630    6.72430  -99.28570  103.76240
 8798.00000   -9999.25   -9999.25    0.20970    0.06040    2.60560    0.00760   12.02770    7.23130    6.69680    6.72450  -99.28570  108.87940
 8798.50000   -9999.25   -9999.25    0.20940    0.06280    2.59960    0.00940   12.02770    7.26080    6.68730    6.72450  -99.28570  113.91420
 8799.00000   -9999.25   -9999.25    0.20690    0.06480    2.60110    0.01130   12.02770    7.36390    6.67780    6.72450  -99.28570  116.55230
 8799.50000   -9999.25   -9999.25    0.20430    0.06250    2.60620    0.01050   12.02770    7.30840    6.66830    6.72450  -99.28580  112.74030
 8800.00000   -9999.25   -9999.25    0.20410    0.06080    2.60750    0.00870   12.02770    7.10110    6.65890    6.72450  -99.28570  110.09060
 8800.50000   -9999.25   -9999.25    0.20560    0.06040    2.60840    0.00690   12.02770    7.17580    6.64940    6.72450  -99.28570  110.85580
 8801.00000   -9999.25   -9999.25    0.20720    0.05970    2.60950    0.00510   12.02770    7.37080    6.64010    6.72450  -99.28600  111.80960
 8801.50000   -9999.25   -9999.25    0.20710    0.05820    2.61250    0.00330   12.02770    7.49880    6.63060    6.72450  -99.28530  110.66820
 8802.00000   -9999.25   -9999.25    0.20690    0.05660    2.61560    0.00160   12.02770    7.43540    6.62110    6.72450  -99.28550  106.73180
 8802.50000   -9999.25   -9999.25    0.20680    0.05540    2.61580   -0.00020   12.02770    7.36920    6.61210    6.72450  -99.25520  102.40140
 8803.00000   -9999.25   -9999.25    0.20660    0.05780    2.61340   -0.00190   12.02770    7.30360    6.60410    6.72450  -99.21280  104.34690
 8803.50000   -9999.25   -9999.25    0.20560    0.05890    2.61350   -0.00250   12.02770    7.23130    6.61000    6.72450  -99.17100  109.51880
