~Version ---------------------------------------------------
VERS.   2.0 : CWLS log ASCII Standard -VERSION 2.0
WRAP.    NO : One line per depth step
DLM . SPACE : Column Data Section Delimiter
~Well ------------------------------------------------------
STRT .F                5080.0 : START DEPTH
STOP .F               13760.0 : STOP DEPTH
STEP .F                   0.5 : STEP
NULL .               -9999.25 : NULL VALUE
COMP .                        : COMPANY
WELL .                        : WELL
FLD  .                        : FIELD
LOC  .                        : LOCATION
PROV .                        : PROVINCE
CNTY .                        : COUNTY
STAT .                        : STATE
CTRY .                        : COUNTRY
SRVC .                        : SERVICE COMPANY
DATE .                        : DATE
UWI  .                        : UNIQUE WELL ID
API  .                        : API NUMBER
SLAT .WGS84 5.853983019465105 : SURFACE LATITUDE
SLON .WGS84 4.017662594110803 : SURFACE LONGITUDE
DATUM.F               1824.85 : DEPTH DATUM ELEV
~Curve Information -----------------------------------------
DEPT.F     : 
DTCO.US/F  : COMPRESSIONAL-WAVE INTERVAL TRANSIT TIME ACOUSTIC SLOWNESS
DTSM.US/F  : INTERVAL TRANSIT TIME
NPHI.DEC   : NEUTRON POROSITY LIMESTONE
DPHI.DEC   : DENSITY POROSITY LIMESTONE
RHOB.G/C3  : BULK DENSITY
DRHO.G/C3  : DENSITY CORRECTION
CALD.IN    : CALIPER FROM DENSITY LOG
SFLU.OHMM  : SPHERICALLY FOCUSED LOG UNAVERAGED RESISTIVITY
IDPH.OHMM  : INDUCTION DEEP PHASOR RES.
IMPH.OHMM  : INDUCTION MEDIUM PHASOR RES.
SPR .MV    : SPONTANEOUS POTENTIAL
GRR .GAPI  : GAMMA RAY FROM RES. LOG.
~Params ----------------------------------------------------
~Other -----------------------------------------------------
~ASCII -----------------------------------------------------
# ...
 10064.00000   -9999.25   -9999.25    0.25580    0.16570    2.41210    0.18070   11.28030    4.83660    4.08930    4.23980  -78.93050  117.16450
 10064.50000   -9999.25   -9999.25    0.24410    0.17850    2.39590    0.16360   11.34370    4.75770    4.11390    4.26990  -79.47220  117.23330
 10065.00000   -9999.25   -9999.25    0.23440    0.18450    2.41450    0.14790   11.32940    4.83660    4.13850    4.31150  -79.97400  119.44670
 10065.50000   -9999.25   -9999.25    0.22710    0.16750    2.43910    0.13020   11.40720    4.94470    4.16340    4.37650  -80.42940  120.51330
 10066.00000   -9999.25   -9999.25    0.22370    0.15400    2.44760    0.11170   11.38860    5.60120    4.19300    4.44240  -80.98730  118.85200
 10066.50000   -9999.25   -9999.25    0.23240    0.15440    2.44420    0.06370   11.24870    5.58050    4.16950    4.50910  -80.90540  115.26870
 10067.00000   -9999.25   -9999.25    0.25350    0.15300    2.45830    0.02160   11.11870    5.49510    4.14090    4.38880  -80.76640  112.56720
 10067.50000   -9999.25   -9999.25    0.28080    0.13430    2.49960    0.02080   11.08070    5.40900    4.11240    4.27220  -80.60300  112.04250
 10068.00000   -9999.25   -9999.25    0.33480    0.10750    2.55730    0.03530   11.15730    5.07460    4.08410    4.15880  -80.46220  113.26710
 10068.50000   -9999.25   -9999.25    0.33190    0.09040    2.52280    0.05200   11.23940    4.75620    4.05600    4.04340  -80.29880  114.32310
 10069.00000   -9999.25   -9999.25    0.32620    0.13570    2.41060    0.05000   11.32210    4.45770    4.04340    4.22060  -80.23140  110.81370
 10069.50000   -9999.25   -9999.25    0.31560    0.19970    2.32320    0.04870   11.39700    4.19300    4.33030    4.41420  -80.03670  106.90640
 10070.00000   -9999.25   -9999.25    0.30140    0.26120    2.25660    0.04900   11.33510    4.19300    4.59730    4.61680  -79.74980  104.19650
 10070.50000   -9999.25   -9999.25    0.28470    0.26120    2.33620    0.05250   11.15150    4.34820    4.88070    4.89260  -79.47120  105.02250
 10071.00000   -9999.25   -9999.25    0.26100    0.20460    2.41100    0.05540   10.96910    4.62190    5.18170    5.21200  -79.18700  107.66440
 10071.50000   -9999.25   -9999.25    0.23620    0.14000    2.50370    0.05920   10.84200    4.94360    5.40730    5.55220  -78.91180  111.86620
 10072.00000   -9999.25   -9999.25    0.22750    0.09730    2.55930    0.05160   10.84320    6.48220    5.64060    5.91450  -78.67100  110.65000
 10072.50000   -9999.25   -9999.25    0.21840    0.07970    2.58010    0.03560   10.84120    9.71890    5.91720    6.30060  -78.80070  106.60700
 10073.00000   -9999.25   -9999.25    0.21510    0.07340    2.58580    0.01960   10.84140   12.02600    6.20730    6.71180  -78.92580  102.68170
 10073.50000   -9999.25   -9999.25    0.21510    0.07060    2.59300    0.00820   10.84170   11.80950    6.51160    7.14990  -79.06780  102.53980
 10074.00000   -9999.25   -9999.25    0.21840    0.06790    2.59460    0.00190   10.84190    9.94200    6.83080    7.61650  -79.20060  104.88800
 10074.50000   -9999.25   -9999.25    0.22140    0.07050    2.58870   -0.00370   10.84170    8.08780    7.23130    8.21190  -79.33620  105.95230
 10075.00000   -9999.25   -9999.25    0.22850    0.07520    2.57890   -0.00010   10.84180    6.57950    7.36390    8.33210  -79.47250  105.92390
 10075.50000   -9999.25   -9999.25    0.23680    0.08530    2.55370    0.00560   10.84460    5.27260    7.70180    8.63660  -79.60610  107.86360
 10076.00000   -9999.25   -9999.25    0.24510    0.11430    2.50640    0.01450   10.81330    5.55010    8.05530    8.95230  -79.74470  110.99970
 10076.50000   -9999.25   -9999.25    0.25730    0.14390    2.45040    0.02490   10.74430    6.14950    8.42490    9.27950  -79.87660  112.49170
 10077.00000   -9999.25   -9999.25    0.25410    0.19240    2.38510    0.03240   10.67830    6.84770    8.74780    9.49640  -80.01080  109.63220
 10077.50000   -9999.25   -9999.25    0.24820    0.18670    2.40780    0.03760   10.61160    6.84770    8.96450   10.49110  -80.16690  107.89200
 10078.00000   -9999.25   -9999.25    0.24210    0.16330    2.47130    0.03800   10.54550    7.48460    9.18660   11.64900  -80.12820  111.83750
 10078.50000   -9999.25   -9999.25    0.23620    0.11570    2.53270    0.02560   10.48800    9.26250    9.41180   12.48380  -79.74220  115.38670
 10079.00000   -9999.25   -9999.25    0.23620    0.07680    2.59650    0.01300   10.48810    9.84780    9.66610   12.79490  -79.38230  119.34690
 10079.50000   -9999.25   -9999.25    0.23540    0.06250    2.60350    0.00650   10.48790    9.84780    9.78590   12.93480  -79.01710  121.77720
 10080.00000   -9999.25   -9999.25    0.22700    0.06020    2.60870    0.00490   10.48990    9.84780   10.03310   12.11290  -78.63770  120.55280
 10080.50000   -9999.25   -9999.25    0.21960    0.05810    2.61190    0.00310   10.49120   10.44760   10.28710   11.40920  -78.28860  118.44170
 10081.00000   -9999.25   -9999.25    0.21940    0.05850    2.60660    0.00110   10.49240   10.98180   10.59480   10.74870  -77.88880  113.35440
 10081.50000   -9999.25   -9999.25    0.22240    0.06580    2.59420   -0.00110   10.49390   11.49080   10.50270   10.12750  -77.92440  108.83900
 10082.00000   -9999.25   -9999.25    0.22530    0.07160    2.58620   -0.00400   10.49520   12.11660   10.31700    9.54220  -77.99050  108.51490
 10082.50000   -9999.25   -9999.25    0.22840    0.07600    2.57680   -0.00700   10.49650   12.77640   10.13450    8.98180  -78.07520  110.35930
 10083.00000   -9999.25   -9999.25    0.23060    0.07960    2.56980   -0.00770   10.49780   13.47220    9.95420    8.36240  -78.14620  112.26570
 10083.50000   -9999.25   -9999.25    0.23290    0.08200    2.56960   -0.00710   10.49900   14.14670    9.84780    8.70950  -78.22270  114.15010
 10084.00000   -9999.25   -9999.25    0.23460    0.08120    2.57490   -0.00670   10.50030   14.74160   10.07030    9.16050  -78.29860  116.03140
 10084.50000   -9999.25   -9999.25    0.23460    0.07660    2.58180   -0.00630   10.50160   15.36060   10.21210    9.63480  -78.37360  117.93210
 10085.00000   -9999.25   -9999.25    0.23460    0.07120    2.58910   -0.00590   10.50280   16.00540   10.21210    9.84780  -78.44930  119.37850
 10085.50000   -9999.25   -9999.25    0.23460    0.06830    2.59120   -0.00600   10.50410   16.67700   10.21210    9.84780  -78.52470  120.34360
 10086.00000   -9999.25   -9999.25    0.23460    0.06850    2.59030   -0.00620   10.50540   16.99250   10.21210    9.84820  -78.60010  121.44100
 10086.50000   -9999.25   -9999.25    0.23200    0.07020    2.58930   -0.00650   10.50670   16.98100   10.21210    9.84600  -78.67550  118.98630
 10087.00000   -9999.25   -9999.25    0.22920    0.07000    2.59060   -0.00680   10.50790   16.98670   10.21210    9.61950  -78.75090  115.15210
 10087.50000   -9999.25   -9999.25    0.22840    0.06960    2.59190   -0.00710   10.50920   16.19050   10.21210    9.37970  -78.82630  112.30310
 10088.00000   -9999.25   -9999.25    0.23200    0.06910    2.59320   -0.00740   10.51050   15.13260   10.39940    9.14560  -78.90160  112.21090
 10088.50000   -9999.25   -9999.25    0.23460    0.06820    2.59440   -0.00760   10.51180   14.40990   10.72360    8.98010  -78.97700  112.23890
 10089.00000   -9999.25   -9999.25    0.23540    0.06680    2.59610   -0.00780   10.51300   14.42140   11.21570    9.20940  -79.05220  111.72770
 10089.50000   -9999.25   -9999.25    0.23490    0.06560    2.59650   -0.00670   10.51430   14.40170   11.80950    9.71960  -79.12770  112.18030
 10090.00000   -9999.25   -9999.25    0.23840    0.06910    2.59140   -0.00300   10.51560   15.53490   13.09080   10.81550  -79.20310  113.69140
 10090.50000   -9999.25   -9999.25    0.25500    0.08200    2.55970    0.00340   10.51680   17.23370   14.77690   12.85250  -79.27760  120.79060
 10091.00000   -9999.25   -9999.25    0.27160    0.09740    2.52900    0.00980   10.51800   18.93920   16.68010   15.27600  -79.35570  128.20430
 10091.50000   -9999.25   -9999.25    0.28820    0.11750    2.49300    0.01620   10.51800   25.55600   19.63990   18.15950  -79.44180  141.65740
