~Version ---------------------------------------------------
VERS.   2.0 : CWLS log ASCII Standard -VERSION 2.0
WRAP.    NO : One line per depth step
DLM . SPACE : Column Data Section Delimiter
~Well ------------------------------------------------------
STRT .F                5080.0 : START DEPTH
STOP .F               13760.0 : STOP DEPTH
STEP .F                   0.5 : STEP
NULL .               -9999.25 : NULL VALUE
COMP .                        : COMPANY
WELL .                        : WELL
FLD  .                        : FIELD
LOC  .                        : LOCATION
PROV .                        : PROVINCE
CNTY .                        : COUNTY
STAT .                        : STATE
CTRY .                        : COUNTRY
SRVC .                        : SERVICE COMPANY
DATE .                        : DATE
UWI  .                        : UNIQUE WELL ID
API  .                        : API NUMBER
SLAT .WGS84 5.853983019465105 : SURFACE LATITUDE
SLON .WGS84 4.017662594110803 : SURFACE LONGITUDE
DATUM.F               1824.85 : DEPTH DATUM ELEV
~Curve Information -----------------------------------------
DEPT.F     : 
DTCO.US/F  : COMPRESSIONAL-WAVE INTERVAL TRANSIT TIME ACOUSTIC SLOWNESS
DTSM.US/F  : INTERVAL TRANSIT TIME
NPHI.DEC   : NEUTRON POROSITY LIMESTONE
DPHI.DEC   : DENSITY POROSITY LIMESTONE
RHOB.G/C3  : BULK DENSITY
DRHO.G/C3  : DENSITY CORRECTION
CALD.IN    : CALIPER FROM DENSITY LOG
SFLU.OHMM  : SPHERICALLY FOCUSED LOG UNAVERAGED RESISTIVITY
IDPH.OHMM  : INDUCTION DEEP PHASOR RES.
IMPH.OHMM  : INDUCTION MEDIUM PHASOR RES.
SPR .MV    : SPONTANEOUS POTENTIAL
GRR .GAPI  : GAMMA RAY FROM RES. LOG.
~Params ----------------------------------------------------
~Other -----------------------------------------------------
~ASCII -----------------------------------------------------
# ...
 9224.00000   -9999.25   -9999.25    0.19190    0.03270    2.65140   -0.00830   11.95340   11.64830   10.14180   10.22210  -92.38120  118.42180
 9224.50000   -9999.25   -9999.25    0.18870    0.03500    2.64910   -0.00950   11.93400   11.59690   10.25380   10.34300  -92.16160  110.40100
 9225.00000   -9999.25   -9999.25    0.18390    0.03580    2.64700   -0.01060   11.91060   12.16340   10.36720   10.46530  -92.16810  109.41970
 9225.50000   -9999.25   -9999.25    0.18550    0.03480    2.64720   -0.01170   11.90310   13.16950   10.48170   10.59000  -92.19240  109.85810
 9226.00000   -9999.25   -9999.25    0.18990    0.03240    2.65020   -0.01040   11.89450   13.07010   10.59750   10.58600  -92.22680  112.18340
 9226.50000   -9999.25   -9999.25    0.19390    0.03190    2.65310   -0.00920   11.88710   12.90300   10.71460   10.84090  -92.25340  112.54480
 9227.00000   -9999.25   -9999.25    0.18760    0.03110    2.65450   -0.00790   11.87920   12.73790   10.83300   11.05260  -92.28330  112.02720
 9227.50000   -9999.25   -9999.25    0.17990    0.03040    2.65510   -0.00670   11.87130   12.69960   10.95270   11.18890  -92.31290  111.76560
 9228.00000   -9999.25   -9999.25    0.17200    0.02970    2.65590   -0.00540   11.86350   12.82760   11.07370   11.30920  -92.34190  113.80400
 9228.50000   -9999.25   -9999.25    0.16970    0.02900    2.65580   -0.00410   11.85570   13.06090   11.19600   11.43590  -92.37140  114.59430
 9229.00000   -9999.25   -9999.25    0.17050    0.02820    2.65620   -0.00290   11.84780   13.41100   11.31980   11.56390  -92.40060  113.29510
 9229.50000   -9999.25   -9999.25    0.17240    0.02800    2.65780   -0.00160   11.84000   13.97200   11.44480   11.69370  -92.42990  110.61650
 9230.00000   -9999.25   -9999.25    0.17430    0.03010    2.65450   -0.00030   11.83220   14.61430   11.57130   11.82570  -92.45910  107.42870
 9230.50000   -9999.25   -9999.25    0.17610    0.03270    2.65170    0.00090   11.82430   14.45060   11.69910   11.95960  -92.48840  104.72040
 9231.00000   -9999.25   -9999.25    0.17800    0.03100    2.65020    0.00220   11.81650   13.90720   11.82840   12.09510  -92.51760  106.38550
 9231.50000   -9999.25   -9999.25    0.17980    0.02800    2.65300    0.00350   11.80860   13.98220   12.02600   12.24650  -92.54690  107.81040
 9232.00000   -9999.25   -9999.25    0.18010    0.02970    2.65550    0.00470   11.80080   14.23640   12.01620   12.19960  -92.57620  110.69960
 9232.50000   -9999.25   -9999.25    0.17970    0.03380    2.65250    0.00600   11.79310   14.42180   11.99610   12.14730  -92.60540  114.30610
 9233.00000   -9999.25   -9999.25    0.17830    0.03410    2.64840    0.00730   11.78780   14.27970   11.97610   12.09530  -92.63470  118.15600
 9233.50000   -9999.25   -9999.25    0.17830    0.03270    2.64960    0.00770   11.78360   14.11970   11.95620   12.04350  -92.66390  119.69270
 9234.00000   -9999.25   -9999.25    0.17910    0.03140    2.65120    0.00490   11.77950   13.96160   11.93620   11.99200  -92.69320  118.34760
 9234.50000   -9999.25   -9999.25    0.17800    0.03010    2.65300    0.00250   11.77550   13.80520   11.91630   11.94060  -92.72250  114.08930
 9235.00000   -9999.25   -9999.25    0.17280    0.02880    2.65480   -0.00010   11.77130   13.65680   11.89650   11.88950  -92.75170  110.32950
 9235.50000   -9999.25   -9999.25    0.16500    0.03070    2.65430   -0.00270   11.76730   14.36030   11.87660   11.83860  -92.78130  106.31240
 9236.00000   -9999.25   -9999.25    0.16910    0.03520    2.64840   -0.00510   11.76320   15.50870   11.85680   11.80950  -92.80990  103.05210
 9236.50000   -9999.25   -9999.25    0.17740    0.03860    2.64250   -0.00770   11.75910   14.70620   11.83710   11.83960  -92.84030  102.55550
 9237.00000   -9999.25   -9999.25    0.18580    0.03900    2.64060   -0.00730   11.75510   13.90090   11.80950   11.88820  -92.86930  104.91500
 9237.50000   -9999.25   -9999.25    0.18770    0.03750    2.64420   -0.00680   11.75120   12.69960   11.81320   11.93710  -92.89540  108.31210
 9238.00000   -9999.25   -9999.25    0.17600    0.03540    2.64770   -0.00610   11.75100   13.11320   11.92580   11.98600  -92.93610  109.99950
 9238.50000   -9999.25   -9999.25    0.16500    0.03350    2.64950   -0.00720   11.75090   14.22170   12.01940   12.03510  -92.85230  109.24080
 9239.00000   -9999.25   -9999.25    0.16550    0.03540    2.64560   -0.01050   11.75100   14.96260   12.11410   12.08460  -92.69940  106.59640
 9239.50000   -9999.25   -9999.25    0.16720    0.03710    2.64250   -0.01390   11.75100   14.96560   12.21120   12.13420  -92.56010  105.62650
 9240.00000   -9999.25   -9999.25    0.16890    0.03780    2.64450   -0.01520   11.75100   14.66120   12.31020   12.18390  -92.42190  105.85250
 9240.50000   -9999.25   -9999.25    0.16820    0.03650    2.64640   -0.01300   11.75100   14.13990   12.46690   12.23410  -92.28010  109.04870
 9241.00000   -9999.25   -9999.25    0.16570    0.03520    2.64860   -0.01110   11.75100   14.45600   12.45460   12.24700  -92.14060  112.05780
 9241.50000   -9999.25   -9999.25    0.16650    0.03400    2.65000   -0.00920   11.75100   15.27090   12.39560   12.24650  -92.00100  115.43450
 9242.00000   -9999.25   -9999.25    0.17120    0.03320    2.65000   -0.00700   11.75100   15.84320   12.33990   12.24650  -91.85950  118.52330
 9242.50000   -9999.25   -9999.25    0.17250    0.03240    2.65150   -0.00670   11.75100   14.80000   12.24650   12.24650  -91.72090  120.68220
 9243.00000   -9999.25   -9999.25    0.17150    0.03160    2.65320   -0.01000   11.75100   12.93250   12.28510   12.24650  -91.58170  116.15620
 9243.50000   -9999.25   -9999.25    0.17050    0.03190    2.65200   -0.01310   11.75100   13.33320   12.40870   12.24650  -91.43050  112.39880
 9244.00000   -9999.25   -9999.25    0.17200    0.03620    2.64510   -0.01620   11.75100   14.33430   12.53360   12.36900  -91.34110  107.83390
 9244.50000   -9999.25   -9999.25    0.17360    0.04050    2.63910   -0.01940   11.75100   15.86350   12.65970   12.47100  -91.35140  107.22960
 9245.00000   -9999.25   -9999.25    0.17370    0.04390    2.63240   -0.02080   11.75100   16.45570   12.94330   12.79610  -91.34890  109.68650
 9245.50000   -9999.25   -9999.25    0.17020    0.04490    2.63030   -0.01790   11.75100   16.73610   13.30720   13.27440  -91.34850  111.40210
 9246.00000   -9999.25   -9999.25    0.16620    0.04600    2.63060   -0.01530   11.75100   17.02120   13.68130   13.78310  -91.34950  109.66830
 9246.50000   -9999.25   -9999.25    0.16290    0.04470    2.63090   -0.01240   11.75100   17.29470   14.06590   14.31240  -91.34890  107.94070
 9247.00000   -9999.25   -9999.25    0.16720    0.04150    2.63590   -0.01200   11.75100   16.68820   14.46130   14.94870  -91.34920  108.18920
 9247.50000   -9999.25   -9999.25    0.15850    0.03770    2.64390   -0.01260   11.75100   16.13380   14.90790   15.31990  -91.34920  109.51520
 9248.00000   -9999.25   -9999.25    0.13650    0.03420    2.64900   -0.01330   11.75100   15.50870   15.42020   15.77000  -91.34920  110.78750
 9248.50000   -9999.25   -9999.25    0.11950    0.03500    2.64780   -0.01390   11.75100   18.00480   15.95020   16.23310  -91.34920  107.67670
 9249.00000   -9999.25   -9999.25    0.11390    0.03740    2.64310   -0.01220   11.75100   27.73590   16.37740   16.98340  -91.34920  103.67040
 9249.50000   -9999.25   -9999.25    0.12900    0.03890    2.64310   -0.00880   11.75100   25.75540   16.34380   16.84280  -91.34920   99.44840
 9250.00000   -9999.25   -9999.25    0.13850    0.03770    2.64470   -0.00560   11.75100   20.74550   16.26240   16.50590  -91.34920   97.47810
 9250.50000   -9999.25   -9999.25    0.14830    0.03650    2.64610   -0.00230   11.75100   20.40350   16.18140   16.17570  -91.34930  101.55040
 9251.00000   -9999.25   -9999.25    0.15760    0.03500    2.64760    0.00040   11.75100   19.51110   16.10080   15.85220  -91.34920  104.72980
 9251.50000   -9999.25   -9999.25    0.16330    0.03500    2.64910    0.00120   11.75100   18.64440   15.68180   15.53510  -91.34920  105.80700
