~Version ---------------------------------------------------
VERS.   2.0 : CWLS log ASCII Standard -VERSION 2.0
WRAP.    NO : One line per depth step
DLM . SPACE : Column Data Section Delimiter
~Well ------------------------------------------------------
STRT .F                5080.0 : START DEPTH
STOP .F               13760.0 : STOP DEPTH
STEP .F                   0.5 : STEP
NULL .               -9999.25 : NULL VALUE
COMP .                        : COMPANY
WELL .                        : WELL
FLD  .                        : FIELD
LOC  .                        : LOCATION
PROV .                        : PROVINCE
CNTY .                        : COUNTY
STAT .                        : STATE
CTRY .                        : COUNTRY
SRVC .                        : SERVICE COMPANY
DATE .                        : DATE
UWI  .                        : UNIQUE WELL ID
API  .                        : API NUMBER
SLAT .WGS84 5.853983019465105 : SURFACE LATITUDE
SLON .WGS84 4.017662594110803 : SURFACE LONGITUDE
DATUM.F               1824.85 : DEPTH DATUM ELEV
~Curve Information -----------------------------------------
DEPT.F     : 
DTCO.US/F  : COMPRESSIONAL-WAVE INTERVAL TRANSIT TIME ACOUSTIC SLOWNESS
DTSM.US/F  : INTERVAL TRANSIT TIME
NPHI.DEC   : NEUTRON POROSITY LIMESTONE
DPHI.DEC   : DENSITY POROSITY LIMESTONE
RHOB.G/C3  : BULK DENSITY
DRHO.G/C3  : DENSITY CORRECTION
CALD.IN    : CALIPER FROM DENSITY LOG
SFLU.OHMM  : SPHERICALLY FOCUSED LOG UNAVERAGED RESISTIVITY
IDPH.OHMM  : INDUCTION DEEP PHASOR RES.
IMPH.OHMM  : INDUCTION MEDIUM PHASOR RES.
SPR .MV    : SPONTANEOUS POTENTIAL
GRR .GAPI  : GAMMA RAY FROM RES. LOG.
~Params ----------------------------------------------------
~Other -----------------------------------------------------
~ASCII -----------------------------------------------------
# ...
 11352.00000   -9999.25   -9999.25    0.37630    0.30040    2.17510    0.13050   16.34440    4.01760    3.86550    3.89390  -62.08270  111.63030
 11352.50000   -9999.25   -9999.25    0.38730   -9999.25    2.03020    0.11390   16.30080    4.00900    3.84670    3.88460  -62.43980  110.92360
 11353.00000   -9999.25   -9999.25    0.38520   -9999.25    2.01090    0.09560   16.26120    4.00040    3.82800    3.87540  -62.70900  107.16330
 11353.50000   -9999.25   -9999.25    0.37940   -9999.25    1.98210    0.08830   16.29120    3.99180    3.80940    3.86650  -62.98920  103.15160
 11354.00000   -9999.25   -9999.25    0.37360   -9999.25    1.99440    0.08950   16.36200    3.98320    3.79090    3.85780  -63.26620   99.48280
 11354.50000   -9999.25   -9999.25    0.36810   -9999.25    2.11230    0.10760   16.19770    3.97450    3.77250    3.84930  -63.53780   97.81230
 11355.00000   -9999.25   -9999.25    0.36380   -9999.25    2.03150    0.12110   16.12100    3.97030    3.75420    3.84080  -63.26240   99.98810
 11355.50000   -9999.25   -9999.25    0.34680   -9999.25    1.95790    0.12900   16.04220    3.97090    3.73590    3.83130  -62.94890  106.05280
 11356.00000   -9999.25   -9999.25    0.33110   -9999.25    1.82760    0.12130   15.84740    3.97100    3.71760    3.76230  -62.60230  113.09910
 11356.50000   -9999.25   -9999.25    0.32700   -9999.25    1.79820    0.11010   15.68450    3.97060    3.69920    3.71770  -62.28620  120.94900
 11357.00000   -9999.25   -9999.25    0.32700   -9999.25    1.95520    0.09930   15.90390    3.97250    3.68170    3.67750  -62.01150  118.82340
 11357.50000   -9999.25   -9999.25    0.32700   -9999.25    2.04260    0.10840   16.06210    3.96920    3.66380    3.63770  -62.20240  112.31810
 11358.00000   -9999.25   -9999.25    0.32770   -9999.25    2.16240    0.12870   16.21580    3.97810    3.64600    3.59840  -62.38890  106.54800
 11358.50000   -9999.25   -9999.25    0.33010   -9999.25    2.15380    0.13830   16.26070    3.73790    3.62590    3.55960  -62.59920  106.55510
 11359.00000   -9999.25   -9999.25    0.35110   -9999.25    2.11030    0.13000   16.14220    3.62590    3.56060    3.52140  -62.75040  106.76060
 11359.50000   -9999.25   -9999.25    0.37060   -9999.25    2.06760    0.12380   16.06730    3.57290    3.56060    3.48370  -62.91730  106.36700
 11360.00000   -9999.25   -9999.25    0.39010   -9999.25    2.02000    0.11710   16.02020    3.49650    3.56060    3.44640  -63.20220  105.40600
 11360.50000   -9999.25   -9999.25    0.40610   -9999.25    2.04000    0.11210   15.80990    3.46920    3.56060    3.43290  -63.38960  104.57840
 11361.00000   -9999.25   -9999.25    0.39330   -9999.25    2.05430    0.10980   15.54170    3.42690    3.56060    3.43350  -64.11480  103.60840
 11361.50000   -9999.25   -9999.25    0.37510   -9999.25    2.03390    0.10640   15.31220    3.38500    3.56090    3.45110  -65.47510  102.91970
 11362.00000   -9999.25   -9999.25    0.35710   -9999.25    2.01400    0.10270   15.28970    3.34370    3.56070    3.47940  -66.60140  102.92750
 11362.50000   -9999.25   -9999.25    0.34420   -9999.25    1.96780    0.07840   15.17070    3.31100    3.56070    3.50810  -67.36770  110.46150
 11363.00000   -9999.25   -9999.25    0.34300   -9999.25    1.92150    0.05870   14.99320    3.40160    3.56400    3.53690  -67.52480  113.05840
 11363.50000   -9999.25   -9999.25    0.34270   -9999.25    1.87040    0.04540   14.80020    3.49650    3.56820    3.56600  -66.92500  114.36570
 11364.00000   -9999.25   -9999.25    0.35870   -9999.25    1.82380    0.03330   14.74500    3.80840    3.57240    3.59530  -66.28760  114.19220
 11364.50000   -9999.25   -9999.25    0.37540   -9999.25    1.83290    0.02620   14.68100    4.04340    3.57670    3.62490  -65.67100  113.11530
 11365.00000   -9999.25   -9999.25    0.39210   -9999.25    1.84920    0.03400   14.81320    4.04340    3.58090    3.65470  -65.03970  109.60190
 11365.50000   -9999.25   -9999.25    0.40880   -9999.25    1.86720    0.04550   14.95410    3.78950    3.58520    3.68940  -64.41120  106.55580
 11366.00000   -9999.25   -9999.25    0.42720   -9999.25    1.88540    0.05600   15.11020    3.54190    3.58940    3.68340  -63.79280  103.27770
 11366.50000   -9999.25   -9999.25    0.41130   -9999.25    1.95420    0.06650   15.50660    3.43350    3.59370    3.67160  -63.15040  100.12080
 11367.00000   -9999.25   -9999.25    0.39360   -9999.25    1.99820    0.07750   15.57440    3.43350    3.59790    3.65980  -62.53590   96.81690
 11367.50000   -9999.25   -9999.25    0.37600   -9999.25    2.02400    0.07780   15.36150    3.49650    3.60230    3.64810  -62.03280   98.42240
 11368.00000   -9999.25   -9999.25    0.35830   -9999.25    2.06090    0.06890   15.41440    3.64680    3.60640    3.63630  -62.43940  105.21320
 11368.50000   -9999.25   -9999.25    0.34060   -9999.25    1.99450    0.05970   15.37090    3.82900    3.61090    3.62590  -62.80580  111.72610
 11369.00000   -9999.25   -9999.25    0.32820   -9999.25    1.94000    0.05640   14.89880    3.80840    3.61500    3.61450  -63.21670  118.17220
 11369.50000   -9999.25   -9999.25    0.32150   -9999.25    1.90660    0.05520   14.42010    3.70690    3.61980    3.59720  -63.60480  122.60110
 11370.00000   -9999.25   -9999.25    0.32360   -9999.25    1.92070    0.06370   14.38490    3.75550    3.62490    3.57990  -63.99950  120.55770
 11370.50000   -9999.25   -9999.25    0.32930   -9999.25    1.94820    0.07100   14.59000    3.97060    3.61260    3.56280  -64.39400  117.42690
 11371.00000   -9999.25   -9999.25    0.32480   -9999.25    1.97710    0.07900   14.83880    3.78330    3.58220    3.54600  -64.78710  117.28220
 11371.50000   -9999.25   -9999.25    0.31680   -9999.25    1.99880    0.08530   15.08330    3.61670    3.55290    3.52960  -65.18610  119.39780
 11372.00000   -9999.25   -9999.25    0.30780   -9999.25    2.00230    0.08790   15.21690    3.52580    3.52490    3.51330  -65.56720  119.82030
 11372.50000   -9999.25   -9999.25    0.30780   -9999.25    2.02900    0.08480   15.30310    3.49650    3.49700    3.49650  -65.95580  117.60550
 11373.00000   -9999.25   -9999.25    0.33150   -9999.25    2.04170    0.07970   15.38020    3.49650    3.52990    3.52120  -65.73580  114.13910
 11373.50000   -9999.25   -9999.25    0.35390   -9999.25    2.01600    0.06700   15.41800    3.58930    3.56170    3.54500  -65.34070  113.95420
 11374.00000   -9999.25   -9999.25    0.36000   -9999.25    1.96460    0.05450   15.47370    3.70430    3.59370    3.56910  -64.96040  112.08450
 11374.50000   -9999.25   -9999.25    0.34670   -9999.25    1.90070    0.04220   15.52120    3.82300    3.62600    3.59330  -64.59170  110.19740
 11375.00000   -9999.25   -9999.25    0.34350   -9999.25    1.83390    0.02970   15.58770    3.97060    3.65870    3.61770  -64.21860  104.38930
 11375.50000   -9999.25   -9999.25    0.34420   -9999.25    1.85940    0.03610   15.51530    3.93040    3.69200    3.64220  -63.82610   98.70830
 11376.00000   -9999.25   -9999.25    0.33530   -9999.25    1.94750    0.04840   15.34860    3.83050    3.69190    3.66690  -63.48150   94.20830
 11376.50000   -9999.25   -9999.25    0.31520   -9999.25    2.00550    0.06010   15.28160    3.69230    3.69200    3.69230  -63.08590   94.62020
 11377.00000   -9999.25   -9999.25    0.30510   -9999.25    2.07550    0.07170   15.60400    3.74030    3.69200    3.70740  -62.63430   96.61620
 11377.50000   -9999.25   -9999.25    0.31270   -9999.25    2.06150    0.06920   15.89270    3.82550    3.70420    3.73390  -61.90300  103.66180
 11378.00000   -9999.25   -9999.25    0.32390   -9999.25    2.03700    0.06220   16.18140    3.91260    3.73780    3.76050  -62.01960  110.09740
 11378.50000   -9999.25   -9999.25    0.32170   -9999.25    2.01050    0.05510   16.22270    3.97060    3.77180    3.78740  -61.97300  114.81540
 11379.00000   -9999.25   -9999.25    0.31530   -9999.25    1.98470    0.04780   16.09700    3.94260    3.80610    3.81440  -61.97110  112.65110
 11379.50000   -9999.25   -9999.25    0.31530   -9999.25    1.96210    0.04610   16.09170    3.91310    3.84080    3.84170  -62.02240  111.12740
