~Version ---------------------------------------------------
VERS.   2.0 : CWLS log ASCII Standard -VERSION 2.0
WRAP.    NO : One line per depth step
DLM . SPACE : Column Data Section Delimiter
~Well ------------------------------------------------------
STRT .F                5080.0 : START DEPTH
STOP .F               13760.0 : STOP DEPTH
STEP .F                   0.5 : STEP
NULL .               -9999.25 : NULL VALUE
COMP .                        : COMPANY
WELL .                        : WELL
FLD  .                        : FIELD
LOC  .                        : LOCATION
PROV .                        : PROVINCE
CNTY .                        : COUNTY
STAT .                        : STATE
CTRY .                        : COUNTRY
SRVC .                        : SERVICE COMPANY
DATE .                        : DATE
UWI  .                        : UNIQUE WELL ID
API  .                        : API NUMBER
SLAT .WGS84 5.853983019465105 : SURFACE LATITUDE
SLON .WGS84 4.017662594110803 : SURFACE LONGITUDE
DATUM.F               1824.85 : DEPTH DATUM ELEV
~Curve Information -----------------------------------------
DEPT.F     : 
DTCO.US/F  : COMPRESSIONAL-WAVE INTERVAL TRANSIT TIME ACOUSTIC SLOWNESS
DTSM.US/F  : INTERVAL TRANSIT TIME
NPHI.DEC   : NEUTRON POROSITY LIMESTONE
DPHI.DEC   : DENSITY POROSITY LIMESTONE
RHOB.G/C3  : BULK DENSITY
DRHO.G/C3  : DENSITY CORRECTION
CALD.IN    : CALIPER FROM DENSITY LOG
SFLU.OHMM  : SPHERICALLY FOCUSED LOG UNAVERAGED RESISTIVITY
IDPH.OHMM  : INDUCTION DEEP PHASOR RES.
IMPH.OHMM  : INDUCTION MEDIUM PHASOR RES.
SPR .MV    : SPONTANEOUS POTENTIAL
GRR .GAPI  : GAMMA RAY FROM RES. LOG.
~Params ----------------------------------------------------
~Other -----------------------------------------------------
~ASCII -----------------------------------------------------
# ...
 10932.00000   -9999.25   -9999.25    0.07760    0.06390    2.60160    0.00240   10.98100   10.21210    9.35740    9.45270  -62.36000   81.17060
 10932.50000   -9999.25   -9999.25    0.08190    0.06460    2.60010    0.00080   10.98440   10.62850    9.51270    9.61660  -62.41610   82.35080
 10933.00000   -9999.25   -9999.25    0.08670    0.06580    2.59850   -0.00100   10.98760   11.07300    9.67070    9.78330  -62.47220   77.20310
 10933.50000   -9999.25   -9999.25    0.08410    0.06730    2.59690   -0.00270   10.99120   11.53600    9.83120    9.95290  -62.52800   72.70470
 10934.00000   -9999.25   -9999.25    0.07920    0.06890    2.59520   -0.00350   10.99460   12.01840    9.99440   10.12550  -62.58430   67.98350
 10934.50000   -9999.25   -9999.25    0.07440    0.07010    2.59170   -0.00150   10.99710   12.47100   10.16030   10.21210  -62.64020   66.95010
 10935.00000   -9999.25   -9999.25    0.06950    0.07100    2.58700    0.00030   11.01360   11.91490   10.21210   10.21210  -62.69560   66.99580
 10935.50000   -9999.25   -9999.25    0.06400    0.07520    2.58090    0.00180   11.04860   11.45090   10.15070   10.21210  -62.75410   69.98670
 10936.00000   -9999.25   -9999.25    0.06400    0.07930    2.57460   -0.00010   11.08260   11.01280   10.08110   10.21210  -62.77990   74.00400
 10936.50000   -9999.25   -9999.25    0.06630    0.08330    2.56810   -0.00160   11.11600   10.57490   10.01210   10.21210  -62.77740   78.27400
 10937.00000   -9999.25   -9999.25    0.06970    0.08740    2.56190   -0.00340   11.14990   10.60700    9.94350   10.21210  -62.77780   79.90940
 10937.50000   -9999.25   -9999.25    0.07300    0.08590    2.55990   -0.00380   11.15880   10.57100    9.87530   10.21210  -62.77800   76.17730
 10938.00000   -9999.25   -9999.25    0.07630    0.08360    2.56690   -0.00340   11.15880   10.80380    9.84780   10.21210  -62.77770   73.96890
 10938.50000   -9999.25   -9999.25    0.07720    0.08140    2.57470   -0.00320   11.18300   11.58050    9.84710   10.21230  -62.77790   74.33300
 10939.00000   -9999.25   -9999.25    0.07510    0.07650    2.58310   -0.00290   11.21470   11.51420    9.84710   10.21390  -62.77780   74.38610
 10939.50000   -9999.25   -9999.25    0.07310    0.07360    2.58770   -0.00270   11.24480   11.33930    9.84730   10.23780  -62.77780   74.50200
 10940.00000   -9999.25   -9999.25    0.07300    0.07230    2.58610   -0.00230   11.27220   11.18890    9.84740   10.25870  -62.77780   74.60550
 10940.50000   -9999.25   -9999.25    0.07350    0.07190    2.58180   -0.00170   11.30470   10.64060    9.87480   10.28190  -62.77780   75.01710
 10941.00000   -9999.25   -9999.25    0.07400    0.07210    2.57920   -0.00010   11.36380   10.21680    9.96380   10.30170  -62.77780   76.66840
 10941.50000   -9999.25   -9999.25    0.07450    0.07230    2.58060   -0.00130   11.41810   10.55560   10.02890   10.32660  -62.77730   75.94560
 10942.00000   -9999.25   -9999.25    0.07500    0.07250    2.58280   -0.00210   11.47240   10.87640   10.02950   10.34810  -62.78150   74.48750
 10942.50000   -9999.25   -9999.25    0.07320    0.07260    2.58550   -0.00300   11.52910   11.38120   10.02720   10.36880  -62.77250   74.39190
 10943.00000   -9999.25   -9999.25    0.07150    0.07450    2.58190   -0.00390   11.56520   11.34270   10.03160   10.39940  -62.78030   74.36190
 10943.50000   -9999.25   -9999.25    0.06980    0.07650    2.57860   -0.00480   11.58470   11.21650   10.03280   10.14000  -62.79530   72.33050
 10944.00000   -9999.25   -9999.25    0.06790    0.07810    2.57760   -0.00570   11.60520   11.09250   10.03360    9.80580  -62.72410   68.92220
 10944.50000   -9999.25   -9999.25    0.07010    0.07810    2.57680   -0.00560   11.62370   10.97080    9.84290    9.48260  -62.88220   65.40900
 10945.00000   -9999.25   -9999.25    0.07250    0.07810    2.57560   -0.00490   11.65430   10.85070    9.52470    9.15750  -62.14380   65.92580
 10945.50000   -9999.25   -9999.25    0.07470    0.07660    2.57820   -0.00410   11.69280   10.39080    9.21620    8.99540  -61.79790   68.08800
 10946.00000   -9999.25   -9999.25    0.07690    0.07490    2.58120   -0.00340   11.72950    9.69310    8.91760    8.82950  -61.17290   77.82490
 10946.50000   -9999.25   -9999.25    0.07920    0.07490    2.58450   -0.00270   11.76530    9.04120    8.62910    8.66620  -60.59220   83.09020
 10947.00000   -9999.25   -9999.25    0.08460    0.07610    2.58150   -0.00210   11.80180    8.37020    8.35090    8.50510  -60.43350   85.29480
 10947.50000   -9999.25   -9999.25    0.09100    0.07740    2.57710   -0.00360   11.84500    8.36240    8.10070    8.36000  -60.51900   87.46040
 10948.00000   -9999.25   -9999.25    0.09690    0.07810    2.57550   -0.00530   11.90890    8.02270    7.87760    8.19880  -60.64570   90.00960
 10948.50000   -9999.25   -9999.25    0.10150    0.07810    2.57690   -0.00590   11.97270    7.87050    7.66060    8.05180  -60.70020   90.20890
 10949.00000   -9999.25   -9999.25    0.10590    0.07580    2.58200   -0.00570   12.02800    7.72120    7.52700    7.90690  -60.79680   89.28270
 10949.50000   -9999.25   -9999.25    0.11020    0.07270    2.58710   -0.00550   12.05680    7.63630    7.64770    7.76660  -60.88300   85.29900
 10950.00000   -9999.25   -9999.25    0.11460    0.06870    2.59210   -0.00530   12.08250    7.91890    7.77030    8.07600  -60.96470   81.50680
 10950.50000   -9999.25   -9999.25    0.11880    0.06460    2.59720   -0.00510   12.10810    8.76240    7.89480    8.62650  -61.05110   77.42190
 10951.00000   -9999.25   -9999.25    0.12350    0.06300    2.60260   -0.00490   12.13380    9.94560    8.02140    9.20080  -61.14540   75.40960
 10951.50000   -9999.25   -9999.25    0.11950    0.06250    2.60430   -0.00470   12.15940   10.30250    8.14990    9.15750  -61.18560   75.41510
 10952.00000   -9999.25   -9999.25    0.11350    0.06240    2.60200   -0.00460   12.18500   10.39940    8.28060    8.86990  -61.28760   77.16570
 10952.50000   -9999.25   -9999.25    0.10450    0.06320    2.60000   -0.00440   12.21070    9.34240    8.36240    8.58780  -61.49190   79.32890
 10953.00000   -9999.25   -9999.25    0.09220    0.06680    2.59810   -0.00420   12.23630    8.67180    8.36240    8.36240  -61.68110   79.03560
 10953.50000   -9999.25   -9999.25    0.09580    0.06830    2.59600   -0.00400   12.26190    8.55720    8.21190    8.12160  -61.86960   76.25370
 10954.00000   -9999.25   -9999.25    0.10150    0.06900    2.59410   -0.00400   12.28800    8.36240    8.03330    7.82120  -62.06200   76.08210
 10954.50000   -9999.25   -9999.25    0.10580    0.06970    2.59210   -0.00430   12.31270    8.04700    7.85370    7.59430  -62.25170   77.88350
 10955.00000   -9999.25   -9999.25    0.10660    0.07020    2.59090   -0.00450   12.34210    7.78660    7.67810    7.48070  -62.44230   81.62310
 10955.50000   -9999.25   -9999.25    0.10750    0.06790    2.59250   -0.00470   12.35730    7.53460    7.49880    7.36880  -62.63310   85.59490
 10956.00000   -9999.25   -9999.25    0.11260    0.06360    2.59600   -0.00490   12.37530    7.29080    7.32850    7.25850  -62.82390   86.70640
 10956.50000   -9999.25   -9999.25    0.12050    0.05920    2.60890   -0.00520   12.39200    7.65250    7.03080    7.14990  -63.01300   88.18500
 10957.00000   -9999.25   -9999.25    0.12840    0.05620    2.61440   -0.00540   12.40940    7.91890    6.74530    6.99950  -63.20620   90.17060
 10957.50000   -9999.25   -9999.25    0.13520    0.05750    2.61450   -0.00560   12.42320    7.77630    6.47130    6.81720  -63.39420   92.47090
 10958.00000   -9999.25   -9999.25    0.13640    0.06010    2.60980   -0.00590   12.42830    6.76260    6.20840    6.63970  -63.56330   95.43270
 10958.50000   -9999.25   -9999.25    0.13760    0.06210    2.60530   -0.00560   12.43280    5.82860    6.08250    6.46680  -63.57100   99.16450
 10959.00000   -9999.25   -9999.25    0.14720    0.06540    2.60140   -0.00540   12.43730    5.12050    6.00440    6.29840  -63.57040  102.54430
 10959.50000   -9999.25   -9999.25    0.15900    0.06980    2.59240   -0.00510   12.44170    5.12050    5.92150    6.42160  -63.57290  106.27690
