~Version ---------------------------------------------------
VERS.   2.0 : CWLS log ASCII Standard -VERSION 2.0
WRAP.    NO : One line per depth step
DLM . SPACE : Column Data Section Delimiter
~Well ------------------------------------------------------
STRT .FT                 65.0 : START DEPTH
STOP .FT               9444.0 : STOP DEPTH
STEP .FT                  0.5 : STEP
NULL .               -9999.25 : NULL VALUE
COMP .                        : COMPANY
WELL .                        : WELL
FLD  .                        : FIELD
LOC  .                        : LOCATION
PROV .                        : PROVINCE
CNTY .                        : COUNTY
STAT .                        : STATE
CTRY .                        : COUNTRY
SRVC .                        : SERVICE COMPANY
DATE .                        : DATE
UWI  .                        : UNIQUE WELL ID
API  .                        : API NUMBER
SLAT .WGS84    6.466453497505 : SURFACE LATITUDE
SLON .WGS84 3.614651016597719 : SURFACE LONGITUDE
DATUM.F                   nan : DEPTH DATUM ELEV
~Curve Information -----------------------------------------
DEPT   .FT    : 
AT10   .OHMM  : ARRAY INDUCTION TWO FOOT RESISTIVITY A10
AT30   .OHMM  : ARRAY INDUCTION TWO FOOT RESISTIVITY A30
AT90   .OHMM  : ARRAY INDUCTION TWO FOOT RESISTIVITY A90
DPHZ_LS.DEC   : HGRD STANDARD RESOLUTION DENSITY POROSITY
DTCO   .US/F  : DELTA-T COMPRESSIONAL
DTSM   .US/F  : DELTA-T SHEAR
HCALR  .IN    : HRCC CALIPER CALIBRATED FROM RESISTIVITY LOG
PEFZ   .B/E   : HRDD STANDARD RESOLUTION FORMATION PHOTOELECTRIC FACTOR
SPR    .MV    : SPONTANEOUS POTENTIAL FROM RESISTIVITY LOG
TNPH_LS.DEC   : THERMAL NEUTRON POROSITY [LIMESTONE]
~Params ----------------------------------------------------
~Other -----------------------------------------------------
~ASCII -----------------------------------------------------
# ...
 8678.00000    5.08800    6.25950    6.90630    0.06280   66.72730  122.72790    9.12440    4.39540   15.74100    0.15140
 8678.50000    3.99500    4.43420    5.01840    0.06580   66.86740  124.86360    9.20490    4.46190   15.74100    0.18330
 8679.00000    4.31150    6.21970    7.43500    0.03910   66.20610  126.84380    9.28710    4.58640   15.89850    0.16390
 8679.50000    8.22280   10.14260   13.59430    0.01120   67.24280  127.93030    8.91790    4.73110   16.58970    0.10110
 8680.00000   13.00820   14.06560   19.75350   -0.00170   67.81730  129.01690    8.92410    4.74920   16.95040    0.06970
 8680.50000   14.82440   16.80720   23.67470    0.00260   68.77780  130.31070    8.95440    4.51550   17.31110    0.05690
 8681.00000    8.91960   14.02820   18.35070    0.01270   69.82070  132.08360    8.98460    4.23050   17.67170    0.06800
 8681.50000    5.73850    8.58380    8.77150    0.02680   71.16820  132.83720    9.01490    3.92830   18.24270    0.09420
 8682.00000    4.65600    5.00900    5.37650    0.05470   71.86580  133.48790    9.04520    3.66110   18.26970    0.13690
 8682.50000    4.58330    4.69940    4.88210    0.06800   71.84940  133.62780    9.07540    3.50160   18.32960    0.17950
 8683.00000    4.56940    4.73370    4.86880    0.07020   73.00100  134.61910    9.09970    3.50760   18.59630    0.19280
 8683.50000    4.64320    4.82770    5.03040    0.06610   74.76710  135.67400    9.09520    3.54760   18.29740    0.19330
 8684.00000    4.70290    4.88360    5.19200    0.06100   75.79960  136.51800    9.07230    3.58770   18.88290    0.19390
 8684.50000    4.57120    4.88420    5.32140    0.06040   77.20410  139.24450    9.06320    3.62780   18.88780    0.19440
 8685.00000    4.49060    4.83230    5.02680    0.06610   76.98970  138.95120    9.07190    3.65640   18.31730    0.19520
 8685.50000    4.44180    4.57060    5.48580    0.07290   75.80890  137.70290    9.08060    3.68530   17.72510    0.19370
 8686.00000    4.85250    6.95910    8.01660    0.07280   71.79760  134.00350    9.06370    3.69350   17.55250    0.18900
 8686.50000    7.12700    9.34760   10.54740    0.06410   61.98820  129.70630    9.04560    3.81660   17.38000    0.17320
 8687.00000    9.86740   11.73610   13.07810    0.04880   53.90300  126.02050    9.02300    3.99520   17.20740    0.14700
 8687.50000   12.60770   14.12460   15.60890    0.02900   54.58090  122.89940    8.96160    4.47730   17.06930    0.10400
 8688.00000   13.28300   14.88460   16.62180    0.01610   59.39160  120.19350    8.87960    4.69780   17.06930    0.06930
 8688.50000   12.96770   14.44600   16.95060    0.01160   60.45820  118.57760    8.87980    4.89500   16.27370    0.05600
 8689.00000   11.19490   14.54420   16.21570    0.01120   61.82100  118.92480    8.92560    4.93780   15.80330    0.05020
 8689.50000    9.06040   14.23960   18.92190    0.01320   62.71060  120.14930    8.98270    4.82980   16.68970    0.05970
 8690.00000    6.53720    9.55400   12.56410    0.02400   64.61160  123.91330    9.02390    4.64940   16.03410    0.09270
 8690.50000    5.39100    5.86130    6.20630    0.03430   67.16430  126.55550    9.01430    4.43360   16.34430    0.13290
 8691.00000    5.42710    5.76990    6.03230    0.04240   69.42780  129.92100    9.00460    4.26320   17.10460    0.16200
 8691.50000    5.75430    5.86270    6.26790    0.04450   71.44760  133.75660    8.99500    4.20210   17.06850    0.16680
 8692.00000    5.75500    6.14940    6.51310    0.04050   72.27940  138.45260    8.94940    4.19330   16.86800    0.15930
 8692.50000    5.86760    6.34380    6.83150    0.03810   72.68180  139.54970    8.94600    4.19950   16.66750    0.15800
 8693.00000    5.97980    6.45080    6.96210    0.03600   72.57900  139.68770    8.95840    4.17210   16.46700    0.15670
 8693.50000    5.77710    6.21940    6.66030    0.03940   71.99000  139.27780    8.98400    4.22270   16.26660    0.15540
 8694.00000    5.43840    6.31350    5.92330    0.04090   71.34740  136.49800    8.98400    4.28590   16.06610    0.15410
 8694.50000    6.89640    9.10130    7.83140    0.03850   68.41910  132.76900    8.98440    4.36730   15.88580    0.15040
 8695.00000    9.46450   11.88910   10.21630    0.03010   67.42630  128.72690    8.98450    4.52110   15.78640    0.13710
 8695.50000   10.46990   13.82330   11.64740    0.02020   66.26200  126.09140    8.98450    4.58270   15.81310    0.10810
 8696.00000    9.34860   12.32840   10.64340    0.01720   65.27790  122.95880    8.98490    4.53030   15.84520    0.09620
 8696.50000    8.71770   10.79570   10.39350    0.01460   64.51940  121.84760    8.96450    4.39900   15.87730    0.09320
 8697.00000    8.71640   10.42990   10.39400    0.01420   63.95140  120.73490    8.94410    4.33160   15.90940    0.09860
 8697.50000    8.63880   10.16620   10.20030    0.01310   63.86100  119.82930    8.94420    4.32590   15.86530    0.09860
 8698.00000    8.61500    9.91340   10.14020    0.01070   63.63380  118.74560    8.94420    4.31170   15.32540    0.09860
 8698.50000    8.62700    9.63560   10.07990    0.01050   64.08440  118.73670    8.94460    4.31030   15.33030    0.09860
 8699.00000    8.63900    9.54660   10.01970    0.01210   64.22580  119.11130    8.94480    4.30900   15.29780    0.09910
 8699.50000    8.59450    9.39720    9.95940    0.01520   64.36500  119.02380    8.94480    4.30770   14.88130    0.10170
 8700.00000    8.22410    9.36760    9.89920    0.01810   64.43890  119.88370    8.94480    4.30640   14.46480    0.10620
 8700.50000    8.17170    9.36910    9.83890    0.02030   64.46490  120.57520    8.94480    4.29420   14.04830    0.10670
 8701.00000    8.17260    9.40800    9.73430    0.02240   64.26310  120.24410    8.94480    4.31570   13.63180    0.10180
 8701.50000    8.17350    9.55030    9.97790    0.02260   64.23750  120.20820    8.94480    4.30830   13.14840    0.10290
 8702.00000    8.52990    9.77650   10.22160    0.02080   64.19880  119.87390    8.94730    4.30190   12.39750    0.10030
 8702.50000    9.05050   10.11290   10.46530    0.01950   64.11590  119.57380    8.95770    4.31920   11.64670    0.09690
 8703.00000    9.22500   10.21020   10.70900    0.01870   63.94420  119.62120    8.96820    4.29710   11.05620    0.09360
 8703.50000    9.17230   10.12650   10.81200    0.01870   64.06920  119.66860    8.97870    4.28880   10.60260    0.09310
 8704.00000    9.00630    9.91630   10.64500    0.02030   64.00090  119.52930    8.98910    4.29690   11.09930    0.09650
 8704.50000    8.68490    9.70620   10.43620    0.02240   63.97250  119.20480    8.99960    4.31080   11.11440    0.10300
 8705.00000    8.12970    9.49600   10.11670    0.02560   64.00490  118.96140    9.01000    4.32020   11.07660    0.10620
 8705.50000    8.30070    9.28580    9.73940    0.02420   64.01390  119.13230    9.02050    4.32970   11.05320    0.10510
 8706.00000    8.76510    9.46480    9.80200    0.01940   63.87530  118.71540    9.02890    4.29240   11.05320    0.10290
 8706.50000    8.94310    9.93800   10.54250    0.01590   63.73130  118.14660    9.05080    4.20930   10.44540    0.09830
 8707.00000    9.93080   10.41120   11.42930    0.01580   63.74430  118.53000    9.05080    4.17000   10.29890    0.09370
 8707.50000    9.88460   10.41180   11.78410    0.01890   63.97610  118.16780    9.00560    4.16760   10.15240    0.09040
 8708.00000    9.47040   10.36310   11.78500    0.02120   64.02300  118.38910    8.94540    4.17930   10.00600    0.09240
 8708.50000    9.17520   10.20070   11.12210    0.02300   64.02300  118.63020    8.95220    4.23570    9.85950    0.09770
 8709.00000    8.73070   10.12180   10.20290    0.02240   64.11980  119.10450    8.95910    4.26470    8.43460    0.10630
 8709.50000    8.38160   10.04280    9.56020    0.02360   64.34750  119.57870    8.96600    4.28590    8.60160    0.11230
 8710.00000    8.44850    9.96390    9.35080    0.02630   64.36360  119.87490    8.97280    4.33090    8.10650    0.11370
 8710.50000    8.56210    9.88490    9.29210    0.02850   64.37970  120.58540    8.97030    4.33990    7.84750    0.11300
