~Version ---------------------------------------------------
VERS.   2.0 : CWLS log ASCII Standard -VERSION 2.0
WRAP.    NO : One line per depth step
DLM . SPACE : Column Data Section Delimiter
~Well ------------------------------------------------------
STRT .FT                 65.0 : START DEPTH
STOP .FT               9444.0 : STOP DEPTH
STEP .FT                  0.5 : STEP
NULL .               -9999.25 : NULL VALUE
COMP .                        : COMPANY
WELL .                        : WELL
FLD  .                        : FIELD
LOC  .                        : LOCATION
PROV .                        : PROVINCE
CNTY .                        : COUNTY
STAT .                        : STATE
CTRY .                        : COUNTRY
SRVC .                        : SERVICE COMPANY
DATE .                        : DATE
UWI  .                        : UNIQUE WELL ID
API  .                        : API NUMBER
SLAT .WGS84    6.466453497505 : SURFACE LATITUDE
SLON .WGS84 3.614651016597719 : SURFACE LONGITUDE
DATUM.F                   nan : DEPTH DATUM ELEV
~Curve Information -----------------------------------------
DEPT   .FT    : 
AT10   .OHMM  : ARRAY INDUCTION TWO FOOT RESISTIVITY A10
AT30   .OHMM  : ARRAY INDUCTION TWO FOOT RESISTIVITY A30
AT90   .OHMM  : ARRAY INDUCTION TWO FOOT RESISTIVITY A90
DPHZ_LS.DEC   : HGRD STANDARD RESOLUTION DENSITY POROSITY
DTCO   .US/F  : DELTA-T COMPRESSIONAL
DTSM   .US/F  : DELTA-T SHEAR
HCALR  .IN    : HRCC CALIPER CALIBRATED FROM RESISTIVITY LOG
PEFZ   .B/E   : HRDD STANDARD RESOLUTION FORMATION PHOTOELECTRIC FACTOR
SPR    .MV    : SPONTANEOUS POTENTIAL FROM RESISTIVITY LOG
TNPH_LS.DEC   : THERMAL NEUTRON POROSITY [LIMESTONE]
~Params ----------------------------------------------------
~Other -----------------------------------------------------
~ASCII -----------------------------------------------------
# ...
 8414.00000    4.33120    4.51480    4.69170    0.04540   71.28410  143.88250    9.15560    4.21020    9.81690    0.16730
 8414.50000    4.19670    4.37130    4.55150    0.04880   71.66830  145.10620    9.15970    4.21000    9.60940    0.17100
 8415.00000    4.10320    4.27350    4.46060    0.04870   72.47060  146.49510    9.16430    4.17360    9.60940    0.16950
 8415.50000    4.02700    4.27390    4.39780    0.04700   72.84690  147.88240    9.16990    4.13720    9.60940    0.16920
 8416.00000    3.97370    4.19460    4.39810    0.04850   73.01330  148.93020    9.17200    4.10810    9.60940    0.16810
 8416.50000    3.92750    4.15580    4.39920    0.05660   73.68180  150.17550    9.17760    4.11790    9.62900    0.17100
 8417.00000    3.70790    4.07830    4.15340    0.05680   74.15590  151.33220    9.16520    4.14010    9.81500    0.18000
 8417.50000    3.25050    3.40700    3.64140    0.05730   74.43640  152.63360    9.15830    4.15770    9.27660    0.18640
 8418.00000    3.50700    3.56330    3.71530    0.05560   75.30590  154.01790    9.17320    4.09960    8.73820    0.19210
 8418.50000    3.54080    3.67630    3.89180    0.06060   75.92670  155.26120    9.21770    4.05090    8.00700    0.19780
 8419.00000    3.44370    3.58820    3.80520    0.05950   76.34660  156.80170    9.26480    4.00980    7.59890    0.20900
 8419.50000    3.19980    3.36700    3.55390    0.05950   77.09270  158.65530    9.29030    4.01420    7.60670    0.21900
 8420.00000    3.01570    3.14570    3.30250    0.05700   77.58880  160.30770    9.28960    4.03500    7.60670    0.22310
 8420.50000    2.98760    3.10160    3.22200    0.05510   77.91510  161.92370    9.28880    4.07590    7.61520    0.22510
 8421.00000    2.98760    3.10830    3.22220    0.05010   78.94240  162.04580    9.28810    4.11260    7.41590    0.22170
 8421.50000    2.98760    3.11860    3.23200    0.04710   79.65040  161.67500    9.28740    4.14940    7.83120    0.22070
 8422.00000    2.98890    3.12890    3.27780    0.04540   79.34530  162.96130    9.28670    4.16090    7.66020    0.21520
 8422.50000    2.93330    3.19320    3.32360    0.04870   79.17910  162.15120    9.28590    4.09040    7.52400    0.21260
 8423.00000    3.07740    3.22620    3.36950    0.05370   79.30410  161.37440    9.28520    3.99580    7.50580    0.20850
 8423.50000    3.16520    3.25910    3.41530    0.05960   78.90420  160.92490    9.28450    3.92010    7.48760    0.20860
 8424.00000    3.19560    3.29200    3.46120    0.06020   78.38780  160.62020    9.28380    3.93580    7.46940    0.20480
 8424.50000    3.25740    3.35750    3.52090    0.06150   77.98650  159.27910    9.28040    4.00080    6.70420    0.20060
 8425.00000    3.41040    3.55290    3.72720    0.06320   77.05700  157.94800    9.27620    4.06250    7.46540    0.19690
 8425.50000    3.56340    3.74840    3.93340    0.06060   76.79880  156.43630    9.27200    4.11880    6.69440    0.19320
 8426.00000    3.72120    3.85790    4.00070    0.05320   76.24250  155.14630    9.26770    4.11490    6.68170    0.18350
 8426.50000    3.75700    3.93580    4.04400    0.04570   75.36250  154.05130    9.26350    4.11110    6.66910    0.17980
 8427.00000    3.75760    4.01380    4.08720    0.04430   74.85270  153.37320    9.25930    4.10720    6.65640    0.17270
 8427.50000    3.75820    4.01430    4.13050    0.04500   74.65480  152.88620    9.25880    4.11570    5.94920    0.17110
 8428.00000    3.75840    4.01500    4.17050    0.04950   75.39030  152.00950    9.26520    4.16720    6.15480    0.17120
 8428.50000    3.75840    3.95350    4.17110    0.05380   74.91650  151.96430    9.27160    4.18060    6.06370    0.17310
 8429.00000    3.74550    3.89360    4.13570    0.05460   74.42170  152.74610    9.27790    4.17120    6.12720    0.17540
 8429.50000    3.67380    3.83370    4.09140    0.05160   74.03060  152.57910    9.28430    4.11310    6.19070    0.17770
 8430.00000    3.60200    3.77370    4.05610    0.04860   74.01520  153.81110    9.27970    4.06730    6.25420    0.17680
 8430.50000    3.53030    3.71380    3.90580    0.04930   74.40890  153.77050    9.25000    4.06720    6.07160    0.17580
 8431.00000    3.48750    3.74300    3.96010    0.05260   74.58690  152.89670    9.22030    4.10410    6.75090    0.17640
 8431.50000    3.58860    3.86970    4.04310    0.05390   74.08050  149.79880    9.20680    4.12610    6.79360    0.17380
 8432.00000    3.81750    4.00300    4.12600    0.05600   72.99780  146.64680    9.19880    4.19110    6.54810    0.17200
 8432.50000    4.04640    4.13630    4.35830    0.05600   72.74090  144.53210    9.18800    4.25600    5.55970    0.16810
 8433.00000    4.33930    4.58820    4.81450    0.05040   71.54230  138.60080    9.19130    4.33330    5.01880    0.16220
 8433.50000    4.84890    5.93600    6.61340    0.04060   70.63420  135.76120    9.19930    4.60270    4.02660    0.14790
 8434.00000    6.64790    7.88100    9.17170    0.03930   69.08060  133.39350    9.20730    5.00540    4.87370    0.12790
 8434.50000    6.00450    7.88260    8.83040    0.04210   66.96890  131.11520    9.21050    5.22810    4.87960    0.10400
 8435.00000    4.55110    5.50010    7.11800    0.04910   64.88580  127.60880    9.51720    5.37330    4.66460    0.10230
 8435.50000    5.10680    4.95650    7.72270    0.04810   64.81340  127.17050    9.73620    5.39390    4.44970    0.13130
 8436.00000    6.05070    4.86430    8.03740    0.05210   63.18380  128.74380    9.69990    5.43880    4.23470    0.17300
 8436.50000    5.37510    6.04930    8.58970    0.05810   63.28650  130.97830    9.51760    5.49350    4.01970    0.16870
 8437.00000    4.15250    5.10160    5.77100    0.08660   62.08760  132.70870    9.79690    5.49450    3.95320    0.17410
 8437.50000    3.46140    4.26200    4.95680    0.13770   71.50770  134.21520   10.13090    5.48230    3.68220    0.21270
 8438.00000    3.21030    4.01330    4.38580    0.17480   78.57270  135.69440   10.21860    5.40700    3.79770    0.27150
 8438.50000    3.09040    3.73370    3.99000    0.18010   80.37320  152.05960    9.79190    5.31500    3.91310    0.29540
 8439.00000    2.93010    3.35670    3.80600    0.17030   82.09240  160.35780   10.14230    5.25650    3.75990    0.29000
 8439.50000    2.56010    2.92920    3.26910    0.14310   84.26090  162.64770   10.02640    5.30600    2.66050    0.29640
 8440.00000    2.88360    3.18880    4.04360    0.09890   85.91500  165.69730    9.89090    5.38620    3.18410    0.31150
 8440.50000    4.98720    5.25120    6.61930    0.06020   84.38150  167.38940    9.37670    5.46640    3.70760    0.25850
 8441.00000    5.51200    6.45350    8.04950    0.05270   86.25430  169.31120    9.57930    5.52630    4.23120    0.18990
 8441.50000    5.05810    6.29240    6.72450    0.06820   82.06820  164.79770    9.92700    5.43970    4.75470    0.19210
 8442.00000    5.43280    7.43250    8.05190    0.07610   77.51500  160.22410    9.38810    5.26770    5.27830    0.18610
 8442.50000    6.42010    7.60750    8.43220    0.06860   72.16020  151.93110    9.38640    5.06930    6.18840    0.14840
 8443.00000    6.43640    7.05330    8.85470    0.05230   71.36890  148.66090    9.30090    4.91960    6.44980    0.12220
 8443.50000    5.63940    7.12140    8.44630    0.03500   71.18170  143.94270    9.15870    4.85970    6.19820    0.11290
 8444.00000    4.94940    6.79290    7.19100    0.02870   70.00730  140.67100    9.19170    4.83370    6.47250    0.12740
 8444.50000    5.13680    6.66650    6.99050    0.02240   68.32200  137.68440    9.36700    4.86450    6.28500    0.12180
 8445.00000    6.66980    6.96170    7.51520    0.02110   65.65020  136.72200    9.00600    4.90160    6.21000    0.09800
 8445.50000    7.44720    8.32040    8.58410    0.02740   64.26920  130.06700    8.97090    4.97750    6.76700    0.07580
 8446.00000    8.94940   11.13910   10.27300    0.03120   62.86360  126.50630    8.99240    5.00320    7.72380    0.06510
 8446.50000   10.61490   13.95770   13.47000    0.01530   61.45800  124.32440    9.01380    4.99830    8.06590    0.06050
